~VERSION INFORMATION
 VERS.                2.0:   CWLS LOG ASCII STANDARD - VERSION 2.0
 WRAP.                 NO:   ONE LINE PER DEPTH STEP
~WELL INFORMATION
#MNEM.UNIT      DATA TYPE    INFORMATION
#----------   ------------   ------------------------------
 STRT.F           39.0000:   START DEPTH
 STOP.F          478.0000:   STOP DEPTH
 STEP.F            0.5000:   STEP LENGTH
 NULL.          -999.2500:   NO VALUE
 COMP. FENIX & SCISSON, INC.:   COMPANY
 WELL.  S-3 NPR #3 #46S-3:   WELL
 FLD .              NPR-3:   FIELD
 LOC .       S3 T38N R78W:   LOCATION
 CNTY.            NATRONA:   COUNTY
 STAT.            WYOMING:   STATE
 CTRY. UNITED STATES OF AMERICA:   COUNTRY
 SRVC.      Dresser Atlas:   SERVICE COMPANY
 DATE.        28-MAR-1977:   LOGDATE
 API .       490251034100:   API NUMBER
~CURVE INFORMATION
#MNEM.UNIT       API CODE    CURVE DESCRIPTION
#----------   ------------   ------------------------------
 DEPT.F                  :   
 ILD .OHMM   07 120 46 00:   INDUCTION LOG DEEP
 ILM .OHMM   07 120 44 00:   INDUCTION LOG MEDIUM
 SFL .OHMM   07 220 01 00:   SHALLOW FOCUSED LOG RESISTIVITY
 SPR .MV     07 010 01 00:   SPONTANEOUS POTENTIAL
 CALD.IN     45 280 60 00:   CALIPER FROM DENSITY LOG
 GRD .GAPI   45 310 01 00:   GAMMA RAY FROM DENSITY LOG
 DPHI.DEC    45 890 12 00:   DENSITY POROSITY SANDSTONE
 RHOB.G/C3   45 350 01 00:   BULK DENSITY
 DRHO.G/C3   45 356 01 00:   DENSITY CORRECTION
~PARAMETER INFORMATION
#MNEM.UNIT          VALUE    DESCRIPTION
#----------   ------------   ------------------------------
 PD  .                 GL:   PERMANENT DATUM
 EPD .F              5186:   ELEVATION PERMANENT DATUM
 LMF .                 KB:   LOG MEASURED FROM
 DAPD.F                 3:   FEET ABOVE PERMANENT DATUM
 DMF .                 KB:   DRILLING MEASURED FROM
 EKB .F              5189:   KELLING BUSHING
 EGL .F              5186:   GROUND LEVEL
 DATE.        28-MAR-1977:   RUN DATE
 RUN .                  1:   RUN NUMBER
 DD  .F               480:   DEPTH DRILLER
 DL  .F               480:   DEPTH LOGGER
 BLI .F               478:   BOTTOM LOG INTERVAL
 TLI .F                40:   TOP LOG INTERVAL
 CS  .IN            8.625:   CASING SIZE
 CBD .F                40:   CASING BOTTOM DRILLER
 CBL .F                40:   CASING BOTTOM LOGGER
 BS  .IN            7.875:   BIT SIZE
 BSD .F               480:   BIT SIZE AT DEPTH
 DFT .           CHEM GEL:   DRILLING FLUID TYPE
 DFD .                8.9:   DRILLING FLUID DENSITY
 DFV .                 39:   DRILLING FLUID VISCOSITY
 DFPH.                 11:   DRILLING FLUID PH
 DFL .                 16:   DRILLING FLUID LOSS
 MSS .           FLOWLINE:   MUD SAMPLE SOURCE
 RMS .OHMM           0.41:   RESISTIVITY MUD SAMPLE
 MST .F                40:   MUD SAMPLE TEMPERATURE
 RMF .OHMM           0.29:   RESISTIVITY MUD FILTRATE SAMPLE
 MFST.F                62:   MUD FILTRATE SAMPLE TEMPERATURE
 RMC .OHMM           0.28:   RESISTIVITY MUD CAKE
 MCST.F                62:   MUD CAKE SAMPLE TEMPERATURE
 MFSS.               MEAS:   MUD FILTRATE SAMPLE SOURCE
 MCSS.               MEAS:   MUD CAKE SAMPLE SOURCE
 RMB .OHMM           0.26:   RESISTIVITY MUD AT BHT
 BHT .F                62:   BOTTOM HOLE TEMPERATURE
 TCS .HRS               6:   TIME CURCULATED STOPPED
 MRT .F                62:   MAXIMUM RECORDED TEMPERATURE
 LUN .               6145:   LOGGING UNIT NUMBER
 LUL .              GLTTE:   LOGGING UNIT LOCATION
 ENGI.              RANCK:   RECORDING ENGINEER
 WITN.     MR. STUEBINGER:   WITNESSED BY
 CLNT.            A2DTECH:   CLIENT CODE
 ORIG.           5" PRINT:   ORIGIN OF DATA
 UWI .       490251034100:   UNIQUE WELL ID
 DICO. A2D Technologies, Inc.:   DIGITIZING COMPANY
~OTHER INFORMATION
~A   DEPT      ILD        ILM        SFL        SPR       CALD         GRD      DPHI       RHOB       DRHO   
# ...
  258.0000     7.1639     7.3445     8.6040   -34.9480     7.9440   103.5711     0.0855     2.5138     0.0829
  258.5000     7.1869     7.4551     8.6712   -34.9276     7.9310   105.8405     0.0928     2.5049     0.0890
  259.0000     7.1921     7.6204     8.8380   -34.9069     7.9170   107.3570     0.1011     2.4893     0.0937
  259.5000     7.1965     7.8441     8.9818   -34.8859     7.8560   107.3788     0.1101     2.4683     0.0953
  260.0000     7.2019     7.9067     8.9885   -35.0164     7.7586   106.8027     0.1206     2.4422     0.0908
  260.5000     7.2076     8.0257     8.9328   -34.9908     7.6561   106.3752     0.1296     2.4220     0.0852
  261.0000     7.2125     7.9774     8.7545   -35.1256     7.5686   106.9957     0.1358     2.4146     0.0794
  261.5000     7.2166     8.0143     8.6398   -35.2554     7.4960   107.9148     0.1406     2.4109     0.0765
  262.0000     7.2217     8.0734     8.5282   -35.2298     7.4384   108.0910     0.1442     2.4079     0.0752
  262.5000     7.2271     8.1325     8.5346   -35.3604     7.4105   108.7106     0.1472     2.4044     0.0753
  263.0000     7.2320     8.1916     8.6608   -35.3391     7.3976   109.6293     0.1501     2.4022     0.0755
  263.5000     7.1865     8.2506     8.7889   -35.4775     7.4146   109.9500     0.1477     2.4105     0.0742
  264.0000     7.1915     8.3097     9.0440   -35.7486     7.4342   109.9718     0.1380     2.4211     0.0743
  264.5000     7.1392     8.3688     9.5031   -35.8732     7.4938   110.5914     0.1326     2.4295     0.0715
  265.0000     6.9557     8.4144     9.7789   -36.0080     7.5555   111.3606     0.1277     2.4386     0.0687
  265.5000     6.6752     8.1785    10.0629   -36.1378     7.6173   111.8391     0.1217     2.4507     0.0599
  266.0000     6.5873     7.9119    10.1426   -36.2624     7.6686   111.2038     0.1157     2.4645     0.0465
  266.5000     6.1051     7.0787     9.8712   -36.2419     7.7407   109.3387     0.1089     2.4839     0.0332
  267.0000     5.3887     5.8234     9.6071   -36.2215     7.8025   109.9584     0.1036     2.4869     0.0214
  267.5000     5.0291     5.2467     9.0930   -36.3514     7.8493   111.3254     0.1077     2.4780     0.0125
  268.0000     4.8264     4.9296     7.1806   -36.4809     7.8675   112.2440     0.1203     2.4249     0.0034
  268.5000     4.6284     4.7631     5.3629   -36.3052     7.8989   113.3121     0.1359     2.3694    -0.0051
  269.0000     4.7008     5.5288     4.9590   -35.9844     7.9152   114.0967     0.1695     2.3463    -0.0139
  269.5000     4.9392     7.2122     7.1966   -35.8139     7.9194   113.5012     0.1812     2.3411    -0.0228
  270.0000     5.2627     7.5192    10.8508   -35.7934     7.9346   110.9767     0.1694     2.3787    -0.0166
  270.5000     5.8877     8.0126    11.9855   -35.7730     7.9364   103.0908     0.1367     2.4385     0.0045
  271.0000     6.4507     8.8422    10.8818   -35.7525     7.9386   100.8704     0.1128     2.4839     0.0137
  271.5000     7.5778     9.5551    10.2996   -35.7321     7.9407   100.1393     0.0849     2.5028     0.0123
  272.0000     8.1305     9.9706    10.0922   -35.7116     7.9427   100.7644     0.0822     2.5111     0.0110
  272.5000     8.6109    10.4773    10.0296   -35.6907     7.9448   101.3841     0.0801     2.5149     0.0142
  273.0000     9.1039    10.6313     9.9674   -35.6656     7.9318   100.0606     0.0782     2.5180     0.0174
  273.5000     9.2380    10.6380    10.0464   -35.6452     7.9344    99.4722     0.0761     2.5211     0.0205
  274.0000     9.6392    10.6459    10.1242   -35.6248     7.9361   101.7768     0.0758     2.5227     0.0251
  274.5000    10.0578    11.0315    10.2740   -35.6043     7.9341    99.6829     0.0793     2.5167     0.0283
  275.0000    10.4945    11.6734    10.5725   -35.4337     7.9254    96.4162     0.0820     2.5131     0.0315
  275.5000    10.8742    12.7923    11.1109   -35.1130     7.9276    95.3916     0.0854     2.5102     0.0339
  276.0000    11.8312    14.5172    12.0048   -34.6421     7.9298    94.0681     0.0915     2.5066     0.0364
  276.5000    13.0581    16.2459    14.2003   -34.0210     7.9316    87.6624     0.0993     2.4969     0.0395
  277.0000    14.1620    18.0537    21.8884   -33.6817     7.9338    81.8545     0.1083     2.4790     0.0412
  277.5000    16.1145    19.1359    27.5669   -33.2243     7.9362    73.0572     0.1214     2.4476     0.0428
  278.0000    17.4108    20.7925    30.6265   -32.7534     7.9230    65.1949     0.1298     2.4056     0.0430
  278.5000    18.6806    21.6968    32.1811   -32.4327     7.9099    57.0040     0.1406     2.3892     0.0401
  279.0000    21.1929    22.3259    32.8963   -32.2621     7.8970    55.3347     0.1649     2.3677     0.0343
  279.5000    22.5806    23.1345    33.1399   -32.3969     7.8697    58.9494     0.1863     2.3354     0.0255
  280.0000    23.5612    24.1406    30.2986   -32.6768     7.8414    61.3628     0.2104     2.2980     0.0150
  280.5000    23.9083    24.6675    29.6940   -32.6512     7.7991    63.7762     0.2434     2.2651     0.0048
  281.0000    23.9245    23.8344    30.1331   -32.6306     7.8012    66.3391     0.2455     2.2524    -0.0010
  281.5000    22.6457    23.0294    31.4429   -32.6096     7.8033    68.0051     0.2458     2.2442    -0.0068
  282.0000    22.1882    23.2088    32.8096   -32.4346     7.8058    68.7743     0.2463     2.2413    -0.0082
  282.5000    22.3623    23.2230    32.3797   -32.1139     7.7924    68.3084     0.2442     2.2384    -0.0080
  283.0000    22.3775    23.4002    30.8615   -31.9433     7.7501    67.4779     0.2409     2.2544    -0.0078
  283.5000    22.2371    23.7443    29.4072   -31.6225     7.7074    66.9018     0.2291     2.2698    -0.0062
  284.0000    21.6401    23.9255    29.2320   -31.6021     7.6497    66.0267     0.2243     2.2792    -0.0060
  284.5000    20.1964    23.4431    30.0862   -31.5817     7.5920    65.1516     0.2224     2.2793    -0.0089
  285.0000    19.0962    23.1316    28.8760   -31.8615     7.5194    64.2765     0.2206     2.2809    -0.0117
  285.5000    18.3460    22.6513    28.2945   -31.8408     7.4448    63.5509     0.2179     2.2847    -0.0145
  286.0000    18.1012    22.0568    30.1536   -31.9708     7.3421    65.8184     0.2100     2.2983    -0.0143
  286.5000    17.8656    21.6087    30.8134   -32.2455     7.2867    68.8297     0.1944     2.3299    -0.0082
  287.0000    17.8777    20.7366    30.1986   -32.3804     7.4534    71.0937     0.1526     2.3480    -0.0050
  287.5000    18.5245    19.8966    28.7826   -32.5050     7.6794    72.7597     0.1441     2.3580    -0.0034
  288.0000    19.1947    19.2217    30.2438   -33.0851     7.7709    74.8741     0.1411     2.3647    -0.0047
  288.5000    19.8891    20.4861    31.1223   -33.6653     7.8178    76.3906     0.1380     2.3685    -0.0075
  289.0000    21.5012    22.2931    32.2548   -34.2454     7.8347    75.2088     0.1352     2.3761    -0.0118
  289.5000    22.7610    23.9880    34.1291   -34.3754     7.8517    73.4016     0.1278     2.4032    -0.0102
  290.0000    23.2373    25.6751    44.8179   -34.3544     7.8537    71.2297     0.1169     2.4528     0.0020
  290.5000    23.4158    25.3339    70.0521   -34.1790     7.8562    69.6072     0.1064     2.4814     0.0141
  291.0000    23.2688    24.3077    96.5891   -34.0084     7.8732    69.0256     0.0943     2.5078     0.0263
  291.5000    22.6441    23.6516   111.8903   -33.9880     7.9051    69.8002     0.0880     2.5304     0.0339
  292.0000    22.1867    23.3338    54.6345   -33.6672     7.8922    71.1673     0.0943     2.5205     0.0386
  292.5000    21.7458    23.0272    32.1658   -33.4966     7.8788    73.2817     0.1108     2.4668     0.0387
  293.0000    21.4592    22.7213    27.4282   -33.3260     7.8510    75.9941     0.1391     2.3904     0.0270
  293.5000    21.0953    21.8009    27.0920   -33.3056     7.8385    77.5272     0.1719     2.3394     0.0151
  294.0000    20.6114    20.9210    31.1717   -33.1350     7.8107    77.9808     0.1947     2.3065     0.0063
