~VERSION INFORMATION
 VERS.                2.0:   CWLS LOG ASCII STANDARD - VERSION 2.0
 WRAP.                 NO:   ONE LINE PER DEPTH STEP
~WELL INFORMATION
#MNEM.UNIT      DATA TYPE    INFORMATION
#----------   ------------   ------------------------------
 STRT.F            0.0000:   START DEPTH
 STOP.F          504.0000:   STOP DEPTH
 STEP.F            0.5000:   STEP LENGTH
 NULL.          -999.2500:   NO VALUE
 COMP.   FLUOR DANIEL INC:   COMPANY
 WELL. NAVAL PETROLEUM RESERVE 3 SX-1 #3-10:   WELL
 FLD .          N.P.R. #3:   FIELD
 LOC .      S10 T38N R78W:   LOCATION
 CNTY.            NATRONA:   COUNTY
 STAT.            WYOMING:   STATE
 CTRY. UNITED STATES OF AMERICA:   COUNTRY
 SRVC.      Western Atlas:   SERVICE COMPANY
 DATE.        22-SEP-1994:   LOGDATE
 API .       490252265600:   API NUMBER
~CURVE INFORMATION
#MNEM.UNIT       API CODE    CURVE DESCRIPTION
#----------   ------------   ------------------------------
 DEPT.F                  :   
 GRR .GAPI   07 310 01 00:   GAMMA RAY FROM RES. LOG.
 RILD.OHMM   07 120 46 00:   INDUCTION LOG DEEP RESISTIVITY
 RILM.OHMM   07 120 44 00:   INDUCTION LOG MEDIUM RESISTIVITY
~PARAMETER INFORMATION
#MNEM.UNIT          VALUE    DESCRIPTION
#----------   ------------   ------------------------------
 PD  .                 GL:   PERMANENT DATUM
 EPD .F              5168:   ELEVATION PERMANENT DATUM
 LMF .                 KB:   LOG MEASURED FROM
 DAPD.F                10:   FEET ABOVE PERMANENT DATUM
 DMF .                 KB:   DRILLING MEASURED FROM
 EKB .F              5178:   KELLING BUSHING
 EDF .F              5177:   DRILLING FLOOR
 EGL .F              5168:   GROUND LEVEL
 DATE.        22-SEP-1994:   RUN DATE
 RUN .                  1:   RUN NUMBER
 DD  .F               510:   DEPTH DRILLER
 DL  .F               512:   DEPTH LOGGER
 BLI .F               504:   BOTTOM LOG INTERVAL
 CS  .IN            9.625:   CASING SIZE
 CBD .F                55:   CASING BOTTOM DRILLER
 CBL .F                55:   CASING BOTTOM LOGGER
 BS  .IN             8.75:   BIT SIZE
 BSD .F               510:   BIT SIZE AT DEPTH
 DFT .                AIR:   DRILLING FLUID TYPE
 MRT .F                83:   MAXIMUM RECORDED TEMPERATURE
 LUN .            HL 6530:   LOGGING UNIT NUMBER
 LUL .             CASPER:   LOGGING UNIT LOCATION
 ENGI.      PAT RASMUSSEN:   RECORDING ENGINEER
 WITN.        GARY STRONG:   WITNESSED BY
 CLNT.            A2DTECH:   CLIENT CODE
 ORIG.           5" PRINT:   ORIGIN OF DATA
 UWI .       490252265600:   UNIQUE WELL ID
 DICO. A2D Technologies, Inc.:   DIGITIZING COMPANY
~OTHER INFORMATION
~A    DEPT      GRR      RILD       RILM   
# ...
  455.0000   116.4290     8.8520     9.0170
  455.5000   119.1887     8.1568     8.2945
  456.0000   120.6549     7.3948     7.5024
  456.5000   121.3031     6.7045     6.7860
  457.0000   121.3208     6.1169     6.1379
  457.5000   122.6186     5.7646     5.5518
  458.0000   129.2416     5.6413     5.3867
  458.5000   136.2670     5.5894     5.4871
  459.0000   143.3719     5.6708     5.8673
  459.5000   145.6597     5.7297     6.3576
  460.0000   138.0338     5.7892     6.8889
  460.5000   129.9195     6.3270     7.4646
  461.0000   121.8357     7.0341     8.0885
  461.5000   113.6814     7.8202     8.7644
  462.0000   110.7501     8.6942     9.4636
  462.5000   113.9276     9.6690     9.9339
  463.0000   117.8154     9.9762    10.1166
  463.5000   119.3411    10.1673    10.2518
  464.0000   117.3922    10.2840    10.3883
  464.5000   114.9824    10.4730    10.5291
  465.0000   114.4333    10.5730    10.7335
  465.5000   114.9580    10.8235    10.9800
  466.0000   115.4658    11.0607    11.2301
  466.5000   118.0272    11.3032    11.4860
  467.0000   120.4737    11.5512    11.7479
  467.5000   122.3130    11.8029    12.0140
  468.0000   123.3658    12.0524    12.2773
  468.5000   123.2412    12.1990    12.4259
  469.0000   120.9160    12.3500    12.5804
  469.5000   118.5777    12.5029    12.7360
  470.0000   117.4669    12.6576    12.8937
  470.5000   117.8445    12.8142    13.0532
  471.0000   117.9246    12.9737    13.2157
  471.5000   116.7424    13.1070    13.3507
  472.0000   114.3011    13.1943    13.4406
  472.5000   111.9528    13.2821    13.5301
  473.0000   111.6613    13.3706    13.6197
  473.5000   111.4381    13.4435    13.6942
  474.0000   110.4802    13.4057    13.6557
  474.5000   109.6730    13.3738    13.6232
  475.0000   110.1323    13.3420    13.5908
  475.5000   111.7136    13.3102    13.5584
  476.0000   113.2515    13.2786    13.5262
  476.5000   114.8204    13.2470    13.4940
  477.0000   115.4750    13.2154    13.4619
  477.5000   116.0329    13.1840    13.4298
  478.0000   112.7790    13.1526    13.3979
  478.5000   109.1609    13.1213    13.3660
  479.0000   106.3018    13.0900    13.3342
  479.5000   109.1579    13.0589    13.3024
  480.0000   111.9780    13.0278    13.2707
  480.5000   114.7562    12.9968    13.2392
  481.0000   114.5388    12.9659    13.2077
  481.5000   115.1831    12.8429    13.0195
  482.0000   115.9555    12.6773    12.7600
  482.5000   115.2421    12.5137    12.5056
  483.0000   115.2676    12.3523    12.2563
  483.5000   117.4982    12.1930    12.0126
  484.0000   119.1972    12.0357    11.7725
  484.5000   117.6131    11.8804    11.6142
  485.0000   115.0945    11.7272    11.4890
  485.5000   114.6776    11.5759    11.3650
  486.0000   115.7598    11.4266    11.2425
  486.5000   119.3943    11.2792    11.1213
  487.0000   123.1382    11.1337    11.0014
  487.5000   125.9314    10.9901    10.8827
  488.0000  -999.2500    10.8537    10.7654
  488.5000  -999.2500    10.7480    10.6493
  489.0000  -999.2500    10.6434    10.5344
  489.5000  -999.2500    10.5398    10.4208
  490.0000  -999.2500    10.4372    10.3084
  490.5000  -999.2500    10.3356    10.1973
  491.0000  -999.2500    10.2350    10.0873
  491.5000  -999.2500    10.1353     9.9785
  492.0000  -999.2500    10.0366     9.8709
  492.5000  -999.2500     9.9389     9.7645
  493.0000  -999.2500     9.8421     9.6592
  493.5000  -999.2500     9.7467     9.5550
  494.0000  -999.2500     9.6439     9.4520
  494.5000  -999.2500     9.5412     9.3500
  495.0000  -999.2500     9.4394     9.2492
  495.5000  -999.2500     9.3387     9.1495
  496.0000  -999.2500     9.2391     9.0508
  496.5000  -999.2500     9.1406     8.9532
  497.0000  -999.2500     9.0431     8.8567
  497.5000  -999.2500     8.9466     8.7612
  498.0000  -999.2500     8.8512     8.6667
  498.5000  -999.2500     8.7568     8.5732
  499.0000  -999.2500     8.5995     8.4808
  499.5000  -999.2500     8.3796     8.1980
  500.0000  -999.2500     8.1642     7.9018
  500.5000  -999.2500     7.9548     7.6163
  501.0000  -999.2500     7.7508     7.3411
  501.5000  -999.2500  -999.2500     7.1069
  502.0000  -999.2500  -999.2500     7.1069
  502.5000  -999.2500  -999.2500     7.3764
  503.0000  -999.2500  -999.2500     7.5873
  503.5000  -999.2500  -999.2500     7.8040
  504.0000  -999.2500  -999.2500     8.0267
