~VERSION INFORMATION
 VERS.                2.0:   CWLS LOG ASCII STANDARD - VERSION 2.0
 WRAP.                 NO:   ONE LINE PER DEPTH STEP
~WELL INFORMATION
#MNEM.UNIT      DATA TYPE    INFORMATION
#----------   ------------   ------------------------------
 STRT.F          100.0000:   START DEPTH
 STOP.F          780.0000:   STOP DEPTH
 STEP.F            0.5000:   STEP LENGTH
 NULL.          -999.2500:   NO VALUE
 COMP. U S NAVY-INTEX OIL:   COMPANY
 WELL.        NPR #34-S-2:   WELL
 FLD .             TEAPOT:   FIELD
 LOC .       S2 T38N R78W:   LOCATION
 CNTY.            NATRONA:   COUNTY
 STAT.            WYOMING:   STATE
 CTRY. UNITED STATES OF AMERICA:   COUNTRY
 SRVC.       Schlumberger:   SERVICE COMPANY
 DATE.        16-JUL-1962:   LOGDATE
 API .       490250644000:   API NUMBER
~CURVE INFORMATION
#MNEM.UNIT       API CODE    CURVE DESCRIPTION
#----------   ------------   ------------------------------
 DEPT.F                  :   
 ASN .OHMM   05 041 16 00:   AMPLIFIED SHORT NORMAL 16"
 CILD.MMHO   05 110 46 00:   CONDUCTIVITY INDUCTION LOG DEEP
 ILD .OHMM   05 120 46 00:   INDUCTION LOG DEEP
 SPR .MV     05 010 01 00:   SPONTANEOUS POTENTIAL FROM RES.
 CALM.IN     15 280 01 00:   CALIPER FROM MICRO LOG
 GR  .GAPI   30 310 01 00:   GAMMA RAY
~PARAMETER INFORMATION
#MNEM.UNIT          VALUE    DESCRIPTION
#----------   ------------   ------------------------------
 LMF .                 KB:   LOG MEASURED FROM
 DMF .                 KB:   DRILLING MEASURED FROM
 EKB .F              5130:   KELLING BUSHING
 EGL .F              5125:   GROUND LEVEL
 DATE.        16-JUL-1962:   RUN DATE
 RUN .                  1:   RUN NUMBER
 DD  .F               780:   DEPTH DRILLER
 DL  .F               781:   DEPTH LOGGER
 BLI .F               780:   BOTTOM LOG INTERVAL
 TLI .F               100:   TOP LOG INTERVAL
 CBD .F                10:   CASING BOTTOM DRILLER
 BS  .IN             6.75:   BIT SIZE
 BSD .F               780:   BIT SIZE AT DEPTH
 DFT .       OIL EMULSION:   DRILLING FLUID TYPE
 DFD .               10.3:   DRILLING FLUID DENSITY
 DFV .                 43:   DRILLING FLUID VISCOSITY
 DFL .                4.6:   DRILLING FLUID LOSS
 RMS .OHMM              4:   RESISTIVITY MUD SAMPLE
 MST .F                82:   MUD SAMPLE TEMPERATURE
 RMF .OHMM            3.1:   RESISTIVITY MUD FILTRATE SAMPLE
 MFST.F                82:   MUD FILTRATE SAMPLE TEMPERATURE
 RMC .OHMM            4.3:   RESISTIVITY MUD CAKE
 MCST.F                82:   MUD CAKE SAMPLE TEMPERATURE
 TCS .HRS             0.5:   TIME CURCULATED STOPPED
 LUN .               2503:   LOGGING UNIT NUMBER
 LUL .               CSPR:   LOGGING UNIT LOCATION
 ENGI.           ELLERMAN:   RECORDING ENGINEER
 WITN.          JORGENSON:   WITNESSED BY
 CLNT.            A2DTECH:   CLIENT CODE
 ORIG.           5" PRINT:   ORIGIN OF DATA
 UWI .       490250644000:   UNIQUE WELL ID
 DICO. A2D Technologies, Inc.:   DIGITIZING COMPANY
~OTHER INFORMATION
~A   DEPT       ASN       CILD         ILD      SPR       CALM         GR   
# ...
  724.0000    26.8239    30.3008    26.2436   -64.4409     6.4406     3.4691
  724.5000    28.3185    29.5579    27.0692   -63.3955     6.4852     2.5641
  725.0000    28.4056    30.3156    26.5414   -62.6486     6.5448     9.6531
  725.5000    27.5708    31.2150    25.9293   -62.0504     6.5745     3.9216
  726.0000    26.7486    33.3244    25.4767   -61.4522     6.5743     1.6591
  726.5000    26.4495    34.8288    25.4090   -60.1100     6.5443     7.9940
  727.0000    26.8360    37.0817    25.1817   -58.1726     6.5143    12.2172
  727.5000    27.7421    37.8376    23.9772   -58.9137     6.4818    26.3952
  728.0000    26.4490    39.3420    21.9456   -60.2580     6.4245    38.7632
  728.5000    24.8046    40.8464    21.0419   -61.7609     6.4243    27.0666
  729.0000    23.9823    42.3507    20.2885   -62.9444     6.4391    21.8170
  729.5000    23.9822    43.8551    19.7607   -62.0262     6.4688    20.9653
  730.0000    23.9073    45.3595    19.3833   -60.6840     6.4985    29.7134
  730.5000    23.1598    47.0733    19.0811   -59.6394     6.5133    41.3273
  731.0000    22.2628    47.9840    18.9292   -59.3388     6.5281    47.2097
  731.5000    21.5152    48.3757    18.7774   -57.4014     6.5130    54.9020
  732.0000    20.8424    49.9402    18.4751   -56.6551     6.5427    41.7798
  732.5000    20.7676    51.8090    18.0225   -57.3955     6.5724    35.1433
  733.0000    20.5432    53.0288    17.5699   -57.6909     6.5872    42.0814
  733.5000    20.0946    55.1436    17.1142   -57.8368     6.6020    44.9520
  734.0000    19.5713    55.1510    16.6587   -57.3867     6.6317    46.5909
  734.5000    19.1200    55.9069    16.2661   -56.9374     6.6613    51.2821
  735.0000    18.7414    56.6628    15.8343   -56.3392     6.6761    38.0090
  735.5000    18.3628    56.6702    15.6072   -55.4434     6.6909    33.0317
  736.0000    18.0012    56.6776    15.3802   -55.1428     6.6758    41.9306
  736.5000    17.7768    56.6849    15.2283   -55.4375     6.6607    43.5897
  737.0000    17.7020    55.9420    15.1517   -55.5834     6.6158    20.9653
  737.5000    17.8512    55.9506    15.1502   -54.9108     6.5858    28.6576
  738.0000    17.9259    55.2083    15.2243   -53.0471     6.5707    34.2383
  738.5000    17.8510    55.2175    15.2976   -53.1929     6.5557    34.2383
  739.0000    17.5519    55.2249    15.2961   -54.0829     6.5555    37.7535
  739.5000    17.4022    55.1424    15.3702   -54.9728     6.5554    40.2759
  740.0000    17.6263    55.9881    15.4439   -55.7139     6.5701    64.1026
  740.5000    17.9251    56.7440    15.4421   -54.9669     6.5864    49.4721
  741.0000    17.7007    58.9970    15.4406   -54.2199     6.6444    57.1644
  741.5000    17.1774    60.5711    15.3639   -53.6218     6.6742    64.7059
  742.0000    16.8783    62.7545    15.1339   -53.0236     6.6740    54.9020
  742.5000    16.5755    65.0090    14.9022   -52.2766     6.6589    50.6787
  743.0000    16.4211    65.7648    14.6707   -51.6784     6.6588    51.5837
  743.5000    16.2668    66.5207    14.2298   -51.0803     6.6288    56.8627
  744.0000    16.1303    66.5281    14.0779   -51.0773     6.5988    59.3050
  744.5000    16.0554    66.5355    14.2272   -50.9246     6.5987    68.4766
  745.0000    15.9806    65.0459    14.5261   -50.7738     6.5985    57.9186
  745.5000    16.5036    62.8078    14.9757   -51.0685     6.5999    60.9351
  746.0000    17.0266    59.0726    15.3502   -51.0655     6.6430    67.8733
  746.5000    18.1475    54.5890    15.5747   -50.7643     6.6727    58.3710
  747.0000    19.1190    53.0975    15.6484   -50.3150     6.6875    53.2428
  747.5000    19.6420    53.1068    15.5713   -49.4192     6.6724    50.2262
  748.0000    19.7914    54.6112    15.4946   -47.9282     6.6573    36.8024
  748.5000    19.3427    56.8641    15.4180   -46.4371     6.6273    28.9593
  749.0000    18.5952    60.6140    15.2661   -45.0949     6.6122    45.8522
  749.5000    17.1003    63.6154    14.9639   -44.7944     6.5972    49.3213
  750.0000    15.9199    68.1138    14.3609   -46.2795     6.5821    36.1997
  750.5000    14.8025    71.9034    13.0632   -48.6575     6.5670    27.9035
  751.0000    14.1335    76.3216    12.1594   -49.8644     6.5668  -999.2500
  751.5000    13.6141    80.8003    11.7113   -50.1562     6.5667  -999.2500
  752.0000    13.2441    82.2854    11.4975   -49.9934     6.5516  -999.2500
  752.5000    13.0235    84.5181    11.5725   -49.8635     6.5365  -999.2500
  753.0000    12.8777    86.0028    11.4961   -49.8661     6.5364  -999.2500
  753.5000    12.6563    86.7390    11.5700   -49.8690     6.5512  -999.2500
  754.0000    12.5105    87.4751    11.5688   -49.7221     6.5660  -999.2500
  754.5000    12.4402    87.4626    11.6427   -49.7252     6.5957  -999.2500
  755.0000    12.3692    86.7016    11.6415   -49.5782     6.6104  -999.2500
  755.5000    12.3730    85.8242    11.7154   -49.7301     6.6103  -999.2500
  756.0000    12.3767    84.4287    11.7894   -50.7742     6.5653  -999.2500
  756.5000    12.3804    83.6678    11.7129   -51.6695     6.3712  -999.2500
  757.0000    12.3842    82.9070    11.7117   -51.9696     6.3412  -999.2500
  757.5000    12.3879    82.1461    11.7857   -51.8227     6.4306  -999.2500
  758.0000    12.3923    82.1357    11.7845   -51.8257     6.5797  -999.2500
  758.5000    12.3960    81.3730    11.7832   -51.9770     6.6094  -999.2500
  759.0000    12.3997    82.1122    11.7820   -52.8723     6.5794  -999.2500
  759.5000    12.4781    82.8484    11.7807   -53.4700     6.5643  -999.2500
  760.0000    12.4818    82.8330    11.8546   -53.6213     6.5493  -999.2500
  760.5000    12.4851    82.8206    11.8534   -53.4743     6.5342  -999.2500
  761.0000    12.4892    82.8094    11.8521   -52.8822     6.5191  -999.2500
  761.5000    12.4172    82.7959    11.8509   -52.1406     6.5189  -999.2500
  762.0000    12.4966    82.7836    11.9248   -50.6550     6.5039  -999.2500
  762.5000    12.5003    82.4808    11.9236   -49.0205     6.5037  -999.2500
  763.0000    12.5787    82.0104    11.9975   -47.9813     6.5036  -999.2500
  763.5000    12.5824    81.9981    11.9962   -47.0909     6.5184  -999.2500
  764.0000    12.6608    81.9857    11.9950   -46.3493     6.5481  -999.2500
  764.5000    12.6645    81.9734    12.0689   -45.9054     6.5778  -999.2500
  765.0000    12.6682    81.9611    12.0238   -45.4614     6.6075  -999.2500
  765.5000    12.6719    81.9486    11.9910   -45.3150     6.6222  -999.2500
  766.0000    12.7504    81.9361    11.9858   -45.3175     6.6370  -999.2500
  766.5000    12.7541    81.9237    11.9133   -45.6176     6.6368  -999.2500
  767.0000    12.7586    81.9112    11.9121   -46.0665     6.6367  -999.2500
  767.5000    12.7622    81.8963    11.9108   -46.5154     6.6216  -999.2500
  768.0000    12.7659    81.8840    11.9098   -46.8155     6.6215  -999.2500
  768.5000    12.7696    81.8716    11.9085   -46.6650     6.6213  -999.2500
  769.0000    12.7733    81.8593    11.8319   -46.0681     6.6063  -999.2500
  769.5000    12.7770    81.8469    11.8306   -45.6200     6.6061  -999.2500
  770.0000    12.7807    81.8346    11.8294   -45.1884     6.6060  -999.2500
  770.5000    12.7844    81.8223    11.8282   -45.0421     6.6058  -999.2500
  771.0000    12.7881    82.5615    11.8269   -44.8957     6.6056  -999.2500
  771.5000    12.7917    82.5461    11.8257   -44.9273     6.6205  -999.2500
  772.0000    12.7954    82.5338    11.8244   -45.1989     6.6203  -999.2500
  772.5000    12.7242    82.5214    11.8232   -45.4990     6.6201  -999.2500
  773.0000    12.7281    82.5100    11.8219   -45.6502     6.6200  -999.2500
  773.5000    12.6569  -999.2500    11.8208   -45.8015     6.6198  -999.2500
  774.0000    12.6607  -999.2500    11.8194   -45.8040     6.6048  -999.2500
  774.5000    12.5149  -999.2500    11.7430   -45.8064     6.6046  -999.2500
  775.0000    12.5186  -999.2500    11.6666   -45.5113     6.6045  -999.2500
  775.5000    12.3728  -999.2500    11.5902   -45.2155     6.6043  -999.2500
