~VERSION INFORMATION
 VERS.                2.0:   CWLS LOG ASCII STANDARD - VERSION 2.0
 WRAP.                 NO:   ONE LINE PER DEPTH STEP
~WELL INFORMATION
#MNEM.UNIT      DATA TYPE    INFORMATION
#----------   ------------   ------------------------------
 STRT.F           38.0000:   START DEPTH
 STOP.F          846.0000:   STOP DEPTH
 STEP.F            0.5000:   STEP LENGTH
 NULL.          -999.2500:   NO VALUE
 COMP. FENIX & SCISSON INC:   COMPANY
 WELL.    NPR 3 #34-SX-14:   WELL
 FLD .        TEAPOT DOME:   FIELD
 LOC .      S14 T38N R78W:   LOCATION
 CNTY.            NATRONA:   COUNTY
 STAT.            WYOMING:   STATE
 CTRY. UNITED STATES OF AMERICA:   COUNTRY
 SRVC.           BIRDWELL:   SERVICE COMPANY
 DATE.        26-APR-1978:   LOGDATE
 API .       490251063500:   API NUMBER
~CURVE INFORMATION
#MNEM.UNIT       API CODE    CURVE DESCRIPTION
#----------   ------------   ------------------------------
 DEPT.F                  :   
 NEUT.CPS    81 330 30 00:   NEUTRON
 TT  .US/F   81 520 00 00:   TRANSIT TIME
 GRD .GAPI   45 310 01 00:   GAMMA RAY FROM DENSITY LOG
 RHOB.G/C3   45 350 01 00:   BULK DENSITY
 DPOR.DEC    45 890 10 00:   DENSITY POROSITY
 CALD.IN     45 280 60 00:   CALIPER FROM DENSITY LOG
 CORR.G/C3   45 356 01 00:   DENSITY CORRECTION
~PARAMETER INFORMATION
#MNEM.UNIT          VALUE    DESCRIPTION
#----------   ------------   ------------------------------
 PD  .                 GL:   PERMANENT DATUM
 EPD .F              5232:   ELEVATION PERMANENT DATUM
 LMF .                 KB:   LOG MEASURED FROM
 DMF .                 KB:   DRILLING MEASURED FROM
 EKB .F              5236:   KELLING BUSHING
 EGL .F              5232:   GROUND LEVEL
 DATE.          4-26-1978:   RUN DATE
 RUN .                  1:   RUN NUMBER
 DD  .F               855:   DEPTH DRILLER
 DL  .F               853:   DEPTH LOGGER
 BLI .F               846:   BOTTOM LOG INTERVAL
 TLI .F                40:   TOP LOG INTERVAL
 CS  .IN            8.625:   CASING SIZE
 CBD .F                40:   CASING BOTTOM DRILLER
 CBL .F                40:   CASING BOTTOM LOGGER
 BS  .IN            7.875:   BIT SIZE
 BSD .F               855:   BIT SIZE AT DEPTH
 DFT .                KCL:   DRILLING FLUID TYPE
 DFD .                8.5:   DRILLING FLUID DENSITY
 DFV .                 31:   DRILLING FLUID VISCOSITY
 DFPH.                 10:   DRILLING FLUID PH
 DFL .               10.4:   DRILLING FLUID LOSS
 MSS .          FLUID PIT:   MUD SAMPLE SOURCE
 RMS .OHMM            .36:   RESISTIVITY MUD SAMPLE
 MST .F                68:   MUD SAMPLE TEMPERATURE
 RMF .OHMM            .28:   RESISTIVITY MUD FILTRATE SAMPLE
 MFST.F                74:   MUD FILTRATE SAMPLE TEMPERATURE
 RMC .OHMM            .48:   RESISTIVITY MUD CAKE
 MCST.F                79:   MUD CAKE SAMPLE TEMPERATURE
 MFSS.               MEAS:   MUD FILTRATE SAMPLE SOURCE
 RMB .OHMM            .33:   RESISTIVITY MUD AT BHT
 BHT .F                75:   BOTTOM HOLE TEMPERATURE
 TCS .HRS               1:   TIME CURCULATED STOPPED
 MRT .F                75:   MAXIMUM RECORDED TEMPERATURE
 LUN .               3006:   LOGGING UNIT NUMBER
 LUL .              CASP.:   LOGGING UNIT LOCATION
 ENGI.             MILLER:   RECORDING ENGINEER
 WITN.           MCGINLEY:   WITNESSED BY
 CLNT.            A2DTECH:   CLIENT CODE
 ORIG.      2" , 5" PRINT:   ORIGIN OF DATA
 UWI .       490251063500:   UNIQUE WELL ID
 DICO. A2D Technologies, Inc.:   DIGITIZING COMPANY
~OTHER INFORMATION
~A   DEPT     NEUT         TT         GRD      RHOB       DPOR       CALD       CORR   
# ...
  402.0000  -999.2500  -999.2500    89.0716     2.4876     0.0913     8.4198     0.0328
  402.5000  -999.2500  -999.2500    91.0382     2.4873     0.0924     8.4110     0.0305
  403.0000  -999.2500  -999.2500    91.0327     2.4856     0.0929     8.4022     0.0281
  403.5000  -999.2500  -999.2500    88.0981     2.4847     0.0925     8.3934     0.0280
  404.0000  -999.2500  -999.2500    86.0306     2.4863     0.0921     8.3850     0.0280
  404.5000  -999.2500  -999.2500    84.7203     2.4880     0.0900     8.3784     0.0282
  405.0000  -999.2500  -999.2500    90.5867     2.4929     0.0838     8.3634     0.0316
  405.5000  -999.2500  -999.2500    90.7237     2.5024     0.0809     8.3763     0.0349
  406.0000  -999.2500  -999.2500    89.3485     2.5079     0.0781     8.3945     0.0383
  406.5000  -999.2500  -999.2500    90.4739     2.5131     0.0703     8.4128     0.0417
  407.0000  -999.2500  -999.2500    91.6161     2.5210     0.0689     8.4305     0.0451
  407.5000  -999.2500  -999.2500    92.7579     2.5274     0.0733     8.4370     0.0461
  408.0000  -999.2500  -999.2500    93.7202     2.5199     0.0816     8.4157     0.0395
  408.5000  -999.2500  -999.2500    93.2054     2.5051     0.0877     8.3949     0.0321
  409.0000  -999.2500  -999.2500    91.7484     2.4924     0.0884     8.3742     0.0258
  409.5000  -999.2500  -999.2500    91.5242     2.4924     0.0891     8.3533     0.0256
  410.0000  -999.2500  -999.2500    95.1841     2.4925     0.0899     8.3431     0.0252
  410.5000  -999.2500  -999.2500    96.4289     2.4916     0.0906     8.3595     0.0248
  411.0000  -999.2500  -999.2500    93.1653     2.4904     0.0909     8.3812     0.0244
  411.5000  -999.2500  -999.2500    91.5391     2.4891     0.0907     8.4031     0.0245
  412.0000  -999.2500  -999.2500    89.0154     2.4880     0.0906     8.4248     0.0269
  412.5000  -999.2500  -999.2500    87.4735     2.4939     0.0829     8.4361     0.0292
  413.0000  -999.2500  -999.2500    88.9453     2.5076     0.0768     8.3798     0.0315
  413.5000  -999.2500  -999.2500    90.3871     2.5097     0.0789     8.3247     0.0338
  414.0000  -999.2500  -999.2500    91.8342     2.5076     0.0810     8.2775     0.0361
  414.5000  -999.2500  -999.2500    93.1353     2.5105     0.0780     8.2692     0.0384
  415.0000  -999.2500  -999.2500    92.6994     2.5135     0.0751     8.3152     0.0396
  415.5000  -999.2500  -999.2500    91.4756     2.5165     0.0755     8.3624     0.0373
  416.0000  -999.2500  -999.2500    90.2711     2.5127     0.0797     8.4091     0.0351
  416.5000  -999.2500  -999.2500    89.0617     2.5074     0.0838     8.4438     0.0328
  417.0000  -999.2500  -999.2500    88.4566     2.5022     0.0854     8.4433     0.0329
  417.5000  -999.2500  -999.2500    90.9495     2.4966     0.0869     8.4364     0.0342
  418.0000  -999.2500  -999.2500    92.4514     2.4933     0.0885     8.4186     0.0355
  418.5000  -999.2500  -999.2500    91.4529     2.4903     0.0902     8.3783     0.0350
  419.0000  -999.2500  -999.2500    90.4077     2.4871     0.0961     8.3348     0.0330
  419.5000  -999.2500  -999.2500    89.3354     2.4791     0.1022     8.1476     0.0311
  420.0000  -999.2500  -999.2500    89.0847     2.4641     0.1034     7.9532     0.0301
  420.5000  -999.2500  -999.2500    89.9929     2.4591     0.1041     8.0009     0.0301
  421.0000  -999.2500  -999.2500    91.1921     2.4587     0.1046     8.0432     0.0301
  421.5000  -999.2500  -999.2500    87.6065     2.4605     0.1050     8.0310     0.0301
  422.0000  -999.2500  -999.2500    85.8449     2.4624     0.1049     7.9768     0.0300
  422.5000  -999.2500  -999.2500    86.8901     2.4641     0.1047     7.9445     0.0301
  423.0000  -999.2500  -999.2500    87.9723     2.4641     0.1046     7.9749     0.0324
  423.5000  -999.2500  -999.2500    88.2388     2.4625     0.0993     8.0062     0.0402
  424.0000  -999.2500  -999.2500    83.5535     2.4699     0.0938     8.0375     0.0559
  424.5000  -999.2500  -999.2500    85.6661     2.4772     0.0944     8.0647     0.0721
  425.0000  -999.2500  -999.2500    89.8157     2.4794     0.0958     8.0645     0.0729
  425.5000  -999.2500  -999.2500    89.3957     2.4773     0.0975     8.0448     0.0713
  426.0000  -999.2500  -999.2500    88.6590     2.4749     0.0986     8.0212     0.0697
  426.5000  -999.2500  -999.2500    89.3893     2.4732     0.0982     7.9975     0.0683
  427.0000  -999.2500  -999.2500    90.0820     2.4817     0.0897     7.9739     0.0705
  427.5000  -999.2500  -999.2500    90.5143     2.4916     0.0828     7.9502     0.0728
  428.0000  -999.2500  -999.2500    89.6076     2.4986     0.0829     7.9266     0.0751
  428.5000  -999.2500  -999.2500    87.2471     2.4962     0.0898     7.9029     0.0735
  429.0000  -999.2500  -999.2500    84.9696     2.4922     0.0906     7.8793     0.0688
  429.5000  -999.2500  -999.2500    83.2716     2.4886     0.0854     7.8622     0.0715
  430.0000  -999.2500  -999.2500    83.6624     2.4926     0.0798     7.9197     0.0755
  430.5000  -999.2500  -999.2500    84.5784     2.5016     0.0806     7.9803     0.0795
  431.0000  -999.2500  -999.2500    85.4910     2.5024     0.0839     8.0409     0.0815
  431.5000  -999.2500  -999.2500    86.4067     2.4988     0.0866     8.1014     0.0794
  432.0000  -999.2500  -999.2500    87.3624     2.4951     0.0871     8.1617     0.0775
  432.5000  -999.2500  -999.2500    86.4143     2.4924     0.0877     8.2225     0.0755
  433.0000  -999.2500  -999.2500    85.0474     2.4932     0.0877     8.2357     0.0741
  433.5000  -999.2500  -999.2500    83.8786     2.4940     0.0844     8.2192     0.0742
  434.0000  -999.2500  -999.2500    85.2087     2.4957     0.0811     8.2024     0.0742
  434.5000  -999.2500  -999.2500    85.0029     2.5020     0.0832     8.1856     0.0708
  435.0000  -999.2500  -999.2500    84.1643     2.4924     0.0902     8.1688     0.0551
  435.5000  -999.2500  -999.2500    83.5711     2.4807     0.0971     8.1520     0.0395
  436.0000  -999.2500  -999.2500    85.3785     2.4687     0.1009     8.1437     0.0292
  436.5000  -999.2500  -999.2500    87.3260     2.4685     0.1021     8.1436     0.0212
  437.0000  -999.2500  -999.2500    87.3806     2.4725     0.1032     8.1543     0.0178
  437.5000  -999.2500  -999.2500    85.9526     2.4700     0.1026     8.1723     0.0155
  438.0000  -999.2500  -999.2500    84.2995     2.4666     0.0998     8.1905     0.0143
  438.5000  -999.2500  -999.2500    82.6398     2.4683     0.1014     8.2086     0.0131
  439.0000  -999.2500  -999.2500    82.2103     2.4664     0.1018     8.2247     0.0122
  439.5000  -999.2500  -999.2500    83.0492     2.4702     0.0979     8.1951     0.0170
  440.0000  -999.2500  -999.2500    83.8952     2.4761     0.0941     8.1587     0.0218
  440.5000  -999.2500  -999.2500    84.7124     2.4822     0.0927     8.1219     0.0264
  441.0000  -999.2500  -999.2500    84.9045     2.4844     0.0923     8.0852     0.0282
  441.5000  -999.2500  -999.2500    85.1028     2.4852     0.0896     8.0817     0.0300
  442.0000  -999.2500  -999.2500    84.3438     2.4891     0.0864     8.1272     0.0287
  442.5000  -999.2500  -999.2500    82.9152     2.4929     0.0860     8.2413     0.0273
  443.0000  -999.2500  -999.2500    81.5807     2.4953     0.0882     8.3437     0.0259
  443.5000  -999.2500  -999.2500    83.4898     2.4937     0.0883     8.5286     0.0245
  444.0000  -999.2500  -999.2500    85.6947     2.4921     0.0885     8.7400     0.0231
  444.5000  -999.2500  -999.2500    85.5208     2.4919     0.0885     8.7276     0.0235
  445.0000  -999.2500  -999.2500    82.6960     2.4930     0.0827     8.6517     0.0303
  445.5000  -999.2500  -999.2500    80.6979     2.5013     0.0659     8.5770     0.0369
  446.0000  -999.2500  -999.2500    78.7039     2.5180     0.0686     8.5027     0.0435
  446.5000  -999.2500  -999.2500    76.7062     2.5112     0.0827     8.4283     0.0430
  447.0000  -999.2500  -999.2500    74.7120     2.5006     0.0968     8.3542     0.0265
