~VERSION INFORMATION
 VERS.                2.0:   CWLS LOG ASCII STANDARD - VERSION 2.0
 WRAP.                 NO:   ONE LINE PER DEPTH STEP
~WELL INFORMATION
#MNEM.UNIT      DATA TYPE    INFORMATION
#----------   ------------   ------------------------------
 STRT.F           42.0000:   START DEPTH
 STOP.F          612.0000:   STOP DEPTH
 STEP.F            0.5000:   STEP LENGTH
 NULL.          -999.2500:   NO VALUE
 COMP. FENIX AND SCISSON INCORPORATED:   COMPANY
 WELL. RES 3 TEAPOT DOM #25SX11-11:   WELL
 FLD .             TEAPOT:   FIELD
 LOC .      S11 T38N R78W:   LOCATION
 CNTY.            NATRONA:   COUNTY
 STAT.            WYOMING:   STATE
 CTRY. UNITED STATES OF AMERICA:   COUNTRY
 SRVC.            Unknown:   SERVICE COMPANY
 DATE.        16-FEB-1978:   LOGDATE
 API .       490251058000:   API NUMBER
~CURVE INFORMATION
#MNEM.UNIT       API CODE    CURVE DESCRIPTION
#----------   ------------   ------------------------------
 DEPT.F                  :   
 ILD .OHMM   05 120 46 00:   INDUCTION LOG DEEP
 SN  .OHMM   05 040 16 00:   SHORT NORMAL 16"
 SPR .MV     05 010 01 00:   SPONTANEOUS POTENTIAL FROM RES.
 CALD.IN     45 280 60 00:   CALIPER FROM DENSITY LOG
 CORR.G/C3   45 356 01 00:   DENSITY CORRECTION
 DPHI.DEC    45 890 12 00:   DENSITY POROSITY SANDSTONE
 GRD .GAPI   45 310 01 00:   GAMMA RAY FROM DENSITY LOG
 RHOB.G/C3   45 350 01 00:   BULK DENSITY
~PARAMETER INFORMATION
#MNEM.UNIT          VALUE    DESCRIPTION
#----------   ------------   ------------------------------
 PD  .                 GL:   PERMANENT DATUM
 EPD .F              5167:   ELEVATION PERMANENT DATUM
 LMF .                 KB:   LOG MEASURED FROM
 DAPD.F                 3:   FEET ABOVE PERMANENT DATUM
 DMF .                 KB:   DRILLING MEASURED FROM
 EKB .F              5170:   KELLING BUSHING
 EGL .F              5167:   GROUND LEVEL
 DATE.        16-FEB-1978:   RUN DATE
 RUN .                  1:   RUN NUMBER
 DD  .F               610:   DEPTH DRILLER
 DL  .F               615:   DEPTH LOGGER
 BLI .F               610:   BOTTOM LOG INTERVAL
 TLI .F                40:   TOP LOG INTERVAL
 CS  .IN            8.625:   CASING SIZE
 CBD .F                40:   CASING BOTTOM DRILLER
 CBL .F                40:   CASING BOTTOM LOGGER
 BS  .IN            7.875:   BIT SIZE
 BSD .F               610:   BIT SIZE AT DEPTH
 DFT .        LIGNO/ SULF:   DRILLING FLUID TYPE
 DFD .                8.7:   DRILLING FLUID DENSITY
 DFV .                 30:   DRILLING FLUID VISCOSITY
 DFPH.                 10:   DRILLING FLUID PH
 DFL .                4.6:   DRILLING FLUID LOSS
 MSS .           FLOWLINE:   MUD SAMPLE SOURCE
 RMS .OHMM            1.7:   RESISTIVITY MUD SAMPLE
 MST .F                69:   MUD SAMPLE TEMPERATURE
 RMF .OHMM            1.5:   RESISTIVITY MUD FILTRATE SAMPLE
 MFST.F                70:   MUD FILTRATE SAMPLE TEMPERATURE
 RMC .OHMM            2.5:   RESISTIVITY MUD CAKE
 MCST.F                70:   MUD CAKE SAMPLE TEMPERATURE
 MFSS.               MEAS:   MUD FILTRATE SAMPLE SOURCE
 RMB .OHMM            1.6:   RESISTIVITY MUD AT BHT
 BHT .F                70:   BOTTOM HOLE TEMPERATURE
 TCS .HRS               3:   TIME CURCULATED STOPPED
 MRT .F                70:   MAXIMUM RECORDED TEMPERATURE
 LUN .               2958:   LOGGING UNIT NUMBER
 LUL .             CASPER:   LOGGING UNIT LOCATION
 ENGI.            POINTER:   RECORDING ENGINEER
 WITN.           MCGINLEY:   WITNESSED BY
 CLNT.            A2DTECH:   CLIENT CODE
 ORIG.           5" PRINT:   ORIGIN OF DATA
 UWI .       490251058000:   UNIQUE WELL ID
 DICO. A2D Technologies, Inc.:   DIGITIZING COMPANY
~OTHER INFORMATION
~A   DEPT      ILD         SN         SPR      CALD       CORR       DPHI        GRD       RHOB   
# ...
  528.0000    20.5737    23.8254   -28.1905     7.9655     0.0273     0.2075    72.3436     2.3134
  528.5000    20.5640    23.8174   -28.6369     7.9802     0.0287     0.1973    71.5880     2.3134
  529.0000    20.5544    23.9754   -29.1016     7.9798     0.0271     0.1927    71.4357     2.3164
  529.5000    20.6879    24.1344   -29.2624     7.9641     0.0240     0.2010    72.0376     2.3321
  530.0000    20.8223    23.6267   -29.4232     7.9486     0.0224     0.2079    73.9969     2.3343
  530.5000    20.9576    23.4573   -29.2779     7.9028     0.0224     0.2091    75.6607     2.3253
  531.0000    20.9453    23.6129   -29.2889     7.8873     0.0238     0.2079    76.5578     2.3160
  531.5000    20.6467    23.6029   -28.9838     7.8868     0.0237     0.2022    77.1596     2.3132
  532.0000    20.6370    23.5950   -28.6986     7.8864     0.0251     0.1899    77.6107     2.3229
  532.5000    20.3427    23.7515   -28.1018     7.8860     0.0236     0.1872    77.9112     2.3296
  533.0000    20.3332    23.5571   -27.9586     7.8704     0.0235     0.1881    78.5127     2.3386
  533.5000    20.0431    23.2441   -27.6613     7.8699     0.0234     0.1875    79.5671     2.3447
  534.0000    19.7551    23.0754   -27.5181     7.8694     0.0233     0.1884    80.7863     2.3483
  534.5000    19.4734    22.9080   -27.5292     7.8690     0.0248     0.1881    80.3180     2.3468
  535.0000    19.3295    22.5844   -27.3860     7.8749     0.0262     0.1812    78.8082     2.3430
  535.5000    19.1867    22.2653   -27.2229     7.8832     0.0261     0.1779    78.5055     2.3489
  536.0000    18.7822    21.9508   -26.9477     7.8677     0.0245     0.1755    79.4086     2.3579
  536.5000    18.5144    21.4808   -26.6548     7.8671     0.0230     0.1717    79.8597     2.3650
  537.0000    18.1240    20.7486   -26.5095     7.8667     0.0229     0.1705    80.0091     2.3729
  537.5000    17.5986    20.5981   -26.2165     7.8815     0.0213     0.1777    80.1584     2.3721
  538.0000    17.1263    20.4486   -26.2254     7.8810     0.0183     0.1786    80.1566     2.3660
  538.5000    16.8821    20.0202   -26.3862     7.8805     0.0164     0.1756    80.1552     2.3637
  539.0000    16.6414    19.4651   -26.3951     7.8952     0.0151     0.1765    79.8521     2.3645
  539.5000    16.2906    18.9253   -26.5580     7.8946     0.0150     0.1808    79.6998     2.3674
  540.0000    16.1702    18.4006   -26.5668     7.8943     0.0165     0.1829    81.2066     2.3621
  540.5000    16.1626    17.9982   -26.7254     7.8938     0.0164     0.1850    82.9165     2.3493
  541.0000    16.3810    17.5140   -26.5823     7.8933     0.0193     0.1847    86.1807     2.3463
  541.5000    16.0338    17.3870   -26.7453     7.8778     0.0177     0.1805    86.9338     2.3477
  542.0000    15.6958    17.1413   -26.9061     7.8773     0.0162     0.1769    86.6303     2.3516
  542.5000    15.5798    16.8992   -27.0669     7.8769     0.0191     0.1717    86.4780     2.3612
  543.0000    15.2513    16.6604   -27.0760     7.8764     0.0205     0.1628    87.2307     2.3694
  543.5000    15.0339    16.4251   -27.0867     7.8760     0.0204     0.1547    88.1342     2.3882
  544.0000    14.8195    16.2983   -27.0955     7.8755     0.0189     0.1610    86.3528     2.3968
  544.5000    14.4941    16.0742   -27.1044     7.8750     0.0218     0.1694    77.7237     2.3896
  545.0000    14.2985    15.9576   -27.1132     7.8746     0.0247     0.1701    77.4206     2.3753
  545.5000    14.1929    16.0634   -26.9678     7.8742     0.0276     0.1683    75.6092     2.3737
  546.0000    14.1862    16.1713   -26.6749     7.8888     0.0275     0.1608    74.4011     2.3797
  546.5000    14.2801    16.2785   -26.5318     7.8883     0.0275     0.1503    74.0980     2.3917
  547.0000    14.3712    16.2717   -26.0869     7.8879     0.0274     0.1446    73.7949     2.4037
  547.5000    14.4645    16.2662   -25.9415     7.8895     0.0228     0.1392    73.9443     2.4144
  548.0000    14.5691    16.1480   -25.4966     7.9022     0.0183     0.1305    74.6966     2.4291
  548.5000    14.9599    16.0297   -25.3513     7.8922     0.0137     0.1263    75.6001     2.4449
  549.0000    15.1638    16.1373   -25.0583     7.8861     0.0166     0.1287    75.9007     2.4464
  549.5000    15.1549    16.2444   -25.0672     7.8856     0.0270     0.1479    76.5022     2.4433
  550.0000    14.7327    16.3517   -25.0768     7.8852     0.0314     0.1539    77.1041     2.4095
  550.5000    14.5226    16.0064   -25.5431     7.9018     0.0329     0.1537    77.4273     2.3989
  551.0000    14.4153    15.5616   -26.6172     7.9144     0.0328     0.1468    78.0061     2.4026
  551.5000    14.2012    15.3407   -26.7852     7.9289     0.0327     0.1459    78.7585     2.4123
  552.0000    13.9086    15.0183   -26.9418     7.9284     0.0297     0.1462    79.3603     2.4152
  552.5000    14.0835    14.7026   -26.8002     7.9313     0.0281     0.1471    79.6609     2.4159
  553.0000    13.8775    14.5948   -26.6585     7.9424     0.0281     0.1463    77.5254     2.4129
  553.5000    13.8682    14.3864   -26.5195     7.9517     0.0279     0.1424    76.6156     2.4023
  554.0000    13.7629    14.1822   -26.5298     7.9564     0.0250     0.1328    76.1583     2.3992
  554.5000    13.6584    13.9809   -26.5401     7.9558     0.0234     0.1282    75.8517     2.4022
  555.0000    13.4609    13.8785   -26.7024     7.9552     0.0219     0.1277    75.5452     2.4089
  555.5000    12.9927    13.7769   -26.7128     7.9509     0.0218     0.1304    75.2387     2.4096
  556.0000    12.5313    13.5813   -26.7234     7.9391     0.0217     0.1362    75.6964     2.4065
  556.5000    12.1868    13.3885   -26.7359     7.9386     0.0232     0.1386    76.7361     2.4042
  557.0000    12.0943    13.1972   -26.8982     7.9381     0.0261     0.1395    78.9949     2.4026
  557.5000    12.0862    13.0099   -26.9085     7.9224     0.0260     0.1386    78.5363     2.4086
  558.0000    11.9944    12.7365   -27.0683     7.9218     0.0260     0.1338    78.0790     2.4231
  558.5000    11.9033    12.6432   -26.9266     7.8910     0.0259     0.1297    77.7725     2.4310
  559.0000    11.6500    12.5506   -27.0915     7.8905     0.0259     0.1303    78.0693     2.4369
  559.5000    11.5616    12.4587   -27.1018     7.8749     0.0258     0.1291    78.6912     2.4384
  560.0000    11.5537    12.2819   -26.9601     7.8442     0.0272     0.1255    78.8137     2.4398
  560.5000    11.5440    12.2768   -26.8185     7.8134     0.0257     0.1259    79.1093     2.4428
  561.0000    11.5363    12.2708   -26.8314     7.8129     0.0226     0.1283    84.9868     2.4457
  561.5000    11.5285    12.2658   -26.8417     7.8123     0.0211     0.1313    85.7361     2.4449
  562.0000    11.5207    12.3476   -26.8520     7.8722     0.0225     0.1307    85.5805     2.4418
  562.5000    11.5951    12.3413   -26.8623     7.8867     0.0240     0.1280    85.2739     2.4373
  563.0000    11.6661    12.3364   -27.0246     7.8862     0.0239     0.1253    85.1183     2.4350
  563.5000    11.6583    12.2460   -27.0350     7.8857     0.0208     0.1215    86.0172     2.4389
  564.0000    11.6482    12.0721   -27.0456     7.9003     0.0208     0.1188    86.7665     2.4453
  564.5000    11.5617    12.1515   -27.2102     7.9048     0.0207     0.1191    89.3257     2.4535
  565.0000    11.5522    12.2312   -27.3725     7.9143     0.0192     0.1218    91.4325     2.4550
  565.5000    11.4645    12.3103   -27.3828     7.9137     0.0176     0.1236    90.5226     2.4542
  566.0000    11.3775    12.2201   -27.3931     7.9132     0.0160     0.1231    85.2388     2.4519
  566.5000    11.3698    12.2152   -27.2514     7.9127     0.0175     0.1186    82.1266     2.4526
  567.0000    11.2835    12.0418   -27.1098     7.9122     0.0174     0.1165    80.2517     2.4548
  567.5000    11.3548    11.8709   -26.9681     7.8965     0.0174     0.1174    85.8263     2.4539
  568.0000    11.2683    11.8550   -26.9784     7.8960     0.0173     0.1201    86.2752     2.4546
