~VERSION INFORMATION
 VERS.                2.0:   CWLS LOG ASCII STANDARD - VERSION 2.0
 WRAP.                 NO:   ONE LINE PER DEPTH STEP
~WELL INFORMATION
#MNEM.UNIT      DATA TYPE    INFORMATION
#----------   ------------   ------------------------------
 STRT.F           20.0000:   START DEPTH
 STOP.F          678.0000:   STOP DEPTH
 STEP.F            0.5000:   STEP LENGTH
 NULL.          -999.2500:   NO VALUE
 COMP. FENIX & SCISSON INC:   COMPANY
 WELL. 27-42 SX 11 WO #27-11:   WELL
 FLD .        TEAPOT DOME:   FIELD
 LOC .      S11 T38N R78W:   LOCATION
 CNTY.            NATRONA:   COUNTY
 STAT.            WYOMING:   STATE
 CTRY. UNITED STATES OF AMERICA:   COUNTRY
 SRVC.      Dresser Atlas:   SERVICE COMPANY
 DATE.        13-AUG-1985:   LOGDATE
 API .       490251083800:   API NUMBER
~CURVE INFORMATION
#MNEM.UNIT       API CODE    CURVE DESCRIPTION
#----------   ------------   ------------------------------
 DEPT.F                  :   
 RHOB.G/C3   45 350 01 00:   BULK DENSITY
 CORR.G/C3   45 356 01 00:   DENSITY CORRECTION
 CALD.IN     45 280 60 00:   CALIPER
 GRD .GAPI   45 310 01 00:   GAMMA RAY FROM DENSITY LOG
 DPOR.DEC    45 890 12 00:   DENSITY POROSITY SANDSTONE
 NPOR.DEC    42 890 03 00:   NEUTRON POROSITY SANDSTONE
 SPR .MV     07 010 01 00:   SPONTANEOUS POTENTIAL
 SFL .OHMM   07 220 01 00:   SHALLOW FOCUSED LOG RESISTIVITY
 ILD .OHMM   07 120 46 00:   INDUCTION LOG DEEP
 ILM .OHMM   07 120 44 00:   INDUCTION LOG MEDIUM
~PARAMETER INFORMATION
#MNEM.UNIT          VALUE    DESCRIPTION
#----------   ------------   ------------------------------
 PD  .                 GL:   PERMANENT DATUM
 EPD .F              5188:   ELEVATION PERMANENT DATUM
 LMF .                 KB:   LOG MEASURED FROM
 DAPD.F                 5:   FEET ABOVE PERMANENT DATUM
 DMF .                 KB:   DRILLING MEASURED FROM
 EKB .F              5193:   KELLING BUSHING
 EGL .F              5188:   GROUND LEVEL
 DATE.          8-13-1985:   RUN DATE
 RUN .                  8:   RUN NUMBER
 DD  .F               632:   DEPTH DRILLER
 BLI .F               598:   BOTTOM LOG INTERVAL
 TLI .F               303:   TOP LOG INTERVAL
 CBL .F               303:   CASING BOTTOM LOGGER
 BS  .IN              .75:   BIT SIZE
 BSD .F               632:   BIT SIZE AT DEPTH
 DFT .          KCL WATER:   DRILLING FLUID TYPE
 LUN .            HL-6274:   LOGGING UNIT NUMBER
 LUL .           GILLETTE:   LOGGING UNIT LOCATION
 ENGI.             RAUTIO:   RECORDING ENGINEER
 WITN.            SCHULTE:   WITNESSED BY
 CLNT.            A2DTECH:   CLIENT CODE
 ORIG.           2" PRINT:   ORIGIN OF DATA
 UWI .       490251083800:   UNIQUE WELL ID
 DICO. A2D Technologies, Inc.:   DIGITIZING COMPANY
~OTHER INFORMATION
~A   DEPT     RHOB       CORR       CALD        GRD       DPOR       NPOR        SPR        SFL        ILD          ILM 
# ...
   87.0000     2.3921     0.0232     9.0130    93.5956     0.1895     0.2772    -5.7739    13.0295    11.8568    11.2211
   87.5000     2.3770     0.0086     9.0244    92.1397     0.1958     0.2617    -5.7781    11.6405    11.8566    11.2211
   88.0000     2.3593     0.0093     9.0351    90.7944     0.1734     0.2674    -5.7770    11.9302    11.7770    11.1677
   88.5000     2.3916     0.0196     9.0470    91.1669     0.1763     0.2820    -5.7765    12.7588    11.6897    11.1088
   89.0000     2.3854     0.0273     9.0418    93.1256     0.1870     0.3020    -5.7815    12.6860    11.6032    11.0504
   89.5000     2.3698     0.0167     9.0355    95.6264     0.1977     0.3132    -5.7214    12.3294    11.5173    10.9922
   90.0000     2.3508     0.0003     9.0285    98.2329     0.2022     0.3114    -5.5797    12.0755    11.4321    10.9343
   90.5000     2.3491     0.0097     9.0219    99.6645     0.1878     0.3084    -5.4403    12.0755    11.3476    10.8767
   91.0000     2.3667     0.0312     9.0152    99.2524     0.1900     0.3123    -5.3052    12.0755    11.2636    10.8195
   91.5000     2.3613     0.0398     9.0085    98.8543     0.1979     0.3161    -5.1692    11.9666    11.1803    10.7626
   92.0000     2.3481     0.0255     9.0017    98.7733     0.2062     0.3138    -5.0145    11.8534    11.0976    10.7057
   92.5000     2.3395     0.0137     8.9951    99.8817     0.2070     0.3084    -5.0923    11.7413    11.0155    10.6489
   93.0000     2.3339     0.0074     8.9884   101.1546     0.2070     0.3108    -5.3163    11.6302    10.9340    10.5922
   93.5000     2.3339     0.0102     8.9815   100.9585     0.2005     0.3132    -5.5234    11.5202    10.8510    10.5357
   94.0000     2.3386     0.0171     8.9752    98.7663     0.1905     0.3084    -5.7265    11.4288    10.8130    10.4799
   94.5000     2.3536     0.0238     8.9687    97.5238     0.1891     0.3012    -5.9341    11.4288    10.8113    10.4250
   95.0000     2.3671     0.0209     8.9759   100.4299     0.1929     0.3012    -6.1687    11.4049    10.8100     9.9413
   95.5000     2.3625     0.0156     8.9835   103.3441     0.1966     0.3071    -6.5708    11.3663    10.8265     9.4800
   96.0000     2.3570     0.0102     8.9917   105.7252     0.1974     0.3143    -7.0524    11.3277    10.0749     8.9435
   96.5000     2.3503     0.0054     8.9996   106.5532     0.1908     0.3216    -7.5364    11.2894     9.4362     8.2299
   97.0000     2.3573     0.0043     9.0075   107.5002     0.1777     0.3251    -7.9954    11.2511     8.8386     7.5732
   97.5000     2.3806     0.0143     9.0155   106.5534     0.1645     0.3272    -8.5351    11.1458     8.2796     6.9689
   98.0000     2.4022     0.0245     9.0235   105.4175     0.1519     0.3284    -8.8612    10.8168     7.7537     6.4128
   98.5000     2.4258     0.0320     9.0315   107.8448     0.1479     0.3277    -9.2481     9.0774     7.2612     5.9011
   99.0000     2.4313     0.0318     9.0394   108.0572     0.1404     0.3277    -9.6047     7.6866     6.8000     5.4863
   99.5000     2.4385     0.0317     9.0474   111.7861     0.1381     0.3275    -9.9746     6.3536     6.3536     5.4283
  100.0000     2.4521     0.0323     9.0553   115.1435     0.1372     0.3269   -10.3664     6.5299     6.1719     5.3773
  100.5000     2.4662     0.0322     9.0633   117.9460     0.1207     0.3485   -10.5778     6.8458     5.9892     5.3267
  101.0000     2.4804     0.0473     9.0715   119.7214     0.1174     0.3691   -10.5565     7.0930     5.8118     5.2766
  101.5000     2.4866     0.0451     9.0789   121.2642     0.1243     0.3739   -10.5581     7.1653     5.6397     5.2270
  102.0000     2.4694     0.0404     9.0868   122.5635     0.1311     0.3710   -10.5611     7.2502     5.5879     5.1778
  102.5000     2.4572     0.0348     9.0756   123.9317     0.1351     0.3669   -10.5576     7.3362     5.5879     5.1291
  103.0000     2.4519     0.0298     9.0631   124.0247     0.1386     0.3628   -10.5583     7.1537     5.5879     5.0981
  103.5000     2.4473     0.0245     9.0499   121.5756     0.1423     0.3582   -10.5584     6.8888     5.5879     5.0981
  104.0000     2.4420     0.0245     9.0371   121.8334     0.1390     0.3533   -10.5557     6.6338     5.5879     5.0981
  104.5000     2.4478     0.0336     9.0245   123.3728     0.1291     0.3484   -10.5587     6.3536     5.5879     5.1195
  105.0000     2.4711     0.0427     9.0114   123.0400     0.1200     0.3447   -10.5639     6.5857     5.5880     5.1405
  105.5000     2.4837     0.0486     9.0121   122.1759     0.1231     0.3567   -10.6752     6.8676     5.5881     5.1617
  106.0000     2.4706     0.0452     9.0186   121.7612     0.1276     0.3624   -10.7786     7.1616     5.6283     5.1828
  106.5000     2.4646     0.0402     9.0250   120.8412     0.1287     0.3686   -10.8916     7.3581     5.6727     5.2040
  107.0000     2.4651     0.0356     9.0311   119.8738     0.1330     0.3737   -10.9913     7.3581     5.7174     5.2255
  107.5000     2.4555     0.0307     9.0374   120.5585     0.1375     0.3713   -11.1038     7.3581     5.7851     5.2470
  108.0000     2.4509     0.0266     9.0436   120.0478     0.1391     0.3650   -11.2268     7.2928     5.7816     5.2679
  108.5000     2.4531     0.0239     9.0499   119.9135     0.1423     0.3587   -11.2718     7.1904     5.7190     5.2874
  109.0000     2.4432     0.0209     9.0562   121.0439     0.1460     0.3525   -11.6896     7.0894     5.6571     5.2783
  109.5000     2.4382     0.0179     9.0624   121.8289     0.1497     0.3462   -11.7770     6.9898     5.5958     5.2701
  110.0000     2.4326     0.0151     9.0686   121.4776     0.1535     0.3399   -12.2196     6.8916     5.5353     5.2613
  110.5000     2.4215     0.0117     9.0752   120.6157     0.1543     0.3315   -12.5823     6.7948     5.4863     5.2523
  111.0000     2.4275     0.0154     9.0808   119.8523     0.1425     0.3347   -12.9923     6.6994     5.4863     5.2436
  111.5000     2.4437     0.0219     9.0867   120.0147     0.1325     0.3426   -13.3770     6.5911     5.4863     5.2350
  112.0000     2.4653     0.0299     9.0694   120.5206     0.1231     0.3505   -13.7585     6.6628     5.4863     5.2265
  112.5000     2.4773     0.0376     9.0506   121.0423     0.1203     0.3583   -13.4857     6.8375     5.4863     5.2172
  113.0000     2.4803     0.0399     9.0309   121.4504     0.1177     0.3662   -13.0341     6.7715     5.4863     5.2081
  113.5000     2.4833     0.0400     9.0117   121.2810     0.1160     0.3683   -12.5994     6.6450     5.4863     5.1924
  114.0000     2.4864     0.0403     8.9926   120.9248     0.1085     0.3632   -12.1797     6.5911     5.4863     5.1971
  114.5000     2.4938     0.0482     8.9727   120.6880     0.1008     0.3579   -11.7494     6.8049     5.4863     5.2683
  115.0000     2.5101     0.0561     8.9724   120.9836     0.1059     0.3579   -11.3177     7.0856     5.5486     5.3326
  115.5000     2.5055     0.0493     8.9869   121.2469     0.1141     0.3559   -10.8970     7.3581     5.6501     5.3977
  116.0000     2.4839     0.0385     9.0010   119.1903     0.1205     0.3516   -10.4675     7.2116     5.7535     5.4636
  116.5000     2.4719     0.0281     9.0150   117.0088     0.1226     0.3473   -10.0100     7.0769     5.8585     5.5303
  117.0000     2.4717     0.0309     9.0290   117.9602     0.1248     0.3427    -9.7325     6.9447     5.9661     5.5980
  117.5000     2.4706     0.0368     9.0431   120.1324     0.1297     0.3447    -9.7804     6.8375     6.0338     5.6665
  118.0000     2.4590     0.0295     9.0574   121.8393     0.1371     0.3467    -9.8121     7.0512     6.0696     5.7358
  118.5000     2.4479     0.0200     9.0708   121.9075     0.1399     0.3483    -9.8413     7.2384     6.1055     5.8060
  119.0000     2.4411     0.0231     9.0869   120.8007     0.1336     0.3442    -9.8783     7.4944     6.1417     5.8771
  119.5000     2.4558     0.0350     9.0844   119.7752     0.1311     0.3392    -9.9106     7.4515     6.1781     5.9491
  120.0000     2.4639     0.0355     9.0770   117.7860     0.1316     0.3343    -9.9440     7.3024     6.2147     6.0134
