~VERSION INFORMATION
 VERS.                2.0:   CWLS LOG ASCII STANDARD - VERSION 2.0
 WRAP.                 NO:   ONE LINE PER DEPTH STEP
~WELL INFORMATION
#MNEM.UNIT      DATA TYPE    INFORMATION
#----------   ------------   ------------------------------
 STRT.F           40.0000:   START DEPTH
 STOP.F          684.0000:   STOP DEPTH
 STEP.F            0.5000:   STEP LENGTH
 NULL.          -999.2500:   NO VALUE
 COMP.    FENIX & SCISSON:   COMPANY
 WELL.   N P R-3 #26SX2-2:   WELL
 FLD .             TEAPOT:   FIELD
 LOC .       S2 T38N R78W:   LOCATION
 CNTY.            NATRONA:   COUNTY
 STAT.            WYOMING:   STATE
 CTRY. UNITED STATES OF AMERICA:   COUNTRY
 SRVC.            Unknown:   SERVICE COMPANY
 DATE.        26-JAN-1978:   LOGDATE
 API .       490251056400:   API NUMBER
~CURVE INFORMATION
#MNEM.UNIT       API CODE    CURVE DESCRIPTION
#----------   ------------   ------------------------------
 DEPT.F                  :   
 ILD .OHMM   05 120 46 00:   INDUCTION LOG DEEP
 SN  .OHMM   05 040 16 00:   SHORT NORMAL 16"
 SPR .MV     05 010 01 00:   SPONTANEOUS POTENTIAL FROM RES.
 CALD.IN     45 280 60 00:   CALIPER FROM DENSITY LOG
 CORR.G/C3   45 356 01 00:   DENSITY CORRECTION
 DPHI.DEC    45 890 12 00:   DENSITY POROSITY SANDSTONE
 GRD .GAPI   45 310 01 00:   GAMMA RAY FROM DENSITY LOG
 RHOB.G/C3   45 350 01 00:   BULK DENSITY
~PARAMETER INFORMATION
#MNEM.UNIT          VALUE    DESCRIPTION
#----------   ------------   ------------------------------
 PD  .                 GL:   PERMANENT DATUM
 EPD .F              5142:   ELEVATION PERMANENT DATUM
 LMF .                 KB:   LOG MEASURED FROM
 DMF .                 KB:   DRILLING MEASURED FROM
 EKB .F              5146:   KELLING BUSHING
 EGL .F              5142:   GROUND LEVEL
 DATE.        26-JAN-1978:   RUN DATE
 RUN .                  1:   RUN NUMBER
 DD  .F               690:   DEPTH DRILLER
 DL  .F               684:   DEPTH LOGGER
 BLI .F               684:   BOTTOM LOG INTERVAL
 TLI .F                50:   TOP LOG INTERVAL
 CS  .IN            8.625:   CASING SIZE
 CBD .F                39:   CASING BOTTOM DRILLER
 CBL .F                40:   CASING BOTTOM LOGGER
 BS  .IN            7.875:   BIT SIZE
 BSD .F               690:   BIT SIZE AT DEPTH
 DFT .                KCL:   DRILLING FLUID TYPE
 DFD .                8.5:   DRILLING FLUID DENSITY
 DFV .                 33:   DRILLING FLUID VISCOSITY
 DFPH.                  9:   DRILLING FLUID PH
 MSS .           FLOWLINE:   MUD SAMPLE SOURCE
 RMS .OHMM           0.48:   RESISTIVITY MUD SAMPLE
 MST .F                75:   MUD SAMPLE TEMPERATURE
 RMF .OHMM           0.46:   RESISTIVITY MUD FILTRATE SAMPLE
 MFST.F                75:   MUD FILTRATE SAMPLE TEMPERATURE
 RMC .OHMM              1:   RESISTIVITY MUD CAKE
 MCST.F                75:   MUD CAKE SAMPLE TEMPERATURE
 MFSS.               MEAS:   MUD FILTRATE SAMPLE SOURCE
 MCSS.               MEAS:   MUD CAKE SAMPLE SOURCE
 RMB .OHMM           0.47:   RESISTIVITY MUD AT BHT
 BHT .F                76:   BOTTOM HOLE TEMPERATURE
 TCS .HRS               1:   TIME CURCULATED STOPPED
 MRT .F                76:   MAXIMUM RECORDED TEMPERATURE
 LUN .               2958:   LOGGING UNIT NUMBER
 LUL .             CASPER:   LOGGING UNIT LOCATION
 ENGI.           REYNOLDS:   RECORDING ENGINEER
 WITN.       MR. MCGINLEY:   WITNESSED BY
 CLNT.            A2DTECH:   CLIENT CODE
 ORIG.      2.5" 5" PRINT:   ORIGIN OF DATA
 UWI .       490251056400:   UNIQUE WELL ID
 DICO. A2D Technologies, Inc.:   DIGITIZING COMPANY
~OTHER INFORMATION
~A   DEPT      ILD         SN        SPR       CALD       CORR       DPHI         GRD        RHOB 
# ...
  323.5000     8.8094     9.1727   -56.7445     9.2781     0.1858     0.1749   104.4653     2.3701
  324.0000     8.9356     9.3152   -56.8824     9.2765     0.1858     0.1749   100.7645     2.3701
  324.5000     9.1262     9.5709   -57.0205     9.2749     0.1828     0.1749    98.6040     2.3701
  325.0000     9.2570     9.7759   -57.1586     9.2734     0.1798     0.1749    97.0439     2.3701
  325.5000     9.4544     9.9168   -57.1459     9.2718     0.1767     0.1749    95.6941     2.3709
  326.0000     9.6561     9.9907   -57.1357     9.2702     0.1737     0.1749    92.4975     2.3731
  326.5000     9.7945    10.2046   -57.1256     9.2686     0.1737     0.1748    90.5907     2.3746
  327.0000     9.9376    10.4232   -57.1154     9.2670     0.1705     0.1728    89.5535     2.3762
  327.5000    10.0773    10.6464   -57.1053     9.2654     0.1673     0.1697    88.5984     2.3792
  328.0000    10.2228    10.9495   -57.0951     9.2638     0.1641     0.1665    87.8226     2.3838
  328.5000    10.2982    11.1840   -57.0850     9.2622     0.1616     0.1630    89.0046     2.3898
  329.0000    10.3030    11.5025   -57.0748     9.2606     0.1616     0.1607    89.0969     2.3989
  329.5000    10.3079    11.5883   -57.0647     9.2590     0.1586     0.1592    87.9205     2.4111
  330.0000    10.2041    11.6760   -57.0544     9.2574     0.1610     0.1607    87.0031     2.4202
  330.5000    10.1754    11.5210   -57.0440     9.2558     0.1765     0.1626    87.9205     2.4103
  331.0000    10.1814    11.4482   -57.0317     9.2553     0.1843     0.1640    88.8379     2.3997
  331.5000    10.0470    11.2977   -57.0215     9.2553     0.1841     0.1652    89.1437     2.3925
  332.0000     9.9828    11.2263   -56.8631     9.2553     0.1798     0.1665    89.4495     2.3879
  332.5000     9.9146    11.1553   -56.7047     9.2553     0.1767     0.1677    90.3695     2.3848
  333.0000     9.8505    11.0102   -56.3980     9.2553     0.1737     0.1701    91.0000     2.3802
  333.5000     9.7928    10.9391   -56.3879     9.2553     0.1737     0.1761    91.2844     2.3756
  334.0000     9.7985    10.8713   -56.2294     9.2553     0.1767     0.1852    90.6728     2.3694
  334.5000     9.7348    10.7285   -56.2193     9.2553     0.1798     0.1889    91.1345     2.3618
  335.0000     9.6732    10.6558   -56.2091     9.2553     0.1828     0.1895    92.0897     2.3536
  335.5000     9.6783    10.4484   -56.1988     9.2553     0.1858     0.1908    93.3507     2.3475
  336.0000     9.6165    10.3823   -56.1885     9.2553     0.1891     0.1920    94.3058     2.3430
  336.5000     9.6210    10.2472   -56.1762     9.2553     0.1918     0.1939    95.1075     2.3399
  337.0000     9.6254    10.2527   -56.1660     9.2553     0.1918     0.1887    95.7380     2.3400
  337.5000     9.6301    10.1865   -56.3067     9.2553     0.1911     0.1744    92.5076     2.3688
  338.0000     9.7012    10.1934   -56.4422     9.2553     0.1879     0.1758    89.4495     2.3703
  338.5000     9.7068    10.1989   -56.5829     9.2553     0.1858     0.1745    88.8379     2.3688
  339.0000     9.7114    10.2749   -56.8668     9.2553     0.1858     0.1716    88.5321     2.3704
  339.5000     9.6482    10.2804   -56.8566     9.2553     0.1828     0.1743    89.1437     2.3735
  340.0000     9.5877    10.3570   -56.9951     9.2553     0.1812     0.1701    90.3670     2.3770
  340.5000     9.5922    10.3640   -57.1328     9.2553     0.1737     0.1689    91.5902     2.3817
  341.0000     9.5967    10.4399   -56.9743     9.2553     0.1677     0.1714    90.9440     2.3875
  341.5000     9.6012    10.4468   -56.9639     9.2553     0.1616     0.1756    89.6829     2.3927
  342.0000     9.5397    10.4525   -56.8033     9.2553     0.1556     0.1829    88.7279     2.3998
  342.5000     9.4789    10.3151   -56.4966     9.2553     0.1677     0.1871    87.9205     2.3791
  343.0000     9.4167    10.2485   -56.1899     9.2553     0.1798     0.1895    89.0613     2.3512
  343.5000     9.3583    10.1837   -56.1798     9.2553     0.1858     0.1871    94.2889     2.3485
  344.0000     9.1725    10.0512   -56.1696     9.2857     0.1918     0.1847    96.6993     2.3552
  344.5000     9.0515     9.9178   -56.1595     9.2857     0.1918     0.1848    97.8629     2.3552
  345.0000     8.8697     9.7874   -56.1493     9.2857     0.1949     0.1871    97.2324     2.3522
  345.5000     8.6937     9.5939   -56.2878     9.2553     0.1918     0.1877    96.4832     2.3507
  346.0000     8.5789     9.4678   -56.4257     9.2553     0.1912     0.1885    95.5658     2.3507
  346.5000     8.4657     9.3396   -56.6404     9.2553     0.1880     0.1891    94.9541     2.3492
  347.0000     8.4106     9.1573   -56.7018     9.2553     0.1858     0.1898    94.0367     2.3477
  347.5000     8.2437     9.1006   -56.6891     9.2553     0.1846     0.1910    93.4251     2.3461
  348.0000     8.1910     9.0419   -56.6790     9.2553     0.1828     0.1916    92.2018     2.3447
  348.5000     8.1358     9.0480   -56.6688     9.2553     0.1828     0.1917    90.9786     2.3447
  349.0000     8.0867     9.0528   -56.6587     9.2857     0.1828     0.1907    89.4230     2.3447
  349.5000     8.0915     9.0577   -56.6485     9.2857     0.1858     0.1787    90.2858     2.3563
  350.0000     8.0953     9.0626   -56.6322     9.2756     0.1858     0.1823    92.9154     2.3598
  350.5000     8.1619     9.0497   -56.5786     9.2553     0.1918     0.1841    93.1193     2.3568
  351.0000     8.2204     9.0139   -56.5250     9.2553     0.1918     0.1853    92.2416     2.3568
  351.5000     8.0603     8.9781   -56.4714     9.2553     0.1918     0.1859    91.0693     2.3553
  352.0000     8.0099     8.9423   -56.4179     9.2553     0.1888     0.1865    90.2406     2.3545
  352.5000     8.0180     8.9100   -56.3643     9.2553     0.1858     0.1872    89.3043     2.3538
  353.0000     7.9678     8.9182   -56.3107     9.2553     0.1858     0.1872    88.8379     2.3538
  353.5000     7.9759     8.9249   -56.2571     9.2553     0.1828     0.1871    90.3670     2.3538
  354.0000     7.9819     8.9315   -56.2120     9.2553     0.1831     0.1840    92.2018     2.3569
  354.5000     7.9888     8.9381   -56.1959     9.2553     0.1858     0.1809    93.1193     2.3584
  355.0000     7.9952     8.8818   -56.1796     9.2553     0.1828     0.1787    93.1193     2.3630
  355.5000     8.0017     8.7685   -56.1633     9.2553     0.1828     0.1808    92.8135     2.3660
  356.0000     8.0083     8.7750   -55.9987     9.2553     0.1828     0.1867    92.8135     2.3629
  356.5000     7.9597     8.7815   -55.9797     9.2553     0.1816     0.1905    92.8135     2.3569
  357.0000     7.8050     8.7277   -55.9637     9.2553     0.1798     0.1937    93.7401     2.3535
  357.5000     7.5993     8.6743   -55.9477     9.2553     0.1798     0.1974    94.0367     2.3473
  358.0000     7.3990     8.5620   -55.9317     9.2553     0.1832     0.1996    93.9898     2.3380
  358.5000     7.2523     8.3357   -56.0680     9.2553     0.1949     0.2015    93.3594     2.3318
  359.0000     7.1113     8.1168   -56.3485     9.2553     0.1979     0.2041    93.1193     2.3256
  359.5000     7.0669     8.0103   -56.7733     9.2553     0.2009     0.2023    93.1193     2.3206
  360.0000     7.0241     7.8539   -57.0538     9.2553     0.2039     0.1945    93.5474     2.3272
  360.5000     6.9828     7.6990   -57.1863     9.2553     0.2039     0.1908    93.7309     2.3389
  361.0000     6.9886     7.5994   -57.4666     9.2553     0.2039     0.1866    93.5708     2.3442
  361.5000     6.9944     7.5009   -57.4502     9.2553     0.2009     0.1824    93.4251     2.3540
  362.0000     7.0485     7.4550   -57.4339     9.2553     0.2008     0.1800    93.4251     2.3615
  362.5000     7.1041     7.5122   -57.5669     9.2553     0.1974     0.1775    93.4251     2.3676
  363.0000     7.1098     7.6263   -57.5469     9.2553     0.1884     0.1776    93.4251     2.3722
  363.5000     7.1646     7.8043   -57.3826     9.2553     0.1852     0.1794    93.4251     2.3691
