~VERSION INFORMATION
 VERS.                2.0:   CWLS LOG ASCII STANDARD - VERSION 2.0
 WRAP.                 NO:   ONE LINE PER DEPTH STEP
~WELL INFORMATION
#MNEM.UNIT      DATA TYPE    INFORMATION
#----------   ------------   ------------------------------
 STRT.F           31.0000:   START DEPTH
 STOP.F          590.0000:   STOP DEPTH
 STEP.F            0.1000:   STEP LENGTH
 NULL.          -999.2500:   NO VALUE
 COMP. LAWRENCE/ALLISON INC:   COMPANY
 WELL. NPR 3 73-61 SX #3-3:   WELL
 FLD .             TEAPOT:   FIELD
 LOC .       S3 T38N R78W:   LOCATION
 CNTY.            NATRONA:   COUNTY
 STAT.            WYOMING:   STATE
 CTRY. UNITED STATES OF AMERICA:   COUNTRY
 SRVC.           Gearhart:   SERVICE COMPANY
 DATE.        14-AUG-1988:   LOGDATE
 API .       490251124200:   API NUMBER
~CURVE INFORMATION
#MNEM.UNIT       API CODE    CURVE DESCRIPTION
#----------   ------------   ------------------------------
 DEPT.F                  :   
 GRR .GAPI   07 310 01 00:   GAMMA RAY
 RILD.OHMM   07 120 46 00:   INDUCTION LOG DEEP RESISTIVITY
 RILM.OHMM   07 120 44 00:   INDUCTION LOG MEDIUM RESISTIVITY
~PARAMETER INFORMATION
#MNEM.UNIT          VALUE    DESCRIPTION
#----------   ------------   ------------------------------
 PD  .                 GL:   PERMANENT DATUM
 EPD .F              5136:   ELEVATION PERMANENT DATUM
 LMF .                 KB:   LOG MEASURED FROM
 DAPD.F                10:   FEET ABOVE PERMANENT DATUM
 DMF .                 KB:   DRILLING MEASURED FROM
 EKB .F              5146:   KELLING BUSHING
 EDF .F              5144:   DRILLING FLOOR
 EGL .F              5136:   GROUND LEVEL
 DATE.        14-AUG-1988:   RUN DATE
 RUN .                  1:   RUN NUMBER
 DD  .F               597:   DEPTH DRILLER
 DL  .F               598:   DEPTH LOGGER
 BLI .F               590:   BOTTOM LOG INTERVAL
 TLI .F                50:   TOP LOG INTERVAL
 CS  .IN            9.625:   CASING SIZE
 CBD .F                50:   CASING BOTTOM DRILLER
 CBL .F                50:   CASING BOTTOM LOGGER
 BS  .IN             8.75:   BIT SIZE
 BSD .F               597:   BIT SIZE AT DEPTH
 DFT .                AIR:   DRILLING FLUID TYPE
 TCS .HRS            1930:   TIME CURCULATED STOPPED
 TLAB.HRS            2030:   TIME LOGGER AT BOTTOM
 MRT .F                70:   MAXIMUM RECORDED TEMPERATURE
 LUN .               7597:   LOGGING UNIT NUMBER
 LUL .           GILLETTE:   LOGGING UNIT LOCATION
 ENGI.         WEATHERMON:   RECORDING ENGINEER
 WITN.             STRONG:   WITNESSED BY
 CLNT.            A2DTECH:   CLIENT CODE
 ORIG.           5" PRINT:   ORIGIN OF DATA
 UWI .       490251124200:   UNIQUE WELL ID
 DICO. A2D Technologies, Inc.:   DIGITIZING COMPANY
~OTHER INFORMATION
~A   DEPT       GRR      RILD       RILM   
# ...
  467.8000    87.4599    13.2312    12.8188
  467.9000    87.5642    13.2224    12.8178
  468.0000    87.8671    13.2137    12.8167
  468.1000    88.3789    13.2049    12.8156
  468.2000    88.6301    13.1961    12.8146
  468.3000    89.0799    13.1873    12.8136
  468.4000    89.5847    13.1785    12.8124
  468.5000    90.0895    13.1697    12.7441
  468.6000    90.5943    13.1609    12.7218
  468.7000    91.1235    13.1521    12.7208
  468.8000    91.8429    13.1433    12.7197
  468.9000    92.2247    13.1345    12.7186
  469.0000    92.4793    13.1257    12.7174
  469.1000    92.8170    13.1169    12.7165
  469.2000    93.2905    13.1081    12.7155
  469.3000    93.5659    13.0994    12.7144
  469.4000    94.0298    13.0906    12.7133
  469.5000    94.5347    13.0818    12.7122
  469.6000    94.9131    13.0730    12.7111
  469.7000    95.2424    13.0677    12.7102
  469.8000    95.7015    13.0666    12.7091
  469.9000    95.7062    13.0655    12.7080
  470.0000    95.7099    13.0642    12.7070
  470.1000    95.2050    13.0633    12.7060
  470.2000    94.8121    13.1100    12.7047
  470.3000    94.7500    13.1520    12.7646
  470.4000    94.5039    13.1510    12.7911
  470.5000    94.2212    13.1499    12.7900
  470.6000    94.0118    13.1486    12.7890
  470.7000    93.6042    13.1477    12.7880
  470.8000    93.1076    13.1466    12.7867
  470.9000    92.5534    13.1455    12.7858
  471.0000    91.8067    13.1542    12.7848
  471.1000    90.9234    13.2042    12.8124
  471.2000    90.1081    13.2542    12.8718
  471.3000    89.2638    13.3042    12.8705
  471.4000    88.5171    13.3542    12.8694
  471.5000    87.8198    13.4041    12.8684
  471.6000    87.3185    13.4541    12.8673
  471.7000    87.0747    13.5062    12.8930
  471.8000    86.8285    13.5799    12.9549
  471.9000    86.7269    13.5980    12.9536
  472.0000    86.6385    13.5969    12.9526
  472.1000    86.4325    13.5957    12.9515
  472.2000    86.4376    13.6052    12.9905
  472.3000    86.6812    13.6880    13.0394
  472.4000    87.1235    13.6869    13.0478
  472.5000    87.4924    13.6858    13.1279
  472.6000    87.7469    13.6847    13.1269
  472.7000    88.0015    13.7082    13.1258
  472.8000    88.2759    13.7778    13.1632
  472.9000    88.7418    13.7764    13.2150
  473.0000    89.0674    13.7754    13.2139
  473.1000    89.1945    13.7742    13.2126
  473.2000    89.2744    13.7730    13.2796
  473.3000    89.5291    13.7719    13.3025
  473.4000    89.8120    13.7707    13.3014
  473.5000    90.0383    13.7695    13.3213
  473.6000    90.1221    13.7685    13.3918
  473.7000    90.2453    13.7673    13.3905
  473.8000    90.4326    13.7662    13.3895
  473.9000    90.4369    13.7650    13.3884
  474.0000    90.4417    13.7638    13.4221
  474.1000    90.2313    13.7626    13.4793
  474.2000    90.1474    13.7616    13.4783
  474.3000    90.1517    13.7605    13.4769
  474.4000    90.1559    13.7593    13.4760
  474.5000    90.1600    13.7581    13.4749
  474.6000    89.8630    13.7570    13.4737
  474.7000    89.8665    13.7556    13.4726
  474.8000    89.7168    13.7547    13.4715
  474.9000    89.4707    13.7057    13.4701
  475.0000    89.2246    13.6574    13.4692
  475.1000    88.9771    13.6563    13.4220
  475.2000    88.9813    13.6551    13.3739
  475.3000    88.7883    13.5765    13.3728
  475.4000    88.6877    13.5585    13.3717
  475.5000    88.6919    13.5573    13.3706
  475.6000    88.6961    13.5562    13.3695
  475.7000    88.7005    13.5551    13.3684
  475.8000    88.7046    13.5539    13.3394
  475.9000    88.7088    13.4781    13.2737
  476.0000    88.7130    13.4580    13.2726
  476.1000    88.7172    13.4569    13.1991
  476.2000    88.7215    13.4293    13.1787
  476.3000    88.7260    13.3617    13.1368
  476.4000    88.7299    13.3605    13.0854
  476.5000    88.7341    13.3595    13.0748
  476.6000    88.6098    13.3584    12.9928
  476.7000    88.4405    13.3174    12.9918
  476.8000    88.4447    13.2638    12.9373
  476.9000    88.4494    13.2627    12.8998
  477.0000    88.4532    13.2615    12.8762
  477.1000    88.6291    13.2605    12.8086
  477.2000    88.7637    13.2064    12.8074
  477.3000    88.8363    13.1667    12.7408
  477.4000    89.0908    13.1656    12.7169
  477.5000    89.3813    13.1585    12.6806
  477.6000    89.8149    13.0723    12.6268
  477.7000    90.3200    13.0714    12.6207
  477.8000    90.9367    13.0702    12.5374
  477.9000    91.5722    13.0344    12.5365
  478.0000    91.8268    12.9777    12.4881
  478.1000    92.1258    12.9728    12.4477
  478.2000    92.3360    12.8857    12.4290
  478.3000    92.4356    12.8848    12.3597
  478.4000    92.4398    12.8837    12.3584
  478.5000    92.3927    12.8506    12.2984
  478.6000    92.1462    12.7926    12.2712
  478.7000    91.9004    12.7915    12.2403
  478.8000    91.8525    12.7902    12.1690
  478.9000    91.7103    12.7295    12.0982
  479.0000    91.5589    12.6999    12.0143
  479.1000    91.5631    12.6989    11.9579
  479.2000    91.5675    12.6833    11.8883
  479.3000    91.3300    12.6090    11.8191
  479.4000    91.0840    12.6079    11.7503
  479.5000    90.7000    12.5499    11.6809
  479.6000    90.2035    12.5187    11.6799
  479.7000    89.6722    12.4973    11.6269
  479.8000    88.8740    12.4418    11.5592
  479.9000    88.4119    12.3864    11.5161
  480.0000    88.0966    12.3310    11.5045
  480.1000    87.9801    12.2755    11.4346
  480.2000    88.2177    12.2201    11.3711
  480.3000    88.9469    12.1646    11.3537
  480.4000    89.5038    12.1092    11.3528
  480.5000    90.1816    12.0538    11.3299
  480.6000    90.7640    11.9983    11.2725
  480.7000    91.3899    11.9429    11.2714
  480.8000    92.0758    11.8875    11.2107
  480.9000    92.5806    11.8320    11.1917
  481.0000    93.1547    11.7766    11.1578
  481.1000    93.8063    11.7212    11.1125
  481.2000    94.0689    11.6657    11.1116
  481.3000    94.2983    11.6103    11.1106
  481.4000    94.7424    11.5818    11.1098
  481.5000    94.9970    11.5808    11.1089
  481.6000    95.2950    11.5799    11.1079
  481.7000    95.5062    11.5788    11.1069
  481.8000    95.9167    11.5780    11.1060
  481.9000    96.3174    11.5770    11.1050
  482.0000    96.5197    11.5760    11.1042
  482.1000    96.5249    11.5751    11.1033
  482.2000    97.0302    11.5741    11.1024
  482.3000    97.5350    11.5730    11.1015
  482.4000    97.8924    11.5722    11.1006
  482.5000    98.1470    11.6141    11.0994
  482.6000    98.4455    11.6508    11.0986
  482.7000    98.9663    11.6498    11.0977
  482.8000    99.2129    11.6489    11.0968
  482.9000    99.2767    11.7288    11.0959
  483.0000    99.5589    11.7835    11.0950
  483.1000    99.8895    11.8926    11.0939
  483.2000    99.9290    12.0098    11.0932
  483.3000   100.2003    12.1001    11.0922
  483.4000   100.2043    12.1905    11.0913
  483.5000   100.2085    12.2808    11.1027
  483.6000   100.3432    12.3711    11.1666
  483.7000   100.5190    12.4614    11.1657
  483.8000   100.5233    12.5517    11.2151
  483.9000   100.5279    12.6420    11.2789
  484.0000   100.3060    12.7352    11.3430
  484.1000   100.0599    12.7342    11.4074
  484.2000    99.6917    12.8921    11.4750
  484.3000    99.2657    13.0998    11.6015
  484.4000    99.0011    13.3075    11.6839
  484.5000    98.4386    13.5151    11.7876
  484.6000    98.0079    13.7228    11.9229
  484.7000    97.5115    13.9304    12.0692
  484.8000    96.9014    14.1381    12.2929
  484.9000    96.0929    14.3458    12.4243
  485.0000    95.1059    14.5534    12.5671
  485.1000    94.2345    14.7611    12.7497
  485.2000    93.6121    15.1524    12.9703
  485.3000    92.5513    15.6172    13.1946
  485.4000    91.5142    16.0820    13.4460
  485.5000    90.8209    16.5468    13.7275
  485.6000    88.5118    17.0116    14.0461
  485.7000    88.0150    17.4765    14.3718
  485.8000    87.1180    17.9413    14.7046
  485.9000    86.2695    18.4061    15.0381
