~VERSION INFORMATION
 VERS.                2.0:   CWLS LOG ASCII STANDARD - VERSION 2.0
 WRAP.                 NO:   ONE LINE PER DEPTH STEP
~WELL INFORMATION
#MNEM.UNIT      DATA TYPE    INFORMATION
#----------   ------------   ------------------------------
 STRT.F           14.0000:   START DEPTH
 STOP.F          581.5000:   STOP DEPTH
 STEP.F            0.5000:   STEP LENGTH
 NULL.          -999.2500:   NO VALUE
 COMP. LAWRENCE/ALLISON INC:   COMPANY
 WELL.   41-11 STX #10-10:   WELL
 FLD .              NPR 3:   FIELD
 LOC .      S10 T38N R78W:   LOCATION
 CNTY.            NATRONA:   COUNTY
 STAT.            WYOMING:   STATE
 CTRY. UNITED STATES OF AMERICA:   COUNTRY
 SRVC.           Gearhart:   SERVICE COMPANY
 DATE.        03-JUL-1986:   LOGDATE
 API .       490251107900:   API NUMBER
~CURVE INFORMATION
#MNEM.UNIT       API CODE    CURVE DESCRIPTION
#----------   ------------   ------------------------------
 DEPT.F                  :   
 GRR .GAPI   07 310 01 00:   GAMMA RAY FROM RES. LOG.
 RILM.OHMM   07 120 44 00:   INDUCTION LOG MEDIUM RESISTIVITY
 RILD.OHMM   07 120 46 00:   INDUCTION LOG DEEP RESISTIVITY
~PARAMETER INFORMATION
#MNEM.UNIT          VALUE    DESCRIPTION
#----------   ------------   ------------------------------
 PD  .                 GL:   PERMANENT DATUM
 EPD .F              5233:   ELEVATION PERMANENT DATUM
 LMF .                 KB:   LOG MEASURED FROM
 DAPD.F                 5:   FEET ABOVE PERMANENT DATUM
 DMF .                 KB:   DRILLING MEASURED FROM
 EKB .F              5238:   KELLING BUSHING
 EGL .F              5233:   GROUND LEVEL
 DATE.             7-3-86:   RUN DATE
 RUN .                  1:   RUN NUMBER
 DD  .F               590:   DEPTH DRILLER
 DL  .F               591:   DEPTH LOGGER
 BLI .F               581:   BOTTOM LOG INTERVAL
 TLI .F                14:   TOP LOG INTERVAL
 CS  .IN            8.625:   CASING SIZE
 CBD .F                47:   CASING BOTTOM DRILLER
 CBL .F                47:   CASING BOTTOM LOGGER
 BS  .IN            7.875:   BIT SIZE
 BSD .F               590:   BIT SIZE AT DEPTH
 DFT .                AIR:   DRILLING FLUID TYPE
 TCS .HRS            0900:   TIME CURCULATED STOPPED
 TLAB.HRS            1100:   TIME LOGGER AT BOTTOM
 MRT .F                80:   MAXIMUM RECORDED TEMPERATURE
 LUN .               7609:   LOGGING UNIT NUMBER
 LUL .           GILLETTE:   LOGGING UNIT LOCATION
 ENGI.              BAUER:   RECORDING ENGINEER
 WITN.              FIVAS:   WITNESSED BY
 CLNT.            A2DTECH:   CLIENT CODE
 ORIG.       2", 5" PRINT:   ORIGIN OF DATA
 UWI .       490251107900:   UNIQUE WELL ID
 DICO. A2D Technologies, Inc.:   DIGITIZING COMPANY
~OTHER INFORMATION
~A   DEPT       GRR      RILM       RILD   
# ...
  287.0000   120.5728     7.9699     8.1199
  287.5000   115.4966     7.9851     8.1199
  288.0000   113.2918     7.9958     8.1199
  288.5000   115.3411     8.0065     8.1199
  289.0000   115.8405     8.0173     8.1199
  289.5000   113.7392     8.0280     8.1199
  290.0000   112.1701     8.0387     8.1199
  290.5000   113.7588     8.0444     8.1199
  291.0000   117.1303     8.0444     8.1200
  291.5000   117.5864     8.0449     8.1209
  292.0000   115.7163     8.0456     8.1199
  292.5000   114.1405     8.0059     8.0305
  293.0000   116.2642     7.8278     7.8838
  293.5000   119.4703     7.6537     7.7399
  294.0000   121.9446     7.4835     7.5985
  294.5000   123.6516     7.3170     7.4598
  295.0000   125.3400     7.1543     7.3236
  295.5000   126.6028     6.9999     7.1914
  296.0000   125.5560     6.8556     7.0228
  296.5000   123.6655     6.7144     6.8600
  297.0000   122.2911     6.5761     6.7010
  297.5000   122.6586     6.4407     6.5457
  298.0000   123.7630     6.3080     6.3939
  298.5000   124.8564     6.1781     6.2457
  299.0000   125.9520     6.0508     6.0774
  299.5000   127.0405     5.9104     6.0775
  300.0000   127.3765     5.9712     6.0784
  300.5000   127.5692     6.0620     6.2047
  301.0000   126.3691     6.1541     6.3871
  301.5000   123.8057     6.2935     6.5749
  302.0000   121.8647     6.5595     6.7682
  302.5000   120.8235     6.8367     6.9672
  303.0000   119.7607     7.0583     7.1914
  303.5000   117.8185     7.0583     7.1914
  304.0000   115.4530     7.0583     7.1907
  304.5000   115.2485     6.9006     7.1942
  305.0000   116.0273     6.7035     6.7374
  305.5000   117.5238     6.5121     6.3836
  306.0000   119.0113     6.3261     6.0539
  306.5000   120.5210     6.1454     5.8245
  307.0000   121.5246     5.9699     5.6037
  307.5000   120.2516     5.8010     5.4338
  308.0000   118.1711     5.5900     5.3833
  308.5000   116.0701     5.5096     5.5905
  309.0000   113.9700     5.4338     5.7967
  309.5000   111.8066     5.7594     6.0105
  310.0000   111.3578     6.0698     6.2511
  310.5000   111.3468     6.3969     6.5956
  311.0000   111.8418     6.7433     6.8922
  311.5000   112.5982     7.0701     7.1101
  312.0000   113.3635     7.3995     7.3349
  312.5000   114.1210     7.7414     7.5671
  313.0000   114.8089     8.0442     7.8065
  313.5000   114.5001     8.3145     8.0550
  314.0000   113.6720     8.5938     8.2269
  314.5000   112.8207     8.8825     8.3626
  315.0000   112.5777     9.8385     8.4975
  315.5000   112.5740    10.9922     8.6354
  316.0000   112.5758    12.2830     8.7499
  316.5000   112.5709    12.9563     8.7389
  317.0000   112.7680    12.4097     8.7278
  317.5000   113.2377    11.4195     8.7167
  318.0000   114.3285    10.4272     8.7057
  318.5000   115.3769     9.5211     8.6946
  319.0000   116.1841     8.9911     8.6836
  319.5000   115.7613     8.9714     8.6726
  320.0000   115.3531     8.9511     8.6686
  320.5000   115.0866     8.9321     8.6685
  321.0000   116.6847     8.9125     8.6686
  321.5000   117.2372     8.8930     8.6686
  322.0000   117.1541     8.8735     8.6687
  322.5000   115.4150     8.8540     8.6697
  323.0000   110.5658     8.8346     8.6686
  323.5000   105.0167     8.6892     8.5700
  324.0000   102.3099     8.4819     8.2367
  324.5000   100.3459     8.1935     7.9165
  325.0000   100.5181     7.9139     7.6083
  325.5000   101.3028     7.6440     7.3114
  326.0000   104.3298     7.3832     7.0281
  326.5000   107.3712     7.1313     6.8632
  327.0000   110.4164     6.8880     6.7994
  327.5000   111.7842     6.6735     6.9252
  328.0000   110.0023     6.7677     7.2282
  328.5000   107.7398     7.2658     7.6415
  329.0000   106.6169     7.8006     8.1333
  329.5000   107.0374     8.4290     8.6543
  330.0000   108.3734     8.8558     9.2087
  330.5000   109.7052     9.3502     9.7023
  331.0000   109.6975     9.8723     9.9598
  331.5000   107.2114    10.0874    10.2400
  332.0000   105.2581    10.2305    10.5275
  332.5000   106.4094    10.3756    10.8470
  333.0000   108.6913    10.5228    11.1870
  333.5000   110.1582    10.6462    11.5800
  334.0000   108.6400    11.0864    12.2212
  334.5000   100.3045    11.8127    13.0893
  335.0000    91.7257    12.7544    14.0192
  335.5000    83.1366    13.7751    14.9110
  336.0000    74.6029    14.9720    16.4224
  336.5000    66.8445    16.5306    18.2745
  337.0000    61.8044    18.2408    20.2822
  337.5000    58.6549    20.1293    21.6435
  338.0000    56.1875    22.2134    23.4233
  338.5000    54.7814    24.1951    25.0844
  339.0000    56.0220    26.1005    26.4530
  339.5000    60.1777    26.8423    27.3484
  340.0000    64.3758    26.8423    27.3484
  340.5000    67.4401    26.8423    27.3484
  341.0000    68.9851    26.1646    27.3484
  341.5000    69.4135    25.6748    26.6889
  342.0000    70.4672    25.1942    26.2415
  342.5000    73.3005    24.7225    25.8017
  343.0000    78.4508    24.4252    25.3787
  343.5000    80.7792    24.3182    25.2367
  344.0000    79.3297    24.2211    25.1383
  344.5000    70.9469    24.6353    25.5675
  345.0000    62.8143    25.2374    25.9634
  345.5000    55.3485    25.8578    26.3655
  346.0000    52.5802    26.0656    26.7737
  346.5000    54.1829    26.3454    26.8423
  347.0000    59.8850    25.7999    26.6149
  347.5000    65.1906    25.1844    25.8355
  348.0000    67.7858    24.3956    25.0792
  348.5000    70.1443    23.4843    24.3438
  349.0000    70.7190    22.6044    23.6309
  349.5000    71.3384    21.7600    23.1159
  350.0000    71.9758    21.6527    23.1785
  350.5000    71.8730    21.8902    23.2375
  351.0000    71.7192    22.2292    23.2966
  351.5000    71.9579    22.5734    23.4126
  352.0000    73.9966    22.9229    23.6191
  352.5000    75.9987    23.1159    23.7721
  353.0000    77.9772    22.9149    23.6030
  353.5000    79.5907    22.7762    23.4692
  354.0000    80.3855    22.6388    23.3328
  354.5000    80.3456    22.5025    23.2669
  355.0000    80.1142    22.3919    23.1548
  355.5000    79.8727    22.2875    23.0432
  356.0000    79.1455    22.1836    22.9322
  356.5000    77.2814    22.0801    22.8217
  357.0000    75.4444    21.9772    22.7119
  357.5000    74.1859    21.8747    22.6020
  358.0000    75.4508    21.6721    22.4956
  358.5000    79.6665    21.4490    22.2394
  359.0000    82.1614    21.2282    21.9627
  359.5000    83.2700    21.0096    21.6894
  360.0000    81.7872    20.7933    21.4195
  360.5000    80.3525    20.5792    21.1530
  361.0000    79.2253    20.3674    20.9273
  361.5000    78.9613    20.1577    20.7262
  362.0000    78.9776    19.9502    20.5269
  362.5000    79.0777    19.7448    20.3296
  363.0000    79.1782    19.5384    20.2822
  363.5000    79.2832    19.7220    20.4662
  364.0000    79.1819    19.9102    20.6014
  364.5000    78.9776    20.1003    20.7376
  365.0000    78.1470    20.2921    20.8894
  365.5000    76.0410    20.4858    21.1491
  366.0000    75.2289    20.6814    21.4139
  366.5000    77.0417    20.8788    21.6816
  367.0000    79.9901    21.0781    21.9525
  367.5000    82.5026    21.2793    22.2268
  368.0000    83.4525    21.4824    22.5046
  368.5000    84.0945    21.6875    22.6880
  369.0000    84.0223    21.8559    22.3949
  369.5000    83.8381    21.7004    22.1797
  370.0000    82.8927    21.4421    21.9665
  370.5000    81.6832    21.1879    21.7553
  371.0000    81.1161    20.9368    21.5462
  371.5000    81.6135    20.6888    21.2720
  372.0000    82.0902    20.4437    20.9458
  372.5000    82.2850    20.2015    20.6245
  373.0000    82.4353    19.9622    20.3091
  373.5000    82.5653    19.7258    19.9936
  374.0000    82.5278    19.4921    19.8424
  374.5000    81.6984    19.2612    19.7482
  375.0000    80.8507    19.0330    19.6563
  375.5000    79.9524    18.8076    19.5648
  376.0000    78.9635    18.5852    19.4736
  376.5000    79.9165    18.3029    19.3567
  377.0000    80.9892    18.3266    19.5587
  377.5000    81.7069    18.3599    19.5981
