~VERSION INFORMATION
 VERS.                2.0:   CWLS LOG ASCII STANDARD - VERSION 2.0
 WRAP.                 NO:   ONE LINE PER DEPTH STEP
~WELL INFORMATION
#MNEM.UNIT      DATA TYPE    INFORMATION
#----------   ------------   ------------------------------
 STRT.F           28.0000:   START DEPTH
 STOP.F          636.0000:   STOP DEPTH
 STEP.F            0.5000:   STEP LENGTH
 NULL.          -999.2500:   NO VALUE
 COMP. FENIX & SCISSON INC:   COMPANY
 WELL.    NPR-3 #12S14-14:   WELL
 FLD .             TEAPOT:   FIELD
 LOC .      S14 T38N R78W:   LOCATION
 CNTY.            NATRONA:   COUNTY
 STAT.            WYOMING:   STATE
 CTRY. UNITED STATES OF AMERICA:   COUNTRY
 SRVC.           BIRDWELL:   SERVICE COMPANY
 DATE.        21-JUN-1978:   LOGDATE
 API .       490251065000:   API NUMBER
~CURVE INFORMATION
#MNEM.UNIT       API CODE    CURVE DESCRIPTION
#----------   ------------   ------------------------------
 DEPT.F                  :   
 SPR .MV     07 010 01 00:   SPONTANEOUS POTENTIAL
 ILD .OHMM   07 120 46 00:   INDUCTION LOG DEEP
 SN  .OHMM   07 040 16 00:   SHORT NORMAL 16"
 GRD .GAPI   45 310 01 00:   GAMMA RAY FROM DENSITY LOG
 CORR.G/C3   45 356 01 00:   DENSITY CORRECTION
 DEN .G/C3   45 350 01 00:   COMPENSATED BULK DENSTIY
 DPHI.DEC    45 890 12 00:   DENSITY POROSITY SANDSTONE
~PARAMETER INFORMATION
#MNEM.UNIT          VALUE    DESCRIPTION
#----------   ------------   ------------------------------
 PD  .                 GL:   PERMANENT DATUM
 EPD .F              5237:   ELEVATION PERMANENT DATUM
 LMF .                 KB:   LOG MEASURED FROM
 DMF .                 KB:   DRILLING MEASURED FROM
 EKB .F              5241:   KELLING BUSHING
 EGL .F              5237:   GROUND LEVEL
 DATE.        21-JUN-1978:   RUN DATE
 RUN .                  1:   RUN NUMBER
 DD  .F               637:   DEPTH DRILLER
 DL  .F               642:   DEPTH LOGGER
 BLI .F               636:   BOTTOM LOG INTERVAL
 TLI .F                40:   TOP LOG INTERVAL
 CS  .IN            8.625:   CASING SIZE
 CBD .F                40:   CASING BOTTOM DRILLER
 CBL .F                40:   CASING BOTTOM LOGGER
 BS  .IN            7.875:   BIT SIZE
 BSD .F               637:   BIT SIZE AT DEPTH
 DFT .                KCL:   DRILLING FLUID TYPE
 DFD .                8.7:   DRILLING FLUID DENSITY
 DFV .                 32:   DRILLING FLUID VISCOSITY
 DFPH.                 10:   DRILLING FLUID PH
 MSS .           FLOWLINE:   MUD SAMPLE SOURCE
 RMS .OHMM            .18:   RESISTIVITY MUD SAMPLE
 MST .F                84:   MUD SAMPLE TEMPERATURE
 RMF .OHMM            .17:   RESISTIVITY MUD FILTRATE SAMPLE
 MFST.F                72:   MUD FILTRATE SAMPLE TEMPERATURE
 RMC .OHMM            .28:   RESISTIVITY MUD CAKE
 MCST.F                82:   MUD CAKE SAMPLE TEMPERATURE
 MFSS.               MEAS:   MUD FILTRATE SAMPLE SOURCE
 MCSS.               MEAS:   MUD CAKE SAMPLE SOURCE
 BHT .F                72:   BOTTOM HOLE TEMPERATURE
 TCS .HRS            0230:   TIME CURCULATED STOPPED
 MRT .F                72:   MAXIMUM RECORDED TEMPERATURE
 LUN .               2958:   LOGGING UNIT NUMBER
 LUL .               CASP:   LOGGING UNIT LOCATION
 ENGI.             MILLER:   RECORDING ENGINEER
 WITN.           MCGINLEY:   WITNESSED BY
 CLNT.            A2DTECH:   CLIENT CODE
 ORIG.           5" PRINT:   ORIGIN OF DATA
 UWI .       490251065000:   UNIQUE WELL ID
 DICO. A2D Technologies, Inc.:   DIGITIZING COMPANY
~OTHER INFORMATION
~A   DEPT      SPR        ILD         SN        GRD       CORR        DEN       DPHI   
# ...
  164.5000   -52.4186     5.7585     6.7441    85.1818     0.0032     2.4499     0.1296
  165.0000   -52.5568     5.7210     6.7954    85.0298     0.0031     2.4499     0.1311
  165.5000   -52.6946     5.7243     6.7990    85.0283     0.0031     2.4500     0.1323
  166.0000   -52.6800     5.7270     6.8027    84.1259     0.0046     2.4536     0.1323
  166.5000   -52.5188     5.7298     6.8063    83.8244     0.0045     2.4558     0.1299
  167.0000   -52.6595     5.7325     6.7623    86.2250     0.0060     2.4558     0.1278
  167.5000   -52.6449     5.7358     6.7669    89.6769     0.0059     2.4558     0.1294
  168.0000   -52.6332     5.7385     6.8174    85.0208     0.0014     2.4582     0.1288
  168.5000   -52.6215     5.7810     6.9157    77.2115    -0.0047     2.4659     0.1234
  169.0000   -52.6097     5.8238     6.9676    74.8076    -0.0077     2.4782     0.1159
  169.5000   -52.5979     5.8668     7.0680    73.6049    -0.0077     2.4591     0.1189
  170.0000   -52.5859     5.9102     7.1708    78.2580    -0.0063     2.4503     0.1264
  170.5000   -52.5717     5.9540     7.2243    83.6623    -0.0063     2.4466     0.1315
  171.0000   -52.5600     6.0395     7.2782    83.2100    -0.0064     2.4451     0.1336
  171.5000   -52.5483     6.0842     7.2311    83.9592    -0.0064     2.4428     0.1324
  172.0000   -52.5366     6.0872     7.1863    85.6094    -0.0065     2.4403     0.1339
  172.5000   -52.5249     5.9659     7.1398    87.4100    -0.0035     2.4351     0.1384
  173.0000   -52.5132     5.9270     7.0945    83.9547     0.0009     2.4324     0.1420
  173.5000   -52.5015     5.9305     7.0505    82.0013     0.0054     2.4416     0.1420
  174.0000   -52.4898     5.8918     7.0543    81.2494     0.0068     2.4556     0.1361
  174.5000   -52.6278     5.8548     7.0582    86.2025     0.0068     2.4585     0.1247
  175.0000   -52.6158     5.8166     7.0621    87.8530     0.0052     2.4521     0.1253
  175.5000   -52.4547     5.7793     7.0172    83.0463     0.0022     2.4472     0.1313
  176.0000   -52.5924     5.7827     6.9728    81.6934     0.0007     2.4472     0.1314
  176.5000   -52.4283     5.7457     6.9774    81.8425    -0.0009     2.4464     0.1301
  177.0000   -52.5661     5.7484     6.9812    83.7925    -0.0054     2.4405     0.1319
  177.5000   -52.4049     5.7910     6.9850    86.4937    -0.0025     2.4321     0.1400
  178.0000   -52.3932     5.7943     6.9887    89.1953     0.0005     2.4445     0.1376
  178.5000   -52.3815     5.7971     6.9925    89.1934     0.0049     2.4478     0.1314
  179.0000   -52.3698     5.8399     6.9963    90.2430     0.0049     2.4496     0.1318
  179.5000   -52.3581     5.9239     7.0485    91.4427     0.0048     2.4553     0.1251
  180.0000   -52.3464     6.0090     7.1011    84.9847     0.0048     2.4500     0.1305
  180.5000   -52.3347     6.1376     7.1550    81.8305     0.0047     2.4485     0.1341
  181.0000   -52.3229     6.1830     7.2582    87.9847     0.0047     2.4529     0.1290
  181.5000   -52.4608     6.1859     7.3629    83.6289     0.0062     2.4656     0.1302
  182.0000   -52.4461     6.2748     7.5209    82.8766     0.0062     2.4724     0.1218
  182.5000   -52.4344     6.3213     7.5770    83.1758     0.0091     2.4776     0.1114
  183.0000   -52.4227     6.4193     7.7395    80.0208     0.0074     2.4768     0.1099
  183.5000   -52.4110     6.4603     7.7436    79.5688     0.0060     2.4708     0.1147
  184.0000   -52.2498     6.3309     7.6945    77.1649     0.0025     2.4633     0.1207
  184.5000   -52.2381     6.2904     7.5931    79.5658    -0.0016     2.4558     0.1234
  185.0000   -52.2264     6.1637     7.4883    84.3691    -0.0046     2.4438     0.1246
  185.5000   -52.3647     5.9995     7.3439    85.4190    -0.0047     2.4288     0.1354
  186.0000   -52.3525     5.9603     7.1985    84.6668    -0.0032     2.4310     0.1447
  186.5000   -52.1913     5.8410     7.1037    88.5688    -0.0018     2.4377     0.1387
  187.0000   -52.1794     5.8042     7.0093    88.8680    -0.0003     2.4377     0.1351
  187.5000   -52.1674     5.7274     6.9649    86.3136    -0.0004     2.4399     0.1342
  188.0000   -52.1533     5.7699     6.9695    83.1593     0.0026     2.4451     0.1339
  188.5000   -52.1416     5.8534     6.9733    87.8121     0.0040     2.4481     0.1315
  189.0000   -52.2823     5.8562     6.9771    85.2580    -0.0005     2.4503     0.1273
  189.5000   -52.2676     5.8995     7.0291    82.4037    -0.0036     2.4541     0.1253
  190.0000   -52.2559     5.9843     7.0848    80.7509    -0.0081     2.4503     0.1280
  190.5000   -52.2442     6.0286     7.1426    88.5568    -0.0126     2.4375     0.1238
  191.0000   -52.2325     6.0732     7.1886    84.8016    -0.0142     2.4308     0.1355
  191.5000   -52.2208     6.1604     7.2422    82.8481    -0.0127     2.4248     0.1460
  192.0000   -52.2091     6.2060     7.2962    84.7986    -0.0023     2.4480     0.1385
  192.5000   -52.1973     6.2519     7.3507    85.5482     0.0067     2.4554     0.1298
  193.0000   -52.1854     6.2982     7.4055    82.0928     0.0051     2.4599     0.1283
  193.5000   -52.1711     6.3065     7.4095    81.9416    -0.0009     2.4464     0.1232
  194.0000   -52.1594     6.3485     7.4135    84.9427    -0.0010     2.4374     0.1368
  194.5000   -52.1477     6.3515     7.4688    89.5958    -0.0040     2.4411     0.1385
  195.0000   -52.1360     6.3545     7.5263    90.3455    -0.0040     2.4403     0.1328
  195.5000   -52.1243     6.3131     7.5876    86.8901    -0.0026     2.4403     0.1376
  196.0000   -52.1125     6.3168     7.6382    85.9877    -0.0011     2.4433     0.1319
  196.5000   -52.1008     6.2756     7.6423    85.9862     0.0033     2.4530     0.1281
  197.0000   -52.0891     6.2354     7.6464    86.2850     0.0048     2.4612     0.1224
  197.5000   -52.0774     6.2391     7.6506    87.4847     0.0062     2.4552     0.1266
  198.0000   -52.2152     6.2420     7.6547    87.1829     0.0047     2.4582     0.1308
  198.5000   -52.2033     6.2450     7.6588    85.9802     0.0046     2.4552     0.1251
  199.0000   -52.0418     6.2049     7.6093    85.5283     0.0031     2.4506     0.1281
  199.5000   -52.0277     6.1652     7.4584    84.7760     0.0045     2.4514     0.1281
  200.0000   -52.1663     6.0836     7.2598    84.1395     0.0060     2.4532     0.1287
  200.5000   -52.1530     6.0442     7.1138    83.7222     0.0045     2.4573     0.1242
  201.0000   -52.1398     6.0058     7.0683    83.1191    -0.0015     2.4491     0.1210
  201.5000   -52.1265     6.0082     7.0725    82.5165    -0.0075     2.4371     0.1410
  202.0000   -52.1133     5.9687     7.0758    82.3664    -0.0135     2.4310     0.1328
  202.5000   -52.1000     5.9718     7.0792    83.7212    -0.0106     2.4243     0.1352
  203.0000   -52.0867     6.0156     7.0826    85.2192    -0.0046     2.4430     0.1399
  203.5000   -52.0733     6.0597     7.0859    85.5150     0.0029     2.4482     0.1309
  204.0000   -52.0598     6.0622     7.0894    85.6677     0.0089     2.4482     0.1318
  204.5000   -52.1964     6.1066     7.0935    85.8123     0.0103     2.4549     0.1322
  205.0000   -52.1798     6.1091     7.1460    84.8949     0.0043     2.4698     0.1210
  205.5000   -52.1666     6.1116     7.1494    83.0956    -0.0017     2.4623     0.1127
  206.0000   -52.1533     6.1141     7.1528    82.5045    -0.0077     2.4496     0.1212
  206.5000   -52.1400     6.1166     7.1562    85.0686    -0.0077     2.4458     0.1319
  207.0000   -52.1268     6.1192     7.2091    84.1321    -0.0017     2.4443     0.1343
  207.5000   -51.9640     6.1217     7.2125    82.9505     0.0043     2.4488     0.1307
  208.0000   -51.9508     6.1671     7.2659    83.5656     0.0087     2.4667     0.1235
  208.5000   -51.9375     6.2124     7.3196    85.5255     0.0087     2.4697     0.1211
  209.0000   -51.9242     6.2149     7.3231    86.6997     0.0012     2.4869     0.1211
  209.5000   -52.0638     6.2605     7.3773    84.2863    -0.0078     2.5093     0.1175
