~VERSION INFORMATION
 VERS.                2.0:   CWLS LOG ASCII STANDARD - VERSION 2.0
 WRAP.                 NO:   ONE LINE PER DEPTH STEP
~WELL INFORMATION
#MNEM.UNIT      DATA TYPE    INFORMATION
#----------   ------------   ------------------------------
 STRT.F           30.0000:   START DEPTH
 STOP.F          570.0000:   STOP DEPTH
 STEP.F            0.5000:   STEP LENGTH
 NULL.          -999.2500:   NO VALUE
 COMP.    FENIX & SCISSON:   COMPANY
 WELL.  NPR #3 #13SX11-11:   WELL
 FLD .             TEAPOT:   FIELD
 LOC .      S11 T38N R78W:   LOCATION
 CNTY.            NATRONA:   COUNTY
 STAT.            WYOMING:   STATE
 CTRY. UNITED STATES OF AMERICA:   COUNTRY
 SRVC.       Schlumberger:   SERVICE COMPANY
 DATE.        27-FEB-1977:   LOGDATE
 API .       490251029400:   API NUMBER
~CURVE INFORMATION
#MNEM.UNIT       API CODE    CURVE DESCRIPTION
#----------   ------------   ------------------------------
 DEPT.F                  :   
 GRD .GAPI   45 310 01 00:   GAMMA RAY FROM DENSITY LOG
 CALD.IN     45 280 60 00:   CALIPER FROM DENSITY LOG
 CORR.G/C3   45 356 01 00:   DENSITY CORRECTION
 DPHI.DEC    45 890 12 00:   DENSITY POROSITY STANDSTONE
 RHOB.G/C3   45 350 01 00:   BULK DENSITY
 SPR .MV     07 010 01 00:   SPONTANEOUS POTENTIAL
 ILD .OHMM   07 120 46 00:   INDUCTION LOG DEEP
 ILM .OHMM   07 120 44 00:   INDUCTION LOG MEDIUM
 LL8 .OHMM   07 220 08 00:   LATEROLOG-8 RES.
~PARAMETER INFORMATION
#MNEM.UNIT          VALUE    DESCRIPTION
#----------   ------------   ------------------------------
 PD  .                 GL:   PERMANENT DATUM
 EPD .F              5180:   ELEVATION PERMANENT DATUM
 LMF .                 GL:   LOG MEASURED FROM
 DAPD.F                 0:   FEET ABOVE PERMANENT DATUM
 DMF .                 GL:   DRILLING MEASURED FROM
 EKB .F              5183:   KELLING BUSHING
 EGL .F              5180:   GROUND LEVEL
 DATE.        27-FEB-1977:   RUN DATE
 RUN .                  1:   RUN NUMBER
 DD  .F               585:   DEPTH DRILLER
 DL  .F               571:   DEPTH LOGGER
 BLI .F               570:   BOTTOM LOG INTERVAL
 TLI .F                44:   TOP LOG INTERVAL
 CS  .IN            8.625:   CASING SIZE
 CBD .F                40:   CASING BOTTOM DRILLER
 CBL .F                44:   CASING BOTTOM LOGGER
 BS  .IN            7.875:   BIT SIZE
 BSD .F               585:   BIT SIZE AT DEPTH
 DFT .                KCL:   DRILLING FLUID TYPE
 DFD .                8.7:   DRILLING FLUID DENSITY
 DFV .                 42:   DRILLING FLUID VISCOSITY
 DFPH.                  8:   DRILLING FLUID PH
 DFL .                9.2:   DRILLING FLUID LOSS
 MSS .                PIT:   MUD SAMPLE SOURCE
 RMS .OHMM           .806:   RESISTIVITY MUD SAMPLE
 MST .F                70:   MUD SAMPLE TEMPERATURE
 RMF .OHMM           .720:   RESISTIVITY MUD FILTRATE SAMPLE
 MFST.F                70:   MUD FILTRATE SAMPLE TEMPERATURE
 MFSS.               MEAS:   MUD FILTRATE SAMPLE SOURCE
 RMB .OHMM           .973:   RESISTIVITY MUD AT BHT
 BHT .F                58:   BOTTOM HOLE TEMPERATURE
 TCS .HRS            0230:   TIME CURCULATED STOPPED
 MRT .F                58:   MAXIMUM RECORDED TEMPERATURE
 LUN .               5642:   LOGGING UNIT NUMBER
 LUL .             CASPER:   LOGGING UNIT LOCATION
 ENGI.         JIM MARTIN:   RECORDING ENGINEER
 WITN.         STUEBINGER:   WITNESSED BY
 CLNT.            A2DTECH:   CLIENT CODE
 ORIG.           5" PRINT:   ORIGIN OF DATA
 UWI .       490251029400:   UNIQUE WELL ID
 DICO. A2D Technologies, Inc.:   DIGITIZING COMPANY
~OTHER INFORMATION
~A   DEPT      GRD       CALD       CORR       DPHI       RHOB        SPR        ILD        ILM        LL8   
# ...
  541.0000    98.6171     8.0875     0.0111     0.1046     2.4900   -27.7130     9.9616    10.0705     9.7279
  541.5000    95.1345     8.0880     0.0095     0.1109     2.4667   -27.5665     9.8890     9.9277     9.7238
  542.0000    94.3758     8.0885     0.0005     0.1140     2.4674   -27.4199     9.8169     9.9236     9.7993
  542.5000    97.2464     8.0890     0.0064     0.1077     2.4907   -27.2734    10.0188     9.9885    10.0018
  543.0000   100.2691     8.0895     0.0011     0.1062     2.4711   -26.9759    10.3674    10.3367    10.3511
  543.5000   102.0816     8.0901     0.0033     0.1101     2.4734   -26.9805    10.7282    10.6970    10.7711
  544.0000   100.4144     8.0906     0.0107     0.1044     2.4861   -26.6828    11.0249    10.9173    11.0706
  544.5000    99.8062     8.0911     0.0152     0.0981     2.5018   -26.5363    11.2528    11.2198    11.4553
  545.0000    99.8032     8.0916     0.0084     0.0924     2.5048   -26.3898    11.4040    11.4509    11.6925
  545.5000    99.9516     8.0921     0.0256     0.0866     2.5085   -26.2432    11.5595    11.6072    11.8509
  546.0000   100.0998     8.0926     0.0300     0.0842     2.5145   -25.7946    11.6351    11.6832    12.0115
  546.5000   100.2480     8.0931     0.0150     0.0951     2.5130   -25.4970    11.6294    11.6771    12.0052
  547.0000   100.3963     8.0937     0.0127     0.1047     2.4852   -25.5016    11.6248    11.5916    12.0002
  547.5000   102.3600     8.0942    -0.0046     0.1075     2.4731   -25.8082    11.6202    11.5868    11.9953
  548.0000   106.1391     8.0947     0.0118     0.1051     2.4716   -26.1148    11.6156    11.5020    11.9903
  548.5000   105.0771     8.0952     0.0088     0.1015     2.5001   -26.4215    11.6109    11.5784    12.3237
  549.0000   102.8048     8.0957     0.0132     0.0979     2.5203   -27.0302    11.6063    11.6541    12.7520
  549.5000   102.7997     8.0962     0.0124     0.1060     2.4940   -27.6390    11.6018    11.8942    12.9261
  550.0000   103.1014     8.0965    -0.0019     0.1099     2.4730   -28.2477    11.6788    11.9720    12.6533
  550.5000    98.5535     8.0950     0.0133     0.1013     2.4948   -28.2523    11.8357    12.2174    12.3020
  551.0000    98.8797     8.0934     0.0182     0.0961     2.5104   -27.9547    11.9144    12.2986    12.2119
  551.5000  -999.2500     8.0919     0.0091     0.1016     2.5036   -27.6571    12.1583    12.4639    12.2931
  552.0000  -999.2500     8.0903     0.0031     0.1109     2.4742   -27.6616    12.3228    12.6341    12.7203
  552.5000  -999.2500     8.0887     0.0105     0.1124     2.4599   -27.3644    12.5776    12.8944    13.3475
  553.0000  -999.2500     8.0872     0.0127     0.1070     2.4816   -27.3685    12.8351    12.9787    13.4362
  553.5000  -999.2500     8.0856     0.0148     0.1040     2.4861   -27.0709    12.9203    12.9720    13.2442
  554.0000  -999.2500     8.0841     0.0170     0.1071     2.4703   -27.0755    12.8249    12.8770    13.0564
  554.5000  -999.2500     8.0825     0.0102     0.1221     2.4492   -26.9289    12.7314    12.6066    12.8712
  555.0000  -999.2500     8.0810    -0.0071     0.1282     2.4349   -26.7724    12.5514    12.3419    12.6009
  555.5000  -999.2500     8.0794    -0.0110     0.1297     2.4175   -26.4848    12.2887    12.1669    12.3363
  556.0000  -999.2500     8.0778    -0.0155     0.1270     2.4145   -26.3383    12.1150    11.9943    12.2460
  556.5000  -999.2500     8.0763     0.0039     0.1234     2.4430   -26.3429    12.0267    11.9064    12.2409
  557.0000  -999.2500     8.0747     0.0091     0.1204     2.4542   -26.4988    11.8567    11.8192    12.2358
  557.5000  -999.2500     8.0732     0.0030     0.1171     2.4441   -26.6543    11.7703    11.7327    12.2307
  558.0000  -999.2500     8.0716    -0.0016     0.1135     2.4668   -26.6589    11.7656    11.6468    12.2257
  558.5000  -999.2500     8.0701     0.0103     0.1102     2.4795   -26.5112    11.7609    11.5615    12.2206
  559.0000  -999.2500     8.0685     0.0118     0.1126     2.4697   -26.3647    11.7563    11.5567    12.2155
  559.5000  -999.2500     8.0669     0.0003     0.1156     2.4554   -26.3703    11.7516    11.5519    12.2104
  560.0000  -999.2500     8.0654     0.0060     0.1096     2.4846   -26.6770    11.7470    11.5471    12.2054
  560.5000  -999.2500     8.0638     0.0138     0.1057     2.4928   -27.2857    11.7423    11.5423    12.2003
  561.0000  -999.2500     8.0623     0.0032     0.1027     2.4965   -27.8945    11.7376    11.6179    12.1952
  561.5000  -999.2500     8.0607     0.0219     0.1064     2.5017   -28.0501    11.7329    11.6939    12.1902
  562.0000  -999.2500     8.0591     0.0345     0.0987     2.4746   -28.0546    11.7283    11.6890    12.1851
  562.5000  -999.2500     8.0576     0.0420     0.0953     2.5279   -28.0591    11.6428    11.7654    12.1801
  563.0000  -999.2500     8.0565     0.0321     0.0968     2.5338   -28.0636    11.5499    11.7605    12.1750
  563.5000  -999.2500     8.0562     0.0171     0.1110     2.4802   -27.9171    11.4736    11.7557    12.0858
  564.0000  -999.2500     8.0558     0.0058     0.1146     2.4654   -27.9215    11.4690    11.6695    12.0428
  564.5000  -999.2500     8.0403     0.0087     0.1116     2.4657  -999.2500  -999.2500  -999.2500  -999.2500
  565.0000  -999.2500     8.0400     0.0161     0.1026     2.4825  -999.2500  -999.2500  -999.2500  -999.2500
  565.5000  -999.2500     8.0244     0.0265     0.0953     2.4952  -999.2500  -999.2500  -999.2500  -999.2500
  566.0000  -999.2500     8.0241     0.0392     0.0902     2.4989  -999.2500  -999.2500  -999.2500  -999.2500
  566.5000  -999.2500     7.9935     0.0489     0.0948     2.4981  -999.2500  -999.2500  -999.2500  -999.2500
  567.0000  -999.2500     7.9630     0.0585     0.1032     2.4936  -999.2500  -999.2500  -999.2500  -999.2500
  567.5000  -999.2500     7.8571     0.0668     0.1020     2.4725  -999.2500  -999.2500  -999.2500  -999.2500
  568.0000  -999.2500     7.7360     0.0681     0.1156     2.4626  -999.2500  -999.2500  -999.2500  -999.2500
  568.5000  -999.2500     7.5547     0.0577     0.1177     2.4462  -999.2500  -999.2500  -999.2500  -999.2500
  569.0000  -999.2500     7.3582     0.0417     0.1313     2.4040  -999.2500  -999.2500  -999.2500  -999.2500
  569.5000  -999.2500     7.1768     0.0687     0.1262     2.4580  -999.2500  -999.2500  -999.2500  -999.2500
  570.0000  -999.2500     7.0407     0.0997     0.1108     2.4867  -999.2500  -999.2500  -999.2500  -999.2500
