~VERSION INFORMATION
 VERS.                2.0:   CWLS LOG ASCII STANDARD - VERSION 2.0
 WRAP.                 NO:   ONE LINE PER DEPTH STEP
~WELL INFORMATION
#MNEM.UNIT      DATA TYPE    INFORMATION
#----------   ------------   ------------------------------
 STRT.F          700.0000:   START DEPTH
 STOP.F         2111.0000:   STOP DEPTH
 STEP.F            0.5000:   STEP LENGTH
 NULL.          -999.2500:   NO VALUE
 COMP. FENIX & SCISSON INC:   COMPANY
 WELL.    35 SAX 34 #3-34:   WELL
 FLD .             TEAPOT:   FIELD
 LOC .      S34 T39N R78W:   LOCATION
 CNTY.            NATRONA:   COUNTY
 STAT.            WYOMING:   STATE
 CTRY. UNITED STATES OF AMERICA:   COUNTRY
 SRVC.            Unknown:   SERVICE COMPANY
 DATE.        29-MAY-1978:   LOGDATE
 API .       490251061700:   API NUMBER
~CURVE INFORMATION
#MNEM.UNIT       API CODE    CURVE DESCRIPTION
#----------   ------------   ------------------------------
 DEPT.F                  :   
 CALD.IN     45 280 60 00:   CALIPER FROM DENSITY LOG
 GRD .GAPI   45 310 01 00:   GAMMA RAY FROM DENSITY LOG
 RHOB.G/C3   45 350 01 00:   BULK DENSITY
 DPHI.DEC    45 890 00 00:   DENSITY POROSITY
 CORR.G/C3   45 356 01 00:   DENSITY CORRECTION
~PARAMETER INFORMATION
#MNEM.UNIT          VALUE    DESCRIPTION
#----------   ------------   ------------------------------
 PD  .                 GL:   PERMANENT DATUM
 EPD .F              5105:   ELEVATION PERMANENT DATUM
 LMF .                 KB:   LOG MEASURED FROM
 DAPD.F                10:   FEET ABOVE PERMANENT DATUM
 DMF .                 KB:   DRILLING MEASURED FROM
 EKB .F              5115:   KELLING BUSHING
 EGL .F              5105:   GROUND LEVEL
 DATE.          5-29-1978:   RUN DATE
 RUN .                  1:   RUN NUMBER
 DD  .F              2111:   DEPTH DRILLER
 DL  .F              2118:   DEPTH LOGGER
 BLI .F              2110:   BOTTOM LOG INTERVAL
 TLI .F               720:   TOP LOG INTERVAL
 CS  .IN            9.625:   CASING SIZE
 CBD .F               711:   CASING BOTTOM DRILLER
 CBL .F               721:   CASING BOTTOM LOGGER
 BS  .IN             8.75:   BIT SIZE
 BSD .F              2111:   BIT SIZE AT DEPTH
 DFT .                OIL:   DRILLING FLUID TYPE
 TCS .HRS               1:   TIME CURCULATED STOPPED
 LUN .               2958:   LOGGING UNIT NUMBER
 LUL .               CASP:   LOGGING UNIT LOCATION
 ENGI.             MILLER:   RECORDING ENGINEER
 WITN.           MCGINLEY:   WITNESSED BY
 CLNT.            A2DTECH:   CLIENT CODE
 ORIG.           5" PRINT:   ORIGIN OF DATA
 UWI .       490251061700:   UNIQUE WELL ID
 DICO. A2D Technologies, Inc.:   DIGITIZING COMPANY
~OTHER INFORMATION
~A   DEPT     CALD         GRD      RHOB       DPHI       CORR   
# ...
 1676.0000     9.3833    69.3425     2.3946     0.0974     0.1984
 1676.5000     9.4258    68.7688     2.3954     0.0985     0.2041
 1677.0000     9.4682    68.6299     2.3975     0.0998     0.2098
 1677.5000     9.5106    68.6895     2.3965     0.0998     0.2157
 1678.0000     9.5235    68.7531     2.3955     0.0972     0.2251
 1678.5000     9.5066    69.2551     2.3946     0.0939     0.2346
 1679.0000     9.4897    70.1731     2.3976     0.0907     0.2433
 1679.5000     9.4727    70.5834     2.4018     0.0938     0.2424
 1680.0000     9.4558    70.0143     2.4055     0.0948     0.2413
 1680.5000     9.4389    69.2704     2.4024     0.0930     0.2403
 1681.0000     9.4223    69.1138     2.3997     0.0953     0.2407
 1681.5000     9.4245    69.2994     2.3997     0.1003     0.2448
 1682.0000     9.4537    70.1902     2.3979     0.1084     0.2434
 1682.5000     9.4835    71.4157     2.3862     0.1166     0.2463
 1683.0000     9.4588    71.6954     2.3746     0.1170     0.2588
 1683.5000     9.4112    71.2628     2.3722     0.1064     0.2712
 1684.0000     9.3630    69.2442     2.3717     0.0931     0.2837
 1684.5000     9.3144    66.8351     2.3744     0.0899     0.2962
 1685.0000     9.2899    64.7356     2.3974     0.0879     0.2941
 1685.5000     9.2836    64.7280     2.4124     0.0865     0.2687
 1686.0000     9.2776    64.6789     2.4142     0.0876     0.2548
 1686.5000     9.2658    64.6128     2.4158     0.0800     0.2421
 1687.0000     9.2277    64.8712     2.4172     0.0758     0.2353
 1687.5000     9.1903    67.0198     2.4248     0.0743     0.2268
 1688.0000     9.1531    69.4276     2.4334     0.0764     0.2121
 1688.5000     9.1368    71.1991     2.4329     0.0834     0.1975
 1689.0000     9.1441    70.5065     2.4293     0.0676     0.1877
 1689.5000     9.1505    69.0842     2.4291     0.0663     0.1955
 1690.0000     9.2089    69.5326     2.4402     0.0619     0.1891
 1690.5000     9.2838    70.5350     2.4490     0.0603     0.1766
 1691.0000     9.3267    71.2265     2.4533     0.0680     0.1721
 1691.5000     9.3144    69.3079     2.4572     0.0787     0.1698
 1692.0000     9.3898    67.4786     2.4448     0.0854     0.1675
 1692.5000     9.4682    66.7131     2.4312     0.0858     0.1784
 1693.0000     9.5247    66.4172     2.4209     0.0823     0.1931
 1693.5000     9.5516    66.2053     2.4207     0.0788     0.2080
 1694.0000     9.5506    66.2856     2.4259     0.0753     0.2228
 1694.5000     9.4565    66.3571     2.4311     0.0730     0.2342
 1695.0000     9.4522    67.1340     2.4333     0.0728     0.2359
 1695.5000     9.5039    68.5852     2.4342     0.0765     0.2392
 1696.0000     9.5497    70.0790     2.4339     0.0841     0.2526
 1696.5000     9.5251    70.3946     2.4316     0.0974     0.2651
 1697.0000     9.5011    69.7427     2.4226     0.0978     0.2702
 1697.5000     9.5102    67.2188     2.4049     0.0798     0.2739
 1698.0000     9.5398    64.8678     2.4021     0.0916     0.2876
 1698.5000     9.5696    64.5879     2.4168     0.0958     0.2928
 1699.0000     9.5832    64.6373     2.4093     0.0931     0.2822
 1699.5000     9.5464    65.1760     2.4026     0.0833     0.2914
 1700.0000     9.3489    67.8363     2.4100     0.0699     0.2951
 1700.5000     9.0874    70.6435     2.4229     0.0607     0.2969
 1701.0000     9.0908    71.1395     2.4359     0.0904     0.2916
 1701.5000     9.1107    71.5050     2.4502     0.1182     0.2698
 1702.0000     6.6809    71.6058     2.4201     0.1082     0.2386
 1702.5000     9.3340    70.2863     2.3791     0.0878     0.2229
 1703.0000     9.3833    68.6492     2.3639     0.0901     0.2430
 1703.5000     9.4220    67.2030     2.3973     0.0928     0.2597
 1704.0000     9.4141    66.7652     2.4114     0.0824     0.2454
 1704.5000     9.3309    67.6699     2.4082     0.0694     0.2344
 1705.0000     9.2676    68.4084     2.4172     0.0482     0.2388
 1705.5000     9.2532    67.7391     2.4316     0.0204     0.2421
 1706.0000     9.2108    66.0027     2.4705     0.0076     0.2433
 1706.5000     9.1320    63.3423     2.5115     0.0349     0.2309
 1707.0000     9.0524    60.6738     2.5366     0.0443     0.1963
 1707.5000     8.9770    59.0030     2.5104     0.0572     0.1617
 1708.0000     9.0072    59.0163     2.4889     0.0700     0.1538
 1708.5000     9.0632    59.0232     2.4672     0.0818     0.1596
 1709.0000     9.2073    59.7335     2.4456     0.0798     0.1658
 1709.5000     9.2959    63.0561     2.4258     0.0616     0.1835
 1710.0000     9.3512    66.2797     2.4266     0.0327     0.2111
 1710.5000     9.3274    69.5869     2.4577     0.0390     0.2395
 1711.0000     9.3033    71.8644     2.4811     0.0503     0.2517
 1711.5000     9.3119    72.7959     2.4993     0.0539     0.2344
 1712.0000     9.3453    71.7214     2.4786     0.0595     0.2217
 1712.5000     9.3657    68.1114     2.4648     0.0612     0.2220
 1713.0000     9.3219    65.8696     2.4608     0.0643     0.2223
 1713.5000     9.2787    65.6348     2.4567     0.0759     0.2227
 1714.0000     9.2898    67.1631     2.4528     0.0867     0.2230
 1714.5000     9.3101    70.4948     2.4389     0.0930     0.2234
 1715.0000     9.3319    71.9772     2.4214     0.0946     0.2269
 1715.5000     9.3994    72.1664     2.4042     0.0962     0.2366
 1716.0000     9.4769    71.1080     2.4034     0.0794     0.2462
 1716.5000     9.4346    70.2815     2.4073     0.0702     0.2560
 1717.0000     9.3558    69.7148     2.4306     0.0638     0.2578
 1717.5000     9.3385    69.3758     2.4415     0.0540     0.2582
 1718.0000     9.3250    69.8851     2.4567     0.0275     0.2587
 1718.5000     9.3113    72.5791     2.4714     0.0343     0.2591
 1719.0000     9.2971    75.2254     2.4863     0.0478     0.2595
 1719.5000     9.3073    78.1586     2.5034     0.0613     0.2521
 1720.0000     9.3285    75.7718     2.4833     0.0750     0.2147
 1720.5000     9.3501    71.2902     2.4554     0.0746     0.2109
 1721.0000     9.3713    66.8107     2.4418     0.0738     0.2193
 1721.5000     9.3515    64.4592     2.4377     0.0730     0.2279
 1722.0000     9.3287    64.3690     2.4382     0.0668     0.2364
 1722.5000     9.3064    67.7135     2.4413     0.0567     0.2450
 1723.0000     9.3019    71.6816     2.4546     0.0616     0.2501
 1723.5000     9.3248    74.0579     2.4677     0.0654     0.2508
 1724.0000     9.3474    74.0902     2.4707     0.0667     0.2192
 1724.5000     9.3703    72.4525     2.4457     0.0769     0.2135
 1725.0000     9.3543    70.8110     2.4403     0.0875     0.2069
 1725.5000     9.3342    69.3901     2.4238     0.0982     0.1990
 1726.0000     9.3794    70.0753     2.4069     0.1115     0.1920
 1726.5000     9.4305    69.1319     2.3900     0.1274     0.1995
 1727.0000     9.4448    68.0348     2.3729     0.1216     0.2070
 1727.5000     9.4573    68.3661     2.3556     0.1015     0.2285
 1728.0000     9.4705    69.5772     2.3586     0.0732     0.2747
 1728.5000     9.4552    72.0245     2.3965     0.0725     0.2961
 1729.0000     9.4335    73.4067     2.4277     0.0822     0.2591
 1729.5000     9.4830    73.4620     2.4331     0.0894     0.2570
 1730.0000     9.5426    73.7307     2.4241     0.0966     0.2517
 1730.5000     9.6010    76.9709     2.4117     0.0969     0.2426
 1731.0000     9.6521    80.1168     2.3993     0.0959     0.2388
 1731.5000     9.6444    82.7790     2.3977     0.0955     0.2419
 1732.0000     9.6378    82.6152     2.3976     0.1050     0.2448
 1732.5000     9.6315    75.5802     2.3940     0.1058     0.2491
 1733.0000     9.6251    70.8106     2.3822     0.1080     0.2613
 1733.5000     9.6187    68.5312     2.3804     0.1106     0.2733
 1734.0000     9.6117    68.0718     2.3765     0.1131     0.2835
 1734.5000     9.6334    71.6733     2.3692     0.1175     0.2932
 1735.0000     9.6588    72.2500     2.3670     0.1245     0.2940
 1735.5000     9.6845    70.1442     2.3644     0.1316     0.2945
 1736.0000     9.7099    67.4623     2.3549     0.1353     0.2949
 1736.5000     9.7192    65.1057     2.3454     0.1182     0.2959
