~VERSION INFORMATION
 VERS.                2.0:   CWLS LOG ASCII STANDARD - VERSION 2.0
 WRAP.                 NO:   ONE LINE PER DEPTH STEP
~WELL INFORMATION
#MNEM.UNIT      DATA TYPE    INFORMATION
#----------   ------------   ------------------------------
 STRT.F            0.0000:   START DEPTH
 STOP.F         1340.0000:   STOP DEPTH
 STEP.F            0.5000:   STEP LENGTH
 NULL.          -999.2500:   NO VALUE
 COMP. U S NAVY-INTEX OIL:   COMPANY
 WELL. NAVAL PETROLEUM RESERVE 3 S #81-14:   WELL
 FLD .             TEAPOT:   FIELD
 LOC .      S14 T38N R78W:   LOCATION
 CNTY.            NATRONA:   COUNTY
 STAT.            WYOMING:   STATE
 CTRY. UNITED STATES OF AMERICA:   COUNTRY
 SRVC.       Schlumberger:   SERVICE COMPANY
 DATE.        20-AUG-1966:   LOGDATE
 API .       490250971600:   API NUMBER
~CURVE INFORMATION
#MNEM.UNIT       API CODE    CURVE DESCRIPTION
#----------   ------------   ------------------------------
 DEPT.F                  :   
 SPR .MV     07 010 01 00:   SPONTANEOUS POTENTIAL
 CILD.MMHO   07 110 46 00:   CONDUCTIVITY INDUCTION LOG DEEP
 ILD .OHMM   07 120 46 00:   INDUCTION LOG DEEP
 ASN .OHMM   01 041 16 00:   AMPLIFIED SHORT NORMAL 16"
 CALD.IN     45 280 60 00:   CALIPER
 RHOB.G/C3   45 350 01 00:   BULK DENSITY
 DPHI.DEC    45 890 12 00:   DENSITY POROSITY SANDSTONE
 GRD .GAPI   45 310 01 00:   GAMMA RAY FROM DENSITY LOG
 CORR.G/C3   45 356 01 00:   DENSITY CORRECTION
~PARAMETER INFORMATION
#MNEM.UNIT          VALUE    DESCRIPTION
#----------   ------------   ------------------------------
 PD  .                 GL:   PERMANENT DATUM
 EPD .F              5283:   ELEVATION PERMANENT DATUM
 LMF .                 KB:   LOG MEASURED FROM
 DAPD.F                 5:   FEET ABOVE PERMANENT DATUM
 DMF .                 KB:   DRILLING MEASURED FROM
 EKB .F              5288:   KELLING BUSHING
 EGL .F              5283:   GROUND LEVEL
 DATE.            8-20-66:   RUN DATE
 RUN .                  1:   RUN NUMBER
 DD  .F              1340:   DEPTH DRILLER
 DL  .F              1337:   DEPTH LOGGER
 BLI .F              1336:   BOTTOM LOG INTERVAL
 TLI .F                17:   TOP LOG INTERVAL
 CS  .IN            8.625:   CASING SIZE
 CBD .F                15:   CASING BOTTOM DRILLER
 CBL .F                17:   CASING BOTTOM LOGGER
 BS  .IN            7.875:   BIT SIZE
 BSD .F              1340:   BIT SIZE AT DEPTH
 DFT .           GEL-CHEM:   DRILLING FLUID TYPE
 DFD .                9.8:   DRILLING FLUID DENSITY
 DFV .                 70:   DRILLING FLUID VISCOSITY
 DFL .                  8:   DRILLING FLUID LOSS
 MSS .          FLOW LINE:   MUD SAMPLE SOURCE
 RMS .OHMM           1.26:   RESISTIVITY MUD SAMPLE
 MST .F                71:   MUD SAMPLE TEMPERATURE
 RMF .OHMM            .71:   RESISTIVITY MUD FILTRATE SAMPLE
 MFST.F                71:   MUD FILTRATE SAMPLE TEMPERATURE
 MFSS.                  M:   MUD FILTRATE SAMPLE SOURCE
 RMB .OHMM           1.04:   RESISTIVITY MUD AT BHT
 BHT .F                86:   BOTTOM HOLE TEMPERATURE
 TCS .HRS               2:   TIME CURCULATED STOPPED
 MRT .F                86:   MAXIMUM RECORDED TEMPERATURE
 LUN .               3527:   LOGGING UNIT NUMBER
 LUL .               CSPR:   LOGGING UNIT LOCATION
 ENGI.          TOLLEFSON:   RECORDING ENGINEER
 WITN.                MAY:   WITNESSED BY
 CLNT.            A2DTECH:   CLIENT CODE
 ORIG.        2" 5" PRINT:   ORIGIN OF DATA
 UWI .       490250971600:   UNIQUE WELL ID
 DICO. A2D Technologies, Inc.:   DIGITIZING COMPANY
~OTHER INFORMATION
~A    DEPT     SPR       CILD        ILD        ASN         CALD     RHOB       DPHI          GRD     CORR   
# ...
  949.0000   -45.1571   145.9915     6.6053     8.6241     7.9486     2.5240     0.0756   111.8062     0.0661
  949.5000   -45.2805   147.2710     6.5591     8.5888     7.9453     2.5088     0.0873   110.7967     0.0630
  950.0000   -45.1282   148.5665     6.5129     8.5525     7.9421     2.4835     0.1006   110.4680     0.0593
  950.5000   -44.9820   149.8620     6.4672     8.5167     7.9418     2.4927     0.0970   111.4150     0.0567
  951.0000   -45.2018   151.1976     6.4360     8.4948     7.9418     2.5035     0.0926   112.7284     0.0482
  951.5000   -45.4862   152.1956     6.4704     8.5012     7.9418     2.4700     0.0986   114.0483     0.0336
  952.0000   -45.5255   152.1956     6.5119     8.5068     7.9418     2.4781     0.1026   115.2866     0.0235
  952.5000   -45.3782   151.4436     6.5437     8.5155     7.9418     2.4906     0.0922   114.4744     0.0222
  953.0000   -45.2245   148.5638     6.7010     8.5810     7.9418     2.5033     0.0902   113.3654     0.0260
  953.5000   -45.2101   145.6840     6.8570     8.6749     7.9418     2.5189     0.0790   112.8238     0.0323
  954.0000   -45.2681   142.8042     7.0118     8.8259     7.9418     2.5377     0.0683   112.0996     0.0377
  954.5000   -45.3262   139.9243     7.1666     9.0330     7.9418     2.5564     0.0620   108.6705     0.0435
  955.0000   -45.3841   137.0445     7.3215     9.2401     7.9418     2.5754     0.0476   105.0984     0.0491
  955.5000   -45.4420   134.1647     7.4764     9.4147     7.9418     2.5802     0.0431   103.3237     0.0548
  956.0000   -45.5003   131.2849     7.6291     9.5523     7.9418     2.5699     0.0466   104.8662     0.0605
  956.5000   -45.5575   128.2435     7.7484     9.6898     7.9418     2.5475     0.0543   106.3191     0.0659
  957.0000   -45.5530   126.6201     7.8407     9.8264     7.9418     2.5251     0.0737   105.4756     0.0722
  957.5000   -45.3519   124.9002     7.9349     9.9144     7.9418     2.5131     0.0882   103.0439     0.0744
  958.0000   -45.1547   123.1803     8.0288     9.9214     7.9418     2.5421     0.0694   100.8432     0.0620
  958.5000   -44.9913   121.2862     8.1253     9.9205     7.9418     2.5505     0.0587   100.9408     0.0429
  959.0000   -45.3674   117.9873     8.2709    10.1649     7.9418     2.5466     0.0639   104.2222     0.0464
  959.5000   -45.7663   114.9584     8.5457    10.3641     7.9418     2.5443     0.0619   106.7384     0.0616
  960.0000   -45.9224   111.9232     8.8207    10.5684     7.9424     2.5556     0.0559   108.6708     0.0710
  960.5000   -45.7594   108.8881     9.0473    10.7851     7.9189     2.5752     0.0452   109.8348     0.0750
  961.0000   -45.5899   105.8530     9.2258    11.0035     7.8909     2.5946     0.0339   106.0572     0.0763
  961.5000   -46.0299   102.8179     9.3301    11.2225     7.8627     2.6029     0.0299   100.7949     0.0832
  962.0000   -46.3710   101.2974     9.4441    11.4413     7.8683     2.5805     0.0381    99.4179     0.0921
  962.5000   -46.2354   101.2974     9.5580    11.6325     7.8896     2.5620     0.0508   101.1818     0.0999
  963.0000   -46.1061   101.2974     9.6338    11.6102     7.9111     2.5434     0.0636   102.9908     0.0822
  963.5000   -45.9885   101.2974     9.5449    11.5034     7.9436     2.5250     0.0755   101.6587     0.0754
  964.0000   -45.9916   101.9418     9.4363    11.3982     7.9319     2.5103     0.0825   100.5430     0.0741
  964.5000   -45.9919   103.2934     9.3271    11.2932     7.9200     2.5068     0.0849   100.1719     0.0655
  965.0000   -45.9910   104.8002     9.2300    11.1883     7.9086     2.5148     0.0782    98.7935     0.0518
  965.5000   -46.0257   105.8119     9.1654    11.0834     7.9055     2.5184     0.0778    98.0223     0.0385
  966.0000   -46.0657   106.8236     9.0756    10.9784     7.9157     2.4909     0.0923    98.4320     0.0489
  966.5000   -46.1056   107.8353     8.9851    10.8735     7.9258     2.4837     0.1006    97.7230     0.0377
  967.0000   -46.1471   108.8470     8.8948    10.7685     7.9359     2.4902     0.0966    96.7269     0.0226
  967.5000   -46.1872   109.8587     8.8045    10.6636     7.9460     2.5140     0.0830    97.3835     0.0264
  968.0000   -46.3812   110.8704     8.7142    10.5586     7.9559     2.5392     0.0587    98.9945     0.0334
  968.5000   -46.1402   111.8821     8.6233    10.4506     7.9571     2.5270     0.0701   100.6145     0.0741
  969.0000   -45.8962   112.8938     8.5352    10.4289     7.9455     2.5123     0.0834   101.7982     0.0669
  969.5000   -45.8268   113.9055     8.5295    10.4344     7.9339     2.5015     0.0904   100.8101     0.0428
  970.0000   -45.8838   114.2715     8.5533    10.4639     7.9224     2.5102     0.0934   100.7360     0.0344
  970.5000   -45.9435   111.6244     8.7473    10.4925     7.9108     2.5166     0.0856   100.5920     0.0420
  971.0000   -46.0032   109.1674     8.8868    10.5178     7.8992     2.4951     0.0834    97.9014     0.0524
  971.5000   -46.0627   106.7104     9.0220    10.7431     7.8877     2.4759     0.1054    95.3214     0.0468
  972.0000   -46.1226   104.2534     9.1354    11.0323     7.8844     2.4953     0.0934    93.6885     0.0260
  972.5000   -46.1869   103.2934     9.0586    11.3251     7.8971     2.5190     0.0797    93.1793     0.0247
  973.0000   -46.0223   105.9481     8.9399    11.4301     7.9094     2.5351     0.0683    91.3892     0.0344
  973.5000   -45.8140   108.5279     8.8328    11.4954     7.9213     2.5272     0.0755    89.1983     0.0543
  974.0000   -45.8638   110.6108     8.7556    11.3219     7.9218     2.5469     0.0746    87.0172     0.0378
  974.5000   -45.9732   111.6427     8.6332    11.1044     7.9217     2.5715     0.0492    88.3099     0.0174
  975.0000   -45.8774   112.2755     8.4728    10.9106     7.9217     2.5510     0.0577    92.3520     0.0423
  975.5000   -45.7284   114.6625     8.2676    10.4283     7.9217     2.5228     0.0733    96.0785     0.0585
  976.0000   -45.5947   117.7973     8.0668     9.8609     7.9217     2.4944     0.0891    97.5254     0.0559
  976.5000   -45.6386   121.0042     7.9154    10.0644     7.9217     2.4727     0.1050    99.0661     0.0559
  977.0000   -45.6850   124.1849     7.8673     9.9659     7.9217     2.4835     0.1058    99.7922     0.0378
  977.5000   -45.7304   127.2796     7.8224     9.8693     7.9217     2.4936     0.0953   100.0363     0.0313
  978.0000   -45.7745   127.2414     7.7779     9.8188     7.9217     2.5037     0.0867   100.8514     0.0402
  978.5000   -45.7139   127.2455     7.7336     9.7784     7.9217     2.5138     0.0836   100.6259     0.0474
  979.0000   -45.5401   127.2455     7.6851     9.7382     7.9217     2.5198     0.0790    99.4900     0.0558
  979.5000   -45.3661   127.2455     7.6372     9.6979     7.9217     2.5106     0.0770   101.3605     0.0631
  980.0000   -45.1952   127.2455     7.5894     9.6466     7.9217     2.4997     0.0962   103.2379     0.0711
  980.5000   -45.2586   127.6899     7.5417     9.5717     7.9217     2.5004     0.0926   102.2103     0.0632
  981.0000   -45.3744   128.9184     7.4939     9.4968     7.9217     2.5102     0.0839   100.6764     0.0427
  981.5000   -45.4903   130.1469     7.4461     9.4224     7.9217     2.5194     0.0715   100.8037     0.0476
  982.0000   -45.6062   131.3753     7.3983     9.3682     7.9217     2.5285     0.0794   101.0603     0.0582
  982.5000   -45.7206   132.6038     7.3506     9.3002     7.9217     2.5325     0.0703   100.4068     0.0682
  983.0000   -45.7774   133.8323     7.3028     9.2157     7.9217     2.5217     0.0787    99.6404     0.0779
  983.5000   -45.7378   135.0625     7.2549     9.1288     7.9217     2.5037     0.0873    99.6483     0.0829
  984.0000   -45.6995   136.2908     7.2244     9.0421     7.9217     2.4857     0.0958   101.4275     0.0736
  984.5000   -45.6609   137.2310     7.2050     8.9551     7.9217     2.4774     0.1023   103.3951     0.0606
  985.0000   -45.6224   136.9561     7.1860     8.8762     7.9218     2.4963     0.0976   105.0612     0.0406
