~VERSION INFORMATION
 VERS.                2.0:   CWLS LOG ASCII STANDARD - VERSION 2.0
 WRAP.                 NO:   ONE LINE PER DEPTH STEP
~WELL INFORMATION
#MNEM.UNIT      DATA TYPE    INFORMATION
#----------   ------------   ------------------------------
 STRT.F           17.0000:   START DEPTH
 STOP.F         1345.0000:   STOP DEPTH
 STEP.F            0.5000:   STEP LENGTH
 NULL.          -999.2500:   NO VALUE
 COMP. DEPARTMENT OF ENERGY:   COMPANY
 WELL. RES 3 TEAPOT DOME ##86S-11:   WELL
 FLD .             TEAPOT:   FIELD
 LOC .      S11 T38N R78W:   LOCATION
 CNTY.            NATRONA:   COUNTY
 STAT.            WYOMING:   STATE
 CTRY. UNITED STATES OF AMERICA:   COUNTRY
 SRVC.       Schlumberger:   SERVICE COMPANY
 DATE.        13-AUG-1959:   LOGDATE
 API .       490250633200:   API NUMBER
~CURVE INFORMATION
#MNEM.UNIT       API CODE    CURVE DESCRIPTION
#----------   ------------   ------------------------------
 DEPT.F                  :   
 SPR .MV     05 010 01 00:   SPONTANEOUS POTENTIAL FROM RES.
 CILD.MMHO   05 110 46 00:   CONDUCTIVITY INDUCTION LOG DEEP
 ILD .OHMM   05 120 46 00:   INDUCTION LOG DEEP
 ASN .OHMM   05 041 16 00:   AMPLIFIED SHORT NORMAL 16"
~PARAMETER INFORMATION
#MNEM.UNIT          VALUE    DESCRIPTION
#----------   ------------   ------------------------------
 PD  .                 GL:   PERMANENT DATUM
 EPD .F              5295:   ELEVATION PERMANENT DATUM
 LMF .                 KB:   LOG MEASURED FROM
 DAPD.F                 4:   FEET ABOVE PERMANENT DATUM
 DMF .                 KB:   DRILLING MEASURED FROM
 EKB .F              5299:   KELLING BUSHING
 EGL .F              5295:   GROUND LEVEL
 DATE.            8-13-59:   RUN DATE
 RUN .                  1:   RUN NUMBER
 DD  .F              1350:   DEPTH DRILLER
 DL  .F              1350:   DEPTH LOGGER
 BLI .F              1345:   BOTTOM LOG INTERVAL
 TLI .F                17:   TOP LOG INTERVAL
 CBD .F                17:   CASING BOTTOM DRILLER
 CBL .F                17:   CASING BOTTOM LOGGER
 BS  .IN             6.75:   BIT SIZE
 BSD .F              1350:   BIT SIZE AT DEPTH
 DFT .                GEL:   DRILLING FLUID TYPE
 DFD .                9.8:   DRILLING FLUID DENSITY
 DFV .                 65:   DRILLING FLUID VISCOSITY
 DFPH.                9.5:   DRILLING FLUID PH
 DFL .                5.4:   DRILLING FLUID LOSS
 RMS .OHMM           2.84:   RESISTIVITY MUD SAMPLE
 MST .F                69:   MUD SAMPLE TEMPERATURE
 RMF .OHMM            2.5:   RESISTIVITY MUD FILTRATE SAMPLE
 MFST.F                69:   MUD FILTRATE SAMPLE TEMPERATURE
 RMC .OHMM           2.46:   RESISTIVITY MUD CAKE
 MCST.F                69:   MUD CAKE SAMPLE TEMPERATURE
 MFSS.                  M:   MUD FILTRATE SAMPLE SOURCE
 MCSS.                  M:   MUD CAKE SAMPLE SOURCE
 TCS .HRS               1:   TIME CURCULATED STOPPED
 LUN .               2523:   LOGGING UNIT NUMBER
 LUL .               CSPR:   LOGGING UNIT LOCATION
 ENGI.             KNOBEL:   RECORDING ENGINEER
 WITN.             MARTIN:   WITNESSED BY
 CLNT.            A2DTECH:   CLIENT CODE
 ORIG.         2"5" PRINT:   ORIGIN OF DATA
 UWI .       490250633200:   UNIQUE WELL ID
 DICO. A2D Technologies, Inc.:   DIGITIZING COMPANY
~OTHER INFORMATION
~A   DEPT      SPR        CILD         ILD      ASN   
# ...
  236.0000   -31.2213   205.6615     5.5764     6.0150
  236.5000   -31.0306   201.0812     5.6493     6.0579
  237.0000   -30.8265   196.5008     5.7190     6.0876
  237.5000   -30.7432   191.9205     5.7905     6.1217
  238.0000   -30.8064   188.3617     5.8839     6.1747
  238.5000   -30.8484   186.8158     5.9656     6.3009
  239.0000   -30.9119   185.6089     6.0504     6.4213
  239.5000   -30.9005   184.0604     6.1363     6.6549
  240.0000   -30.6108   181.2487     6.2164     6.9172
  240.5000   -30.3040   177.4487     6.3127     7.0679
  241.0000   -30.0044   173.6265     6.3721     7.0316
  241.5000   -29.6958   169.8265     6.3645     6.9962
  242.0000   -29.4021   166.0537     6.3681     6.9460
  242.5000   -29.0809   162.3219     6.3660     6.9177
  243.0000   -28.9461   163.6376     6.3671     6.9279
  243.5000   -29.0353   164.6902     6.3664     7.0059
  244.0000   -29.1028   165.7427     6.3666     7.0478
  244.5000   -29.1831   166.7953     6.3661     6.8675
  245.0000   -29.2565   167.8478     6.3667     6.7649
  245.5000   -29.3335   168.6372     6.3655     6.8014
  246.0000   -29.4089   169.5394     6.3676     6.8380
  246.5000   -29.4845   169.5394     6.3632     6.8736
  247.0000   -29.5609   167.8478     6.3973     6.9124
  247.5000   -29.6353   165.5924     6.4523     6.9455
  248.0000   -29.6842   163.3369     6.4984     7.0083
  248.5000   -29.5886   161.0814     6.5470     7.0967
  249.0000   -29.3995   158.8260     6.5964     7.1749
  249.5000   -29.2250   156.5688     6.6416     7.2521
  250.0000   -29.0426   154.3060     6.6984     7.3461
  250.5000   -28.8657   151.4746     6.7249     7.3023
  251.0000   -28.6839   153.0479     6.6715     7.2007
  251.5000   -28.5081   155.1448     6.6299     7.1260
  252.0000   -28.3213   157.2414     6.5844     7.0287
  252.5000   -28.2201   159.3402     6.5410     6.9654
  253.0000   -28.3085   161.4444     6.4965     7.0315
  253.5000   -28.4693   164.1263     6.4525     7.1422
  254.0000   -28.6243   165.4796     6.4083     7.0856
  254.5000   -28.7829   166.8329     6.3642     6.9358
  255.0000   -28.9377   167.7350     6.3202     6.8530
  255.5000   -29.0978   168.8628     6.2761     6.8399
  256.0000   -29.2493   169.7650     6.2321     6.8205
  256.5000   -29.4178   170.6671     6.1880     6.8012
  257.0000   -29.5011   171.3438     6.1440     6.7624
  257.5000   -29.4863   175.1029     6.0998     6.6925
  258.0000   -29.4486   178.1102     6.0558     6.6157
  258.5000   -29.3958   181.1174     6.0114     6.5486
  259.0000   -29.3489   184.1247     5.9679     6.4770
  259.5000   -29.2989   187.1320     5.9226     6.4089
  260.0000   -29.2503   189.3875     5.8805     6.3366
  260.5000   -29.2011   189.3875     5.8280     6.2634
  261.0000   -29.1522   188.1572     5.8484     6.2167
  261.5000   -29.1033   187.1730     5.8969     6.2255
  262.0000   -29.0545   186.1888     5.9328     6.4274
  262.5000   -29.0054   185.2046     5.9784     6.6151
  263.0000   -28.9578   183.9744     6.0145     6.7927
  263.5000   -28.9565   179.2379     6.0691     7.0142
  264.0000   -29.0085   172.9226     6.1215     7.0539
  264.5000   -29.0691   165.0285     6.1785     6.8700
  265.0000   -29.1285   165.0285     6.1872     6.6693
  265.5000   -29.1884   168.1861     6.1857     6.5655
  266.0000   -29.2480   172.3963     6.1850     6.7424
  266.5000   -29.3078   177.6591     6.1874     6.8644
  267.0000   -29.3676   177.6591     6.1814     7.0309
  267.5000   -29.4274   177.6591     6.2306     7.1238
  268.0000   -29.4869   171.6445     6.3111     7.1370
  268.5000   -29.5470   166.8329     6.3770     7.1857
  269.0000   -29.6060   163.2241     6.4500     7.2134
  269.5000   -29.6673   162.3219     6.5177     7.2595
  270.0000   -29.6570   161.1190     6.5914     7.2790
  270.5000   -29.6118   159.9161     6.6560     7.3229
  271.0000   -29.5709   158.7132     6.7364     7.4144
  271.5000   -29.5282   157.5103     6.7931     7.4731
  272.0000   -29.4854   156.0067     7.0161     7.6195
  272.5000   -29.4451   152.5268     7.1782     7.8284
  273.0000   -29.3988   147.8870     7.2828     8.0076
  273.5000   -29.3639   143.2472     7.4018     8.1978
  274.0000   -29.3063   139.7673     7.5122     8.3846
  274.5000   -29.3528   137.9630     7.6254     8.5858
  275.0000   -29.5344   136.1586     7.7410     8.6676
  275.5000   -29.6039   132.9107     7.8486     8.7317
  276.0000   -29.6966   128.5802     7.9841     8.8122
  276.5000   -29.7779   125.3460     7.9238     8.8303
  277.0000   -29.8654   129.4970     7.7896     8.5459
  277.5000   -29.9499   132.8152     7.6852     8.3656
  278.0000   -30.0358   136.1295     7.5669     8.3211
  278.5000   -30.1209   139.4427     7.4575     8.2029
  279.0000   -30.2062   142.7581     7.3410     7.6544
  279.5000   -30.2918   146.9239     7.2324     7.6976
  280.0000   -30.3800   146.4755     7.1003     7.8127
  280.5000   -30.3858   145.9323     7.1205     7.8963
  281.0000   -30.2734   145.3308     7.1791     7.9936
  281.5000   -30.1301   144.7293     7.2384     8.0833
  282.0000   -29.9913   144.2782     7.2559     7.9463
  282.5000   -29.8505   147.2309     7.1108     7.7253
  283.0000   -29.7104   151.1677     6.9889     7.5327
  283.5000   -29.5703   155.1045     6.8627     7.3405
  284.0000   -29.4291   159.0413     6.7361     7.1191
  284.5000   -29.2908   162.9781     6.6144     6.9594
  285.0000   -29.1469   165.9307     6.4683     6.9170
  285.5000   -29.0138   165.9307     6.4756     6.9524
  286.0000   -28.8563   163.2241     6.6686     7.2490
  286.5000   -28.7656   157.1344     6.8337     7.5078
  287.0000   -28.7805   151.4205     7.0054     7.7743
  287.5000   -28.8473   145.7067     7.1720     8.0351
  288.0000   -28.9491   139.9929     7.3437     8.3273
  288.5000   -29.0423   134.2790     7.5091     8.3941
  289.0000   -29.1383   127.1367     7.7015     8.4125
  289.5000   -29.2359   128.8284     7.6932     8.4511
  290.0000   -29.3269   131.0838     7.6224     8.2901
  290.5000   -29.4352   133.3393     7.5777     7.9886
  291.0000   -29.4986   136.1586     7.5138     7.8174
  291.5000   -29.4875   139.2518     7.4688     7.7867
  292.0000   -29.4102   143.3761     7.3525     7.7315
  292.5000   -29.2937   147.5003     7.1827     7.7027
  293.0000   -29.1866   151.6246     7.0389     7.5503
  293.5000   -29.0747   155.7489     6.8846     7.3304
  294.0000   -28.9653   159.8732     6.7356     7.1445
  294.5000   -28.8547   165.0285     6.5846     6.9450
  295.0000   -28.7445   167.8704     6.4331     6.7321
  295.5000   -28.6341   171.6595     6.2847     6.6693
  296.0000   -28.5239   175.3227     6.1092     6.5885
  296.5000   -28.4134   179.1442     6.0025     6.5079
  297.0000   -28.3036   183.9123     5.9526     6.4298
  297.5000   -28.1923   183.9354     5.9100     6.3535
  298.0000   -28.0738   184.5816     5.8695     6.2672
  298.5000   -28.0483   185.1126     5.8260     6.1991
  299.0000   -28.1028   185.6425     5.7871     6.2057
  299.5000   -28.2649   186.1588     5.7355     6.2568
  300.0000   -28.4315   186.5567     5.7501     6.3113
  300.5000   -28.5973   183.1203     5.8923     6.3516
  301.0000   -28.7654   179.4634     6.0172     6.4304
  301.5000   -28.9285   175.2180     6.1446     6.6948
  302.0000   -29.1013   171.7730     6.2710     6.9482
  302.5000   -29.2514   168.3279     6.3968     7.1312
  303.0000   -29.3634   164.8828     6.5251     7.1768
  303.5000   -29.5042   161.3932     6.6483     7.1671
  304.0000   -29.4811   157.9315     6.7791     7.1137
  304.5000   -29.4213   155.0324     6.8034     7.0722
  305.0000   -29.3540   156.7908     6.7590     7.0270
  305.5000   -29.2923   159.4810     6.7294     7.0041
  306.0000   -29.2278   162.1824     6.6926     6.9884
  306.5000   -29.1646   164.0789     6.6597     6.9138
  307.0000   -29.1009   165.4922     6.6244     6.7947
  307.5000   -29.0373   166.8980     6.5909     6.7082
  308.0000   -28.9739   168.2912     6.5554     6.7209
  308.5000   -28.9102   169.5570     6.5231     6.7736
