~VERSION INFORMATION
 VERS.                2.0:   CWLS LOG ASCII STANDARD - VERSION 2.0
 WRAP.                 NO:   ONE LINE PER DEPTH STEP
~WELL INFORMATION
#MNEM.UNIT      DATA TYPE    INFORMATION
#----------   ------------   ------------------------------
 STRT.F           14.0000:   START DEPTH
 STOP.F          583.0000:   STOP DEPTH
 STEP.F            0.5000:   STEP LENGTH
 NULL.          -999.2500:   NO VALUE
 COMP. LAWRENCE/ALLISON INC:   COMPANY
 WELL.     NPR3 #34-66 SX:   WELL
 FLD .          MPR NO. 3:   FIELD
 LOC .      S10 T38N R78W:   LOCATION
 CNTY.            NATRONA:   COUNTY
 STAT.            WYOMING:   STATE
 CTRY. UNITED STATES OF AMERICA:   COUNTRY
 SRVC.           Gearhart:   SERVICE COMPANY
 DATE.        19-JUN-1986:   LOGDATE
 API .       490251109400:   API NUMBER
~CURVE INFORMATION
#MNEM.UNIT       API CODE    CURVE DESCRIPTION
#----------   ------------   ------------------------------
 DEPT.F                  :   
 GRR .GAPI   07 310 01 00:   GAMMA RAY
 RILD.OHMM   07 120 46 00:   INDUCTION LOG DEEP RESISTIVITY
 RILM.OHMM   07 120 44 00:   INDUCTION LOG MEDIUM RESISTIVITY
~PARAMETER INFORMATION
#MNEM.UNIT          VALUE    DESCRIPTION
#----------   ------------   ------------------------------
 PD  .                 GL:   PERMANENT DATUM
 EPD .F              5262:   ELEVATION PERMANENT DATUM
 LMF .                 KB:   LOG MEASURED FROM
 DAPD.F                 5:   FEET ABOVE PERMANENT DATUM
 DMF .                 KB:   DRILLING MEASURED FROM
 EKB .F              5267:   KELLING BUSHING
 EGL .F              5262:   GROUND LEVEL
 DATE.        19-JUN-1986:   RUN DATE
 RUN .                  1:   RUN NUMBER
 DD  .F               609:   DEPTH DRILLER
 DL  .F               602:   DEPTH LOGGER
 BLI .F               592:   BOTTOM LOG INTERVAL
 TLI .F                47:   TOP LOG INTERVAL
 CS  .IN            8.625:   CASING SIZE
 CBD .F                47:   CASING BOTTOM DRILLER
 CBL .F                46:   CASING BOTTOM LOGGER
 BS  .IN            7.875:   BIT SIZE
 BSD .F               609:   BIT SIZE AT DEPTH
 DFT .               FOAM:   DRILLING FLUID TYPE
 TCS .HRS            0130:   TIME CURCULATED STOPPED
 TLAB.HRS            0330:   TIME LOGGER AT BOTTOM
 MRT .F                65:   MAXIMUM RECORDED TEMPERATURE
 LUN .               7609:   LOGGING UNIT NUMBER
 LUL .           GILLETTE:   LOGGING UNIT LOCATION
 ENGI.         WEATHERMON:   RECORDING ENGINEER
 WITN.           JENNINGS:   WITNESSED BY
 CLNT.            A2DTECH:   CLIENT CODE
 ORIG.           5" PRINT:   ORIGIN OF DATA
 UWI .       490251109400:   UNIQUE WELL ID
 DICO. A2D Technologies, Inc.:   DIGITIZING COMPANY
~OTHER INFORMATION
~A   DEPT      GRR       RILD       RILM   
# ...
  378.0000   109.5890     8.9914     8.9176
  378.5000   114.1553     8.8672     8.8563
  379.0000   110.5023     8.8687     8.8578
  379.5000   105.8019     9.0634     9.0478
  380.0000    85.2359     9.9260     9.4389
  380.5000    74.2770    10.9525    10.3441
  381.0000    68.4931    12.1704    11.3356
  381.5000    63.0137    13.4290    12.4222
  382.0000    58.1066    14.7395    14.0999
  382.5000    52.9680    17.2954    16.5769
  383.0000    52.3592    19.4903    18.6061
  383.5000    53.2724    20.3315    21.3579
  384.0000    57.8387    20.9133    22.5967
  384.5000    64.2395    21.2119    22.7592
  385.0000    69.7108    21.5154    23.0846
  385.5000    71.2329    21.5183    23.0877
  386.0000    69.1020    21.5211    23.0916
  386.5000    65.7534    21.6757    23.0947
  387.0000    62.1005    21.9851    23.2608
  387.5000    59.9696    22.2997    23.5933
  388.0000    61.7960    22.7773    23.9307
  388.5000    63.3181    23.1025    24.1028
  389.0000    65.1446    23.5973    24.4482
  389.5000    66.0578    24.2726    24.6240
  390.0000    65.7128    24.9907    25.1523
  390.5000    63.3181    25.8634    25.5119
  391.0000    61.7960    26.7910    26.2431
  391.5000    60.8828    27.3648    26.9961
  392.0000    65.7534    27.9510    27.5753
  392.5000    67.9148    28.5498    27.9695
  393.0000    68.4931    28.3538    28.1706
  393.5000    67.8843    27.9632    28.1744
  394.0000    67.2755    27.7713    28.1783
  394.5000    66.6667    27.3877    27.5947
  395.0000    65.4490    27.3915    27.0215
  395.5000    64.5358    27.5890    26.6478
  396.0000    65.4490    27.7871    26.0959
  396.5000    66.6667    27.7908    25.9076
  397.0000    68.4931    27.5999    25.5582
  397.5000    69.7108    27.4107    25.5625
  398.0000    67.8843    27.2226    25.3860
  398.5000    66.6667    27.0358    25.3902
  399.0000    68.1887    26.6624    25.0391
  399.5000    70.0152    26.4794    24.8670
  400.0000    73.0594    26.1146    24.5233
  400.5000    74.8980    25.7409    23.6635
  401.0000    75.4827    25.3726    23.1572
  401.5000    75.1172    24.8679    22.8584
  402.0000    73.6427    24.3514    22.8584
  402.5000    72.4190    24.0135    22.8584
  403.0000    74.2395    23.5147    22.6982
  403.5000    76.9733    23.0262    22.5392
  404.0000    75.4452    22.7068    22.2245
  404.5000    73.9186    22.3914    21.9142
  405.0000    78.4773    21.9266    21.4568
  405.5000    82.1243    21.4712    20.8617
  406.0000    82.7286    21.0252    20.4263
  406.5000    80.2858    20.4444    20.0000
  407.0000    79.3666    19.8796    19.4354
  407.5000    78.4473    19.6038    18.7539
  408.0000    77.2237    19.6052    18.3818
  408.5000    80.8889    19.6066    18.3818
  409.0000    83.9574    19.6080    18.3818
  409.5000    86.4231    19.6096    18.3818
  410.0000    88.1586    19.6110    18.5115
  410.5000    84.8025    19.7505    18.5115
  411.0000    82.0568    19.7518    18.6421
  411.5000    76.8758    19.8924    18.6421
  412.0000    73.5212    19.8937    18.7737
  412.5000    72.2976    19.8951    18.7737
  413.0000    72.9004    19.8965    18.7737
  413.5000    75.3297    19.8979    18.7737
  414.0000    78.3679    19.8992    18.6421
  414.5000    81.4060    19.9006    18.5115
  415.0000    83.8353    19.7627    18.5115
  415.5000    85.0470    19.6259    18.5115
  416.0000    84.1277    19.3536    18.3818
  416.5000    78.6423    19.3428    18.3818
  417.0000    76.4809    18.9529    18.2530
  417.5000    74.3683    18.6903    17.9982
  418.0000    75.0684    18.4306    17.9982
  418.5000    78.0080    18.1752    17.8721
  419.0000    80.4373    17.9231    17.7469
  419.5000    81.0416    17.7989    17.4991
  420.0000    81.3400    17.8002    17.2467
  420.5000    81.3325    17.6765    17.0138
  421.0000    81.0221    17.5541    16.8946
  421.5000    81.0161    17.5556    16.8946
  422.0000    79.4880    17.5568    16.8946
  422.5000    79.1791    17.5580    16.7762
  423.0000    80.3908    17.5593    16.7762
  423.5000    80.6880    17.6842    16.7762
  424.0000    78.8552    17.8100    16.6587
  424.5000    76.4139    17.8113    16.5420
  425.0000    75.7991    17.6673    16.4261
  425.5000    76.7245    17.3207    16.3110
  426.0000    78.2587    17.2005    16.3110
  426.5000    79.7930    17.2019    16.3110
  427.0000    80.9501    17.0825    16.1967
  427.5000    81.8574    17.0840    16.1967
  428.0000    80.9366    16.8469    16.3110
  428.5000    78.1909    16.7300    16.3110
  429.0000    79.0982    16.6141    16.3110
  429.5000    80.9186    16.4990    16.3110
  430.0000    80.6082    16.5004    16.3110
  430.5000    77.8625    16.3861    16.3110
  431.0000    77.2492    16.3873    16.1967
  431.5000    80.2858    16.1599    15.9706
  432.0000    83.0195    16.0420    15.7476
  432.5000    81.1871    15.8253    15.6372
  433.0000    79.6590    15.6058    15.6307
  433.5000    79.0441    15.2818    15.5128
  434.0000    79.3426    15.1757    15.3109
  434.5000    79.2085    15.1770    15.2036
  435.0000    76.8938    15.0717    15.2036
  435.5000    76.2789    15.0730    15.0971
  436.0000    75.9685    15.0740    15.0971
  436.5000    81.7464    14.8649    14.8863
  437.0000    83.8713    14.7616    14.6784
  437.5000    83.8653    14.6594    14.5756
  438.0000    81.1196    14.5580    14.4734
  438.5000    78.3739    14.4572    14.3720
  439.0000    81.1076    14.3571    14.2714
  439.5000    83.2325    14.2577    14.0721
  440.0000    84.4441    14.0599    13.9735
  440.5000    84.7428    14.0609    13.8756
  441.0000    82.9101    13.9634    13.6818
  441.5000    85.0350    13.8667    13.4908
  442.0000    88.4141    13.5789    13.3024
  442.5000    90.8068    13.4848    13.1167
  443.0000    88.0122    13.4858    13.0248
  443.5000    85.9227    13.3921    12.9335
  444.0000    86.5256    13.3933    12.9335
  444.5000    86.5196    13.3003    12.9335
  445.0000    86.2091    13.3951    12.9335
  445.5000    85.2899    13.3961    12.9335
  446.0000    84.3707    13.3970    13.0248
  446.5000    84.3647    13.4923    13.1167
  447.0000    84.3587    13.5883    13.0248
  447.5000    85.5703    13.5892    12.9335
  448.0000    90.1305    13.6859    12.8429
  448.5000    89.5157    13.6869    12.7529
  449.0000    86.4656    13.5920    12.5749
  449.5000    84.0243    13.4981    12.4868
  450.0000    80.6697    13.3105    12.3993
  450.5000    84.9315    12.9452    12.4121
  451.0000    87.3830    12.5892    12.1405
  451.5000    89.4977    12.1575    11.8038
  452.0000    89.8021    11.8988    11.5575
  452.5000    89.8021    11.8256    11.3961
  453.0000    89.8021    11.8286    11.2369
  453.5000    89.8021    11.9143    11.2369
  454.0000    89.8021    12.0852    11.3961
  454.5000    88.2801    12.2623    11.4765
  455.0000    79.1476    12.7891    11.7211
  455.5000    74.2770    13.3420    12.1405
  456.0000    70.6240    14.2150    12.8429
  456.5000    73.6682    14.9339    13.8058
  457.0000    77.0167    15.7998    15.2036
  457.5000    76.1035    16.7167    16.1967
  458.0000    73.3638    17.4394    17.4991
  458.5000    70.9285    18.0660    17.9982
  459.0000    68.4485    18.7152    18.6492
  459.5000    66.6667    19.2520    19.5826
  460.0000    65.7534    19.6844    20.1411
  460.5000    68.1887    19.9488    20.1411
  461.0000    71.5373    19.9528    20.1411
  461.5000    73.4328    19.8162    20.0000
  462.0000    73.9726    19.5448    19.5826
  462.5000    73.3638    19.2651    19.1739
  463.0000    74.2770    19.0113    18.9061
  463.5000    75.4947    18.7500    18.5115
  464.0000    75.1415    18.2354    18.1252
  464.5000    73.3638    17.9846    17.7369
  465.0000    73.0594    17.6135    17.2547
  465.5000    73.0594    17.1301    16.8946
  466.0000    72.4505    16.6591    16.4261
  466.5000    72.7691    16.2011    16.0832
  467.0000    73.0594    15.8659    15.8572
  467.5000    71.8417    15.6486    15.6372
  468.0000    71.5373    15.3256    15.5277
  468.5000    73.3638    15.3294    15.5277
