~VERSION INFORMATION
 VERS.                2.0:   CWLS LOG ASCII STANDARD - VERSION 2.0
 WRAP.                 NO:   ONE LINE PER DEPTH STEP
~WELL INFORMATION
#MNEM.UNIT      DATA TYPE    INFORMATION
#----------   ------------   ------------------------------
 STRT.F            8.0000:   START DEPTH
 STOP.F         1010.0000:   STOP DEPTH
 STEP.F            0.5000:   STEP LENGTH
 NULL.          -999.2500:   NO VALUE
 COMP.          U.S. NAVY:   COMPANY
 WELL. RES 3 TEAPOT DOM #47S-35:   WELL
 FLD .             TEAPOT:   FIELD
 LOC .      S35 T39N R78W:   LOCATION
 CNTY.            NATRONA:   COUNTY
 STAT.            WYOMING:   STATE
 CTRY. UNITED STATES OF AMERICA:   COUNTRY
 SRVC.      NL McCullough:   SERVICE COMPANY
 DATE.        12-NOV-1958:   LOGDATE
 API .       490250650800:   API NUMBER
~CURVE INFORMATION
#MNEM.UNIT       API CODE    CURVE DESCRIPTION
#----------   ------------   ------------------------------
 DEPT.F                  :   
 GRN .GAPI   35 310 01 00:   GAMMA RAY
 NEUT.NAPI   35 330 01 00:   NEUTRON
~PARAMETER INFORMATION
#MNEM.UNIT          VALUE    DESCRIPTION
#----------   ------------   ------------------------------
 PD  .                 GL:   PERMANENT DATUM
 EPD .F             51891:   ELEVATION PERMANENT DATUM
 DATE.        11-NOV-1959:   RUN DATE
 RUN .                  1:   RUN NUMBER
 BLI .F              1004:   BOTTOM LOG INTERVAL
 CS  .IN            8.625:   CASING SIZE
 WITN.             MARTNE:   WITNESSED BY
 CLNT.            A2DTECH:   CLIENT CODE
 ORIG.         2.5" PRINT:   ORIGIN OF DATA
 UWI .       490250650800:   UNIQUE WELL ID
 DICO. A2D Technologies, Inc.:   DIGITIZING COMPANY
~OTHER INFORMATION
~A    DEPT     GRN       NEUT   
# ...
  615.5000     6.0654   135.1124
  616.0000     6.0366   138.3609
  616.5000     5.9566   144.9220
  617.0000     5.9172   149.4482
  617.5000     5.8372   150.9758
  618.0000     5.7120   146.4621
  618.5000     5.6128   142.4924
  619.0000     5.5711   130.1745
  619.5000     5.5092   112.8585
  620.0000     5.4878   116.5416
  620.5000     5.4794   124.9235
  621.0000     5.4807   130.9489
  621.5000     5.5020   139.2232
  622.0000     5.5233   149.7464
  622.5000     5.5466   158.8456
  623.0000     5.5862   163.2964
  623.5000     5.5873   158.0856
  624.0000     5.5682   154.0930
  624.5000     5.5896   151.7904
  625.0000     5.6921   146.9325
  625.5000     5.7539   134.2172
  626.0000     5.7752   121.5020
  626.5000     5.7354   111.7853
  627.0000     5.5676   107.2939
  627.5000     5.5354   105.7408
  628.0000     5.7548   105.1238
  628.5000     5.9614   106.1806
  629.0000     5.9727   117.4688
  629.5000     5.9249   128.4616
  630.0000     5.9664   131.4885
  630.5000     6.0282   129.2680
  631.0000     6.4151   115.0536
  631.5000     6.4353    75.3518
  632.0000     6.4161    90.9444
  632.5000     6.3970   105.8095
  633.0000     6.5270   115.5321
  633.5000     6.7236   118.5894
  634.0000     6.7246   111.4900
  634.5000     6.7257   107.0207
  635.0000     6.6457   106.7717
  635.5000     6.3703   115.3234
  636.0000     5.8720   122.9390
  636.5000     5.8592   127.4899
  637.0000     6.0694   128.9018
  637.5000     6.2463   126.1243
  638.0000     6.4703   122.6037
  638.5000     6.4714   120.0057
  639.0000     6.3307   115.5364
  639.5000     6.2710   106.5692
  640.0000     6.3166    97.6021
  640.5000     6.4976    93.8158
  641.0000     6.6186    91.4292
  641.5000     6.4608    90.1911
  642.0000     6.2652    91.8291
  642.5000     6.2169   110.0643
  643.0000     6.5219   120.2755
  643.5000     6.5027   120.5135
  644.0000     6.0988   119.5827
  644.5000     6.1086   117.3622
  645.0000     6.2831   116.6410
  645.5000     5.9435   116.6717
  646.0000     5.5362   116.7017
  646.5000     5.7977   116.7316
  647.0000     5.9841   117.8834
  647.5000     6.0257   119.7957
  648.0000     5.9457   121.3233
  648.5000     5.9468   122.1013
  649.0000     5.9703   122.8794
  649.5000     6.0636   122.9078
  650.0000     6.2134   120.1897
  650.5000     6.3157   112.1798
  651.0000     5.7007   106.2145
  651.5000     5.8117   105.4110
  652.0000     5.8104   103.5737
  652.5000     5.8997   102.8486
  653.0000     5.7940    99.8824
  653.5000     5.7647    97.6619
  654.0000     5.8086    99.7756
  654.5000     6.0616   114.5990
  655.0000     6.1031   118.6284
  655.5000     6.0029   123.1109
  656.0000     5.9427   126.6766
  656.5000     5.9213   126.3323
  657.0000     5.9457   124.1118
  657.5000     6.0681   123.3883
  658.0000     6.0595   123.4190
  658.5000     6.0501   124.2466
  659.0000     6.0716   129.6532
  659.5000     6.0929   143.0116
  660.0000     6.1547   148.2702
  660.5000     6.2589   141.5065
  661.0000     6.3390   133.3487
  661.5000     6.0291   124.3816
  662.0000     5.7914   122.9107
  662.5000     5.7957   124.4384
  663.0000     6.0805   125.2700
  663.5000     6.1221   126.7440
  664.0000     6.1839   126.0228
  664.5000     6.2659   123.1822
  665.0000     6.3885   112.4932
  665.5000     6.3585   103.6335
  666.0000     6.2312    96.9152
  666.5000     6.1406    84.9496
  667.0000     6.1297    79.7307
  667.5000     6.1513    79.7601
  668.0000     6.1321    81.9889
  668.5000     6.0927    90.8279
  669.0000     6.0330   100.2625
  669.5000     5.9716   101.5867
  670.0000     5.9541    97.9063
  670.5000     5.9349   100.1835
  671.0000     5.9362   109.9571
  671.5000     5.9373   112.2343
  672.0000     5.9791   110.7047
  672.5000     6.0611   107.5406
  673.0000     6.1634    98.4429
  673.5000     6.2455    93.7405
  674.0000     6.2871    96.7611
  674.5000     6.1092   101.1746
  675.0000     5.5941    90.7082
  675.5000     5.5390    85.4892
  676.0000     5.7294    85.5176
  676.5000     5.9688    96.4245
  677.0000     6.1319   104.9076
  677.5000     6.1329   109.2835
  678.0000     6.1750   112.3128
  678.5000     6.2617   115.3422
  679.0000     6.4140   117.9310
  679.5000     6.6102   115.1971
  680.0000     6.6339   110.3947
  680.5000     6.7068   103.0335
  681.0000     7.0521    97.0649
  681.5000     7.0329    95.5922
  682.0000     6.9124    98.6210
  682.5000     6.3857   102.6046
  683.0000     6.3273   109.4804
  683.5000     6.5679   110.7002
  684.0000     6.7446   106.4567
  684.5000     6.8873   100.2125
  685.0000     6.7978   113.0485
  685.5000     6.6571   114.5761
  686.0000     6.4557   112.3556
  686.5000     6.1530    96.6419
  687.0000     6.0730   111.3494
  687.5000     6.3914   115.4393
  688.0000     6.4803    91.5438
  688.5000     6.4655    89.2810
  689.0000     6.3912   103.0483
  689.5000     6.3421   117.0664
  690.0000     6.3026   119.3436
  690.5000     6.2429   120.8713
  691.0000     6.2237   122.3989
  691.5000     5.9916   115.5299
  692.0000     5.7564   108.9151
  692.5000     5.6560   103.7673
  693.0000     5.5515   104.0103
  693.5000     5.6772   109.1279
  694.0000     6.0483   112.0888
  694.5000     6.1506   115.1157
  695.0000     6.1517   118.8922
  695.5000     6.0920   124.9176
  696.0000     5.9292   128.6956
  696.5000     5.8916   125.3313
  697.0000     5.8993   116.5293
  697.5000     6.0627   104.3106
  698.0000     6.1785    99.5802
  698.5000     6.0786   100.3646
  699.0000     5.8771   100.3930
  699.5000     5.7567    99.6718
  700.0000     5.6970    97.4513
  700.5000     5.7561    95.7642
  701.0000     5.8152    94.0772
  701.5000     5.9215    92.2729
  702.0000     6.3519   104.2887
  702.5000     6.4497   115.5549
  703.0000     6.3719   125.4271
  703.5000     5.9547   132.5040
  704.0000     5.8647   137.7511
  704.5000     5.8763   139.6301
  705.0000     5.8865   126.5367
  705.5000     5.8872   110.0347
  706.0000     5.8676   103.3983
  706.5000     5.8480   103.7406
  707.0000     5.7880   104.5127
  707.5000     5.6874   101.5409
  708.0000     5.5666   100.0635
  708.5000     5.5268    99.3356
  709.0000     5.5072    98.6057
  709.5000     5.4849    97.8786
  710.0000     5.4641    97.9018
  710.5000     5.3774    98.6732
  711.0000     5.2679   104.2127
  711.5000     5.1309   115.4869
  712.0000     5.0863   119.1204
  712.5000     5.0870   120.6896
  713.0000     5.1104   122.0240
  713.5000     5.3518   122.3288
  714.0000     5.5347   123.8980
  714.5000     5.6569   126.2218
  715.0000     5.5766   129.8096
  715.5000     5.4558   137.8826
  716.0000     5.3350   142.4021
  716.5000     5.1129   137.1766
  717.0000     5.0528   115.4592
  717.5000     5.0981   113.0557
  718.0000     5.1620   117.7517
  718.5000     5.2417   124.5278
  719.0000     5.3562   129.3161
  719.5000     5.4683   140.3780
  720.0000     5.5026   149.3253
  720.5000     5.4162   144.5718
  721.0000     5.1371   131.6690
  721.5000     5.0945   124.5276
  722.0000     5.2828   112.0832
  722.5000     5.4252   101.4618
  723.0000     5.5474   110.8110
  723.5000     5.5517   136.7430
  724.0000     5.3463   142.0122
  724.5000     5.2457   146.5318
  725.0000     5.2464   155.5490
  725.5000     5.2496   162.3175
  726.0000     5.3362   161.5896
  726.5000     5.4786   152.3353
  727.0000     5.5529   132.7938
  727.5000     5.4545   107.5698
  728.0000     5.4126    91.6441
  728.5000     5.4134    88.5733
  729.0000     5.4635    87.5075
  729.5000     5.6003    94.1353
  730.0000     5.6587    95.8021
  730.5000     5.5986    96.1769
  731.0000     5.5336    96.6011
  731.5000     5.5190    96.6229
  732.0000     5.5399    95.8951
  732.5000     5.6824    95.9169
  733.0000     5.5413   102.6853
  733.5000     5.2974   112.4523
  734.0000     5.2187    95.9823
  734.5000     5.2397    90.0071
  735.0000     5.2606   105.3970
  735.5000     5.3124   117.7868
  736.0000     5.4103   110.4549
  736.5000     5.5519   103.9057
