~VERSION INFORMATION
 VERS.                2.0:   CWLS LOG ASCII STANDARD - VERSION 2.0
 WRAP.                 NO:   ONE LINE PER DEPTH STEP
~WELL INFORMATION
#MNEM.UNIT      DATA TYPE    INFORMATION
#----------   ------------   ------------------------------
 STRT.F           22.5000:   START DEPTH
 STOP.F          644.0000:   STOP DEPTH
 STEP.F            0.5000:   STEP LENGTH
 NULL.          -999.2500:   NO VALUE
 COMP.    FELIX & SCISION:   COMPANY
 WELL.     NPR #3 #14-S-2:   WELL
 FLD .             TEAPOT:   FIELD
 LOC .       S2 T38N R78W:   LOCATION
 CNTY.            NATRONA:   COUNTY
 STAT.            WYOMING:   STATE
 CTRY. UNITED STATES OF AMERICA:   COUNTRY
 SRVC.           BIRDWELL:   SERVICE COMPANY
 DATE.        18-JAN-1978:   LOGDATE
 API .       490251055600:   API NUMBER
~CURVE INFORMATION
#MNEM.UNIT       API CODE    CURVE DESCRIPTION
#----------   ------------   ------------------------------
 DEPT.F                  :   
 CALD.IN     45 280 60 00:   CALIPER FROM DENSITY LOG
 CORR.G/C3   45 356 01 00:   DENSITY CORRECTION
 DPHI.DEC    45 890 12 00:   DENSITY POROSITY SANDSTONE
 GRD .GAPI   45 310 01 00:   GAMMA RAY FROM DENSITY LOG
 RHOB.G/C3   45 350 01 00:   BULK DENSITY
 ILD .OHMM   05 120 46 00:   INDUCTION LOG DEEP
 SPR .MV     05 010 01 00:   SPONTANEOUS POTENTIAL FROM RES.
 SN  .OHMM   05 040 16 00:   SHORT NORMAL 16"
~PARAMETER INFORMATION
#MNEM.UNIT          VALUE    DESCRIPTION
#----------   ------------   ------------------------------
 PD  .                 GL:   PERMANENT DATUM
 EPD .F              5121:   ELEVATION PERMANENT DATUM
 LMF .                 KB:   LOG MEASURED FROM
 DAPD.F                 4:   FEET ABOVE PERMANENT DATUM
 DMF .                 KB:   DRILLING MEASURED FROM
 EKB .F              5126:   KELLING BUSHING
 EGL .F              5121:   GROUND LEVEL
 DATE.          1-18-1978:   RUN DATE
 RUN .                  1:   RUN NUMBER
 DD  .F               645:   DEPTH DRILLER
 DL  .F               648:   DEPTH LOGGER
 BLI .F               642:   BOTTOM LOG INTERVAL
 TLI .F                39:   TOP LOG INTERVAL
 CS  .IN            8.625:   CASING SIZE
 CBD .F                39:   CASING BOTTOM DRILLER
 BS  .IN            7.875:   BIT SIZE
 BSD .F               645:   BIT SIZE AT DEPTH
 DFT .                KCL:   DRILLING FLUID TYPE
 DFD .                8.8:   DRILLING FLUID DENSITY
 DFV .                 34:   DRILLING FLUID VISCOSITY
 DFPH.                9.5:   DRILLING FLUID PH
 DFL .                6.4:   DRILLING FLUID LOSS
 MSS .                PIT:   MUD SAMPLE SOURCE
 RMS .OHMM            .38:   RESISTIVITY MUD SAMPLE
 MST .F                43:   MUD SAMPLE TEMPERATURE
 RMF .OHMM            .26:   RESISTIVITY MUD FILTRATE SAMPLE
 MFST.F                70:   MUD FILTRATE SAMPLE TEMPERATURE
 RMC .OHMM            .42:   RESISTIVITY MUD CAKE
 MCST.F                70:   MUD CAKE SAMPLE TEMPERATURE
 MFSS.           MEASURED:   MUD FILTRATE SAMPLE SOURCE
 MCSS.           MEASURED:   MUD CAKE SAMPLE SOURCE
 RMB .OHMM            .24:   RESISTIVITY MUD AT BHT
 BHT .F                69:   BOTTOM HOLE TEMPERATURE
 TCS .HRS               2:   TIME CURCULATED STOPPED
 MRT .F                69:   MAXIMUM RECORDED TEMPERATURE
 LUN .               2958:   LOGGING UNIT NUMBER
 LUL .             CASPER:   LOGGING UNIT LOCATION
 ENGI.           REYNOLDS:   RECORDING ENGINEER
 WITN.         HARRINGTON:   WITNESSED BY
 CLNT.            A2DTECH:   CLIENT CODE
 ORIG.      2" , 5" PRINT:   ORIGIN OF DATA
 UWI .       490251055600:   UNIQUE WELL ID
 DICO. A2D Technologies, Inc.:   DIGITIZING COMPANY
~OTHER INFORMATION
~A   DEPT     CALD       CORR       DPHI         GRD      RHOB        ILD        SPR         SN   
   22.5000  -999.2500  -999.2500  -999.2500    70.6921  -999.2500  -999.2500  -999.2500  -999.2500
   23.0000  -999.2500  -999.2500  -999.2500    71.1452  -999.2500  -999.2500  -999.2500  -999.2500
   23.5000  -999.2500  -999.2500  -999.2500    71.4497  -999.2500  -999.2500  -999.2500  -999.2500
   24.0000  -999.2500  -999.2500  -999.2500    71.4570  -999.2500  -999.2500  -999.2500  -999.2500
   24.5000  -999.2500  -999.2500  -999.2500    71.1671  -999.2500  -999.2500  -999.2500  -999.2500
   25.0000  -999.2500  -999.2500  -999.2500    66.5682  -999.2500  -999.2500  -999.2500  -999.2500
   25.5000  -999.2500  -999.2500  -999.2500    64.0477  -999.2500  -999.2500  -999.2500  -999.2500
   26.0000  -999.2500  -999.2500  -999.2500    65.0970  -999.2500  -999.2500  -999.2500  -999.2500
   26.5000  -999.2500  -999.2500  -999.2500    68.2247  -999.2500  -999.2500  -999.2500  -999.2500
   27.0000  -999.2500  -999.2500  -999.2500    69.7178  -999.2500  -999.2500  -999.2500  -999.2500
   27.5000  -999.2500  -999.2500  -999.2500    69.1308  -999.2500  -999.2500  -999.2500  -999.2500
   28.0000  -999.2500  -999.2500  -999.2500    66.4635  -999.2500  -999.2500  -999.2500  -999.2500
   28.5000  -999.2500  -999.2500  -999.2500    66.6325  -999.2500  -999.2500  -999.2500  -999.2500
   29.0000  -999.2500  -999.2500  -999.2500    67.4136  -999.2500  -999.2500  -999.2500  -999.2500
   29.5000  -999.2500  -999.2500  -999.2500    67.8246  -999.2500  -999.2500  -999.2500  -999.2500
   30.0000     8.0104  -999.2500  -999.2500    65.1574  -999.2500  -999.2500  -999.2500  -999.2500
   30.5000     8.0028  -999.2500  -999.2500    64.4199  -999.2500  -999.2500  -999.2500  -999.2500
   31.0000     8.0046  -999.2500  -999.2500    65.6178  -999.2500  -999.2500  -999.2500  -999.2500
   31.5000     8.0061  -999.2500  -999.2500    71.1229  -999.2500  -999.2500  -999.2500  -999.2500
   32.0000     8.0076  -999.2500  -999.2500    73.2086  -999.2500  -999.2500  -999.2500  -999.2500
   32.5000     8.0090  -999.2500  -999.2500    71.8804  -999.2500  -999.2500  -999.2500  -999.2500
   33.0000     8.0105  -999.2500  -999.2500    71.2916  -999.2500  -999.2500  -999.2500  -999.2500
   33.5000     8.0268  -999.2500  -999.2500    71.3007  -999.2500  -999.2500  -999.2500  -999.2500
   34.0000     8.0134  -999.2500  -999.2500    71.3080  -999.2500  -999.2500  -999.2500  -999.2500
   34.5000     8.0149  -999.2500  -999.2500    70.8696  -999.2500  -999.2500  -999.2500  -999.2500
   35.0000     8.0015    -0.1659  -999.2500    69.0938  -999.2500  -999.2500  -999.2500  -999.2500
   35.5000     8.0030    -0.1741  -999.2500    66.1294  -999.2500  -999.2500  -999.2500  -999.2500
   36.0000     7.9747    -0.1792     0.2896    63.9079     2.1706  -999.2500  -999.2500  -999.2500
   36.5000     7.9613    -0.1799     0.3000    64.8068     2.1521  -999.2500  -999.2500  -999.2500
   37.0000     7.9483    -0.1807     0.3012    64.7984     2.1499  -999.2500  -999.2500  -999.2500
   37.5000     7.9498    -0.1784     0.3008    64.3756     2.1499  -999.2500  -999.2500  -999.2500
   38.0000     7.9661    -0.1761     0.3005    64.8305     2.1484  -999.2500  -999.2500  -999.2500
   38.5000     7.9675    -0.1738     0.3004    65.1350     2.1485  -999.2500  -999.2500  -999.2500
   39.0000     7.9690    -0.1722     0.3001    64.3994     2.1500  -999.2500  -999.2500  -999.2500
   39.5000     7.9853    -0.1722     0.2997    62.1779     2.1500  -999.2500  -999.2500  -999.2500
   40.0000     7.9868    -0.1707     0.3012    62.7796     2.1327  -999.2500  -999.2500  -999.2500
   40.5000     8.0180    -0.1420     0.3111    66.9474     2.1282  -999.2500  -999.2500  -999.2500
   41.0000     8.0492    -0.1208     0.3096    67.1014     2.1283  -999.2500  -999.2500  -999.2500
   41.5000     8.1695    -0.0823     0.3095    66.0686     2.1290  -999.2500  -999.2500  -999.2500
   42.0000     8.2155    -0.0152     0.3089    67.5619     2.1291  -999.2500  -999.2500  -999.2500
   42.5000     8.2170     0.0633     0.3085    66.9767     2.1306  -999.2500  -999.2500  -999.2500
   43.0000     8.2036     0.1554     0.3079    66.8351     2.1479  -999.2500  -999.2500  -999.2500
   43.5000     8.2051     0.1745     0.2938    67.2885     2.2736  -999.2500  -999.2500  -999.2500
   44.0000     8.2511     0.1772     0.2101    69.2274     2.3015  -999.2500  -999.2500  -999.2500
   44.5000     8.2526     0.1758     0.2104    70.4245     2.3007  -999.2500  -999.2500  -999.2500
   45.0000     7.9822     0.1735     0.2066    70.7280     2.3158  -999.2500  -999.2500  -999.2500
   45.5000     7.8794     0.1660     0.1813    69.9549     2.3580  -999.2500  -999.2500  -999.2500
   46.0000     7.7373     0.1359     0.1674    69.1087     2.3753   411.7831  -999.2500  -999.2500
   46.5000     7.6793     0.1148     0.1668    66.7386     2.3723   706.4967  -999.2500  -999.2500
   47.0000     7.6507     0.1005     0.1728    65.7058     2.3452   757.8679  -999.2500  -999.2500
   47.5000     7.6674     0.0998     0.2074    65.4160     2.3091  1065.9462  -999.2500  -999.2500
   48.0000     7.6689     0.0998     0.2064    65.7345     2.3069  2000.0000  -999.2500  -999.2500
   48.5000     7.6703     0.0991     0.2055    66.1966     2.3069  2000.0000  -999.2500  1800.5387
   49.0000     7.6718     0.0991     0.2057    67.5200     2.3070  2000.0000  -999.2500  1998.4982
   49.5000     7.6732     0.0991     0.2057    69.9048     2.3100  2000.0000  -999.2500  1971.8379
   50.0000     7.6747     0.0984     0.1963    72.2877     2.3205    12.7689    -0.2940     8.1554
   50.5000     7.6910     0.0969     0.1905    71.9978     2.3281     0.2429    -1.6718     2.1463
   51.0000     7.6925     0.0954     0.1872    72.1555     2.3379     5.3816    -8.0198     5.9016
   51.5000     7.6790     0.0940     0.1835    72.6086     2.3454     5.8089   -10.8399     6.0698
   52.0000     7.6954     0.0902     0.1735    70.5357     2.3613   176.9388   -13.2135     9.7884
   52.5000     7.6969     0.0842     0.1641    66.3825     2.3861  2000.0000   -14.5455    11.8860
   53.0000     7.6984     0.0805     0.1403    67.2814     2.4215   358.5454   -15.2822    13.2831
   53.5000     7.6999     0.0768     0.1360    67.8812     2.4283    37.7211   -15.7213    14.5516
   54.0000     7.7013     0.0700     0.1344    64.6214     2.4261    17.2332   -15.7421    15.9353
   54.5000     7.7177     0.0678     0.1354    64.3125     2.4095    17.0154   -14.9626    16.7284
   55.0000     7.7194     0.0678     0.1388    65.9734     2.3983    17.1437    -7.9606    17.4285
   55.5000     7.7358     0.0678     0.1563    68.6553     2.3772    17.3907    -6.1675    17.6787
   56.0000     7.7372     0.0671     0.1686    68.8112     2.3486    17.7637    -5.5650    18.0569
   56.5000     7.7833     0.0709     0.1846    68.0756     2.3205    18.0197    -5.4088    18.1897
   57.0000     7.8145     0.0717     0.2062    67.7857     2.3025    18.6625    -5.5506    18.5789
   57.5000     7.8456     0.0717     0.2119    67.7949     2.2956    19.1951    -5.9894    18.9764
   58.0000     7.8768     0.0756     0.2161    67.9508     2.2893    20.0177    -6.2797    19.5170
   58.5000     7.9377     0.0870     0.2166    68.7010     2.2886    21.1664    -6.4212    19.9346
   59.0000     8.0432     0.0967     0.2142    70.7886     2.2924    21.7704    -6.4137    20.5024
   59.5000     8.1487     0.1080     0.2141    73.4705     2.2946    21.7808    -6.4062    21.0865
   60.0000     8.2393     0.1224     0.2138    74.2189     2.2954    21.6385    -6.9938    21.3891
   60.5000     8.2705     0.1307     0.2101    72.8908     2.3045    21.2069    -8.3258    21.3979
   61.0000     8.2719     0.1406     0.2034    70.6693     2.3128    21.0708    -8.6161    21.1124
   61.5000     8.2734     0.1466     0.2025    69.9318     2.3165    20.9353    -8.6086    20.6871
   62.0000     8.2299     0.1580     0.1986    71.8726     2.3218    20.0944    -8.7502    20.1306
   62.5000     8.1723     0.1603     0.1934    76.1890     2.3377    19.0221    -8.7674    19.4540
