~VERSION INFORMATION
 VERS.                2.0:   CWLS LOG ASCII STANDARD - VERSION 2.0
 WRAP.                 NO:   ONE LINE PER DEPTH STEP
~WELL INFORMATION
#MNEM.UNIT      DATA TYPE    INFORMATION
#----------   ------------   ------------------------------
 STRT.F           30.0000:   START DEPTH
 STOP.F          620.0000:   STOP DEPTH
 STEP.F            0.5000:   STEP LENGTH
 NULL.          -999.2500:   NO VALUE
 COMP. FENIX & SCISSON INC:   COMPANY
 WELL.       NPR-3 #62-15:   WELL
 FLD .             TEAPOT:   FIELD
 LOC .      S15 T38N R78W:   LOCATION
 CNTY.            NATRONA:   COUNTY
 STAT.            WYOMING:   STATE
 CTRY. UNITED STATES OF AMERICA:   COUNTRY
 SRVC.           BIRDWELL:   SERVICE COMPANY
 DATE.        08-JUN-1978:   LOGDATE
 API .       490251063700:   API NUMBER
~CURVE INFORMATION
#MNEM.UNIT       API CODE    CURVE DESCRIPTION
#----------   ------------   ------------------------------
 DEPT.F                  :   
 SPR .MV     05 010 01 00:   SPONTANEOUS POTENTIAL FROM RES.
 SN  .OHMM   05 040 16 00:   SHORT NORMAL 16"
 ILD .OHMM   05 120 46 00:   INDUCTION LOG DEEP
 CALD.IN     45 280 60 00:   CALIPER FROM DENSITY LOG
 GRD .GAPI   45 310 01 00:   GAMMA RAY FROM DENSITY LOG
 CORR.G/C3   45 356 01 00:   DENSITY CORRECTION
 DPHI.DEC    45 890 12 00:   DENSITY POROSITY SANDSTONE
 DEN .G/C3   45 350 01 00:   DENSITY
~PARAMETER INFORMATION
#MNEM.UNIT          VALUE    DESCRIPTION
#----------   ------------   ------------------------------
 PD  .                 GL:   PERMANENT DATUM
 EPD .F              5246:   ELEVATION PERMANENT DATUM
 LMF .                 KB:   LOG MEASURED FROM
 DAPD.F                 4:   FEET ABOVE PERMANENT DATUM
 DMF .                 KB:   DRILLING MEASURED FROM
 EKB .F              5250:   KELLING BUSHING
 EGL .F              5246:   GROUND LEVEL
 DATE.        08-JUN-1978:   RUN DATE
 RUN .                  1:   RUN NUMBER
 DD  .F               620:   DEPTH DRILLER
 DL  .F               627:   DEPTH LOGGER
 BLI .F               620:   BOTTOM LOG INTERVAL
 TLI .F                42:   TOP LOG INTERVAL
 CS  .IN            8.625:   CASING SIZE
 CBD .F                40:   CASING BOTTOM DRILLER
 CBL .F                42:   CASING BOTTOM LOGGER
 BS  .IN            7.875:   BIT SIZE
 BSD .F               620:   BIT SIZE AT DEPTH
 DFT .                KCL:   DRILLING FLUID TYPE
 DFD .                8.7:   DRILLING FLUID DENSITY
 DFV .                 31:   DRILLING FLUID VISCOSITY
 DFPH.               10.5:   DRILLING FLUID PH
 DFL .                 10:   DRILLING FLUID LOSS
 MSS .           FLOWLINE:   MUD SAMPLE SOURCE
 RMS .OHMM            .26:   RESISTIVITY MUD SAMPLE
 MST .F                76:   MUD SAMPLE TEMPERATURE
 RMF .OHMM            .28:   RESISTIVITY MUD FILTRATE SAMPLE
 MFST.F                76:   MUD FILTRATE SAMPLE TEMPERATURE
 RMC .OHMM            .40:   RESISTIVITY MUD CAKE
 MCST.F                77:   MUD CAKE SAMPLE TEMPERATURE
 MFSS.               MEAS:   MUD FILTRATE SAMPLE SOURCE
 MCSS.               MEAS:   MUD CAKE SAMPLE SOURCE
 RMB .OHMM            .28:   RESISTIVITY MUD AT BHT
 BHT .F                70:   BOTTOM HOLE TEMPERATURE
 TCS .HRS            0400:   TIME CURCULATED STOPPED
 MRT .F                70:   MAXIMUM RECORDED TEMPERATURE
 LUN .               2958:   LOGGING UNIT NUMBER
 LUL .               CASP:   LOGGING UNIT LOCATION
 ENGI.             MILLER:   RECORDING ENGINEER
 WITN.           MCGINLEY:   WITNESSED BY
 CLNT.            A2DTECH:   CLIENT CODE
 ORIG.           5" PRINT:   ORIGIN OF DATA
 UWI .       490251063700:   UNIQUE WELL ID
 DICO. A2D Technologies, Inc.:   DIGITIZING COMPANY
~OTHER INFORMATION
~A   DEPT      SPR         SN        ILD       CALD        GRD       CORR       DPHI        DEN   
# ...
  313.5000   -40.6182     7.2764     5.0994     7.3497    77.0531     0.0399     0.1175     2.4752
  314.0000   -40.6216     7.4844     5.1029     7.4535    79.6014     0.0390     0.1115     2.4836
  314.5000   -40.6250     7.6453     5.1417     7.6025    84.7099     0.0389     0.1122     2.4884
  315.0000   -40.6284     7.7025     5.1452     7.6611    86.0563     0.0388     0.1176     2.4845
  315.5000   -40.6318     7.7601     5.1486     7.7046    87.3968     0.0387     0.1140     2.4807
  316.0000   -40.6352     7.7644     5.1521     7.7183    90.8486     0.0371     0.1116     2.4867
  316.5000   -40.6241     7.7150     5.1556     7.7478    93.2493     0.0370     0.1134     2.4874
  317.0000   -40.4581     7.7202     5.1235     7.7901    91.8789     0.0354     0.1159     2.4798
  317.5000   -40.4416     7.6702     5.0917     7.8337    85.9924     0.0323     0.1174     2.4753
  318.0000   -40.5773     7.6215     5.0960     7.8622    82.9684     0.0277     0.1186     2.4722
  318.5000   -40.5857     7.4702     5.0634     7.8907    81.7516     0.0246     0.1202     2.4707
  319.0000   -40.6025     7.3209     5.0320     7.9489    82.6432     0.0185     0.1265     2.4699
  319.5000   -40.6193     7.2243     5.0007     8.0225    86.8481     0.0169     0.1343     2.4646
  320.0000   -40.6361     7.1281     4.9362     8.0209    88.0410     0.0183     0.1388     2.4428
  320.5000   -40.6529     6.9384     4.7389     8.0042    88.9326     0.0197     0.1451     2.4419
  321.0000   -40.6698     6.7530     4.5178     7.9725    88.3182     0.0225     0.1478     2.4374
  321.5000   -40.6866     6.5698     4.2455     7.9709    86.3484     0.0239     0.1497     2.4208
  322.0000   -40.7034     6.3400     4.0236     7.9542    83.1738     0.0283     0.1530     2.4185
  322.5000   -40.7202     6.0568     3.9979     7.9525    78.3425     0.0297     0.1524     2.4155
  323.0000   -40.7370     5.8941     4.0569     7.9509    78.0293     0.0296     0.1623     2.4094
  323.5000   -40.7538     5.7365     4.0597     7.9475    79.3728     0.0325     0.1693     2.3929
  324.0000   -40.7706     5.7001     4.0338     7.8720    81.3186     0.0593     0.1606     2.3891
  324.5000   -40.7874     5.7435     3.9818     7.8858    82.8127     0.0712     0.1468     2.4262
  325.0000   -40.7948     5.9486     3.9844     7.9139    84.6079     0.0741     0.1237     2.4670
  325.5000   -40.9284     6.2901     4.2429     7.8972    86.2526     0.0620     0.1123     2.4827
  326.0000   -40.9083     6.6512     4.7121     7.8655    87.5960     0.0559     0.1108     2.4796
  326.5000   -40.8937     6.9846     4.9220     7.8337    85.7768     0.0498     0.1110     2.4961
  327.0000   -40.8762     7.2347     5.0890     7.8020    82.4516     0.0407     0.1139     2.4915
  327.5000   -40.8588     7.3999     5.1633     7.7551    81.2348     0.0346     0.1175     2.4840
  328.0000   -40.9940     7.6017     5.1668     7.7234    81.5240     0.0286     0.1220     2.4794
  328.5000   -40.9775     7.7652     5.2061     7.6917    86.6325     0.0270     0.1236     2.4734
  329.0000   -40.9611     7.8775     5.2458     7.6599    88.8856     0.0291     0.1167     2.4711
  329.5000   -40.9446     7.9364     5.2493     7.6432    89.1688     0.0394     0.1137     2.4763
  330.0000   -40.9281     7.9407     5.2893     7.6265    87.9216     0.0363     0.1161     2.4815
  330.5000   -40.9117     8.0001     5.2928     7.6400    86.0919     0.0333     0.1188     2.4792
  331.0000   -40.8952     8.0599     5.2965     7.6379    85.0492     0.0339     0.1144     2.4724
  331.5000   -40.8787     8.0642     5.3369     7.6363    85.2602     0.0390     0.1075     2.4858
  332.0000   -40.8623     8.1245     5.3412     7.6347    88.0547     0.0345     0.1063     2.4955
  332.5000   -40.8458     8.1853     5.3448     7.6331    88.1933     0.0306     0.1075     2.4940
  333.0000   -40.8293     8.1921     5.3484     7.6164    85.7697     0.0305     0.1132     2.4894
  333.5000   -40.8129     8.2511     5.3520     7.5846    84.7035     0.0319     0.1136     2.4841
  334.0000   -40.7964     8.2566     5.3556     7.5378    89.2096     0.0348     0.1121     2.4878
  334.5000   -40.7799     8.2610     5.3592     7.5061    91.0079     0.0362     0.1115     2.4930
  335.0000   -40.7635     8.2075     5.3628     7.4291    88.1314     0.0391     0.1058     2.4967
  335.5000   -40.7470     8.2130     5.3665     7.4576    85.5592     0.0345     0.1022     2.4981
  336.0000   -40.7305     8.1598     5.3702     7.5464    86.3002     0.0299     0.1059     2.4966
  336.5000   -40.7141     8.1653     5.3746     7.4842    87.7943     0.0268     0.1119     2.4920
  337.0000   -40.6976     8.1124     5.3782     7.4226    88.0865     0.0252     0.1131     2.4897
  337.5000   -40.6811     8.1179     5.3818     7.4210    85.8125     0.0266     0.1098     2.4897
  338.0000   -40.6617     8.1223     5.3855     7.4646    84.1439     0.0280     0.1051     2.4896
  338.5000   -40.6457     8.0707     5.3891     7.4930    86.0898     0.0324     0.1030     2.4926
  339.0000   -40.6309     8.0752     5.3927     7.5215    89.8428     0.0367     0.1009     2.5038
  339.5000   -40.7646     8.0796     5.3964     7.5350    89.6803     0.0441     0.0928     2.5082
  340.0000   -40.8982     8.0281     5.4000     7.5631    88.3129     0.0485     0.0742     2.5179
  340.5000   -40.8817     7.9772     5.4037     7.5920    87.6985     0.0514     0.0676     2.5674
  341.0000   -40.8653     7.9826     5.3700     7.6355    89.6443     0.0528     0.0689     2.5816
  341.5000   -40.8488     7.9308     5.3746     7.6636    90.8469     0.0362     0.0923     2.5500
  342.0000   -40.8326     7.9362     5.3411     7.6921    89.4698     0.0022     0.1244     2.4705
  342.5000   -41.1159     7.8847     5.3079     7.6905    88.7068    -0.0149     0.1187     2.4621
  343.0000   -41.5450     7.7818     5.2386     7.6888    91.2520     0.0224     0.1101     2.4606
  343.5000   -41.6826     7.7323     5.2052     7.6714    93.6497     0.0268     0.1074     2.4620
  344.0000   -41.8162     7.6833     5.1372     7.6404    94.0925     0.0282     0.1071     2.4628
  344.5000   -42.0956     7.5274     5.1060     7.7289    91.2161     0.0281     0.1086     2.4604
  345.0000   -42.0795     7.3285     4.9703     7.8778    87.1379     0.0265     0.1104     2.4431
  345.5000   -42.2172     7.1830     4.8002     8.0268    85.6199     0.0249     0.1132     2.4408
  346.0000   -42.3473     7.0394     4.6074     8.0854    89.8247     0.0248     0.1168     2.4220
  346.5000   -42.4805     6.8978     4.3986     8.0688    90.7169     0.0232     0.1207     2.3988
  347.0000   -42.6140     6.7143     4.2521     8.0219    91.4574     0.0201     0.1255     2.3838
  347.5000   -42.5973     6.4451     4.0822     8.0354    92.0478     0.0185     0.1307     2.3651
  348.0000   -42.5779     6.1442     3.8653     8.1091    91.2829     0.0169     0.1370     2.3516
  348.5000   -42.5618     5.8572     3.5848     8.0454    88.4094     0.0183     0.1415     2.3313
  349.0000   -42.3961     5.5837     3.2565     7.9849    87.1926     0.0182     0.1463     2.3066
  349.5000   -42.3800     5.2863     2.9378     7.9532    89.5903     0.0076     0.1721     2.2721
  350.0000   -42.1656     4.9703     2.5079     7.9366    94.8494    -0.0135     0.2529     2.2594
  350.5000   -42.0468     4.4061     2.3234     7.8000    94.4864    -0.0241     0.2640     2.2548
  351.0000   -42.0292     3.9070     2.2311     7.7538    89.8360    -0.0182     0.2677     2.2349
  351.5000   -41.8619     3.5980     2.2164     7.6323    84.3934     0.0041     0.2710     2.2151
  352.0000   -41.3952     3.4300     2.2480     7.5107    84.2891     0.0339     0.2668     2.2156
  352.5000   -40.9157     3.4801     2.2642     7.6302    86.1589     0.0952     0.2536     2.2394
  353.0000   -40.6108     3.5795     2.2963     7.7499    86.4398     0.1265     0.1693     2.3411
  353.5000   -40.5895     3.6313     2.4443     7.6582    86.8701     0.1369     0.1309     2.3958
