~VERSION INFORMATION
 VERS.                2.0:   CWLS LOG ASCII STANDARD - VERSION 2.0
 WRAP.                 NO:   ONE LINE PER DEPTH STEP
~WELL INFORMATION
#MNEM.UNIT      DATA TYPE    INFORMATION
#----------   ------------   ------------------------------
 STRT.F            4.0000:   START DEPTH
 STOP.F          578.0000:   STOP DEPTH
 STEP.F            0.5000:   STEP LENGTH
 NULL.          -999.2500:   NO VALUE
 COMP.              FENIX:   COMPANY
 WELL.   NPR-3 #14SX11-11:   WELL
 FLD .             TEAPOT:   FIELD
 LOC .      S11 T38N R78W:   LOCATION
 CNTY.            NATRONA:   COUNTY
 STAT.            WYOMING:   STATE
 CTRY. UNITED STATES OF AMERICA:   COUNTRY
 SRVC.           BIRDWELL:   SERVICE COMPANY
 DATE.        14-FEB-1978:   LOGDATE
 API .       490251057100:   API NUMBER
~CURVE INFORMATION
#MNEM.UNIT       API CODE    CURVE DESCRIPTION
#----------   ------------   ------------------------------
 DEPT.F                  :   
 ILD .OHMM   05 120 46 00:   INDUCTION LOG DEEP
 SN  .OHMM   05 040 16 00:   SHORT NORMAL 16"
 SPR .MV     05 010 01 00:   SPONTANEOUS POTENTIAL FROM RES.
 CALD.IN     45 280 60 00:   CALIPER FROM DENSITY LOG
 CORR.G/C3   45 356 01 00:   DENSITY CORRECTION
 DPHI.DEC    45 890 12 00:   DENSITY POROSITY SANDSTONE
 GRD .GAPI   45 310 01 00:   GAMMA RAY FROM DENSITY LOG
 RHOB.G/C3   45 350 01 00:   BULK DENSITY
~PARAMETER INFORMATION
#MNEM.UNIT          VALUE    DESCRIPTION
#----------   ------------   ------------------------------
 PD  .                 GL:   PERMANENT DATUM
 EPD .F              5183:   ELEVATION PERMANENT DATUM
 LMF .                 KB:   LOG MEASURED FROM
 DAPD.F                 4:   FEET ABOVE PERMANENT DATUM
 DMF .                 KB:   DRILLING MEASURED FROM
 EKB .F              5187:   KELLING BUSHING
 EGL .F              5183:   GROUND LEVEL
 DATE.        14-FEB-1978:   RUN DATE
 RUN .                  1:   RUN NUMBER
 DD  .F               580:   DEPTH DRILLER
 DL  .F               580:   DEPTH LOGGER
 BLI .F               578:   BOTTOM LOG INTERVAL
 TLI .F                20:   TOP LOG INTERVAL
 CS  .IN            8.625:   CASING SIZE
 CBD .F                15:   CASING BOTTOM DRILLER
 CBL .F                39:   CASING BOTTOM LOGGER
 BS  .IN            7.875:   BIT SIZE
 BSD .F               580:   BIT SIZE AT DEPTH
 DFT .         LIGNO-SULF:   DRILLING FLUID TYPE
 DFD .                8.6:   DRILLING FLUID DENSITY
 DFV .                 33:   DRILLING FLUID VISCOSITY
 DFPH.                 11:   DRILLING FLUID PH
 DFL .                  4:   DRILLING FLUID LOSS
 MSS .           FLOWLINE:   MUD SAMPLE SOURCE
 RMS .OHMM            1.3:   RESISTIVITY MUD SAMPLE
 MST .F                62:   MUD SAMPLE TEMPERATURE
 RMF .OHMM            1.2:   RESISTIVITY MUD FILTRATE SAMPLE
 MFST.F                64:   MUD FILTRATE SAMPLE TEMPERATURE
 RMC .OHMM            1.6:   RESISTIVITY MUD CAKE
 MCST.F                62:   MUD CAKE SAMPLE TEMPERATURE
 MFSS.               MEAS:   MUD FILTRATE SAMPLE SOURCE
 BHT .F                70:   BOTTOM HOLE TEMPERATURE
 TCS .HRS               3:   TIME CURCULATED STOPPED
 MRT .F                70:   MAXIMUM RECORDED TEMPERATURE
 LUN .               2958:   LOGGING UNIT NUMBER
 LUL .               CASP:   LOGGING UNIT LOCATION
 ENGI.            POINTER:   RECORDING ENGINEER
 WITN.           MCGINLEY:   WITNESSED BY
 CLNT.            A2DTECH:   CLIENT CODE
 ORIG.           5" PRINT:   ORIGIN OF DATA
 UWI .       490251057100:   UNIQUE WELL ID
 DICO. A2D Technologies, Inc.:   DIGITIZING COMPANY
~OTHER INFORMATION
~A    DEPT     ILD         SN        SPR       CALD       CORR       DPHI         GRD      RHOB   
# ...
  166.0000     8.0088     8.8218   -34.8418     7.5738     0.0128     0.1408    82.5593     2.4477
  166.5000     8.0625     8.8189   -34.8473     7.4671     0.0322     0.1429    86.0492     2.4409
  167.0000     8.0609     8.8160   -34.8516     7.4972     0.0922     0.0840    88.3585     2.4257
  167.5000     8.0579     8.7521   -34.8561     7.5577     0.0726     0.0846    90.9038     2.4891
  168.0000     8.0476     8.7485   -34.8615     7.6182     0.0816     0.0987    88.9237     2.4973
  168.5000     8.0373     8.7456   -34.2598     7.6497     0.1055     0.0772    85.5758     2.5009
  169.0000     8.0891     8.7427   -33.5066     7.6632     0.0920     0.0741    84.8115     2.5141
  169.5000     8.0864     8.6794   -33.5109     7.6629     0.0800     0.0942    87.4565     2.5324
  170.0000     8.0284     8.6765   -34.1214     7.6626     0.0664     0.0966    91.1845     2.5098
  170.5000     8.0263     8.6736   -34.4333     7.6623     0.0558     0.0957    91.6371     2.4932
  171.0000     8.0805     8.6700   -34.8888     7.6620     0.0663     0.0879    87.8322     2.4932
  171.5000     8.0220     8.7889   -35.1962     7.6607     0.0888     0.0804    83.4205     2.4984
  172.0000     8.0756     8.7852   -35.5036     7.6591     0.0707     0.0768    82.3533     2.5201
  172.5000     8.1291     8.7823   -36.2655     7.6571     0.0497     0.0925    85.5393     2.5209
  173.0000     8.1270     8.7187   -37.0274     7.6409     0.0302     0.0985    87.3585     2.4959
  173.5000     8.1819     8.7954   -37.0318     7.6398     0.0196     0.0964    87.6581     2.4914
  174.0000     8.2361     8.8186   -36.5827     7.6543     0.0151     0.0940    87.9576     2.4907
  174.5000     8.2339     8.8932   -35.9810     7.6530     0.0226     0.0910    87.9520     2.4906
  175.0000     8.2890     8.9515   -35.8328     7.6823     0.0270     0.0880    87.4917     2.4929
  175.5000     8.2867     8.9484   -36.7473     7.7117     0.0269     0.0863    86.7273     2.4996
  176.0000     8.3422     8.9354   -37.6608     7.7106     0.0269     0.0848    90.0664     2.5078
  176.5000     8.3394     8.8799   -37.6652     7.7248     0.0298     0.0839    93.8613     2.5055
  177.0000     8.3372     8.8157   -36.0848     7.7235     0.0358     0.0854    94.3139     2.5077
  177.5000     8.2773     8.8127   -35.0981     7.7379     0.0403     0.0879    91.7248     2.5130
  178.0000     8.2751     8.7490   -35.5581     7.7521     0.0447     0.0907    86.8572     2.5032
  178.5000     8.1589     8.8069   -35.7140     7.7508     0.0477     0.0924    90.5578     2.4971
  179.0000     8.0999     8.8038   -36.0214     7.7652     0.0506     0.0771    91.2556     2.5076
  179.5000     8.0417     8.8003   -36.1773     7.7792     0.0476     0.0738    91.4020     2.5241
  180.0000     8.0396     8.7973   -36.3333     7.7933     0.0415     0.0747    91.8535     2.5263
  180.5000     8.0374     8.8563   -36.3386     7.8081     0.0325     0.0792    92.3050     2.5165
  181.0000     8.0353     8.7915   -36.3430     7.8216     0.0294     0.0945    92.4537     2.5044
  181.5000     8.0331     8.8497   -36.3474     7.8203     0.0309     0.0965    89.4086     2.4961
  182.0000     8.0869     8.7855   -36.1991     7.8193     0.0309     0.0922    89.8601     2.4923
  182.5000     8.0717     8.7820   -36.2046     7.7727     0.0323     0.0885    93.0776     2.4968
  183.0000     8.0463     8.7791   -36.2091     7.7260     0.0308     0.0861    95.5188     2.5043
  183.5000     8.0240     8.7761   -36.3659     7.6794     0.0277     0.0889    96.3806     2.5080
  184.0000     8.0777     8.8350   -36.8249     7.6632     0.0247     0.0946    96.5293     2.5020
  184.5000     8.0197     8.8313   -37.7383     7.6621     0.0276     0.0934    95.4599     2.4944
  185.0000     8.0176     8.7673   -38.1961     7.6920     0.0321     0.0904    93.0239     2.4929
  185.5000     8.0149     8.7637   -36.8380     7.7382     0.0320     0.0931    92.7155     2.4943
  186.0000     7.9574     8.7003   -36.6908     7.7956     0.0305     0.0907    92.8630     2.4981
  186.5000     7.9003     8.6974   -38.5145     7.8249     0.0290     0.0841    95.4422     2.5055
  187.0000     7.8436     8.6345   -38.6703     7.8391     0.0291     0.0923    95.8937     2.5077
  187.5000     7.8415     8.6917   -38.3717     7.8684     0.0284     0.0907    95.2558     2.5032
  188.0000     7.7852     8.6887   -38.2234     7.8826     0.0259     0.0893    93.9080     2.4994
  188.5000     7.7831     8.6851   -38.0773     7.8816     0.0264     0.0971    92.3838     2.4964
  189.0000     7.7805     8.6822   -37.7677     7.8805     0.0262     0.0911    92.6844     2.4971
  189.5000     7.7785     8.7404   -37.3296     7.8947     0.0276     0.0884    92.8320     2.5008
  190.0000     7.7764     8.6764   -37.0299     7.8784     0.0289     0.0905    92.8265     2.4985
  190.5000     7.7743     8.6736   -36.7312     7.8772     0.0333     0.0911    93.2779     2.4962
  191.0000     7.7722     8.6107   -36.4336     7.8761     0.0257     0.0881    94.9452     2.5022
  191.5000     7.7164     8.5478   -36.1350     7.8751     0.0225     0.0869    95.5487     2.5036
  192.0000     7.7139     8.5449   -36.4424     7.8591     0.0209     0.0872    89.9212     2.4998
  192.5000     7.7660     8.5421   -36.9024     7.8578     0.0192     0.0908    95.2348     2.5043
  193.0000     7.8174     8.5392   -37.3613     7.8568     0.0176     0.0866    97.3580     2.5088
  193.5000     7.8153     8.5958   -37.5252     7.8558     0.0190     0.0885    98.7214     2.5080
  194.0000     7.8682     8.6550   -37.7888     7.8395     0.0233     0.0912    92.7910     2.5042
  194.5000     7.9203     8.7705   -38.0991     7.8233     0.0217     0.0891    93.8493     2.5003
  195.0000     7.9733     8.8285   -38.2579     7.8068     0.0201     0.0918    93.6929     2.4951
  195.5000     8.0266     9.0103   -38.2652     7.8058     0.0185     0.0918    93.3845     2.4958
  196.0000     8.0803     9.1337   -38.2727     7.7895     0.0183     0.0906    92.7578     2.5018
  196.5000     8.0776     9.1392   -38.2817     7.7733     0.0227     0.0885    91.0949     2.5100
  197.0000     8.1322     9.1269   -38.2889     7.7115     0.0285     0.0864    90.7865     2.5070
  197.5000     8.1295     9.1231   -38.4478     7.6344     0.0314     0.0861    90.7820     2.5047
  198.0000     8.1839     9.1201   -39.0611     7.5422     0.0343     0.0943    91.0816     2.5062
  198.5000     8.1811     9.1170   -38.9169     7.4348     0.0372     0.0970    90.9252     2.5099
  199.0000     8.1790     9.1140   -38.6212     7.4034     0.0385     0.0913    90.3128     2.5184
  199.5000     8.1768     9.1110   -38.3273     7.5693     0.0384     0.0889    89.8525     2.5256
  200.0000     8.1746     9.0450   -38.3345     7.9330     0.0397     0.0943    90.3040     2.5128
  200.5000     8.0598     9.0317   -38.6449     7.9623     0.0516     0.0916    91.8364     2.5037
  201.0000     7.9467     8.9138   -39.1067     7.9765     0.0530     0.0880    93.1815     2.5014
  201.5000     7.8282     8.8493   -39.5686     7.9299     0.0528     0.0835    94.6968     2.5059
  202.0000     7.7784     8.7246   -39.7274     7.7616     0.0512     0.0842    96.3641     2.5134
  202.5000     7.7763     8.6615   -39.7348     7.7150     0.0510     0.0874    97.0959     2.5118
  203.0000     7.7205     8.5988   -39.5904     7.6836     0.0509     0.0883    97.3933     2.5057
  203.5000     7.7184     8.5365   -39.5996     7.6673     0.0538     0.0898    96.7744     2.5020
  204.0000     7.7164     8.4156   -39.6069     7.6661     0.0611     0.0907    95.2458     2.5035
  204.5000     7.6585     8.3547   -39.6142     7.6954     0.0670     0.0868    96.1489     2.5057
  205.0000     7.5529     8.2942   -39.6215     7.7098     0.0699     0.0863    95.0152     2.5056
  205.5000     7.4987     8.2342   -39.6288     7.7240     0.0680     0.0890    92.1777     2.5048
  206.0000     7.4449     8.1746   -39.6379     7.7227     0.0786     0.0911    90.8012     2.5003
