~VERSION INFORMATION
 VERS.                2.0:   CWLS LOG ASCII STANDARD - VERSION 2.0
 WRAP.                 NO:   ONE LINE PER DEPTH STEP
~WELL INFORMATION
#MNEM.UNIT      DATA TYPE    INFORMATION
#----------   ------------   ------------------------------
 STRT.F           30.0000:   START DEPTH
 STOP.F          580.0000:   STOP DEPTH
 STEP.F            0.5000:   STEP LENGTH
 NULL.          -999.2500:   NO VALUE
 COMP. FENIX & SCISSON INC:   COMPANY
 WELL.      87 SX 3 #87-3:   WELL
 FLD .             TEAPOT:   FIELD
 LOC .       S3 T38N R78W:   LOCATION
 CNTY.            NATRONA:   COUNTY
 STAT.            WYOMING:   STATE
 CTRY. UNITED STATES OF AMERICA:   COUNTRY
 SRVC.            Unknown:   SERVICE COMPANY
 DATE.        16-NOV-1978:   LOGDATE
 API .       490251074200:   API NUMBER
~CURVE INFORMATION
#MNEM.UNIT       API CODE    CURVE DESCRIPTION
#----------   ------------   ------------------------------
 DEPT.F                  :   
 CALD.IN     45 280 60 00:   CALIPER
 GRD .GAPI   45 310 01 00:   GAMMA RAY FROM DENSITY LOG
 RHOB.G/C3   45 350 01 00:   BULK DENSITY
 DPHI.DEC    45 890 12 00:   DENSITY POROSITY SANDSTONE
 CORR.G/C3   45 356 01 00:   DENSITY CORRECTION
 SFL .OHMM   05 221 01 00:   AMP. SHALLOW FOCUSED LOG RESISTIVITY
 ILD .OHMM   05 120 46 00:   INDUCTION LOG DEEP
 SPR .MV     05 010 01 00:   SPONTANEOUS POTENTIAL FROM RES.
~PARAMETER INFORMATION
#MNEM.UNIT          VALUE    DESCRIPTION
#----------   ------------   ------------------------------
 PD  .                 GL:   PERMANENT DATUM
 EPD .F              5120:   ELEVATION PERMANENT DATUM
 LMF .                 KB:   LOG MEASURED FROM
 DAPD.F                 4:   FEET ABOVE PERMANENT DATUM
 DMF .                 KB:   DRILLING MEASURED FROM
 EKB .F              5124:   KELLING BUSHING
 EGL .F              5120:   GROUND LEVEL
 DATE.           11-16-78:   RUN DATE
 RUN .                  1:   RUN NUMBER
 DD  .F               580:   DEPTH DRILLER
 DL  .F               574:   DEPTH LOGGER
 BLI .F               574:   BOTTOM LOG INTERVAL
 TLI .F                50:   TOP LOG INTERVAL
 CS  .IN            8.625:   CASING SIZE
 CBD .F                50:   CASING BOTTOM DRILLER
 CBL .F                50:   CASING BOTTOM LOGGER
 BS  .IN            7.875:   BIT SIZE
 BSD .F               580:   BIT SIZE AT DEPTH
 DFT .            SEA MUD:   DRILLING FLUID TYPE
 DFD .                8.7:   DRILLING FLUID DENSITY
 DFV .                 54:   DRILLING FLUID VISCOSITY
 DFPH.                9.8:   DRILLING FLUID PH
 MSS .           FLOWLINE:   MUD SAMPLE SOURCE
 RMS .OHMM            1.1:   RESISTIVITY MUD SAMPLE
 MST .F                56:   MUD SAMPLE TEMPERATURE
 RMF .OHMM             .9:   RESISTIVITY MUD FILTRATE SAMPLE
 MFST.F                60:   MUD FILTRATE SAMPLE TEMPERATURE
 RMC .OHMM            .95:   RESISTIVITY MUD CAKE
 MCST.F                60:   MUD CAKE SAMPLE TEMPERATURE
 MFSS.           MEASURED:   MUD FILTRATE SAMPLE SOURCE
 MCSS.           MEASURED:   MUD CAKE SAMPLE SOURCE
 RMB .OHMM            .93:   RESISTIVITY MUD AT BHT
 BHT .F                66:   BOTTOM HOLE TEMPERATURE
 TCS .HRS               1:   TIME CURCULATED STOPPED
 MRT .F                66:   MAXIMUM RECORDED TEMPERATURE
 LUN .               2958:   LOGGING UNIT NUMBER
 LUL .                CPR:   LOGGING UNIT LOCATION
 ENGI.             MILLER:   RECORDING ENGINEER
 WITN.           DINSMORE:   WITNESSED BY
 CLNT.            A2DTECH:   CLIENT CODE
 ORIG.       2", 5" PRINT:   ORIGIN OF DATA
 UWI .       490251074200:   UNIQUE WELL ID
 DICO. A2D Technologies, Inc.:   DIGITIZING COMPANY
~OTHER INFORMATION
~A   DEPT     CALD         GRD      RHOB       DPHI       CORR        SFL        ILD        SPR   
# ...
  232.5000     7.8119   111.0613     2.4513     0.1400    -0.0005     8.1570     6.7972    -6.1101
  233.0000     7.8119   111.5206     2.4516     0.1401    -0.0005     8.7464     7.1102    -6.0208
  233.5000     7.8116   111.9791     2.4520     0.1403    -0.0005     9.1355     7.1990    -5.9315
  234.0000     7.8437   112.6035     2.4525     0.1405    -0.0005     9.3547     7.2888    -5.8422
  234.5000     7.9001   113.3494     2.4530     0.1407    -0.0006     9.3132     7.3626    -5.7529
  235.0000     7.9040   114.0869     2.4536     0.1402     0.0019     9.2710     7.3427    -5.6634
  235.5000     7.8953   114.4422     2.4548     0.1392     0.0050     9.2290     7.3226    -5.5749
  236.0000     7.8864   114.1161     2.4590     0.1373     0.0074     9.1873     7.3026    -5.4810
  236.5000     7.8775   113.8010     2.4634     0.1316     0.0065     9.1457     7.2489    -5.6530
  237.0000     7.8687   113.4826     2.4651     0.1344     0.0056     9.1043     7.1755    -5.8565
  237.5000     7.8598   113.1792     2.4605     0.1379     0.0047     9.0630     7.1029    -5.8526
  238.0000     7.8510   113.1680     2.4547     0.1415     0.0038     9.0220     7.0310    -5.8450
  238.5000     7.8422   113.1536     2.4491     0.1436     0.0030     8.6622     6.9598    -6.2610
  239.0000     7.8330   112.2564     2.4454     0.1436     0.0021     8.2991     6.8894    -6.8345
  239.5000     7.8423   109.9862     2.4418     0.1457     0.0012     8.1842     6.7807    -7.4135
  240.0000     7.8593   107.7460     2.4382     0.1479     0.0003     8.0791     6.5797    -7.4040
  240.5000     7.8765   106.3960     2.4347     0.1512    -0.0005     7.9754     6.3846    -7.3562
  241.0000     7.8936   107.4016     2.4306     0.1584    -0.0001     7.8000     6.1806    -7.3111
  241.5000     7.9108   107.4508     2.4150     0.1665     0.0004     7.4951     5.8375    -7.2670
  242.0000     7.9280   107.0748     2.3992     0.1751     0.0008     7.0718     5.4865    -7.2229
  242.5000     7.9340   109.8703     2.3835     0.1837     0.0013     6.6724     5.3337    -7.1788
  243.0000     7.9380   113.5145     2.3674     0.1919     0.0033     6.2955     5.3840    -7.1346
  243.5000     7.9420   111.2730     2.3608     0.1919     0.0072     6.0678     5.4758    -7.0905
  244.0000     7.9461   109.0638     2.3863     0.1714     0.0073     6.3538     5.5692    -7.0464
  244.5000     7.9509   106.8539     2.4159     0.1573     0.0022     6.3901     5.6642    -7.0023
  245.0000     7.9165   104.6569     2.4402     0.1431    -0.0006     6.6226     5.8268    -6.9581
  245.5000     7.8768   103.4468     2.4472     0.1410    -0.0009     7.5198     6.2773    -6.9140
  246.0000     7.8368   104.1818     2.4511     0.1420    -0.0011     8.7706     6.7619    -6.8701
  246.5000     7.7971   105.2337     2.4489     0.1428    -0.0014     9.0729     7.2046    -6.8450
  247.0000     7.7920   106.2684     2.4464     0.1442    -0.0016     9.1839     7.3861    -6.8453
  247.5000     7.7898   108.6381     2.4439     0.1455    -0.0019     9.1861     7.5733    -6.8452
  248.0000     7.7873   111.5252     2.4414     0.1468    -0.0021     9.2928     7.6520    -6.8452
  248.5000     7.7847   114.4768     2.4411     0.1463    -0.0024     9.4211     7.6708    -6.8452
  249.0000     7.7822   115.3179     2.4434     0.1456    -0.0017     9.5517     7.6899    -6.8452
  249.5000     7.7796   114.2828     2.4424     0.1452     0.0007     9.6841     7.7091    -6.8452
  250.0000     7.7771   112.1151     2.4401     0.1465     0.0055     9.8184     7.7284    -6.8452
  250.5000     7.7746   109.8978     2.4380     0.1478     0.0102     9.8786     7.7478    -6.8452
  251.0000     7.7690   107.7352     2.4388     0.1476     0.0188     9.7731     7.7673    -6.8452
  251.5000     7.7428   107.0257     2.4451     0.1451     0.0240     9.6983     7.7809    -6.8450
  252.0000     7.7163   107.0178     2.4487     0.1413     0.0253     9.6242     7.7809    -6.8428
  252.5000     7.6901   106.9988     2.4530     0.1374     0.0265     9.5506     7.7809    -6.9322
  253.0000     7.6725   107.8744     2.4613     0.1336     0.0277     9.5184     7.7809    -7.1088
  253.5000     7.6758   111.4377     2.4683     0.1312     0.0289     9.5038     7.7809    -7.6510
  254.0000     7.7604   113.8179     2.4633     0.1338     0.0301     9.4892     7.7809    -8.2038
  254.5000     7.8317   112.5476     2.4553     0.1383     0.0313     9.4747     7.7809    -7.9370
  255.0000     7.8209   111.8403     2.4473     0.1427     0.0325     9.4601     7.7809    -7.6002
  255.5000     7.8121   111.5745     2.4393     0.1472     0.0346     9.4456     7.7809    -7.4433
  256.0000     7.8126   112.8008     2.4312     0.1517     0.0402     9.4311     7.7809    -7.4404
  256.5000     7.8134   114.5309     2.4298     0.1519     0.0549     9.4167     7.7810    -7.4402
  257.0000     7.8141   114.0706     2.4379     0.1481     0.0709     9.4022     7.7814    -7.4405
  257.5000     7.8149   113.3363     2.4567     0.1353     0.0869     9.3878     7.7818    -7.4405
  258.0000     7.8156   112.5960     2.4757     0.1236     0.1018     9.3735     7.7541    -7.4405
  258.5000     7.8164   112.0905     2.4808     0.1236     0.1018     9.3593     7.4908    -7.4405
  259.0000     7.8171   111.6591     2.4761     0.1324     0.0813     9.2751     7.2365    -7.4405
  259.5000     7.8178   111.6338     2.4506     0.1490     0.0589     9.1614     6.9908    -7.4403
  260.0000     7.8186   115.4325     2.4250     0.1673     0.0364     9.0496     6.7535    -7.4406
  260.5000     7.8193   119.6039     2.3993     0.1763     0.0370     8.6793     6.5835    -7.4394
  261.0000     7.8201   123.3169     2.3885     0.1694     0.0490     8.2192     6.5547    -7.6211
  261.5000     7.8208   122.7471     2.4218     0.1544     0.0610     7.9369     6.5260    -7.9516
  262.0000     7.8215   119.3345     2.4410     0.1455     0.0576     7.8159     6.4975    -8.2830
  262.5000     7.8223   115.9561     2.4417     0.1452     0.0419     7.7206     6.4624    -8.6158
  263.0000     7.8230   112.5513     2.4401     0.1463     0.0261     7.9877     6.3684    -8.9468
  263.5000     7.8238   111.7733     2.4386     0.1491     0.0229     8.2062     6.2758    -9.2102
  264.0000     7.8245   111.6527     2.4282     0.1550     0.0223     8.0337     6.1845    -9.0316
  264.5000     7.8253   112.0276     2.4164     0.1616     0.0217     7.8644     6.0718    -8.7904
  265.0000     7.8260   113.7559     2.4045     0.1681     0.0230     7.7812     6.0958    -8.5418
  265.5000     7.8267   115.9411     2.3989     0.1703     0.0250     7.6391     6.1360    -8.2932
  266.0000     7.8275   116.5407     2.4131     0.1574     0.0317     7.2298     6.1765    -8.0446
  266.5000     7.8282   118.1369     2.4332     0.1468     0.0323     7.2533     6.2173    -7.7961
  267.0000     7.8290   120.2011     2.4485     0.1409     0.0259     7.2769     6.2581    -7.5474
  267.5000     7.8297   120.7321     2.4515     0.1396     0.0213     7.3450     6.2993    -7.2976
  268.0000     7.8305   118.5670     2.4539     0.1383     0.0210     7.8528     6.3404    -7.0513
  268.5000     7.8312   115.6292     2.4539     0.1388     0.0207     8.4604     6.6044    -6.9870
  269.0000     7.8317   112.6001     2.4517     0.1400     0.0203     8.6991     6.9796    -6.9314
  269.5000     7.8317   111.9831     2.4495     0.1407     0.0200     8.7236     7.3762    -6.8748
  270.0000     7.8317   111.9716     2.4493     0.1404     0.0196     8.7479     7.5689    -6.8180
  270.5000     7.8315   111.9834     2.4496     0.1401     0.0200     8.7681     7.4347    -6.7609
  271.0000     7.8468   111.5759     2.4501     0.1412     0.0209     8.6687     7.3149    -6.7029
  271.5000     7.8717   110.9050     2.4494     0.1435     0.0217     8.5770     7.1969    -6.6531
  272.0000     7.8902   110.7326     2.4299     0.1522     0.0226     8.4534     6.8493    -6.8221
  272.5000     7.8830   110.6561     2.4097     0.1649     0.0237     8.2991     6.4262    -6.9938
