~VERSION INFORMATION
 VERS.                2.0:   CWLS LOG ASCII STANDARD - VERSION 2.0
 WRAP.                 NO:   ONE LINE PER DEPTH STEP
~WELL INFORMATION
#MNEM.UNIT      DATA TYPE    INFORMATION
#----------   ------------   ------------------------------
 STRT.F           71.5000:   START DEPTH
 STOP.F          820.0000:   STOP DEPTH
 STEP.F            0.5000:   STEP LENGTH
 NULL.          -999.2500:   NO VALUE
 COMP. U S NAVY/INTEX OIL CO:   COMPANY
 WELL. RES 3 TEAPOT DOME #72-S-34:   WELL
 FLD .             TEAPOT:   FIELD
 LOC .      S34 T39N R78W:   LOCATION
 CNTY.            NATRONA:   COUNTY
 STAT.            WYOMING:   STATE
 CTRY. UNITED STATES OF AMERICA:   COUNTRY
 SRVC.       Schlumberger:   SERVICE COMPANY
 DATE.        20-FEB-1961:   LOGDATE
 API .       490250655700:   API NUMBER
~CURVE INFORMATION
#MNEM.UNIT       API CODE    CURVE DESCRIPTION
#----------   ------------   ------------------------------
 DEPT.F                  :   
 GR  .GAPI   30 310 01 00:   GAMMA RAY
 SPR .MV     05 010 01 00:   SPONTANEOUS POTENTIAL FROM RES.
 ILD .OHMM   05 120 46 00:   INDUCTION LOG DEEP
 ASN .OHMM   05 041 16 00:   AMPLIFIED SHORT NORMAL 16"
 CILD.MMHO   05 110 46 00:   CONDUCTIVITY INDUCTION LOG DEEP
~PARAMETER INFORMATION
#MNEM.UNIT          VALUE    DESCRIPTION
#----------   ------------   ------------------------------
 LMF .                 KB:   LOG MEASURED FROM
 DMF .                 KB:   DRILLING MEASURED FROM
 EKB .F              5071:   KELLING BUSHING
 EGL .F              5057:   GROUND LEVEL
 DATE.          2-20-1961:   RUN DATE
 RUN .                  1:   RUN NUMBER
 DD  .F               820:   DEPTH DRILLER
 DL  .F               820:   DEPTH LOGGER
 BLI .F               819:   BOTTOM LOG INTERVAL
 TLI .F                80:   TOP LOG INTERVAL
 CBD .F                12:   CASING BOTTOM DRILLER
 BS  .IN            7.875:   BIT SIZE
 BSD .F               820:   BIT SIZE AT DEPTH
 DFT .       GEL-OIL EMUL:   DRILLING FLUID TYPE
 DFD .                9.3:   DRILLING FLUID DENSITY
 DFV .                 48:   DRILLING FLUID VISCOSITY
 DFPH.                8.5:   DRILLING FLUID PH
 DFL .                 16:   DRILLING FLUID LOSS
 MSS .           FLOWLINE:   MUD SAMPLE SOURCE
 RMS .OHMM            .82:   RESISTIVITY MUD SAMPLE
 MST .F                70:   MUD SAMPLE TEMPERATURE
 RMF .OHMM            .45:   RESISTIVITY MUD FILTRATE SAMPLE
 MFST.F                72:   MUD FILTRATE SAMPLE TEMPERATURE
 RMC .OHMM            1.4:   RESISTIVITY MUD CAKE
 MCST.F                78:   MUD CAKE SAMPLE TEMPERATURE
 RMB .OHMM            .73:   RESISTIVITY MUD AT BHT
 BHT .F                78:   BOTTOM HOLE TEMPERATURE
 TCS .HRS               1:   TIME CURCULATED STOPPED
 MRT .F                78:   MAXIMUM RECORDED TEMPERATURE
 LUN .               2523:   LOGGING UNIT NUMBER
 LUL .              CSPR.:   LOGGING UNIT LOCATION
 ENGI.             KNOBEL:   RECORDING ENGINEER
 WITN.          JORGENSEN:   WITNESSED BY
 CLNT.            A2DTECH:   CLIENT CODE
 ORIG.      2" & 5" PRINT:   ORIGIN OF DATA
 UWI .       490250655700:   UNIQUE WELL ID
 DICO. A2D Technologies, Inc.:   DIGITIZING COMPANY
~OTHER INFORMATION
~A   DEPT       GR        SPR          ILD      ASN       CILD   
# ...
  559.5000  -999.2500   -21.7140     7.6430     8.1573   145.7928
  560.0000  -999.2500   -21.7251     7.7329     8.2672   143.8048
  560.5000  -999.2500   -21.7360     7.8235     8.3949   141.8167
  561.0000  -999.2500   -21.7470     7.9136     8.5155   139.9402
  561.5000  -999.2500   -21.7579     8.0172     8.6244   137.9721
  562.0000  -999.2500   -21.7688     8.0678     8.7281   136.8361
  562.5000  -999.2500   -21.7797     8.1268     8.8312   135.7001
  563.0000  -999.2500   -21.7906     8.1862     8.9349   134.5640
  563.5000  -999.2500   -21.8017     8.2451     9.0325   133.4280
  564.0000  -999.2500   -21.8124     8.3045     9.0853   132.2920
  564.5000  -999.2500   -21.8238     8.3632     9.1340   130.9761
  565.0000  -999.2500   -21.8342     8.4227     9.1726   130.9761
  565.5000  -999.2500   -21.9369     8.4813     9.2948   129.9801
  566.0000  -999.2500   -22.0772     8.5029     9.2859   130.1666
  566.5000  -999.2500   -22.2192     8.4747     9.1799   130.3172
  567.0000  -999.2500   -22.3592     8.4474     9.0760   130.4678
  567.5000  -999.2500   -22.5014     8.4193     8.9521   130.6184
  568.0000  -999.2500   -22.6272     8.3919     8.7779   130.7690
  568.5000  -999.2500   -22.4433     8.3639     8.6134   130.9196
  569.0000  -999.2500   -22.2363     8.3366     8.4290   130.9761
  569.5000  -999.2500   -22.0319     8.3149     8.2767   130.9761
  570.0000  -999.2500   -21.8250     8.0494     8.1267   131.9721
  570.5000  -999.2500   -21.6411     7.8321     7.9743   138.9442
  571.0000  -999.2500   -21.5946     7.6184     7.7649   141.9503
  571.5000  -999.2500   -21.5545     7.1979     7.5164   152.9044
  572.0000  -999.2500   -21.5124     6.7841     7.2146   161.9063
  572.5000  -999.2500   -21.4721     6.3702     6.8825   170.8263
  573.0000  -999.2500   -21.4302     5.9566     6.4407   192.0508
  573.5000  -999.2500   -21.3897     5.5426     6.0033   213.0835
  574.0000  -999.2500   -21.3481     5.1309     5.5660   243.3243
  574.5000  -999.2500   -21.3074     4.5763     5.1295   287.1582
  575.0000  -999.2500   -21.2659     4.0254     4.6038   330.9641
  575.5000  -999.2500   -21.3139     3.4723     4.0792   374.8026
  576.0000  -999.2500   -21.4498     3.0802     3.5546   418.7835
  576.5000  -999.2500   -21.5861     2.9255     3.1488   439.1331
  577.0000  -999.2500   -21.7222     2.7431     2.8785   458.7572
  577.5000  -999.2500   -21.8584     2.7405     2.8234   469.2631
  578.0000  -999.2500   -21.9945     2.7431     2.7390   473.5602
  578.5000  -999.2500   -22.0001     2.9472     2.8187   460.6263
  579.0000  -999.2500   -21.9296     3.2132     3.0156   418.8464
  579.5000  -999.2500   -21.8589     3.4726     3.3642   372.3080
  580.0000  -999.2500   -21.7885     3.8489     3.7878   334.1634
  580.5000  -999.2500   -21.7178     4.3972     4.2088   287.2311
  581.0000  -999.2500   -21.6404     4.9521     4.8601   238.5458
  581.5000  -999.2500   -21.6517     5.6257     5.7065   219.2729
  582.0000  -999.2500   -21.6648     5.9778     6.1459   195.1170
  582.5000  -999.2500   -21.6773     6.4265     6.5628   166.8327
  583.0000  -999.2500   -21.6904     6.6232     6.6741   163.7034
  583.5000  -999.2500   -21.7030     6.6591     6.7059   159.6369
  584.0000  -999.2500   -21.7161     6.7105     6.6833   156.8725
  584.5000  -999.2500   -21.7288     6.7587     6.7768   156.8725
  585.0000  -999.2500   -21.7418     6.8215     6.8624   156.8725
  585.5000  -999.2500   -21.7546     6.7089     6.8478   158.8645
  586.0000  -999.2500   -21.7676     6.5624     6.8794   163.2854
  586.5000  -999.2500   -21.7803     6.4149     6.9453   167.9005
  587.0000  -999.2500   -21.7932     6.2683     7.0020   171.8127
  587.5000  -999.2500   -21.8060     6.1211     7.0215   184.7517
  588.0000  -999.2500   -21.8188     5.8698     6.8730   195.9805
  588.5000  -999.2500   -21.8315     5.4228     6.5704   207.2093
  589.0000  -999.2500   -21.8379     5.0931     6.0462   218.4381
  589.5000  -999.2500   -21.8379     4.9852     5.5876   229.6669
  590.0000    59.9800   -21.8379     4.8775     5.2894   238.6241
  590.5000    60.3989   -21.8379     4.7694     5.1549   246.7893
  591.0000    63.8443   -21.8379     4.6616     5.0304   255.4781
  591.5000    66.5824   -21.8379     4.6861     5.1892   252.4900
  592.0000    69.7213   -21.8379     4.7854     5.3383   245.2419
  592.5000    70.1661   -21.8576     4.9474     5.5079   234.8529
  593.0000    68.7149   -21.9236     5.1644     5.5876   224.1480
  593.5000    67.6980   -21.9892     5.3820     5.8154   213.4431
  594.0000    67.1490   -22.0553     5.5818     6.1725   202.7383
  594.5000    62.4468   -22.1208     5.8849     6.5284   192.0334
  595.0000    58.6806   -22.1870     6.2386     6.8432   181.3285
  595.5000    61.4835   -22.1998     6.5943     7.2237   170.6237
  596.0000    61.9810   -22.0904     6.9477     7.6417   159.9188
  596.5000    57.2514   -21.9804     7.3036     7.9342   152.1315
  597.0000    57.7814   -21.8710     7.7168     8.0839   145.5047
  597.5000    58.3490   -21.8270     7.7180     8.2356   139.9402
  598.0000    55.2378   -21.8119     7.6918     8.2199   141.0054
  598.5000    55.5912   -21.7963     7.6652     8.1664   143.0981
  599.0000    55.6960   -21.7810     7.6367     8.1139   145.1908
  599.5000    61.5201   -21.7655     7.5341     8.0256   147.2835
  600.0000    64.4668   -21.7501     7.2552     7.8569   151.9366
  600.5000    69.0767   -21.7347     6.9771     7.6908   157.6798
  601.0000    69.9159   -21.7193     6.6986     7.5315   162.3506
  601.5000    70.0307   -21.7040     6.4201     7.3555   174.2530
  602.0000    72.8527   -21.6884     6.1135     7.1396   188.0302
  602.5000    68.9185   -21.6732     5.7398     6.9027   201.8043
  603.0000    64.9043   -21.6576     5.3673     6.5438   215.5828
  603.5000    62.1529   -21.6406     4.9934     6.1461   229.3552
  604.0000    66.1824   -21.7235     4.7059     5.7473   244.5128
  604.5000    66.5066   -21.8175     4.6147     5.3098   245.9563
  605.0000    68.2352   -21.9112     4.5342     5.1747   244.1499
  605.5000    67.4736   -22.0052     4.7200     5.1207   242.5150
  606.0000    66.5230   -22.0198     4.9281     5.3390   236.4346
  606.5000    66.2034   -21.9970     5.0311     5.6683   232.5567
  607.0000    68.9466   -21.9740     5.3032     6.1685   215.3826
  607.5000    67.2838   -21.9511     5.8456     6.7255   199.7609
  608.0000    65.3103   -21.9282     6.3407     7.2814   184.1478
  608.5000    63.8139   -21.9053     6.7233     7.6043   168.5271
  609.0000    64.5571   -21.8824     7.1062     7.6925   159.1145
  609.5000    64.2205   -21.8595     7.2863     7.7812   152.3912
  610.0000    62.1388   -21.8379     7.3794     7.8782   150.8581
  610.5000    58.9614   -21.8190     7.4727     7.9978   149.7089
  611.0000    54.9978   -21.8009     7.5488     8.1170   148.9044
  611.5000    57.4497   -21.7832     7.6484     8.3086   146.4697
  612.0000    55.7197   -21.7651     7.7475     8.4318   144.2563
  612.5000    54.9848   -21.7474     7.8472     8.5039   142.0429
  613.0000    57.4112   -21.7292     7.8985     8.5478   140.9362
  613.5000    60.4957   -21.7117     7.8393     8.5249   142.8536
  614.0000    59.4622   -21.6934     7.7791     8.5026   144.5966
  614.5000    59.8856   -21.6758     7.7200     8.4797   146.3396
  615.0000    57.3296   -21.6575     7.6598     8.4553   148.4064
  615.5000    59.1363   -21.6407     7.6034     8.4101   148.5842
  616.0000    61.8727   -21.7292     7.5512     8.3565   148.2285
  616.5000    62.8345   -21.8153     7.5008     8.2403   147.9084
  617.0000    65.6547   -21.9006     7.4483     8.1431   147.9084
  617.5000    68.3455   -21.9867     7.3981     8.0727   147.9084
  618.0000    63.9585   -22.0228     7.3452     7.9985   147.9084
  618.5000    59.0100   -21.9942     7.1551     7.9405   155.3352
  619.0000    56.3586   -21.9649     6.8216     7.8791   165.9449
  619.5000    61.0781   -21.9362     6.4916     7.8170   176.5547
  620.0000    59.3135   -21.9069     6.0039     7.4001   187.1644
