~VERSION INFORMATION
 VERS.                2.0:   CWLS LOG ASCII STANDARD - VERSION 2.0
 WRAP.                 NO:   ONE LINE PER DEPTH STEP
~WELL INFORMATION
#MNEM.UNIT      DATA TYPE    INFORMATION
#----------   ------------   ------------------------------
 STRT.F           30.0000:   START DEPTH
 STOP.F          759.0000:   STOP DEPTH
 STEP.F            0.5000:   STEP LENGTH
 NULL.          -999.2500:   NO VALUE
 COMP. FENIX & SCISSON INC:   COMPANY
 WELL.    NPR ##3 15-S-14:   WELL
 FLD .             TEAPOT:   FIELD
 LOC .      S14 T38N R78W:   LOCATION
 CNTY.            NATRONA:   COUNTY
 STAT.            WYOMING:   STATE
 CTRY. UNITED STATES OF AMERICA:   COUNTRY
 SRVC.              Welex:   SERVICE COMPANY
 DATE.        23-FEB-1977:   LOGDATE
 API .       490251027600:   API NUMBER
~CURVE INFORMATION
#MNEM.UNIT       API CODE    CURVE DESCRIPTION
#----------   ------------   ------------------------------
 DEPT.F                  :   
 GURD.OHMM   07 220 05 00:   SHALLOW SHORT GUARD RESISTIVITY
 ILD .OHMM   07 120 46 00:   INDUCTION LOG DEEP
 ILM .OHMM   07 120 44 00:   INDUCTION LOG MEDIUM
 SPR .MV     07 010 01 00:   SPONTANEOUS POTENTIAL
 CALD.IN     45 280 60 00:   CALIPER FROM DENSITY LOG
 CORR.G/C3   45 356 01 00:   DENSITY CORRECTION
 DPHI.DEC    45 890 12 00:   DENSITY POROSITY SANDSTONE
 GRD .GAPI   45 310 01 00:   GAMMA RAY FROM DENSITY LOG
 RHOB.G/C3   45 350 01 00:   BULK DENSITY
~PARAMETER INFORMATION
#MNEM.UNIT          VALUE    DESCRIPTION
#----------   ------------   ------------------------------
 PD  .                 GL:   PERMANENT DATUM
 EPD .F            5229.2:   ELEVATION PERMANENT DATUM
 LMF .                 GL:   LOG MEASURED FROM
 DMF .                 GL:   DRILLING MEASURED FROM
 EGL .F            5229.2:   GROUND LEVEL
 DATE.        23-FEB-1977:   RUN DATE
 RUN .                  1:   RUN NUMBER
 DD  .F               764:   DEPTH DRILLER
 DL  .F               762:   DEPTH LOGGER
 BLI .F               760:   BOTTOM LOG INTERVAL
 TLI .F                40:   TOP LOG INTERVAL
 CS  .IN            8.625:   CASING SIZE
 CBD .F                40:   CASING BOTTOM DRILLER
 CBL .F                40:   CASING BOTTOM LOGGER
 BS  .IN            7.875:   BIT SIZE
 BSD .F               764:   BIT SIZE AT DEPTH
 DFT .           CHEM/GEL:   DRILLING FLUID TYPE
 DFD .                9.4:   DRILLING FLUID DENSITY
 DFV .                 50:   DRILLING FLUID VISCOSITY
 DFPH.               11.0:   DRILLING FLUID PH
 DFL .               12.2:   DRILLING FLUID LOSS
 MSS .           FLOWLINE:   MUD SAMPLE SOURCE
 RMS .OHMM           0.23:   RESISTIVITY MUD SAMPLE
 MST .F                38:   MUD SAMPLE TEMPERATURE
 RMF .OHMM           0.15:   RESISTIVITY MUD FILTRATE SAMPLE
 MFST.F                38:   MUD FILTRATE SAMPLE TEMPERATURE
 RMC .OHMM           0.54:   RESISTIVITY MUD CAKE
 MCST.F                38:   MUD CAKE SAMPLE TEMPERATURE
 MFSS.               MEAS:   MUD FILTRATE SAMPLE SOURCE
 MCSS.               MEAS:   MUD CAKE SAMPLE SOURCE
 RMB .OHMM           .148:   RESISTIVITY MUD AT BHT
 BHT .F                59:   BOTTOM HOLE TEMPERATURE
 TCS .HRS               2:   TIME CURCULATED STOPPED
 MRT .F                59:   MAXIMUM RECORDED TEMPERATURE
 LUN .               8611:   LOGGING UNIT NUMBER
 LUL .           GILLETTE:   LOGGING UNIT LOCATION
 ENGI.             C.DOAK:   RECORDING ENGINEER
 WITN.         STUEBINGER:   WITNESSED BY
 CLNT.            A2DTECH:   CLIENT CODE
 ORIG.           5" PRINT:   ORIGIN OF DATA
 UWI .       490251027600:   UNIQUE WELL ID
 DICO. A2D Technologies, Inc.:   DIGITIZING COMPANY
~OTHER INFORMATION
~A   DEPT     GURD        ILD        ILM        SPR         CALD      CORR      DPHI         GRD        RHOB 
# ...
  541.0000    11.7222     6.0420     9.6603   -45.0824     8.4000     0.1023     0.0950   110.8102     2.4950
  541.5000    10.4947     5.6782     6.7441   -45.0860     8.3991     0.1008     0.1058   110.6622     2.4823
  542.0000     5.2223     5.3733     6.2501   -44.7912     8.3982     0.0991     0.1152   113.9522     2.4613
  542.5000     4.3332     5.1911     6.1214   -44.4963     8.3973     0.0972     0.1265   119.9327     2.4332
  543.0000     3.9334     5.1200     6.4023   -44.0487     8.3964     0.0943     0.1334   123.7507     2.4123
  543.5000     8.3724     5.1911     7.7413   -43.5925     8.3953     0.0917     0.1424   128.4461     2.3782
  544.0000    11.8382     5.3733     8.7055   -43.0157     8.3898     0.0917     0.1580   132.0451     2.3670
  544.5000    12.5546     5.8071     9.1997   -42.4223     8.3787     0.0947     0.1493   130.2529     2.4276
  545.0000    12.9056     6.3630     9.3919   -41.8289     8.3686     0.1006     0.1299   126.6669     2.4524
  545.5000    12.9047     7.0323     9.6542   -41.2356     8.3618     0.1051     0.0879   119.4935     2.4913
  546.0000    12.9935     7.7990    10.2022   -40.6422     8.3460     0.1065     0.0736   116.2065     2.5175
  546.5000    12.9924     8.4140    11.0834   -40.1981     8.3451     0.1080     0.0706   116.6564     2.5333
  547.0000    12.8132     8.8914    11.5518   -39.4555     8.3442     0.1080     0.0716   115.3126     2.5355
  547.5000    12.7241     9.1402    11.3925   -38.8622     8.3433     0.1079     0.0757   113.0719     2.5334
  548.0000    12.5487     9.2035    10.3414   -38.2688     8.3574     0.1079     0.0790   112.6245     2.5288
  548.5000    12.5478     9.1402     9.9207   -37.5262     8.3715     0.1079     0.0769   114.2703     2.5219
  549.0000    12.4606     9.2035    10.1632   -36.9323     8.3706     0.1078     0.0712   112.6029     2.5168
  549.5000    12.4597     9.2672    11.3108   -36.3141     8.3695     0.1078     0.0730   111.1346     2.5251
  550.0000    12.5453     9.3959    11.9528   -35.5473     8.3687     0.1108     0.0793   109.0434     2.5341
  550.5000    12.5444     9.6644    12.1185   -34.4074     8.3748     0.1131     0.0815   103.6239     2.5266
  551.0000    12.5435    10.0787    12.2017   -33.5155     8.3854     0.1155     0.0829   102.7683     2.5116
  551.5000    12.8052    10.6383    12.5426   -32.7729     8.3961     0.1167     0.0809   105.6102     2.5079
  552.0000    14.6006    11.2219    12.7164   -32.0303     8.4067     0.1181     0.0782   100.5294     2.5161
  552.5000    18.0869    11.9228    12.9817   -31.1385     8.3838     0.1181     0.0773    96.3455     2.5229
  553.0000    19.5139    12.6236    13.3446   -30.3958     8.3088     0.1226     0.0845    86.6681     2.5154
  553.5000    17.8363    13.3245    13.7624   -29.3547     8.2789     0.1247     0.0887    82.6396     2.5102
  554.0000    17.2297    13.9228    14.3818   -28.3136     8.2939     0.1272     0.0899    77.8636     2.5057
  554.5000    24.6763    14.5112    15.0012   -27.2725     8.3388     0.1296     0.0917    74.7319     2.5026
  555.0000    25.7195    15.0205    15.6206   -26.3806     8.3688     0.1320     0.0956    72.0486     2.4988
  555.5000    21.7875    15.2292    16.4377   -25.6284     8.3538     0.1344     0.1025    71.7551     2.4900
  556.0000    17.4644    15.0205    17.2534   -25.0229     8.3088     0.1374     0.1123    74.1559     2.4765
  556.5000    17.0324    13.7320    17.7381   -24.4513     8.2039     0.1403     0.1208    74.4863     2.4579
  557.0000    18.3274    13.0846    17.9862   -24.0072     8.0836     0.1403     0.1306    75.5158     2.4256
  557.5000    18.4532    12.9946    18.2377   -23.8616     8.0075     0.1388     0.1423    78.3658     2.4091
  558.0000    13.9806    13.1752    18.2390   -24.0154     7.9614     0.1357     0.1492    78.3548     2.3979
  558.5000    13.0610    13.4507    18.2405   -24.1683     7.9190     0.1312     0.1525    76.8849     2.3896
  559.0000    18.1385    13.7320    18.2417   -24.3212     7.8891     0.1312     0.1546    74.5006     2.3867
  559.5000    19.8513    13.9228    17.9923   -24.6234     7.8741     0.1342     0.1516    73.3102     2.3942
  560.0000    17.2326    13.9100    17.7465   -25.0748     7.8591     0.1401     0.1393    73.9173     2.4099
  560.5000    14.3467    13.9228    17.2642   -25.2934     7.8591     0.1431     0.1358    75.5688     2.4138
  561.0000    20.1308    14.0192    16.9112   -25.6791     7.8591     0.1401     0.1522    76.0246     2.3926
  561.5000    20.6971    14.1162    16.3380   -26.1373     7.8741     0.1355     0.1489    75.1350     2.3874
  562.0000    14.7552    14.1162    15.8937   -26.5169     7.8741     0.1295     0.1439    74.6936     2.3949
  562.5000    19.0560    14.1162    15.6767   -26.8850     7.8741     0.1280     0.1424    75.1496     2.4092
  563.0000    21.5819    14.1162    15.7864   -27.1872     7.8891     0.1280     0.1411    76.8041     2.4144
  563.5000    17.9119    14.0192    16.2408   -27.3401     7.9040     0.1264     0.1347    78.3322     2.4122
  564.0000    16.3754    13.9228    17.0356   -27.4930     7.9340     0.1249     0.1286    80.2556     2.4174
  564.5000    16.6055    13.8271    18.3821   -27.6460     7.9500     0.1219     0.1253    81.4587     2.4249
  565.0000    18.1686    13.6376    19.8351   -27.6496     7.9805     0.1189     0.1232    82.9608     2.4309
  565.5000    22.8439    13.6376    20.3923   -27.6533     8.0240     0.1142     0.1220    84.6124     2.4362
  566.0000    24.8011    13.5434    19.8377   -27.5067     8.0690     0.1098     0.1220    85.8155     2.4414
  566.5000    23.3098    13.4507    19.2574   -27.3619     8.1139     0.1081     0.1233    84.3280     2.4452
  567.0000    20.8730    13.4507    18.7790   -27.2164     8.1439     0.1038     0.1260    81.3458     2.4427
  567.5000    18.5623    13.3582    18.3007   -26.9179     8.1289     0.1022     0.1299    78.0646     2.4370
  568.0000    17.9344    13.3582    17.8893   -26.4617     8.1139     0.1007     0.1460    76.1287     2.4257
  568.5000    17.9368    13.2664    17.7673   -25.8851     8.0840     0.0992     0.1505    76.7339     2.4070
  569.0000    18.1888    13.2664    17.5247   -25.7386     8.0540     0.0992     0.1508    80.2443     2.3935
  569.5000    18.9613    13.3582    17.5262   -25.4437     8.0690     0.0991     0.1509    82.5347     2.3906
  570.0000    22.0772    13.5438    17.8945   -25.1489     8.1139     0.1006     0.1541    83.9326     2.3988
  570.5000    23.8238    13.7014    18.4002   -24.7057     8.1589     0.1007     0.1556    84.6873     2.3991
  571.0000    21.1864    14.0192    17.8416   -24.7093     8.1601     0.1035     0.1562    85.4420     2.3906
  571.5000    14.4783    14.2140    15.0590   -24.7130     8.1589     0.1080     0.1518    86.6451     2.3831
  572.0000    16.3144    14.5112    14.1518   -24.7166     8.1289     0.1125     0.1485    87.9977     2.3931
  572.5000    20.7602    14.8147    17.9008   -24.8696     8.0840     0.1169     0.1473    89.6492     2.4048
  573.0000    17.7128    14.8188    19.0506   -25.0224     8.0390     0.1214     0.1434    88.6102     2.4123
  573.5000    16.9952    14.9173    19.3170   -25.0761     8.0090     0.1243     0.1371    87.4217     2.4153
  574.0000    17.7176    14.7128    19.1853   -25.1791     8.0090     0.1243     0.1413    85.1869     2.4064
  574.5000    19.5197    14.4115    19.0541   -25.3321     8.0090     0.1228     0.1467    82.9062     2.3989
  575.0000    20.3487    14.1162    18.9245   -25.4858     8.0240     0.1198     0.1494    80.1694     2.3944
  575.5000    19.2570    13.9228    18.5375   -25.7879     8.0390     0.1181     0.1509    77.7368     2.3921
  576.0000    18.3503    13.6376    18.0318   -25.8219     8.0690     0.1137     0.1508    82.5274     2.3966
  576.5000    17.9762    13.4507    17.2778   -26.0938     8.0840     0.1107     0.1470    84.0294     2.4049
  577.0000    17.7303    13.2664    16.4867   -26.2466     8.0990     0.1092     0.1443    84.9336     2.4071
