~VERSION INFORMATION
 VERS.                2.0:   CWLS LOG ASCII STANDARD - VERSION 2.0
 WRAP.                 NO:   ONE LINE PER DEPTH STEP
~WELL INFORMATION
#MNEM.UNIT      DATA TYPE    INFORMATION
#----------   ------------   ------------------------------
 STRT.F            7.0000:   START DEPTH
 STOP.F          690.0000:   STOP DEPTH
 STEP.F            0.5000:   STEP LENGTH
 NULL.          -999.2500:   NO VALUE
 COMP. FENIX & SCISSON INC:   COMPANY
 WELL.  NPR#3 #26-46 SX11:   WELL
 FLD .             TEAPOT:   FIELD
 LOC .      S11 T38N R78W:   LOCATION
 CNTY.            NATRONA:   COUNTY
 STAT.            WYOMING:   STATE
 CTRY. UNITED STATES OF AMERICA:   COUNTRY
 SRVC.      Dresser Atlas:   SERVICE COMPANY
 DATE.        13-AUG-1985:   LOGDATE
 API .       490251083600:   API NUMBER
~CURVE INFORMATION
#MNEM.UNIT       API CODE    CURVE DESCRIPTION
#----------   ------------   ------------------------------
 DEPT.F                  :   
 DPHI.DEC    45 890 12 00:   DENSITY POROSITY SANDSTONE
 NPHI.DEC    42 890 03 00:   NEUTRON POROSITY SANDSTONE
 RHOB.G/C3   45 350 01 00:   BULK DENSITY
 CORR.G/C3   45 356 01 00:   DENSITY CORRECTION
 CALD.IN     45 280 60 00:   CALIPER
 SPR .MV     07 010 01 00:   SPONTANEOUS POTENTIAL
 ILD .OHMM   07 120 46 00:   INDUCTION LOG DEEP
 ILM .OHMM   07 120 44 00:   INDUCTION LOG MEDIUM
 SFL .OHMM   07 220 01 00:   SHALLOW FOCUSED LOG RESISTIVITY
 GRR .GAPI   07 310 01 00:   GAMMA RAY FROM RES. LOG.
~PARAMETER INFORMATION
#MNEM.UNIT          VALUE    DESCRIPTION
#----------   ------------   ------------------------------
 PD  .                 GL:   PERMANENT DATUM
 EPD .F              5193:   ELEVATION PERMANENT DATUM
 LMF .                 KB:   LOG MEASURED FROM
 DAPD.F                 5:   FEET ABOVE PERMANENT DATUM
 DMF .                 KB:   DRILLING MEASURED FROM
 EKB .F              5198:   KELLING BUSHING
 EGL .F              5193:   GROUND LEVEL
 DATE.          8-13-1985:   RUN DATE
 RUN .                  8:   RUN NUMBER
 DD  .F               664:   DEPTH DRILLER
 BLI .F               635:   BOTTOM LOG INTERVAL
 TLI .F               340:   TOP LOG INTERVAL
 CBL .F               340:   CASING BOTTOM LOGGER
 BS  .IN             8.75:   BIT SIZE
 BSD .F               664:   BIT SIZE AT DEPTH
 DFT .          KPC WATER:   DRILLING FLUID TYPE
 LUN .           HL- 6274:   LOGGING UNIT NUMBER
 LUL .           GILLETTE:   LOGGING UNIT LOCATION
 ENGI.             RAUTIO:   RECORDING ENGINEER
 WITN.            SCHULTE:   WITNESSED BY
 CLNT.            A2DTECH:   CLIENT CODE
 ORIG.        2" 5" PRINT:   ORIGIN OF DATA
 UWI .       490251083600:   UNIQUE WELL ID
 DICO. A2D Technologies, Inc.:   DIGITIZING COMPANY
~OTHER INFORMATION
~A    DEPT    DPHI       NPHI       RHOB       CORR       CALD         SPR       ILD        ILM        SFL        GRR   
# ...
  610.0000     0.1474     0.2730     2.4359     0.1815     6.0141   -11.5631     8.9822     9.8309    11.2016    84.3165
  610.5000     0.1466     0.2823     2.4362     0.1718     6.0137   -11.5388     8.9340     9.6469    11.1341    86.1142
  611.0000     0.1465     0.2863     2.4365     0.1621     6.0133   -11.5842     8.8518     9.4663    11.0771    89.1167
  611.5000     0.1484     0.3040     2.4350     0.1530     6.0129   -11.6296     8.7704     9.2891    11.0204    90.8666
  612.0000     0.1504     0.3217     2.4307     0.1516     6.0126   -11.6746     8.7137     9.1309    10.9639    91.5859
  612.5000     0.1544     0.3395     2.4228     0.1649     6.0122   -11.7250     8.6535     9.0432    10.9078    91.1190
  613.0000     0.1697     0.3571     2.4022     0.1662     6.0118   -11.9419     8.5938     8.9557    10.7723    88.8087
  613.5000     0.1891     0.3754     2.3664     0.1510     6.0114   -12.1773     8.5345     8.8690    10.6190    86.3066
  614.0000     0.1951     0.3695     2.3517     0.1310     6.0110   -12.6414     8.3954     8.7628    10.4678    85.9748
  614.5000     0.1623     0.3196     2.4034     0.1404     6.0106   -13.5477     8.2717     8.6289    10.3189    89.3547
  615.0000     0.1221     0.2889     2.4567     0.1574     6.0102   -14.3662     8.1498     8.4971    10.1720    92.7869
  615.5000     0.0994     0.2711     2.5072     0.1778     6.0098   -14.4474     8.0297     8.3672    10.0307    95.3189
  616.0000     0.0940     0.2668     2.5237     0.1977     6.0094   -14.5115     7.9114     8.2423     9.8372    90.6184
  616.5000     0.1028     0.2589     2.5154     0.2004     6.0090   -14.3774     7.7948     8.1288     9.6518    88.2609
  617.0000     0.1085     0.2539     2.5027     0.1831     6.0086   -14.2457     7.5751     7.9869     9.4698    89.7825
  617.5000     0.1132     0.2531     2.4939     0.1780     6.0082   -14.1150     7.3007     7.7421     9.3467    91.3734
  618.0000     0.1156     0.2551     2.4886     0.1730     6.0079   -13.9829     6.8573     7.5124     9.2565    91.7459
  618.5000     0.1218     0.2363     2.4832     0.1644     6.0075   -13.9551     6.2694     7.0202     9.1682    91.6462
  619.0000     0.1275     0.1901     2.4715     0.1562     6.0071   -13.9996     5.7308     6.5201     9.0748    91.7452
  619.5000     0.1290     0.1342     2.4669     0.1526     6.0067   -14.0462     5.2386     5.8678     9.2371    94.2787
  620.0000     0.1258     0.0897     2.4807     0.1537     6.0063   -14.0910     4.8735     5.2521     8.3873    95.5843
  620.5000     0.1067     0.0543     2.4987     0.1835     6.0066   -14.0675     4.6309     4.7169     5.8199    93.1432
  621.0000     0.1054  -999.2500     2.5073     0.1917     6.0075   -13.6808     4.6517     4.7688     3.9970    90.9021
  621.5000     0.1078  -999.2500     2.5005     0.1954     6.0085   -13.6777     4.6683     4.8103     3.8525    91.6781
  622.0000     0.1115  -999.2500     2.4943     0.1941     6.0094   -13.9243     4.7915     4.8489     4.0365    97.0589
  622.5000     0.1046  -999.2500     2.5011     0.1952     6.0103   -14.1755     4.9718     5.1744     8.0382   102.9060
  623.0000     0.1028  -999.2500     2.5102     0.2011     6.0112   -14.4277     5.1590     5.4966    11.7290   108.7482
  623.5000     0.1149  -999.2500     2.4960     0.1998     6.0121   -14.6849     5.7392     6.0198    10.9944   111.6510
  624.0000     0.1405  -999.2500     2.4533     0.1740     6.0130   -14.6629     6.5090     6.8088    10.2190   108.0139
  624.5000     0.1790  -999.2500     2.3975     0.0871     6.0139   -14.5809     7.1970     7.6145     9.8253   100.7100
  625.0000     0.1981  -999.2500     2.3512    -0.0083     6.0148   -14.5820     7.6409     7.8721     9.7800    93.3049
  625.5000     0.1998  -999.2500     2.3466    -0.1042     6.0157   -14.7182     7.8992     8.1219     9.7576    91.8717
  626.0000     0.1677  -999.2500     2.4148    -0.2189     6.0167   -14.7651     7.8955     8.2240     9.8602    92.7170
  626.5000     0.1200  -999.2500     2.4939    -0.2132     6.0176   -15.1345     7.9763     8.2688     9.9397    92.9111
  627.0000     0.0912  -999.2500     2.5296    -0.2049     6.0185   -15.5053     8.0380     8.3138    10.0199    93.0423
  627.5000     0.0984  -999.2500     2.5142    -0.2102     6.0194   -15.6665     8.1006     8.4007    10.1270    95.7352
  628.0000     0.1068  -999.2500     2.5019    -0.2110     6.0203   -15.4952     8.2199     8.5789    10.0347    98.7184
  628.5000     0.1026  -999.2500     2.5120    -0.2015     6.0212   -15.3286     8.4218     8.7504    10.7300    98.9209
  629.0000     0.0950  -999.2500     2.5230    -0.1922     6.0221   -15.1610     8.6281     8.8522    11.0586    99.2261
  629.5000     0.0947  -999.2500     2.5258    -0.1842     6.0230   -14.9925     8.8410     8.9520    11.2460    99.9564
  630.0000     0.1033  -999.2500     2.5075    -0.1896     6.0240   -14.9098     9.0162     9.1805    11.4158    99.4236
  630.5000     0.1089  -999.2500     2.4998    -0.1956     6.0249   -14.8755     9.1231     9.3929    11.4598    97.2349
  631.0000     0.1068  -999.2500     2.5045    -0.1934     6.0258   -14.8421     9.2344     9.6123    11.5040    95.0475
  631.5000     0.1031  -999.2500     2.5103    -0.1927     6.0252   -14.8088     9.2329     9.8478    11.6412    94.4362
  632.0000     0.1067  -999.2500     2.5022    -0.1939     6.0187   -14.7753     9.2338     9.9338    11.8374    95.1862
  632.5000     0.1164  -999.2500     2.4840    -0.1970     6.0123   -14.7418     9.3674    10.0491    11.8374    96.6703
  633.0000     0.1248  -999.2500     2.4725    -0.1994     6.0059   -14.7075     9.5472    10.1658    11.8374    96.2406
  633.5000     0.1258  -999.2500     2.4717  -999.2500     5.9995   -14.6730     9.7306    10.2839    11.8364    94.1191
  634.0000     0.0944  -999.2500  -999.2500  -999.2500     5.9931   -14.6384     9.8571    10.4067    11.8346    91.8934
  634.5000     0.0348  -999.2500  -999.2500  -999.2500     5.9867   -14.6037     9.8825    10.4313    12.2778    88.5995
  635.0000  -999.2500  -999.2500  -999.2500  -999.2500     5.9857   -14.5690     9.9079    10.4567    12.1497    85.0710
  635.5000  -999.2500  -999.2500  -999.2500  -999.2500     5.9857   -14.5342     9.9333    10.4822    11.9825    79.7827
  636.0000  -999.2500  -999.2500  -999.2500  -999.2500     5.9857   -14.5290     9.9588    10.5125    11.6992    74.5426
  636.5000  -999.2500  -999.2500  -999.2500  -999.2500     5.9857   -14.5286     9.9845    10.5637    11.6216    74.3786
  637.0000  -999.2500  -999.2500  -999.2500  -999.2500     5.9857   -14.5271    10.0100    10.6152    11.8374    74.8518
  637.5000  -999.2500  -999.2500  -999.2500  -999.2500     5.9857   -14.5399    10.0309    10.6669    12.1383    74.8316
  638.0000  -999.2500  -999.2500  -999.2500  -999.2500  -999.2500   -14.8020    10.0307    10.6980    12.4480    74.6162
  638.5000  -999.2500  -999.2500  -999.2500  -999.2500  -999.2500   -15.0661    10.0307    10.8478    12.5093    74.3956
  639.0000  -999.2500  -999.2500  -999.2500  -999.2500  -999.2500   -15.3281    10.0306    10.9987    12.2579    73.9710
  639.5000  -999.2500  -999.2500  -999.2500  -999.2500  -999.2500   -15.5876    10.0309    10.8112    12.0823    71.9061
  640.0000  -999.2500  -999.2500  -999.2500  -999.2500  -999.2500   -15.6341    10.0087    10.5867    11.8665    69.8154
  640.5000  -999.2500  -999.2500  -999.2500  -999.2500  -999.2500   -15.4170     9.9732    10.4653    11.5152    68.7298
  641.0000  -999.2500  -999.2500  -999.2500  -999.2500  -999.2500   -15.2002     9.9378    10.4050    11.5152    71.3797
  641.5000  -999.2500  -999.2500  -999.2500  -999.2500  -999.2500   -15.1311     9.9026    10.3451    11.5152    74.9926
  642.0000  -999.2500  -999.2500  -999.2500  -999.2500  -999.2500   -15.1299     9.8674    10.3114    11.7387    74.7635
  642.5000  -999.2500  -999.2500  -999.2500  -999.2500  -999.2500   -15.1301     9.8325    10.3474    12.0130    72.4993
  643.0000  -999.2500  -999.2500  -999.2500  -999.2500  -999.2500   -15.1303     9.7974    10.3726    12.1687    71.3892
