~VERSION INFORMATION
 VERS.                2.0:   CWLS LOG ASCII STANDARD - VERSION 2.0
 WRAP.                 NO:   ONE LINE PER DEPTH STEP
~WELL INFORMATION
#MNEM.UNIT      DATA TYPE    INFORMATION
#----------   ------------   ------------------------------
 STRT.F           30.0000:   START DEPTH
 STOP.F         1178.5000:   STOP DEPTH
 STEP.F            0.5000:   STEP LENGTH
 NULL.          -999.2500:   NO VALUE
 COMP. FENIX & SCISSON INC:   COMPANY
 WELL.     64-S-14 #14-14:   WELL
 FLD .        TEAPOT DOME:   FIELD
 LOC .      S14 T38N R78W:   LOCATION
 CNTY.            NATRONA:   COUNTY
 STAT.            WYOMING:   STATE
 CTRY. UNITED STATES OF AMERICA:   COUNTRY
 SRVC.            Unknown:   SERVICE COMPANY
 DATE.        19-APR-1978:   LOGDATE
 API .       490251061400:   API NUMBER
~CURVE INFORMATION
#MNEM.UNIT       API CODE    CURVE DESCRIPTION
#----------   ------------   ------------------------------
 DEPT.F                  :   
 SPR .MV     05 010 01 00:   SPONTANEOUS POTENTIAL
 SN  .OHMM   05 040 16 00:   SHORT NORMAL 16'
 ILD .OHMM   05 120 46 00:   INDUCTION LOG DEEP
 CALD.IN     45 280 60 00:   CALIPER
 GRD .GAPI   45 310 01 00:   GAMMA RAY FROM DENSITY LOG
 RHOB.G/C3   45 350 01 00:   BULK DENSITY
 DPHI.DEC    45 890 12 00:   DENSITY POROSITY SANDSTONE
 CORR.G/C3   45 356 01 00:   DENSITY CORRECTION
~PARAMETER INFORMATION
#MNEM.UNIT          VALUE    DESCRIPTION
#----------   ------------   ------------------------------
 PD  .                 GL:   PERMANENT DATUM
 EPD .F              5235:   ELEVATION PERMANENT DATUM
 LMF .                 KB:   LOG MEASURED FROM
 DMF .                 KB:   DRILLING MEASURED FROM
 EKB .F              5299:   KELLING BUSHING
 EGL .F              5295:   GROUND LEVEL
 DATE.          4-19-1978:   RUN DATE
 RUN .                  1:   RUN NUMBER
 DD  .F              1180:   DEPTH DRILLER
 DL  .F              1182:   DEPTH LOGGER
 BLI .F              1176:   BOTTOM LOG INTERVAL
 TLI .F                50:   TOP LOG INTERVAL
 CS  .IN            8.625:   CASING SIZE
 CBD .F                40:   CASING BOTTOM DRILLER
 CBL .F                50:   CASING BOTTOM LOGGER
 BS  .IN            7.875:   BIT SIZE
 BSD .F              1180:   BIT SIZE AT DEPTH
 DFT .                KCL:   DRILLING FLUID TYPE
 DFD .                8.7:   DRILLING FLUID DENSITY
 DFV .                 33:   DRILLING FLUID VISCOSITY
 DFPH.               10.5:   DRILLING FLUID PH
 DFL .               12.3:   DRILLING FLUID LOSS
 MSS .            MUD PIT:   MUD SAMPLE SOURCE
 RMS .OHMM            .54:   RESISTIVITY MUD SAMPLE
 MST .F                62:   MUD SAMPLE TEMPERATURE
 RMF .OHMM            .65:   RESISTIVITY MUD FILTRATE SAMPLE
 MFST.F                60:   MUD FILTRATE SAMPLE TEMPERATURE
 RMC .OHMM            .35:   RESISTIVITY MUD CAKE
 MCST.F                60:   MUD CAKE SAMPLE TEMPERATURE
 MFSS.           MEASURED:   MUD FILTRATE SAMPLE SOURCE
 RMB .OHMM            .42:   RESISTIVITY MUD AT BHT
 BHT .F                80:   BOTTOM HOLE TEMPERATURE
 TCS .HRS               2:   TIME CURCULATED STOPPED
 MRT .F                80:   MAXIMUM RECORDED TEMPERATURE
 LUN .               2955:   LOGGING UNIT NUMBER
 LUL .               CASP:   LOGGING UNIT LOCATION
 ENGI.             MILLER:   RECORDING ENGINEER
 WITN.           MCGINLEY:   WITNESSED BY
 CLNT.            A2DTECH:   CLIENT CODE
 ORIG.      2" & 5" PRINT:   ORIGIN OF DATA
 UWI .       490251061400:   UNIQUE WELL ID
 DICO. A2D Technologies, Inc.:   DIGITIZING COMPANY
~OTHER INFORMATION
~A   DEPT      SPR         SN        ILD       CALD         GRD      RHOB       DPHI       CORR   
# ...
  637.5000   -42.4718     5.6919     5.4370     8.0141    80.9158     2.5012     0.1080     0.0067
  638.0000   -42.4745     5.7575     5.4996     8.0259    81.9890     2.4953     0.1101     0.0106
  638.5000   -42.4772     5.8238     5.5630     8.0656    84.7050     2.4973     0.1078     0.0542
  639.0000   -42.4799     5.8909     5.6271     8.1046    87.4317     2.5007     0.1048     0.0663
  639.5000   -42.4826     5.9588     5.6919     8.0975    88.1811     2.5024     0.1073     0.0619
  640.0000   -42.4853     6.0206     5.7509     8.0703    88.3909     2.5034     0.1062     0.0587
  640.5000   -42.4880     5.9993     5.7432     8.0433    88.9733     2.5057     0.1042     0.0596
  641.0000   -42.4907     5.9800     5.7362     8.0163    89.5824     2.5087     0.1033     0.0606
  641.5000   -42.4934     5.9608     5.7293     7.9893    89.1926     2.5119     0.1027     0.0655
  642.0000   -42.4961     5.9417     5.7223     7.9625    88.5132     2.5100     0.1037     0.0709
  642.5000   -42.4988     5.9226     5.7154     7.9369    87.8243     2.5057     0.1060     0.0762
  643.0000   -42.5015     5.9036     5.7084     7.8480    87.3357     2.5012     0.1054     0.0815
  643.5000   -42.5042     5.8847     5.7015     7.7458    88.6809     2.5004     0.1052     0.0847
  644.0000   -42.5069     5.8658     5.6945     7.6506    89.6852     2.4980     0.1105     0.0800
  644.5000   -42.5096     5.8469     5.6876     7.6295    88.8398     2.4924     0.1144     0.0748
  645.0000   -42.5123     5.8282     5.6807     7.6110    88.1045     2.4869     0.1169     0.0694
  645.5000   -42.5150     5.8039     5.6738     7.5897    88.0923     2.4813     0.1193     0.0617
  646.0000   -42.5177     5.8072     5.6669     7.4705    89.3864     2.4748     0.1233     0.0392
  646.5000   -42.5204     5.8119     5.6600     7.3369    91.7872     2.4632     0.1277     0.0163
  647.0000   -42.5231     5.8167     5.6531     7.3147    93.2453     2.4515     0.1321     0.0024
  647.5000   -42.5258     5.8215     5.6462     7.3439    90.3147     2.4397     0.1366     0.0025
  648.0000   -42.5285     5.8262     5.6394     7.3733    87.2296     2.4342     0.1410     0.0032
  648.5000   -42.5312     5.8310     5.6325     7.3920    85.9164     2.4317     0.1444     0.0044
  649.0000   -42.5339     5.8358     5.6257     7.3961    86.2464     2.4320     0.1443     0.0056
  649.5000   -42.5366     5.8405     5.6189     7.4003    86.1377     2.4333     0.1442     0.0063
  650.0000   -42.5393     5.8453     5.6121     7.4045    85.7621     2.4346     0.1441     0.0139
  650.5000   -42.5420     5.8500     5.6052     7.4084    86.8689     2.4355     0.1428     0.0224
  651.0000   -42.5447     5.8550     5.5950     7.4375    88.5097     2.4409     0.1343     0.0250
  651.5000   -42.5474     5.8651     5.6051     7.4754    90.1824     2.4557     0.1285     0.0161
  652.0000   -42.5501     5.8806     5.6255     7.5138    90.8486     2.4597     0.1305     0.0084
  652.5000   -42.5528     5.8962     5.6460     7.5339    88.9494     2.4551     0.1313     0.0091
  653.0000   -42.5555     5.9118     5.6665     7.5413    86.9019     2.4533     0.1345     0.0097
  653.5000   -42.5582     5.9275     5.6872     7.5479    84.9375     2.4513     0.1342     0.0102
  654.0000   -42.5609     5.9432     5.7079     7.5831    85.3062     2.4539     0.1324     0.0108
  654.5000   -42.5636     5.9590     5.7287     7.6238    87.9234     2.4586     0.1301     0.0113
  655.0000   -42.5663     5.9748     5.7496     7.6642    88.8451     2.4586     0.1276     0.0119
  655.5000   -42.5690     5.9907     5.7705     7.6850    89.7119     2.4623     0.1265     0.0125
  656.0000   -42.5718     6.0066     5.7916     7.7023    88.1773     2.4655     0.1263     0.0104
  656.5000   -42.5745     6.0225     5.8127     7.7196    86.4273     2.4638     0.1292     0.0069
  657.0000   -42.5771     6.0385     5.8339     7.7370    84.8461     2.4597     0.1299     0.0082
  657.5000   -42.5798     6.0546     5.8551     7.7543    85.1468     2.4597     0.1258     0.0109
  658.0000   -42.5826     6.0706     5.8765     7.7717    88.0932     2.4701     0.1218     0.0137
  658.5000   -42.5853     6.1039     5.8979     7.7891    89.8718     2.4777     0.1192     0.0124
  659.0000   -42.5880     6.1459     5.9194     7.8069    90.4372     2.4775     0.1192     0.0093
  659.5000   -42.5906     6.1882     5.9409     7.8045    91.1441     2.4775     0.1207     0.0061
  660.0000   -42.5933     6.2308     5.9626     7.7975    95.1464     2.4766     0.1220     0.0059
  660.5000   -42.5961     6.2858     6.0307     7.7905    97.7843     2.4690     0.1212     0.0101
  661.0000   -42.5988     6.3471     6.1073     7.7834    98.1550     2.4743     0.1200     0.0151
  661.5000   -42.6015     6.4091     6.1848     7.7764    98.7461     2.4810     0.1188     0.0202
  662.0000   -42.6041     6.4717     6.2633     7.7688    99.3043     2.4818     0.1177     0.0253
  662.5000   -42.6068     6.5350     6.3428     7.7998    98.2753     2.4804     0.1164     0.0334
  663.0000   -42.6096     6.5989     6.4194     7.8816    95.6921     2.4897     0.1129     0.0426
  663.5000   -42.6123     6.6634     6.4519     7.9834    95.6439     2.5004     0.1091     0.0493
  664.0000   -42.6149     6.7286     6.4830     8.0851    96.6093     2.5036     0.1070     0.0510
  664.5000   -42.6176     6.7945     6.5143     8.1702    95.4345     2.5005     0.1083     0.0545
  665.0000   -42.6203     6.8575     6.5502     8.1535    93.1460     2.4976     0.1096     0.0658
  665.5000   -42.6231     6.9099     6.6003     8.1387    94.5529     2.5019     0.1066     0.0770
  666.0000   -42.6258     6.9627     6.6508     8.1243    94.7157     2.5143     0.0990     0.0880
  666.5000   -42.6264     7.0159     6.7017     8.1090    94.1267     2.5266     0.0914     0.0929
  667.0000   -42.6264     7.0696     6.7530     8.0710    94.2589     2.5346     0.0872     0.0728
  667.5000   -42.6264     7.1237     6.8046     8.0329    95.0750     2.5213     0.1033     0.0532
  668.0000   -42.6264     7.1782     6.8567     7.9963    95.4552     2.5045     0.1116     0.0508
  668.5000   -42.6264     7.2331     6.9092     7.9328    94.3493     2.4945     0.1101     0.0573
  669.0000   -42.6264     7.2884     6.9620     7.8675    92.1114     2.4973     0.1088     0.0638
  669.5000   -42.6264     7.3442     7.0153     7.8020    89.9445     2.5000     0.1074     0.0702
  670.0000   -42.6264     7.4004     7.0690     7.7367    88.0694     2.5038     0.1043     0.0772
  670.5000   -42.6264     7.4570     7.1230     7.6714    89.7456     2.5173     0.1006     0.0679
  671.0000   -42.6264     7.5141     7.1775     7.6060    91.5282     2.5161     0.1035     0.0528
  671.5000   -42.6264     7.5716     7.2325     7.5408    93.2119     2.5077     0.1088     0.0375
  672.0000   -42.6264     7.6295     7.2878     7.4750    92.3459     2.4992     0.1093     0.0226
  672.5000   -42.6264     7.6879     7.3435     7.4503    89.3915     2.4906     0.1142     0.0197
  673.0000   -42.6264     7.7467     7.3997     7.4523    88.0331     2.4817     0.1192     0.0147
  673.5000   -42.6264     7.8060     7.4563     7.4561    89.7939     2.4781     0.1231     0.0126
  674.0000   -42.6264     7.8539     7.5017     7.4599    91.4883     2.4599     0.1340     0.0124
  674.5000   -42.6264     7.8538     7.5017     7.4636    91.9369     2.4487     0.1320     0.0146
  675.0000   -42.6264     7.8088     7.4663     7.4674    90.8724     2.4512     0.1335     0.0136
  675.5000   -42.6264     7.6979     7.3787     7.4754    89.3915     2.4506     0.1350     0.0125
  676.0000   -42.6264     7.5886     7.2921     7.4935    88.5171     2.4475     0.1366     0.0125
  676.5000   -42.6264     7.4809     7.2066     7.5113    89.7545     2.4445     0.1344     0.0142
  677.0000   -42.6264     7.3747     7.1220     7.5304    91.0564     2.4481     0.1315     0.0162
  677.5000   -42.6264     7.2701     7.0385     7.5793    91.8901     2.4562     0.1286     0.0183
