~VERSION INFORMATION
 VERS.                2.0:   CWLS LOG ASCII STANDARD - VERSION 2.0
 WRAP.                 NO:   ONE LINE PER DEPTH STEP
~WELL INFORMATION
#MNEM.UNIT      DATA TYPE    INFORMATION
#----------   ------------   ------------------------------
 STRT.F           26.0000:   START DEPTH
 STOP.F          543.5000:   STOP DEPTH
 STEP.F            0.5000:   STEP LENGTH
 NULL.          -999.2500:   NO VALUE
 COMP. LAWRENCE/ALLISON INC:   COMPANY
 WELL. NPR 3 #68-61-STX-3:   WELL
 FLD .             TEAPOT:   FIELD
 LOC .       S3 T38N R78W:   LOCATION
 CNTY.            NATRONA:   COUNTY
 STAT.            WYOMING:   STATE
 CTRY. UNITED STATES OF AMERICA:   COUNTRY
 SRVC.           Gearhart:   SERVICE COMPANY
 DATE.        30-MAY-1987:   LOGDATE
 API .       490251112800:   API NUMBER
~CURVE INFORMATION
#MNEM.UNIT       API CODE    CURVE DESCRIPTION
#----------   ------------   ------------------------------
 DEPT.F                  :   
 GRR .GAPI   07 310 01 00:   GAMMA RAY FROM RES. LOG.
 RILD.OHMM   07 120 46 00:   INDUCTION LOG DEEP RESISTIVITY
 RILM.OHMM   07 120 44 00:   INDUCTION LOG MEDIUM
~PARAMETER INFORMATION
#MNEM.UNIT          VALUE    DESCRIPTION
#----------   ------------   ------------------------------
 PD  .                 GL:   PERMANENT DATUM
 EPD .F              5176:   ELEVATION PERMANENT DATUM
 LMF .                 KB:   LOG MEASURED FROM
 DAPD.F                 8:   FEET ABOVE PERMANENT DATUM
 DMF .                 KB:   DRILLING MEASURED FROM
 EKB .F              5184:   KELLING BUSHING
 EDF .F              5182:   DRILLING FLOOR
 EGL .F              5176:   GROUND LEVEL
 DATE.          5-30-1987:   RUN DATE
 RUN .                  1:   RUN NUMBER
 DD  .F               550:   DEPTH DRILLER
 DL  .F               552:   DEPTH LOGGER
 BLI .F               544:   BOTTOM LOG INTERVAL
 TLI .F                30:   TOP LOG INTERVAL
 CS  .IN            8.625:   CASING SIZE
 CBD .F                50:   CASING BOTTOM DRILLER
 CBL .F                49:   CASING BOTTOM LOGGER
 BS  .IN            7.875:   BIT SIZE
 BSD .F               550:   BIT SIZE AT DEPTH
 DFT .                AIR:   DRILLING FLUID TYPE
 TLAB.HRS            0735:   TIME LOGGER AT BOTTOM
 MRT .F                80:   MAXIMUM RECORDED TEMPERATURE
 LUN .               7597:   LOGGING UNIT NUMBER
 LUL .           GILLETTE:   LOGGING UNIT LOCATION
 ENGI.         WEATHERMON:   RECORDING ENGINEER
 WITN.             STRONG:   WITNESSED BY
 CLNT.            A2DTECH:   CLIENT CODE
 ORIG.       2", 5" PRINT:   ORIGIN OF DATA
 UWI .       490251112800:   UNIQUE WELL ID
 DICO. A2D Technologies, Inc.:   DIGITIZING COMPANY
~OTHER INFORMATION
~A   DEPT       GRR      RILD       RILM   
# ...
  299.0000    69.2194    33.8348    36.4300
  299.5000    66.8783    35.2868    39.5654
  300.0000    64.4709    36.8012    43.1099
  300.5000    61.9628    38.3806    46.9896
  301.0000    60.9654    39.5320    49.0711
  301.5000    62.0232    41.0106    48.8746
  302.0000    64.6249    41.4340    48.7439
  302.5000    68.1698    41.3512    48.6134
  303.0000    70.4952    41.2721    48.4833
  303.5000    72.5257    41.1940    48.3535
  304.0000    73.8736    41.1171    48.2241
  304.5000    71.2673    41.0464    48.1574
  305.0000    68.4773    41.0464    48.4216
  305.5000    66.5197    42.0650    48.6265
  306.0000    68.8863    42.7670    48.8352
  306.5000    71.8987    43.4275    49.0364
  307.0000    74.3631    43.8376    51.1242
  307.5000    73.6317    43.0479    53.5912
  308.0000    72.7595    42.5199    55.4711
  308.5000    71.8816    41.9983    53.3227
  309.0000    73.5601    41.8252    51.3781
  309.5000    76.4982    41.4340    49.5377
  310.0000    78.7975    41.4340    47.6041
  310.5000    77.6600    41.0464    45.4996
  311.0000    75.1749    38.9574    45.5169
  311.5000    72.7839    37.0809    45.5169
  312.0000    70.4008    35.3010    43.2510
  312.5000    68.9784    33.9811    40.0009
  313.0000    70.2926    32.7960    36.9715
  313.5000    73.4153    31.5452    35.0889
  314.0000    76.8382    30.2029    32.7831
  314.5000    79.7044    28.8954    30.6768
  315.0000    80.6445    28.1873    28.9788
  315.5000    81.6037    27.5857    28.9912
  316.0000    83.6754    27.0222    28.1845
  316.5000    85.6998    26.4700    27.7402
  317.0000    86.9873    25.9251    27.0549
  317.5000    87.6729    25.4283    26.3866
  318.0000    87.2748    25.1646    25.8985
  318.5000    86.7679    25.1723    26.0177
  319.0000    85.3755    25.1786    26.1342
  319.5000    83.7540    25.1763    26.2512
  320.0000    82.1089    25.1753    26.3687
  320.5000    81.6017    25.1558    26.4996
  321.0000    81.9421    25.4163    26.6778
  321.5000    82.3597    25.6562    26.8571
  322.0000    83.3294    25.8985    27.0376
  322.5000    85.3770    26.1431    27.2194
  323.0000    87.4117    26.6391    27.4024
  323.5000    88.1923    26.6391    27.5866
  324.0000    87.0465    26.8907    27.7720
  324.5000    85.9715    26.6487    27.9208
  325.0000    85.5194    26.4495    27.8208
  325.5000    86.0478    26.2518    27.6973
  326.0000    86.4429    26.0555    27.5736
  326.5000    86.4453    25.8312    27.4507
  327.0000    86.4603    25.4873    27.2636
  327.5000    85.6560    25.1481    26.9171
  328.0000    84.3564    24.8134    26.5752
  328.5000    83.0893    24.4785    26.2373
  329.0000    81.9763    24.2396    25.9036
  329.5000    81.7987    23.9997    25.5719
  330.0000    83.2962    23.7621    25.2597
  330.5000    84.9902    23.5269    24.8364
  331.0000    86.4890    23.2940    24.5871
  331.5000    87.0872    23.0634    24.3322
  332.0000    87.7409    22.9200    24.0800
  332.5000    88.9311    22.9200    24.0227
  333.0000    89.6699    22.9200    24.0227
  333.5000    90.5053    22.9200    24.1331
  334.0000    91.3554    22.9200    24.4368
  334.5000    91.6654    22.9200    24.7444
  335.0000    90.4826    22.9200    24.9430
  335.5000    89.2261    22.9198    24.6257
  336.0000    88.0111    22.9184    24.3554
  336.5000    88.4516    22.9168    24.0881
  337.0000    88.8796    22.9163    24.0227
  337.5000    88.7059    23.7739    24.4419
  338.0000    88.4028    24.5420    24.9430
  338.5000    86.2658    25.3342    27.2622
  339.0000    84.1179    26.1519    30.2048
  339.5000    77.8793    26.9961    34.0234
  340.0000    70.8645    27.9208    38.3247
  340.5000    64.7769    27.3221    39.9053
  341.0000    63.6906    26.3899    39.9053
  341.5000    65.4358    25.0593    34.4111
  342.0000    70.7689    23.3570    29.7001
  342.5000    76.2995    21.7704    26.2087
  343.0000    81.6064    20.4755    22.9200
  343.5000    84.9226    19.7068    21.7012
  344.0000    88.1099    18.9401    20.1563
  344.5000    90.9253    18.2917    18.9842
  345.0000    90.1832    17.9511    18.4644
  345.5000    87.7389    17.8768    18.6388
  346.0000    85.3217    17.7963    18.4623
  346.5000    84.8943    17.7162    18.3296
  347.0000    86.8200    17.6364    18.2917
  347.5000    88.7217    17.5570    18.2917
  348.0000    90.0592    17.4780    18.2917
  348.5000    87.9081    17.3993    18.2919
  349.0000    87.1207    17.3210    18.2917
  349.5000    88.3217    17.2430    18.2917
  350.0000    87.9556    17.1654    18.1420
  350.5000    87.2519    17.0352    17.8467
  351.0000    89.2724    16.8546    17.5562
  351.5000    91.5359    16.6760    17.2705
  352.0000    92.7487    16.4993    16.9893
  352.5000    90.4250    16.3244    16.6509
  353.0000    87.7637    16.1514    16.5262
  353.5000    86.3849    15.9802    16.3960
  354.0000    86.2928    15.8109    16.2668
  354.5000    86.5439    15.6433    16.1386
  355.0000    88.5410    15.4439    16.0115
  355.5000    90.6028    15.4452    15.8853
  356.0000    90.9723    15.4066    15.7459
  356.5000    91.3577    15.3797    15.8804
  357.0000    93.9639    15.3528    15.7842
  357.5000    97.1659    15.3257    15.7369
  358.0000    99.7087    15.3004    15.7357
  358.5000    97.6118    15.4359    15.7353
  359.0000    95.2503    15.6424    16.0567
  359.5000    93.2818    15.8517    16.3127
  360.0000    93.8092    16.0637    16.5729
  360.5000    94.3264    16.2786    16.8113
  361.0000    94.2362    16.3409    16.8106
  361.5000    93.4931    16.2498    16.8084
  362.0000    92.8671    16.1688    16.8081
  362.5000    91.8481    16.0882    16.8081
  363.0000    90.3349    15.8957    16.7451
  363.5000    88.8266    15.5069    16.3524
  364.0000    88.0161    15.1276    15.9689
  364.5000    89.3359    14.7576    15.5740
  365.0000    90.7729    14.3967    15.1573
  365.5000    92.2256    14.3013    14.7517
  366.0000    93.6624    14.1820    14.4615
  366.5000    94.0041    14.0637    14.3394
  367.0000    94.4752    13.9279    14.1922
  367.5000    94.9576    14.0835    14.0465
  368.0000    95.5952    14.3287    13.9024
  368.5000    96.9936    14.5416    13.7955
  369.0000    98.4027    15.0721    13.9198
  369.5000    99.4356    15.8047    14.0599
  370.0000    99.1749    17.2182    14.2543
  370.5000    98.3029    18.8459    15.6103
  371.0000    97.4732    20.6275    17.3758
  371.5000    94.0279    22.5775    19.9596
  372.0000    89.0658    24.7119    23.1799
  372.5000    84.0980    27.0480    27.5604
  373.0000    79.7075    30.0633    32.7865
  373.5000    78.1462    33.5840    39.1410
  374.0000    76.3069    36.7350    42.8062
  374.5000    75.4681    38.8028    46.8445
  375.0000    75.2028    41.4481    49.2733
  375.5000    75.1298    40.8019    50.3430
  376.0000    73.7769    39.7699    51.4586
  376.5000    73.7744    38.7909    48.6095
  377.0000    75.3512    38.7973    46.2946
  377.5000    76.9374    38.7918    44.2515
  378.0000    76.4272    38.8022    42.8061
  378.5000    75.4088    37.7787    41.8252
  379.0000    74.2335    37.0953    41.8252
  379.5000    74.3155    36.6299    41.8252
  380.0000    75.3664    36.1979    41.8252
  380.5000    77.4248    35.7709    41.8252
  381.0000    78.7373    35.3158    41.3173
  381.5000    77.5538    34.0174    39.9615
  382.0000    76.3182    32.9238    37.5567
  382.5000    75.1214    32.0882    35.2966
  383.0000    75.9858    31.2732    33.5261
  383.5000    77.2641    30.4803    32.4820
  384.0000    80.1784    29.5338    31.4703
  384.5000    81.0154    29.5663    30.9618
  385.0000    80.3772    29.6332    30.9618
  385.5000    79.7636    29.7002    30.9618
  386.0000    79.1096    29.7674    30.9618
  386.5000    79.9499    29.8194    30.9618
  387.0000    81.0672    29.4994    30.9639
  387.5000    81.5583    29.2412    30.9645
  388.0000    82.1611    28.9851    30.6142
  388.5000    82.8104    28.7315    30.3390
  389.0000    82.7929    28.4510    30.0660
  389.5000    82.7577    28.5645    29.8194
