~VERSION INFORMATION
 VERS.                2.0:   CWLS LOG ASCII STANDARD - VERSION 2.0
 WRAP.                 NO:   ONE LINE PER DEPTH STEP
~WELL INFORMATION
#MNEM.UNIT      DATA TYPE    INFORMATION
#----------   ------------   ------------------------------
 STRT.F            0.0000:   START DEPTH
 STOP.F          964.0000:   STOP DEPTH
 STEP.F            0.5000:   STEP LENGTH
 NULL.          -999.2500:   NO VALUE
 COMP. LAWRENCE/ALLISON INC:   COMPANY
 WELL.  NPR 3 #58-16-SX-2:   WELL
 FLD .           NPR NO.3:   FIELD
 LOC .       S2 T38N R78W:   LOCATION
 CNTY.            NATRONA:   COUNTY
 STAT.            WYOMING:   STATE
 CTRY. UNITED STATES OF AMERICA:   COUNTRY
 SRVC.           Gearhart:   SERVICE COMPANY
 DATE.        07-MAY-1987:   LOGDATE
 API .       490251113700:   API NUMBER
~CURVE INFORMATION
#MNEM.UNIT       API CODE    CURVE DESCRIPTION
#----------   ------------   ------------------------------
 DEPT.F                  :   
 GRR .GAPI   07 310 01 00:   GAMMA RAY FROM RES. LOG.
 RILD.OHMM   07 120 46 00:   INDUCTION LOG DEEP RESISTIVITY
 RILM.OHMM   07 120 44 00:   INDUCTION LOG MEDIUM RESISTIVITY
~PARAMETER INFORMATION
#MNEM.UNIT          VALUE    DESCRIPTION
#----------   ------------   ------------------------------
 PD  .                 GL:   PERMANENT DATUM
 EPD .F              5173:   ELEVATION PERMANENT DATUM
 LMF .                 GL:   LOG MEASURED FROM
 DMF .                 GL:   DRILLING MEASURED FROM
 EGL .F              5173:   GROUND LEVEL
 DATE.           5-7-1987:   RUN DATE
 RUN .                  1:   RUN NUMBER
 DD  .F               971:   DEPTH DRILLER
 DL  .F               971:   DEPTH LOGGER
 BLI .F               963:   BOTTOM LOG INTERVAL
 TLI .F                37:   TOP LOG INTERVAL
 CS  .IN            8.625:   CASING SIZE
 CBD .F                44:   CASING BOTTOM DRILLER
 CBL .F                37:   CASING BOTTOM LOGGER
 BS  .IN            7.875:   BIT SIZE
 BSD .F               971:   BIT SIZE AT DEPTH
 TCS .HRS            2100:   TIME CURCULATED STOPPED
 TLAB.HRS            2338:   TIME LOGGER AT BOTTOM
 MRT .F                80:   MAXIMUM RECORDED TEMPERATURE
 LUN .               7597:   LOGGING UNIT NUMBER
 LUL .           GILLETTE:   LOGGING UNIT LOCATION
 ENGI.         WEATHERMON:   RECORDING ENGINEER
 WITN. STRONG/TAYLOR/LOWE:   WITNESSED BY
 CLNT.            A2DTECH:   CLIENT CODE
 ORIG.           5" PRINT:   ORIGIN OF DATA
 UWI .       490251113700:   UNIQUE WELL ID
 DICO. A2D Technologies, Inc.:   DIGITIZING COMPANY
~OTHER INFORMATION
~A    DEPT      GRR      RILD       RILM   
# ...
  546.0000   106.7106    11.0167    10.5020
  546.5000   109.9347    10.9850    10.4644
  547.0000   112.8432    10.9534    10.4525
  547.5000   111.9010    10.9218    10.4412
  548.0000   107.2285    10.8904    10.4299
  548.5000   102.7579    10.8677    10.4186
  549.0000    99.3070    10.8678    10.4074
  549.5000    98.5649    10.8678    10.3962
  550.0000    98.8044    10.8678    10.3855
  550.5000   101.0440    10.8678    10.3747
  551.0000   103.3169    10.8679    10.3331
  551.5000   105.5734    10.8678    10.0423
  552.0000   107.7041    10.8678     9.7598
  552.5000   107.6851    10.7281     9.5219
  553.0000   105.4589    10.5386     9.6060
  553.5000   102.2731    10.3521     9.7013
  554.0000    99.1091    10.1684     9.6570
  554.5000    99.3451     9.9812     9.5967
  555.0000   102.0745     9.8855     9.5368
  555.5000   104.7905     9.7863     9.4773
  556.0000   107.5693     9.6881     9.4183
  556.5000   106.6674     9.5908     9.3599
  557.0000   104.3358     9.4945     9.3006
  557.5000   101.9538     9.3992     9.1811
  558.0000   101.9578     9.3302     8.7954
  558.5000   103.4695     9.3007     8.5003
  559.0000   104.8485     9.2720     8.5454
  559.5000   105.5266     9.1877     8.5840
  560.0000   106.2279     9.0312     8.6235
  560.5000   106.2587     8.9108     8.6610
  561.0000   104.3725     8.9346     8.6148
  561.5000   102.4247     8.9544     8.5690
  562.0000   100.5608     8.9743     8.5238
  562.5000   103.7760     8.9941     8.4990
  563.0000   107.5452     9.0141     8.5216
  563.5000   109.9122     9.0339     8.5371
  564.0000   108.2202     9.0540     8.5528
  564.5000   105.3171     9.0806     8.5683
  565.0000   102.6615     8.9358     8.5823
  565.5000   103.6555     8.7258     8.3411
  566.0000   106.1278     8.5207     8.1235
  566.5000   108.5330     8.3204     7.9126
  567.0000   111.0165     8.1249     7.7073
  567.5000   112.5535     7.9340     7.5073
  568.0000   114.0249     7.7475     7.3119
  568.5000   114.1304     7.5654     7.0356
  569.0000   111.6988     7.3751     7.0537
  569.5000   107.9139     7.4295     7.0957
  570.0000   104.3066     7.4884     7.1361
  570.5000   105.0776     7.5483     7.1767
  571.0000   107.5649     7.6083     7.2176
  571.5000   109.9565     7.6689     7.2587
  572.0000   109.6957     7.7299     7.3000
  572.5000   107.6127     7.7915     7.3416
  573.0000   105.9667     7.8535     7.3834
  573.5000   107.2638     7.9160     7.4255
  574.0000   108.9312     7.9790     7.4678
  574.5000   109.6701     8.0425     7.5103
  575.0000   109.9007     8.1065     7.5531
  575.5000   111.0269     8.1634     7.6090
  576.0000   112.7017     8.2207     7.7189
  576.5000   114.1686     8.2784     7.8297
  577.0000   112.1814     8.3365     7.9423
  577.5000   109.8469     8.3950     8.0567
  578.0000   107.5096     8.4539     8.1721
  578.5000   107.9160     8.4990     8.2609
  579.0000   109.7102     8.4807     8.1866
  579.5000   111.4981     8.4632     8.1270
  580.0000   113.2814     8.4457     8.0677
  580.5000   115.0570     8.4282     8.0088
  581.0000   115.1637     8.4108     7.9504
  581.5000   114.3820     8.3934     7.8924
  582.0000   113.5802     8.3761     7.8347
  582.5000   112.8804     8.3587     7.8056
  583.0000   113.2235     8.3417     7.8196
  583.5000   113.5703     8.3216     7.8293
  584.0000   113.9151     8.3016     7.8389
  584.5000   113.8961     8.2815     7.8484
  585.0000   113.5422     8.2615     7.8580
  585.5000   113.1839     8.2416     7.8676
  586.0000   112.8175     8.2217     7.8774
  586.5000   112.4862     8.2018     7.8797
  587.0000   113.8240     8.1820     7.8798
  587.5000   115.2943     8.1622     7.8798
  588.0000   116.2988     8.1425     7.8798
  588.5000   114.4329     8.1229     7.8802
  589.0000   112.6013     8.0915     7.8806
  589.5000   110.7608     8.0001     7.7651
  590.0000   110.0021     7.9100     7.6485
  590.5000   110.0424     7.8209     7.5336
  591.0000   111.6486     7.7321     7.4205
  591.5000   113.3595     7.6622     7.3453
  592.0000   114.1394     7.5925     7.2956
  592.5000   114.3196     7.5235     7.2462
  593.0000   113.3468     7.4547     7.1971
  593.5000   112.3913     7.3870     7.0976
  594.0000   111.9068     7.1589     6.9042
  594.5000   111.7058     6.9047     6.6283
  595.0000   110.0840     6.6596     6.3636
  595.5000   108.2527     6.4231     6.1093
  596.0000   109.2572     6.1951     5.8653
  596.5000   112.1879     6.1622     5.6309
  597.0000   114.8513     6.1622     5.4412
  597.5000   115.0993     6.1622     5.3981
  598.0000   115.3053     6.1622     5.4494
  598.5000   115.5269     6.1622     5.7010
  599.0000   115.6590     6.3557     5.9454
  599.5000   114.5798     6.5823     6.2002
  600.0000   113.3446     6.8170     6.3357
  600.5000   113.8151     7.0345     6.4495
  601.0000   114.4432     7.0628     6.5654
  601.5000   113.1998     7.0943     6.6833
  602.0000   111.7879     7.1260     6.8034
  602.5000   110.8065     7.1578     6.8636
  603.0000   111.3638     7.1898     6.8999
  603.5000   113.0730     7.2216     6.9364
  604.0000   114.7770     7.2369     6.9731
  604.5000   116.4551     7.2369     7.0100
  605.0000   116.1872     7.2369     7.0345
  605.5000   115.7888     7.2369     6.9459
  606.0000   115.9180     7.0933     6.8528
  606.5000   116.1809     6.9437     6.7093
  607.0000   116.4472     6.7974     6.5693
  607.5000   116.7124     6.6543     6.4321
  608.0000   116.9771     6.5142     6.2071
  608.5000   117.2432     6.3530     5.9627
  609.0000   117.4150     6.0806     5.7160
  609.5000   117.5343     5.8199     5.4243
  610.0000   117.6642     5.5460     5.1475
  610.5000   117.6513     5.2680     4.8848
  611.0000   114.8676     5.0524     4.6355
  611.5000   112.0134     5.0048     4.3989
  612.0000   109.1647     5.1161     4.2616
  612.5000   106.3240     5.1977     4.5389
  613.0000   105.8783     5.3076     4.8351
  613.5000   108.1563     5.5033     5.1516
  614.0000   111.4840     5.7708     5.4577
  614.5000   113.5946     6.0513     5.7358
  615.0000   114.2621     6.3457     6.0283
  615.5000   115.5578     6.6546     6.3356
  616.0000   117.0739     6.9767     6.6445
  616.5000   118.6206     7.1325     6.7260
  617.0000   119.0668     7.2054     6.8198
  617.5000   118.4639     7.2790     6.9162
  618.0000   116.8309     7.3535     7.0142
  618.5000   114.2071     7.4286     7.1136
  619.0000   114.0621     7.5046     7.1810
  619.5000   114.0792     7.5814     7.2298
  620.0000   113.2406     7.6589     7.2790
  620.5000   111.6828     7.7323     7.3286
  621.0000   112.8855     7.7611     7.3784
  621.5000   115.3328     7.7884     7.4286
  622.0000   117.7733     7.8159     7.4913
  622.5000   119.8523     7.8434     7.5605
  623.0000   119.6946     7.8710     7.6302
  623.5000   118.9888     7.9603     7.7007
  624.0000   117.8833     8.0792     7.7718
  624.5000   116.0442     8.2000     7.8435
  625.0000   115.7215     8.2613     7.8797
  625.5000   115.6761     8.1491     7.8797
  626.0000   114.6178     8.0750     7.8797
  626.5000   113.5127     8.0016     7.8234
  627.0000   112.4691     7.9289     7.7142
  627.5000   112.4032     7.8569     7.6064
  628.0000   113.8956     7.7855     7.5002
  628.5000   115.6406     7.7147     7.3954
  629.0000   117.3985     7.6446     7.3056
  629.5000   119.1685     7.5751     7.1875
  630.0000   118.5952     7.4853     7.0630
  630.5000   117.6524     7.2698     6.9409
  631.0000   117.3526     7.0605     6.8074
  631.5000   117.3523     6.6751     6.6065
  632.0000   117.3041     6.1737     6.4114
  632.5000   116.4384     5.7099     6.2220
  633.0000   115.5849     5.2498     5.8924
  633.5000   114.6905     4.6933     5.3450
  634.0000   115.1026     4.1829     4.8481
  634.5000   115.9591     3.6567     4.3968
  635.0000   116.8328     3.1788     3.8392
  635.5000   117.7163     2.8757     3.3159
  636.0000   118.0369     2.5962     2.8635
  636.5000   117.6774     2.3921     2.4739
