~VERSION INFORMATION
 VERS.                2.0:   CWLS LOG ASCII STANDARD - VERSION 2.0
 WRAP.                 NO:   ONE LINE PER DEPTH STEP
~WELL INFORMATION
#MNEM.UNIT      DATA TYPE    INFORMATION
#----------   ------------   ------------------------------
 STRT.F           32.0000:   START DEPTH
 STOP.F          501.0000:   STOP DEPTH
 STEP.F            0.5000:   STEP LENGTH
 NULL.          -999.2500:   NO VALUE
 COMP. FENIX & SCISSON, INC., U.S. NAVY:   COMPANY
 WELL.     NPR-3 #82-S-10:   WELL
 FLD .             TEAPOT:   FIELD
 LOC .      S10 T38N R78W:   LOCATION
 CNTY.            NATRONA:   COUNTY
 STAT.            WYOMING:   STATE
 CTRY. UNITED STATES OF AMERICA:   COUNTRY
 SRVC.              Welex:   SERVICE COMPANY
 DATE.        10-MAY-1977:   LOGDATE
 API .       490251035300:   API NUMBER
~CURVE INFORMATION
#MNEM.UNIT       API CODE    CURVE DESCRIPTION
#----------   ------------   ------------------------------
 DEPT.F                  :   
 GURD.OHMM   07 220 05 00:   SHALLOW SHORT GUARD RESISTIVITY
 ILD .OHMM   07 120 46 00:   INDUCTION LOG DEEP
 ILM .OHMM   07 120 44 00:   INDUCTION LOG MEDIUM
 SPR .MV     07 010 01 00:   SPONTANEOUS POTENTIAL
 CALD.IN     45 280 60 00:   CALIPER FROM DENSITY LOG
 CORR.G/C3   45 356 01 00:   DENSITY CORRECTION
 DPHI.DEC    45 890 12 00:   DENSITY POROSITY SANDSTONE
 GRD .GAPI   45 310 01 00:   GAMMA RAY FROM DENSITY LOG
 RHOB.G/C3   45 350 01 00:   BULK DENSITY
~PARAMETER INFORMATION
#MNEM.UNIT          VALUE    DESCRIPTION
#----------   ------------   ------------------------------
 PD  .                 GL:   PERMANENT DATUM
 EPD .F              5134:   ELEVATION PERMANENT DATUM
 LMF .                 GL:   LOG MEASURED FROM
 DMF .                 GL:   DRILLING MEASURED FROM
 EGL .F              5134:   GROUND LEVEL
 DATE.        10-MAY-1977:   RUN DATE
 RUN .                  1:   RUN NUMBER
 DD  .F               505:   DEPTH DRILLER
 DL  .F               504:   DEPTH LOGGER
 BLI .F               502:   BOTTOM LOG INTERVAL
 TLI .F                30:   TOP LOG INTERVAL
 CS  .IN            8.625:   CASING SIZE
 CBD .F                40:   CASING BOTTOM DRILLER
 CBL .F                41:   CASING BOTTOM LOGGER
 BS  .IN            7.875:   BIT SIZE
 BSD .F               505:   BIT SIZE AT DEPTH
 DFT .            KCL MUD:   DRILLING FLUID TYPE
 DFD .                8.7:   DRILLING FLUID DENSITY
 DFV .                 29:   DRILLING FLUID VISCOSITY
 DFPH.                7.5:   DRILLING FLUID PH
 DFL .                6.6:   DRILLING FLUID LOSS
 MSS .           FLOWLINE:   MUD SAMPLE SOURCE
 RMS .OHMM           0.26:   RESISTIVITY MUD SAMPLE
 MST .F                72:   MUD SAMPLE TEMPERATURE
 RMF .OHMM           0.22:   RESISTIVITY MUD FILTRATE SAMPLE
 MFST.F                72:   MUD FILTRATE SAMPLE TEMPERATURE
 RMC .OHMM           0.42:   RESISTIVITY MUD CAKE
 MCST.F                72:   MUD CAKE SAMPLE TEMPERATURE
 MFSS.           FANN KIT:   MUD FILTRATE SAMPLE SOURCE
 MCSS.           FANN KIT:   MUD CAKE SAMPLE SOURCE
 RMB .OHMM           0.24:   RESISTIVITY MUD AT BHT
 BHT .F                78:   BOTTOM HOLE TEMPERATURE
 TCS .HRS               1:   TIME CURCULATED STOPPED
 MRT .F                78:   MAXIMUM RECORDED TEMPERATURE
 LUN .               8611:   LOGGING UNIT NUMBER
 LUL .             CASPER:   LOGGING UNIT LOCATION
 ENGI.            C. DOAK:   RECORDING ENGINEER
 WITN.         D. RHOADES:   WITNESSED BY
 CLNT.            A2DTECH:   CLIENT CODE
 ORIG.           5" PRINT:   ORIGIN OF DATA
 UWI .       490251035300:   UNIQUE WELL ID
 DICO. A2D Technologies, Inc.:   DIGITIZING COMPANY
~OTHER INFORMATION
~A   DEPT     GURD        ILD        ILM         SPR      CALD       CORR       DPHI        GRD       RHOB   
# ...
  178.0000     6.7588     6.2322     6.9001   -41.1308     7.6506     0.0104     0.1521   116.6395     2.4228
  178.5000     5.8897     6.0625     7.0000   -40.6642     7.6518     0.0117     0.1505   116.5074     2.4281
  179.0000     9.5583     6.2013     7.1519   -40.3955     7.6528     0.0136     0.1493   116.0825     2.4289
  179.5000    10.0431     6.5124     7.2598   -39.8929     7.6537     0.0137     0.1466   115.5052     2.4260
  180.0000     9.1801     6.7452     7.4109   -39.7295     7.6549     0.0138     0.1400   116.2633     2.4403
  180.5000     9.3237     6.9863     7.5181   -39.7149     7.6559     0.0139     0.1406   116.5722     2.4418
  181.0000     9.7237     7.1861     7.6268   -39.9979     7.6718     0.0140     0.1417   114.2185     2.4411
  181.5000     9.9912     7.3407     7.6838   -40.4334     7.6728     0.0141     0.1429   112.1576     2.4404
  182.0000    10.0659     7.4470     7.6880   -40.7164     7.6588     0.0142     0.1444   110.3934     2.4382
  182.5000    10.0714     7.5548     7.6922   -40.4005     7.6749     0.0138     0.1486   109.6677     2.4338
  183.0000    10.0769     7.6113     7.6423   -40.2371     7.6760     0.0129     0.1524   109.2388     2.4264
  183.5000    10.0129     7.6683     7.6475   -40.8177     7.6796     0.0115     0.1569   108.8099     2.4189
  184.0000    10.0183     7.6464     7.7046   -41.1012     7.6929     0.0086     0.1500   108.3770     2.4228
  184.5000     9.9534     7.6237     7.7623   -40.0445     7.7031     0.0088     0.1476   109.2874     2.4297
  185.0000     9.8232     7.5753     7.8204   -39.2857     7.7098     0.0089     0.1478   112.5677     2.4341
  185.5000     9.6938     7.4763     7.8790   -39.3036     7.7083     0.0120     0.1517   115.2545     2.4249
  186.0000     9.7663     7.3767     7.8841   -40.1458     7.7054     0.0136     0.1496   118.0897     2.4312
  186.5000     9.6934     7.1803     7.7801   -40.5777     7.7025     0.0152     0.1445   118.2543     2.4387
  187.0000     9.1035     6.9882     7.7297   -41.1583     7.6995     0.0198     0.1402   119.1607     2.4433
  187.5000     9.1937     6.8485     7.6288   -41.7389     7.6966     0.0229     0.1375   120.9573     2.4485
  188.0000     9.1987     6.7115     7.4763   -42.3196     7.6937     0.0230     0.1366   122.4572     2.4508
  188.5000     9.2036     6.5320     7.3767   -42.7551     7.6908     0.0216     0.1391   123.0669     2.4494
  189.0000     9.0197     6.2699     7.1805   -41.2487     7.6878     0.0142     0.1444   123.0831     2.4442
  189.5000     8.7774     6.0602     6.9885   -40.9401     7.6849     0.0113     0.1506   122.6434     2.4308
  190.0000     8.7834     5.8574     6.8017   -42.1160     7.6820     0.0161     0.1551   120.4154     2.4166
  190.5000     8.4897     5.7007     6.6190   -41.8001     7.6791     0.0193     0.1527   118.1642     2.4159
  191.0000     7.5529     5.5477     6.4336   -41.6367     7.6761     0.0252     0.1484   115.7844     2.4242
  191.5000     6.0579     5.4372     6.2275   -41.6220     7.6732     0.0298     0.1445   113.2794     2.4317
  192.0000     5.0997     5.4464     6.4507   -41.6071     7.6703     0.0314     0.1418   114.7142     2.4378
  192.5000     6.9783     5.6354     6.6351   -41.7683     7.6674     0.0315     0.1397   119.1946     2.4417
  193.0000     9.1849     5.8773     6.8720   -42.3224     7.6644     0.0316     0.1376   121.5846     2.4461
  193.5000     8.9406     6.0454     7.0684   -42.4566     7.6615     0.0317     0.1355   123.2289     2.4507
  194.0000     9.3887     6.2183     7.3209   -42.4383     7.6586     0.0303     0.1339   121.1720     2.4560
  194.5000     9.9277     6.3962     7.5301   -41.3821     7.6557     0.0289     0.1327   119.1110     2.4590
  195.0000    10.2114     6.6248     7.7453   -40.7722     7.6527     0.0275     0.1309   116.7533     2.4561
  195.5000    10.2170     6.8616     7.9667   -40.4600     7.6498     0.0276     0.1291   115.2858     2.4643
  196.0000    10.1507     7.0579     8.1379   -40.2966     7.6469     0.0242     0.1249   114.2635     2.4697
  196.5000     9.8807     7.2597     8.3164   -40.4345     7.6440     0.0233     0.1263   114.4280     2.4697
  197.0000     9.5283     7.4159     8.4333   -40.4162     7.6410     0.0204     0.1305   115.3344     2.4667
  197.5000     9.8914     7.5755     8.4973   -40.5506     7.6381     0.0160     0.1326   116.8343     2.4621
  198.0000    10.2447     7.6873     8.6202   -40.5337     7.6352     0.0131     0.1341   118.6309     2.4577
  198.5000    10.5498     7.7965     8.8055   -40.2232     7.6188     0.0102     0.1361   119.9824     2.4542
  199.0000    10.7767     7.8017     8.9329   -40.0595     7.6049     0.0073     0.1394   120.2913     2.4505
  199.5000    10.8460     7.8059     8.9997   -39.8767     7.6062     0.0059     0.1433   116.7507     2.4461
  200.0000    10.3395     7.8102     9.0670   -39.7297     7.6072     0.0045     0.1495   113.5028     2.4379
  200.5000    10.6350     7.9232     9.0719   -40.4592     7.6231     0.0016     0.1522   111.8870     2.4267
  201.0000    10.7145     8.0937     9.0768   -40.8946     7.6242     0.0001     0.1552   110.8646     2.4208
  201.5000    10.4989     8.1543     9.0817   -40.8764     7.6252    -0.0012     0.1576   110.7284     2.4156
  202.0000    11.0267     8.2153     9.0241   -40.2665     7.6262    -0.0011     0.1509   110.7486     2.4217
  202.5000    11.1092     8.2198     9.0291   -40.2519     7.6422    -0.0040     0.1449   111.6550     2.4352
  203.0000    10.8871     8.2813     9.0351   -40.3898     7.6432     0.0022     0.1413   112.5615     2.4435
  203.5000    10.6696     8.2857     9.2933   -40.9668     7.6442     0.0068     0.1353   113.7646     2.4510
  204.0000    11.0506     8.3655     9.5589   -41.5474     7.6452     0.0114     0.1293   114.9677     2.4586
  204.5000    11.7729     8.4104     9.6958   -42.4257     7.6612     0.0145     0.1245   116.9127     2.4661
  205.0000    11.2959     8.4552     8.7472   -41.7857     7.6773     0.0161     0.1200   119.0061     2.4722
  205.5000    10.8415     8.5369     8.8126   -41.3542     7.6935     0.0162     0.1175   121.9896     2.4782
  206.0000    10.9998     8.6009     8.8785   -41.4854     7.7089     0.0148     0.1229   122.1542     2.4788
  206.5000    11.0057     8.6057     8.8209   -42.0660     7.7078     0.0149     0.1270   119.9030     2.4641
  207.0000    11.0881     8.6112     8.7661   -42.4978     7.6663     0.0150     0.1288   117.0652     2.4694
  207.5000    11.2484     8.6152     8.7709   -42.6357     7.6525     0.0151     0.1243   114.2705     2.4740
  208.0000    10.5760     8.5600     8.7757   -42.6174     7.6686     0.0152     0.1207   113.2450     2.4770
  208.5000    10.4351     8.5067     8.7192   -42.6028     7.6697     0.0153     0.1192   114.7435     2.4793
  209.0000    10.4421     8.5014     8.6983   -42.5882     7.6583     0.0154     0.1213   116.0906     2.4794
  209.5000    10.4534     8.4562     8.6802   -42.8749     7.6595     0.0155     0.1251   116.8442     2.4747
  210.0000    10.4652     8.3446     8.5086   -43.1548     7.6608     0.0166     0.1290   117.4494     2.4611
  210.5000    10.3307     8.1788     8.3379   -43.4375     7.6619     0.0160     0.1332   118.3514     2.4522
  211.0000    10.1190     8.0152     8.1167   -43.7262     7.6631     0.0177     0.1382   119.4018     2.4482
  211.5000     9.8563     7.8539     7.9550   -44.3009     7.6643     0.0193     0.1349   120.4522     2.4527
  212.0000     9.5935     7.5873     7.6826   -44.7579     7.6655     0.0212     0.1340   121.0574     2.4558
  212.5000     9.2095     7.3299     7.4246   -45.6074     7.6667     0.0240     0.1366   120.0307     2.4551
  213.0000     8.9021     7.0447     7.0874   -46.1880     7.6530     0.0262     0.1414   118.8555     2.4492
  213.5000     8.4869     6.7155     6.7568   -46.9175     7.6542     0.0276     0.1474   118.2709     2.4388
  214.0000     7.9801     6.3137     6.3974   -47.6506     7.6554     0.0298     0.1515   120.0660     2.4231
