~VERSION INFORMATION
 VERS.                2.0:   CWLS LOG ASCII STANDARD - VERSION 2.0
 WRAP.                 NO:   ONE LINE PER DEPTH STEP
~WELL INFORMATION
#MNEM.UNIT      DATA TYPE    INFORMATION
#----------   ------------   ------------------------------
 STRT.F            1.0000:   START DEPTH
 STOP.F          600.0000:   STOP DEPTH
 STEP.F            0.5000:   STEP LENGTH
 NULL.          -999.2500:   NO VALUE
 COMP.       F D SERV INC:   COMPANY
 WELL.    62-1 SX-3 #62-3:   WELL
 FLD .             TEAPOT:   FIELD
 LOC .       S3 T38N R78W:   LOCATION
 CNTY.            NATRONA:   COUNTY
 STAT.            WYOMING:   STATE
 CTRY. UNITED STATES OF AMERICA:   COUNTRY
 SRVC.     Atlas Wireline:   SERVICE COMPANY
 DATE.        05-MAY-1992:   LOGDATE
 API .       490252250800:   API NUMBER
~CURVE INFORMATION
#MNEM.UNIT       API CODE    CURVE DESCRIPTION
#----------   ------------   ------------------------------
 DEPT.F                  :   
 GRR .GAPI   07 310 01 00:   GAMMA RAY
 RILD.OHMM   07 120 46 00:   INDUCTION LOG DEEP RESISTIVITY
 RILM.OHMM   07 120 44 00:   INDUCTION LOG MEDIUM RESISTIVITY
~PARAMETER INFORMATION
#MNEM.UNIT          VALUE    DESCRIPTION
#----------   ------------   ------------------------------
 PD  .                 GL:   PERMANENT DATUM
 EPD .F              5159:   ELEVATION PERMANENT DATUM
 LMF .                 KB:   LOG MEASURED FROM
 DAPD.F                 5:   FEET ABOVE PERMANENT DATUM
 DMF .                 KB:   DRILLING MEASURED FROM
 EKB .F              5164:   KELLING BUSHING
 EGL .F              5159:   GROUND LEVEL
 DATE.        06-MAY-1992:   RUN DATE
 RUN .                  1:   RUN NUMBER
 DD  .F               605:   DEPTH DRILLER
 DL  .F               609:   DEPTH LOGGER
 BLI .F               607:   BOTTOM LOG INTERVAL
 CS  .IN            8.625:   CASING SIZE
 CBD .F                51:   CASING BOTTOM DRILLER
 CBL .F                51:   CASING BOTTOM LOGGER
 BS  .IN            7.875:   BIT SIZE
 BSD .F               605:   BIT SIZE AT DEPTH
 DFT .                AIR:   DRILLING FLUID TYPE
 TCS .HRS               3:   TIME CURCULATED STOPPED
 LUN .            HL-6272:   LOGGING UNIT NUMBER
 LUL .             CASPER:   LOGGING UNIT LOCATION
 ENGI.             ZIEGER:   RECORDING ENGINEER
 WITN.             STRONG:   WITNESSED BY
 CLNT.            A2DTECH:   CLIENT CODE
 ORIG.           5" PRINT:   ORIGIN OF DATA
 UWI .       490252250800:   UNIQUE WELL ID
 DICO. A2D Technologies, Inc.:   DIGITIZING COMPANY
~OTHER INFORMATION
~A    DEPT      GRR      RILD       RILM   
# ...
  456.0000   102.6236    11.8360    11.8106
  456.5000   102.9053    11.5868    11.4821
  457.0000   101.0637    11.3318    11.3193
  457.5000   100.1351    11.0878    11.1589
  458.0000   102.5348    10.8662    11.0776
  458.5000   109.4730    10.6365    10.8447
  459.0000   107.3341    10.3394    10.7643
  459.5000   105.4899    10.2628    10.5338
  460.0000   106.1219    10.0458    10.4529
  460.5000   107.6096    10.0410    10.2419
  461.0000   107.4473    10.0362    10.2384
  461.5000   104.1987    10.0313    10.2348
  462.0000   102.3624    10.0265    10.1612
  462.5000   104.7620    10.0929    10.2287
  463.0000   106.8591    10.3717    10.4411
  463.5000   107.1460    10.8844    11.0349
  464.0000   106.2122    11.8271    11.8270
  464.5000   104.6784    12.8514    13.5907
  465.0000   101.9344    14.3721    15.5089
  465.5000    98.5852    16.1149    17.8215
  466.0000    92.5128    19.0898    19.9163
  466.5000    84.0199    23.0161    24.1979
  467.0000    77.9476    24.8359    27.8063
  467.5000    76.7164    26.4291    30.0108
  468.0000    77.9058    26.9739    30.4214
  468.5000    79.3977    26.9610    28.4867
  469.0000    81.2002    26.3911    26.7603
  469.5000    81.8003    25.6540    25.8883
  470.0000    82.0977    24.9374    25.3441
  470.5000    83.0005    24.2409    24.9848
  471.0000    83.8318    24.0612    25.3289
  471.5000    84.1135    23.8828    25.4972
  472.0000    81.3642    23.7057    25.6644
  472.5000    78.9227    23.5300    26.0178
  473.0000    77.6916    22.8728    26.1907
  473.5000    77.6706    22.2339    24.7603
  474.0000    82.7935    21.6047    22.7666
  474.5000    88.2189    21.0090    21.9796
  475.0000    91.8288    20.4221    21.2199
  475.5000    92.7209    19.8497    20.7738
  476.0000    89.9716    19.2953    20.3371
  476.5000    89.8991    18.7564    20.0483
  477.0000    90.8381    18.6173    19.7645
  477.5000    89.6063    18.3511    19.6205
  478.0000    85.9545    18.3423    19.3189
  478.5000    84.7232    18.3335    19.2000
  479.0000    85.3353    18.3247    19.1934
  479.5000    85.8918    18.3159    19.0536
  480.0000    85.8657    18.3071    18.9148
  480.5000    88.8705    18.2983    18.6467
  481.0000    91.5728    18.1626    18.6403
  481.5000    94.2750    18.1539    18.5045
  482.0000    95.7722    18.1451    18.3697
  482.5000    92.4178    18.1364    18.2359
  483.0000    91.1918    18.1275    18.1031
  483.5000    91.7761    17.9930    18.0969
  484.0000    92.3551    17.8364    17.9651
  484.5000    92.6420    17.6024    17.9589
  485.0000    92.9237    17.5939    17.8281
  485.5000    92.8975    17.4635    17.6982
  486.0000    91.0612    17.2137    17.6821
  486.5000    88.9223    17.0861    17.5631
  487.0000    88.8855    17.0779    17.5557
  487.5000    90.3933    17.0697    17.4279
  488.0000    93.3982    16.9431    17.4219
  488.5000    92.1016    16.8175    17.1749
  489.0000    90.3298    16.6928    17.0498
  489.5000    89.0942    16.5690    17.0439
  490.0000    90.2836    16.5611    16.9198
  490.5000    93.8936    16.4383    16.5641
  491.0000    95.0830    16.2032    16.5585
  491.5000    95.3699    16.0829    16.3237
  492.0000    94.7386    15.9636    16.0923
  492.5000    95.0255    15.8451    16.0868
  493.0000    96.8148    15.7261    15.9696
  493.5000    98.0094    15.6095    15.8533
  494.0000    97.6807    15.6020    15.8479
  494.5000    99.1727    15.5945    15.7323
  495.0000    99.4595    15.5870    15.7269
  495.5000    98.2231    15.4714    15.7214
  496.0000    94.8739    15.4640    15.7149
  496.5000    93.5948    15.3493    15.6004
  497.0000    97.2682    15.1298    15.5950
  497.5000    99.6524    14.9134    15.2672
  498.0000    99.6309    14.5982    14.8425
  498.5000    98.8996    14.1905    14.4297
  499.0000    95.0459    13.6984    14.2251
  499.5000    93.5121    13.2234    13.8294
  500.0000    95.8572    12.7649    13.3835
  500.5000    98.8106    12.4164    13.0038
  501.0000    99.1896    12.0679    12.6241
  501.5000    93.2674    11.8950    12.2603
  502.0000    88.5446    11.6453    12.0001
  502.5000    93.6557    11.5674    11.8274
  503.0000    97.8648    11.4051    11.6560
  503.5000   101.7712    11.3236    11.5687
  504.0000   104.1649    11.3212    11.4820
  504.5000   103.8353    11.3189    11.3960
  505.0000   101.9929    11.2380    11.3106
  505.5000   100.4531    11.1577    11.3044
  506.0000    98.3081    11.0007    11.2981
  506.5000    95.2555    11.0758    11.2919
  507.0000    91.2951    11.1509    11.3661
  507.5000    89.4527    11.2264    11.3583
  508.0000    93.9643    11.3025    11.4329
  508.5000    96.6605    11.3791    11.5065
  509.0000    99.3567    11.4556    11.5805
  509.5000   100.2442    11.4532    11.5725
  510.0000    97.7899    11.4509    11.5661
  510.5000    99.2758    11.3691    11.5597
  511.0000   102.2745    11.2878    11.4732
  511.5000   105.5759    11.2855    11.3872
  512.0000   108.5746    11.2049    11.3019
  512.5000   106.4296    11.0476    11.2172
  513.0000   103.6314    10.9687    11.2110
  513.5000   100.8563    10.8903    11.2048
  514.0000    99.0501    10.8125    11.1209
  514.5000   100.0151    10.6608    10.8848
  515.0000   102.6572    10.5847    10.8788
  515.5000   104.7483    10.4361    10.7947
  516.0000   107.1419    10.3616    10.6370
  516.5000   108.9371    10.3594    10.5622
  517.0000   107.9957    10.3573    10.5563
  517.5000   109.7842    10.3551    10.5504
  518.0000   111.8752    10.3530    10.5434
  518.5000   111.8482    10.3508    10.5375
  519.0000   110.0058    10.3487    10.5317
  519.5000   106.9532    10.3465    10.5259
  520.0000   103.9005    10.3444    10.5951
  520.5000   101.7555    10.3422    10.7363
  521.0000    99.6105    10.3401    10.7304
  521.5000    98.9784    10.3379    10.6500
  522.0000    99.5634    10.3358    10.5702
  522.5000   100.7467    10.3336    10.5644
  523.0000   101.9244    10.3315    10.4852
  523.5000   103.4092    10.3293    10.4794
  524.0000   104.5925    10.3272    10.4737
  524.5000   105.4736    10.2534    10.3952
  525.0000   106.0514    10.2512    10.3173
  525.5000   105.4190    10.1780    10.1689
  526.0000   105.0893    10.0352    10.1633
  526.5000   104.4205    10.0331    10.0872
  527.0000   104.1271     9.9614     9.9421
  527.5000   104.0945     9.8217     9.8676
  528.0000   104.9819     9.7515     9.7937
  528.5000   106.4611     9.6818     9.5858
  529.0000   108.8547     9.4797     9.5140
  529.5000   112.1561     9.2819     9.3121
  530.0000   114.5497     9.1516     9.1781
  530.5000   114.8253     8.9606     9.0461
  531.0000   114.7983     8.7715     8.9118
  531.5000   115.6791     8.6475     8.7206
  532.0000   116.5598     8.4660     8.4743
  532.5000   118.3550     8.1785     8.2254
  533.0000   119.8342     7.9357     7.8467
  533.5000   121.0175     7.4556     7.3657
  534.0000   120.3854     6.9449     6.4489
  534.5000   118.2472     6.1904     5.7655
  535.0000   123.9623     5.3931     5.0832
  535.5000   130.2894     5.1168     4.5129
  536.0000   136.0113     4.9814     4.4791
  536.5000   139.6152     5.0152     4.8670
  537.0000   142.3114     5.1917     5.2884
  537.5000   142.8896     5.3372     5.8270
  538.0000   136.4247     5.5637     6.3759
  538.5000   123.8821     5.8812     6.9765
  539.0000   116.3395     6.6187     7.5806
  539.5000   110.1029     7.5531     8.0107
  540.0000   114.3063     8.3828     8.4064
  540.5000   117.6076     8.7996     8.6392
  541.0000   116.6729     9.0462     8.8797
  541.5000   116.6460     9.1716     8.9368
  542.0000   119.0396     9.2337     9.1205
  542.5000   121.1306     9.3613     9.1781
  543.0000   123.8268     9.4247     9.3666
  543.5000   125.0168     9.4881     9.5591
  544.0000   123.7729     9.6863     9.6880
  544.5000   121.3253     9.8201     9.9562
  545.0000   118.5752     9.8871    10.1609
  545.5000   119.7585     9.9541    10.3721
  546.0000   121.2444    10.1616    10.5094
  546.5000   120.9149    10.4463    10.6584
