~VERSION INFORMATION
 VERS.                2.0:   CWLS LOG ASCII STANDARD - VERSION 2.0
 WRAP.                 NO:   ONE LINE PER DEPTH STEP
~WELL INFORMATION
#MNEM.UNIT      DATA TYPE    INFORMATION
#----------   ------------   ------------------------------
 STRT.F            9.5000:   START DEPTH
 STOP.F          640.5000:   STOP DEPTH
 STEP.F            0.5000:   STEP LENGTH
 NULL.          -999.2500:   NO VALUE
 COMP. FENIX & SCISSON INC:   COMPANY
 WELL. 27-32 SX 11 WI #27-32 SX:   WELL
 FLD .            WILDCAT:   FIELD
 LOC .      S11 T38N R78W:   LOCATION
 CNTY.            NATRONA:   COUNTY
 STAT.            WYOMING:   STATE
 CTRY. UNITED STATES OF AMERICA:   COUNTRY
 SRVC.      Dresser Atlas:   SERVICE COMPANY
 DATE.        01-AUG-1980:   LOGDATE
 API .       490251083700:   API NUMBER
~CURVE INFORMATION
#MNEM.UNIT       API CODE    CURVE DESCRIPTION
#----------   ------------   ------------------------------
 DEPT.F                  :   
 SPR .MV     07 010 01 00:   SPONTANEOUS POTENTIAL
 SFL .OHMM   07 220 01 00:   SHALLOW FOCUSED LOG RESISTIVITY
 ILD .OHMM   07 120 46 00:   INDUCTION LOG DEEP
 ILM .OHMM   07 120 44 00:   INDUCTION LOG MEDIUM
 GRD .GAPI   45 310 01 00:   GAMMA RAY FROM DENSITY LOG
 CALD.IN     45 280 60 00:   CALIPER
 RHOB.G/C3   45 350 01 00:   BULK DENSITY
 CORR.G/C3   45 356 01 00:   DENSITY CORRECTION
 DPHI.DEC    45 890 12 00:   DENSITY POROSITY SANDSTONE
 NPHI.DEC    42 890 03 00:   NEUTRON POROSITY SANDSTONE
~PARAMETER INFORMATION
#MNEM.UNIT          VALUE    DESCRIPTION
#----------   ------------   ------------------------------
 PD  .                 GL:   PERMANENT DATUM
 EPD .F              5189:   ELEVATION PERMANENT DATUM
 LMF .                 KB:   LOG MEASURED FROM
 DAPD.F                 5:   FEET ABOVE PERMANENT DATUM
 DMF .                 KB:   DRILLING MEASURED FROM
 EKB .F              5194:   KELLING BUSHING
 EGL .F              5189:   GROUND LEVEL
 DATE.             8-1-80:   RUN DATE
 RUN .                  1:   RUN NUMBER
 DD  .F               625:   DEPTH DRILLER
 DL  .F               634:   DEPTH LOGGER
 BLI .F               632:   BOTTOM LOG INTERVAL
 TLI .F                12:   TOP LOG INTERVAL
 BS  .IN            7.875:   BIT SIZE
 BSD .F               625:   BIT SIZE AT DEPTH
 DFT .           CHEM GEL:   DRILLING FLUID TYPE
 DFD .                9.1:   DRILLING FLUID DENSITY
 DFV .                 44:   DRILLING FLUID VISCOSITY
 DFPH.                9.5:   DRILLING FLUID PH
 DFL .                7.6:   DRILLING FLUID LOSS
 MSS .           FLOWLINE:   MUD SAMPLE SOURCE
 RMS .OHMM            .27:   RESISTIVITY MUD SAMPLE
 MST .F                70:   MUD SAMPLE TEMPERATURE
 RMF .OHMM            .16:   RESISTIVITY MUD FILTRATE SAMPLE
 MFST.F                65:   MUD FILTRATE SAMPLE TEMPERATURE
 MFSS.               MEAS:   MUD FILTRATE SAMPLE SOURCE
 MCSS.               MEAS:   MUD CAKE SAMPLE SOURCE
 RMB .OHMM            .21:   RESISTIVITY MUD AT BHT
 BHT .F                94:   BOTTOM HOLE TEMPERATURE
 TCS .HRS            0040:   TIME CURCULATED STOPPED
 MRT .F                94:   MAXIMUM RECORDED TEMPERATURE
 LUN .               6145:   LOGGING UNIT NUMBER
 LUL .              GLTTE:   LOGGING UNIT LOCATION
 ENGI.              HENRY:   RECORDING ENGINEER
 WITN.              AMEND:   WITNESSED BY
 CLNT.            A2DTECH:   CLIENT CODE
 ORIG.     1", 2.5" PRINT:   ORIGIN OF DATA
 UWI .       490251083700:   UNIQUE WELL ID
 DICO. A2D Technologies, Inc.:   DIGITIZING COMPANY
~OTHER INFORMATION
~A    DEPT     SPR         SFL         ILD        ILM      GRD       CALD       RHOB       CORR       DPHI       NPHI   
# ...
  545.5000   -48.9024    26.8384    17.4785    23.8755    72.4244     8.0442     2.3402     0.0222     0.2026     0.2327
  546.0000   -48.7220    27.3887    17.3137    23.8755    72.5930     8.0407     2.3456     0.0273     0.1949     0.2313
  546.5000   -48.5626    28.2376    17.1505    23.8755    72.3669     8.0366     2.3602     0.0320     0.1877     0.2309
  547.0000   -48.4086    27.9594    16.9888    23.6140    73.9268     8.0391     2.3746     0.0368     0.1805     0.2312
  547.5000   -48.2439    27.4068    16.8287    23.3236    74.0781     8.0423     2.3831     0.0392     0.1785     0.2316
  548.0000   -48.1269    26.8652    16.6690    23.0364    74.5665     8.0457     2.3780     0.0356     0.1799     0.2320
  548.5000   -48.0496    26.3343    16.5115    22.7535    75.8085     8.0490     2.3770     0.0321     0.1814     0.2348
  549.0000   -47.9689    25.8139    16.3553    22.4741    75.6910     8.0523     2.3777     0.0285     0.1826     0.2436
  549.5000   -47.8885    25.3037    16.1416    22.1984    74.5511     8.0557     2.3687     0.0249     0.1878     0.2459
  550.0000   -47.8091    24.8037    16.1795    21.9264    74.1416     8.0590     2.3593     0.0213     0.1914     0.2439
  550.5000   -47.7294    24.3249    16.2502    21.6571    75.3418     8.0623     2.3575     0.0177     0.1926     0.2419
  551.0000   -47.6484    24.4952    16.3213    21.3498    76.8285     8.0657     2.3560     0.0141     0.1931     0.2398
  551.5000   -47.5704    24.6628    16.3926    21.3899    78.3471     8.0690     2.3547     0.0103     0.1935     0.2428
  552.0000   -47.4901    24.7826    16.4649    21.4844    79.3789     8.0723     2.3545     0.0104     0.1936     0.2499
  552.5000   -47.4020    24.7826    16.5364    21.5778    79.3024     8.0756     2.3551     0.0192     0.1906     0.2515
  553.0000   -47.3829    23.1846    16.6083    21.6716    79.2662     8.0787     2.3655     0.0276     0.1858     0.2498
  553.5000   -47.4850    22.5768    16.6805    21.7504    79.1909     8.0816     2.3749     0.0362     0.1811     0.2463
  554.0000   -47.5777    22.5768    16.7535    20.0730    79.1422     8.0844     2.3851     0.0451     0.1762     0.2425
  554.5000   -47.6712    22.8456    16.5284    18.7358    79.0940     8.0873     2.3927     0.0473     0.1705     0.2387
  555.0000   -47.7673    23.1199    16.3045    17.4876    78.9518     8.0902     2.3939     0.0419     0.1701     0.2350
  555.5000   -47.8613    23.3974    16.0837    17.0688    79.6700     8.0931     2.3964     0.0369     0.1697     0.2307
  556.0000   -47.9551    23.6783    15.8658    17.0688    80.9304     8.0960     2.4020     0.0318     0.1665     0.2317
  556.5000   -48.0535    23.9625    15.6510    17.8034    82.1777     8.0989     2.4079     0.0265     0.1625     0.2340
  557.0000   -48.1473    24.2501    15.4390    18.0889    83.4572     8.1018     2.3961     0.0214     0.1678     0.2362
  557.5000   -48.4233    23.4782    15.2298    18.3790    83.3872     8.1047     2.3859     0.0163     0.1737     0.2384
  558.0000   -48.7755    22.3840    15.0236    18.6738    80.7258     8.1076     2.3917     0.0110     0.1718     0.2403
  558.5000   -49.1263    21.3407    14.8201    18.3870    78.4289     8.1105     2.3951     0.0062     0.1697     0.2391
  559.0000   -49.4051    20.1873    14.6194    17.9534    79.6409     8.1134     2.3891     0.0023     0.1747     0.2380
  559.5000   -49.4818    20.3671    14.4211    17.5304    81.4431     8.1163     2.3843     0.0088     0.1794     0.2370
  560.0000   -49.5620    20.5843    14.2254    17.1171    83.0853     8.1192     2.3832     0.0156     0.1786     0.2376
  560.5000   -49.6367    20.9543    14.0322    16.7129    83.3459     8.1221     2.4009     0.0233     0.1663     0.2426
  561.0000   -49.7126    20.6815    13.8415    16.3182    83.6393     8.1250     2.4220     0.0298     0.1525     0.2475
  561.5000   -49.7891    19.8525    13.6535    15.9328    83.9418     8.1279     2.4455     0.0349     0.1386     0.2475
  562.0000   -49.8647    19.0567    13.3964    16.1299    84.1853     8.1308     2.4512     0.0178     0.1345     0.2450
  562.5000   -49.9406    18.7366    13.4392    16.5197    84.1205     8.1337     2.4291     0.0080     0.1475     0.2411
  563.0000   -50.0167    18.1398    13.5200    16.9190    82.2205     8.1366     2.4195     0.0043     0.1553     0.2412
  563.5000   -50.0928    18.1817    13.6015    17.3286    80.4664     8.1395     2.4292     0.0176     0.1472     0.2387
  564.0000   -50.1690    18.7322    13.6837    17.7471    78.7148     8.1424     2.4467     0.0296     0.1392     0.2347
  564.5000   -50.2452    19.2994    13.7662    18.1757    78.8768     8.1453     2.4608     0.0432     0.1305     0.2307
  565.0000   -50.3214    19.8144    13.8490    18.6423    82.3090     8.1482     2.4562     0.0417     0.1321     0.2268
  565.5000   -50.3974    19.0892    13.9320    18.4358    84.5355     8.1511     2.4461     0.0394     0.1408     0.2227
  566.0000   -50.4737    19.6130    14.0155    18.0297    83.7814     8.1539     2.4364     0.0365     0.1484     0.2247
  566.5000   -50.5500    20.1873    14.1422    17.6325    82.7624     8.1571     2.4269     0.0339     0.1544     0.2270
  567.0000   -50.6209    19.5599    14.1208    17.2441    81.7628     8.1598     2.4173     0.0313     0.1585     0.2292
  567.5000   -50.6743    18.9473    13.9094    16.8652    80.7055     8.1629     2.4122     0.0286     0.1585     0.2314
  568.0000   -50.7280    18.5443    13.7013    16.4932    81.5648     8.1659     2.4131     0.0259     0.1579     0.2327
  568.5000   -50.7812    18.0879    13.4963    16.1298    82.5489     8.1689     2.4137     0.0233     0.1573     0.2314
  569.0000   -50.8345    17.3991    13.2945    15.7747    83.5654     8.1720     2.4148     0.0206     0.1578     0.2295
  569.5000   -50.8879    17.3323    13.0956    15.4279    84.6833     8.1750     2.4113     0.0180     0.1609     0.2276
  570.0000   -50.9412    17.2582    12.8997    15.0888    83.6138     8.1780     2.4033     0.0154     0.1640     0.2258
  570.5000   -50.9946    17.1843    12.7067    14.7571    81.6292     8.1810     2.4004     0.0127     0.1665     0.2259
  571.0000   -51.0477    17.1113    12.5164    14.4349    80.0782     8.1841     2.4012     0.0099     0.1665     0.2274
  571.5000   -51.1010    17.0392    12.3293    14.4849    79.5765     8.1871     2.4116     0.0091     0.1590     0.2289
  572.0000   -51.1535    16.9684    12.1449    14.5346    79.0476     8.1901     2.4223     0.0136     0.1516     0.2304
  572.5000   -51.2071    16.8981    11.9632    14.5844    78.6207     8.1931     2.4335     0.0181     0.1433     0.2314
  573.0000   -51.2612    16.8281    11.7842    14.6342    78.8427     8.1960     2.4406     0.0232     0.1442     0.2313
  573.5000   -51.3098    16.7535    11.6079    14.7009    79.4861     8.1999     2.4379     0.0213     0.1457     0.2311
  574.0000   -51.3704    16.5076    11.3257    14.5616    80.5553     8.2046     2.4355     0.0198     0.1414     0.2309
  574.5000   -51.4355    16.2470    11.3311    14.2954    81.5836     8.2092     2.4417     0.0201     0.1368     0.2307
  575.0000   -51.7875    15.9906    11.3457    14.0336    81.8992     8.2138     2.4511     0.0422     0.1322     0.2317
  575.5000   -52.1544    15.7382    11.3604    13.7765    81.9988     8.2184     2.4605     0.0481     0.1276     0.2335
  576.0000   -52.5295    15.5556    11.3750    13.3976    82.1064     8.2230     2.4703     0.0242     0.1240     0.2354
  576.5000   -52.9011    15.5803    11.3897    13.4465    82.2416     8.2276     2.4755     0.0201     0.1234     0.2371
  577.0000   -53.2787    15.6051    11.4044    13.5678    83.1042     8.2323     2.4729     0.0190     0.1224     0.2412
  577.5000   -53.5670    15.6300    11.4191    13.6906    84.1149     8.2368     2.4696     0.0206     0.1240     0.2450
  578.0000   -53.7776    15.6549    11.4339    13.8147    85.1800     8.2415     2.4661     0.0200     0.1258     0.2491
  578.5000   -53.8560    15.6798    11.4486    13.9397    85.2178     8.2461     2.4662     0.0200     0.1273     0.2449
