~VERSION INFORMATION
 VERS.                2.0:   CWLS LOG ASCII STANDARD - VERSION 2.0
 WRAP.                 NO:   ONE LINE PER DEPTH STEP
~WELL INFORMATION
#MNEM.UNIT      DATA TYPE    INFORMATION
#----------   ------------   ------------------------------
 STRT.F           36.0000:   START DEPTH
 STOP.F          557.0000:   STOP DEPTH
 STEP.F            0.5000:   STEP LENGTH
 NULL.          -999.2500:   NO VALUE
 COMP. FENIX & SCISSON U.S. NAVY:   COMPANY
 WELL.        NPR #62-S-3:   WELL
 FLD .             TEAPOT:   FIELD
 LOC .       S3 T38N R78W:   LOCATION
 CNTY.            NATRONA:   COUNTY
 STAT.            WYOMING:   STATE
 CTRY. UNITED STATES OF AMERICA:   COUNTRY
 SRVC.              Welex:   SERVICE COMPANY
 DATE.        07-MAY-1977:   LOGDATE
 API .       490251035000:   API NUMBER
~CURVE INFORMATION
#MNEM.UNIT       API CODE    CURVE DESCRIPTION
#----------   ------------   ------------------------------
 DEPT.F                  :   
 SPR .MV     07 010 01 00:   SPONTANEOUS POTENTIAL
 ILD .OHMM   07 120 46 00:   INDUCTION LOG DEEP
 ILM .OHMM   07 120 44 00:   INDUCTION LOG MEDIUM
 SGRD.OHMM   07 221 05 00:   SHALLOW SHORT GUARD RESISTIVITY
 GRD .GAPI   45 310 01 00:   GAMMA RAY FROM DENSITY LOG
 CALD.IN     45 280 60 00:   CALIPER FROM DENSITY LOG
 CORR.G/C3   45 356 01 00:   DENSITY CORRECTION
 RHOB.G/C3   45 350 01 00:   BULK DENSITY
 DPHI.DEC    45 890 12 00:   DENSITY POROSITY SANDSTONE
 NEUT.NAPI   35 330 01 00:   NEUTRON
~PARAMETER INFORMATION
#MNEM.UNIT          VALUE    DESCRIPTION
#----------   ------------   ------------------------------
 PD  .                 GL:   PERMANENT DATUM
 EPD .F              5136:   ELEVATION PERMANENT DATUM
 LMF .                 GL:   LOG MEASURED FROM
 DMF .                 GL:   DRILLING MEASURED FROM
 EGL .F              5136:   GROUND LEVEL
 DATE.        07-MAY-1977:   RUN DATE
 RUN .                  1:   RUN NUMBER
 DD  .F               560:   DEPTH DRILLER
 DL  .F               560:   DEPTH LOGGER
 BLI .F               558:   BOTTOM LOG INTERVAL
 TLI .F                35:   TOP LOG INTERVAL
 CS  .IN            8.625:   CASING SIZE
 CBD .F                40:   CASING BOTTOM DRILLER
 CBL .F                42:   CASING BOTTOM LOGGER
 BS  .IN            7.875:   BIT SIZE
 BSD .F               560:   BIT SIZE AT DEPTH
 DFT .             KCLMUD:   DRILLING FLUID TYPE
 DFD .                8.8:   DRILLING FLUID DENSITY
 MSS .           FLOWLINE:   MUD SAMPLE SOURCE
 RMS .OHMM           0.24:   RESISTIVITY MUD SAMPLE
 MST .F                60:   MUD SAMPLE TEMPERATURE
 RMF .OHMM           0.20:   RESISTIVITY MUD FILTRATE SAMPLE
 MFST.F                60:   MUD FILTRATE SAMPLE TEMPERATURE
 RMC .OHMM           0.29:   RESISTIVITY MUD CAKE
 MCST.F                60:   MUD CAKE SAMPLE TEMPERATURE
 MFSS.               MEAS:   MUD FILTRATE SAMPLE SOURCE
 MCSS.               MEAS:   MUD CAKE SAMPLE SOURCE
 RMB .OHMM             17:   RESISTIVITY MUD AT BHT
 BHT .F                71:   BOTTOM HOLE TEMPERATURE
 TCS .HRS            0230:   TIME CURCULATED STOPPED
 MRT .F                71:   MAXIMUM RECORDED TEMPERATURE
 LUN .               8611:   LOGGING UNIT NUMBER
 LUL .           GILLETTE:   LOGGING UNIT LOCATION
 ENGI.            C. DOCK:   RECORDING ENGINEER
 WITN.           ROB LYON:   WITNESSED BY
 CLNT.            A2DTECH:   CLIENT CODE
 ORIG.           5" PRINT:   ORIGIN OF DATA
 UWI .       490251035000:   UNIQUE WELL ID
 DICO. A2D Technologies, Inc.:   DIGITIZING COMPANY
~OTHER INFORMATION
~A   DEPT      SPR        ILD        ILM       SGRD        GRD       CALD       CORR       RHOB       DPHI       NEUT   
# ...
  371.0000   -23.4685    33.8509    54.4286    48.3865    69.7946     7.8152     0.0061     2.4060     0.1592   393.1109
  371.5000   -23.4596    34.1089    62.5302    51.7271    70.4080     7.8169     0.0077     2.4165     0.1555   408.9677
  372.0000   -23.4506    34.1324    45.8451    35.5860    71.1707     7.8185     0.0086     2.4188     0.1522   415.7453
  372.5000   -23.4417    34.1559    18.5426    38.6932    72.2319     7.8201     0.0094     2.4203     0.1498   425.2236
  373.0000   -23.4328    33.9443    21.9034    61.1844    73.1438     7.7919     0.0096     2.4324     0.1434   419.8481
  373.5000   -23.4239    33.2714    20.7376    64.2593    74.0557     7.7936     0.0088     2.4482     0.1362   403.6700
  374.0000   -23.4150    32.3874    19.9072    59.9827    72.7288     7.7802     0.0066     2.4325     0.1415   387.0606
  374.5000   -23.5573    31.0946    20.0578    35.9208    70.6556     7.7819     0.0037     2.3966     0.1619   374.0208
  375.0000   -23.8443    28.8403    24.5268    43.9447    71.1197     7.7686     0.0008     2.3464     0.1926   372.6899
  375.5000   -23.9866    25.8419    27.4132    47.8373    72.6287     7.7703     0.0001     2.3285     0.2079   375.4230
  376.0000   -24.4248    23.9684    28.0008    39.2259    74.1376     7.7719     0.0002     2.3398     0.2006   380.8503
  376.5000   -24.5649    21.6253    21.9990    45.8788    76.6913     7.7736     0.0003     2.3593     0.1907   384.9272
  377.0000   -25.0009    20.6192    20.8249    38.3274    80.2898     7.7755     0.0011     2.3864     0.1759   386.3034
  377.5000   -25.1432    20.2104    22.8013    32.0190    81.9479     7.7772     0.0027     2.4006     0.1666   378.2338
  378.0000   -25.2833    19.8097    24.7894    30.3055    79.4270     7.7788     0.0035     2.4007     0.1638   370.1576
  378.5000   -25.5725    19.2834    26.2156    30.1100    76.9061     7.7954     0.0036     2.3985     0.1644   364.7822
  379.0000   -25.7126    19.0288    27.3431    30.1253    78.4150     7.7970     0.0037     2.3978     0.1640   366.1584
  379.5000   -25.9995    18.5264    26.9844    30.1400    81.7150     7.8136     0.0023     2.3979     0.1643   371.5859
  380.0000   -25.9906    18.2850    25.9039    30.1546    81.5821     7.8152     0.0023     2.3919     0.1667   377.0194
  380.5000   -25.9817    18.1717    24.6953    30.3792    79.3571     7.8019     0.0024     2.3920     0.1691   382.4467
  381.0000   -25.8238    18.1842    23.8709    30.3940    78.3288     7.7882     0.0025     2.3928     0.1708   387.8740
  381.5000   -25.6658    18.1968    23.3954    30.1949    77.8999     7.7750     0.0018     2.3861     0.1723   394.6516
  382.0000   -25.5079    18.2093    22.4586    29.7935    79.7273     7.7617     0.0019     2.3831     0.1726   404.1298
  382.5000   -25.0519    18.3481    23.2631    29.4009    81.3719     7.7637     0.0020     2.3877     0.1710   408.2747
  383.0000   -24.8939    18.4880    24.0965    29.0065    81.8447     7.7654     0.0021     2.3862     0.1707   412.2901
  383.5000   -24.7360    18.7579    24.1115    29.4295    82.9084     7.7521     0.0022     2.3795     0.1749   405.5644
  384.0000   -24.5780    19.0319    22.8281    30.2721    84.4397     7.7537     0.0022     2.3744     0.1778   397.4882
  384.5000   -24.5691    19.4436    21.7596    30.7098    87.2969     7.7553     0.0023     2.3745     0.1784   389.4121
  385.0000   -24.5602    19.7275    22.8565    30.7247    89.7064     7.7570     0.0032     2.3799     0.1748   382.6863
  385.5000   -24.5513    20.0156    23.3465    29.8950    90.4190     7.7586     0.0048     2.3877     0.1699   374.5161
  386.0000   -24.5424    20.1682    22.8814    29.9131    87.4503     7.7603     0.0064     2.3980     0.1645   367.8909
  386.5000   -24.5335    20.1821    24.2017    30.7696    88.8750     7.7619     0.0064     2.4046     0.1608   367.9168
  387.0000   -24.6736    20.1960    26.8634    29.9422    90.6179     7.7635     0.0050     2.4046     0.1608   370.6434
  387.5000   -24.8137    20.0674    27.8257    29.1336    90.7831     7.7801     0.0036     2.3964     0.1686   377.4210
  388.0000   -24.9538    19.9431    28.6239    29.5585    86.2627     7.7817     0.0029     2.3764     0.1779   385.5489
  388.5000   -25.3959    19.8195    28.6417    30.1946    84.1858     7.8132     0.0022     2.3726     0.1786   393.7990
  389.0000   -25.6812    19.5612    27.8777    30.8444    82.2582     7.8149     0.0016     2.3749     0.1790   400.4609
  389.5000   -25.9703    19.4400    26.7614    30.8594    80.9749     7.8165     0.0017     2.3719     0.1793   401.8307
  390.0000   -25.6742    19.3196    26.2242    30.8744    82.6069     7.8331     0.0025     2.3712     0.1780   391.0603
  390.5000   -25.5047    19.1999    25.7058    30.2533    85.1656     7.8347     0.0026     2.3803     0.1753   385.6849
  391.0000   -25.6470    19.2164    25.7218    29.4399    87.3985     7.8363     0.0034     2.3961     0.1702   384.3601
  391.5000   -25.7871    19.3629    25.7378    29.2471    88.1987     7.8380     0.0050     2.4051     0.1656   385.8862
  392.0000   -25.9272    19.6457    25.9326    30.9344    86.6092     7.8396     0.0066     2.4082     0.1593   391.1704
  392.5000   -25.9161    19.6592    26.8615    31.3818    87.6647     7.8263     0.0082     2.4060     0.1592   396.5977
  393.0000   -26.0566    19.9463    32.3953    29.4972    88.4617     7.8280     0.0098     2.4000     0.1607   404.7256
  393.5000   -26.0473    19.9601    50.4597    28.9003    86.6527     7.8143     0.0114     2.3956     0.1640   411.5032
  394.0000   -26.0384    20.1122   114.1745    29.9382    84.7288     7.8010     0.0122     2.3941     0.1661   420.9815
  394.5000   -26.1788    20.2655    68.9636    30.3675    82.8049     7.7877     0.0123     2.3957     0.1663   419.4823
  395.0000   -26.1696    20.1365    18.0430    27.7662    81.3287     7.7744     0.0116     2.3965     0.1654   410.2371
  395.5000   -26.3100    19.7407    21.6101    27.0163    80.5985     7.7611     0.0094     2.3965     0.1657   404.8617
  396.0000   -26.4501    18.6928    25.8784    27.2208    82.4062     7.7478     0.0050     2.3966     0.1641   400.8300
  396.5000   -26.4409    17.8231    17.5836    27.8067    82.8788     7.7499     0.0028     2.3966     0.1653   395.4611
  397.0000   -26.5812    17.7096    18.4671    27.4369    82.4390     7.7515     0.0006     2.3967     0.1638   394.1366
  397.5000   -26.5721    18.4746    21.9656    26.6992    81.4106     7.7830    -0.0008     2.3900     0.1667   390.1115
  398.0000   -26.7124    17.8600    18.3627    26.1590    82.7703     7.7817    -0.0022     2.3878     0.1703   388.7871
  398.5000   -26.7033    17.2629    13.1824    25.6328    83.9807     7.7792    -0.0029     2.3976     0.1676   387.4692
  399.0000   -26.6944    17.1559    18.2588    26.1876    79.8180     7.7767    -0.0028     2.3947     0.1666   387.4951
  399.5000   -26.6855    17.4095    20.9799    27.8878    78.6366     7.7743    -0.0020     2.3895     0.1678   387.5210
  400.0000   -26.6759    17.6607    21.4296    29.2858    82.8358     7.7611     0.0004     2.3858     0.1696   387.5469
  400.5000   -26.6644    17.5490    17.9012    28.7319    79.3808     7.7848     0.0007     2.3828     0.1729   385.5867
  401.0000   -26.5028    17.0813    16.6114    27.9080    74.8088     7.8084     0.0010     2.3769     0.1785   383.6045
  401.5000   -26.4908    16.7393    15.9421    26.0417    81.2969     7.8096     0.0013     2.3860     0.1755   383.6580
  402.0000   -26.4789    16.7474    16.3992    24.9837    83.6955     7.7956     0.0022     2.3853     0.1733   383.7218
  402.5000   -26.6190    16.7555    17.1022    25.1611    85.3209     7.8120     0.0046     2.3876     0.1709   383.7740
  403.0000   -27.0512    16.8798    16.8755    25.8725    86.2537     7.8281     0.0069     2.3951     0.1678   386.5268
  403.5000   -27.4864    17.0050    16.5351    25.6972    87.0015     7.8293     0.0085     2.3982     0.1648   387.9293
  404.0000   -27.9216    17.0116    16.4291    24.4829    87.7672     7.8305     0.0109     2.4012     0.1614   383.9304
