~VERSION INFORMATION
 VERS.                2.0:   CWLS LOG ASCII STANDARD - VERSION 2.0
 WRAP.                 NO:   ONE LINE PER DEPTH STEP
~WELL INFORMATION
#MNEM.UNIT      DATA TYPE    INFORMATION
#----------   ------------   ------------------------------
 STRT.F           12.0000:   START DEPTH
 STOP.F          448.0000:   STOP DEPTH
 STEP.F            0.5000:   STEP LENGTH
 NULL.          -999.2500:   NO VALUE
 COMP. LAWRENCE/ALLISON INC:   COMPANY
 WELL. LI2 -52-61 SX10 #10-10:   WELL
 FLD .             TEAPOT:   FIELD
 LOC .      S10 T38N R78W:   LOCATION
 CNTY.            NATRONA:   COUNTY
 STAT.            WYOMING:   STATE
 CTRY. UNITED STATES OF AMERICA:   COUNTRY
 SRVC.      Dresser Atlas:   SERVICE COMPANY
 DATE.        13-JAN-1985:   LOGDATE
 API .       490251100400:   API NUMBER
~CURVE INFORMATION
#MNEM.UNIT       API CODE    CURVE DESCRIPTION
#----------   ------------   ------------------------------
 DEPT.F                  :   
 AC  .US/F   60 520 00 00:   ACCOUSTIC
 SPR .MV     11 010 01 00:   SPONTANEOUS POTENTIAL FROM RES.
 RD  .OHMM   11 220 10 00:   RESISTIVITY DEEP
 RS  .OHMM   11 220 09 00:   RESISTIVITY SHALLOW
 RMLL.OHMM   11 270 04 00:   MICRO LATEROLOG
 GRD .GAPI   45 310 01 00:   GAMMA RAY FROM DENSITY LOG
 CALD.IN     45 280 60 00:   CALIPER FROM DENSITY LOG
 CORR.G/C3   45 356 01 00:   DENSITY CORRECTION
 DEN .G/C3   45 350 01 00:   COMPENSATED BULK DENSTIY
 PORD.DEC    45 890 12 00:   POROSITY DENSITY SANDSTONE
 CNC .DEC    42 890 03 00:   NEUTRON POROSITY SANDSTONE
~PARAMETER INFORMATION
#MNEM.UNIT          VALUE    DESCRIPTION
#----------   ------------   ------------------------------
 PD  .                 GL:   PERMANENT DATUM
 EPD .F              5156:   ELEVATION PERMANENT DATUM
 LMF .                 GL:   LOG MEASURED FROM
 DMF .                 GL:   DRILLING MEASURED FROM
 EGL .F              5156:   GROUND LEVEL
 DATE.        13-JAN-1985:   RUN DATE
 RUN .                  1:   RUN NUMBER
 DD  .F               450:   DEPTH DRILLER
 DL  .F               450:   DEPTH LOGGER
 BLI .F               448:   BOTTOM LOG INTERVAL
 TLI .F                20:   TOP LOG INTERVAL
 CS  .IN            8.625:   CASING SIZE
 CBD .F                20:   CASING BOTTOM DRILLER
 CBL .F                20:   CASING BOTTOM LOGGER
 BS  .IN            7.875:   BIT SIZE
 BSD .F               450:   BIT SIZE AT DEPTH
 DFT .            KCL-H2O:   DRILLING FLUID TYPE
 MSS .               TANK:   MUD SAMPLE SOURCE
 RMS .OHMM           0.16:   RESISTIVITY MUD SAMPLE
 MST .F                20:   MUD SAMPLE TEMPERATURE
 RMF .OHMM           0.12:   RESISTIVITY MUD FILTRATE SAMPLE
 MFST.F                20:   MUD FILTRATE SAMPLE TEMPERATURE
 RMC .OHMM            0.2:   RESISTIVITY MUD CAKE
 MCST.F                20:   MUD CAKE SAMPLE TEMPERATURE
 MFSS.               CALC:   MUD FILTRATE SAMPLE SOURCE
 MCSS.               CALC:   MUD CAKE SAMPLE SOURCE
 BHT .F               100:   BOTTOM HOLE TEMPERATURE
 TCS .HRS               2:   TIME CURCULATED STOPPED
 MRT .F               100:   MAXIMUM RECORDED TEMPERATURE
 LUN .               6270:   LOGGING UNIT NUMBER
 LUL .                 FM:   LOGGING UNIT LOCATION
 ENGI.          E. GOVETT:   RECORDING ENGINEER
 WITN.             GROOMS:   WITNESSED BY
 CLNT.            A2DTECH:   CLIENT CODE
 ORIG.        2" 5" PRINT:   ORIGIN OF DATA
 UWI .       490251100400:   UNIQUE WELL ID
 DICO. A2D Technologies, Inc.:   DIGITIZING COMPANY
 R1  . POROSITY WITH SANDSTONE:   REMARKS 1
~OTHER INFORMATION
~A   DEPT       AC        SPR         RD         RS       RMLL         GRD      CALD       CORR        DEN       PORD        CNC   
# ...
   73.0000   105.1279   -45.0882   235.8318    18.7565    10.1693    96.2755     8.1018    -0.0035     2.4122     0.1601     0.2678
   73.5000   105.1300   -45.0925   234.1186    18.8786    10.1645    95.5149     8.0857    -0.0020     2.4099     0.1601     0.2570
   74.0000   104.9823   -45.0969   232.4178    18.8698    10.1598    96.5588     8.0847     0.0024     2.4106     0.1580     0.2573
   74.5000   104.9095   -45.2519   232.3400    18.8609    10.0846    95.7982     8.0879     0.0069     2.4143     0.1493     0.2673
   75.0000   104.9117   -45.2562   232.2623    18.8517    10.0098    95.7895     8.0915     0.0113     2.4286     0.1441     0.2994
   75.5000   105.0013   -45.1099   230.5749    18.5807     9.9348    97.6651     8.0952     0.0128     2.4410     0.1384     0.2964
   76.0000   105.1407   -45.1145   230.2610    18.4432     9.8613    99.8300     8.0805     0.0142     2.4504     0.1369     0.2843
   76.5000   105.2182   -44.9681   228.8042    18.0538     9.5862    99.9738     8.0795     0.0171     2.4526     0.1409     0.2807
   77.0000   105.2952   -44.8229   225.5674    17.6727     9.3187    96.2035     8.0635     0.0186     2.4435     0.1436     0.2889
   77.5000   105.2973   -44.8273   225.4919    17.4203     9.2446    94.8436     8.0472     0.0215     2.4389     0.1449     0.2895
   78.0000   105.2240   -44.8316   223.8537    17.5337     9.5106    96.1860     8.0462     0.0305     2.4374     0.1455     0.2753
   78.5000   105.0020   -44.8360   222.2275    17.8929     9.5682    97.6811     8.0451     0.0335     2.4358     0.1449     0.2627
   79.0000   104.8543   -44.8407   220.6115    18.1372     9.4963    95.5065     8.0291     0.0304     2.4357     0.1443     0.2590
   79.5000   104.7810   -44.8458   222.0788    18.3827     9.4260    91.6464     8.0281     0.0197     2.4357     0.1443     0.2663
   80.0000   104.6333   -44.8501   221.9859    18.5024     9.4885    91.0383     8.0271     0.0166     2.4364     0.1441     0.2724
   80.5000   104.3363   -44.8545   221.9116    18.6228     9.7505    94.0349     8.0260     0.0277     2.4371     0.1432     0.2748
   81.0000   103.9639   -44.8588   221.8374    18.4828    10.0209    97.3345     8.0248     0.0421     2.4386     0.1426     0.2779
   81.5000   103.7408   -45.0138   223.3136    18.4739    10.1565    99.4310     8.0390     0.0511     2.4400     0.1426     0.2813
   82.0000   103.7435   -45.1687   223.1949    18.4633    10.1506    97.4674     8.0378     0.0510     2.4400     0.1429     0.2885
   82.5000   103.7456   -45.1732   220.0600    18.3267     9.8674    96.4060     8.0368     0.0328     2.4407     0.1466     0.2827
   83.0000   103.8226   -45.3291   218.4613    18.3181     9.5256    96.6980     8.0510     0.0146     2.4376     0.1548     0.2777
   83.5000   104.2742   -45.4841   213.8778    18.1826     9.2599    96.9901     8.0498     0.0040     2.4255     0.1563     0.2792
   84.0000   105.1752   -45.6391   205.0659    18.1741     9.0015    97.1295     8.0487    -0.0007     2.4186     0.1554     0.2920
   84.5000   106.7504   -45.7940   195.2541    18.0396     8.7484   100.5794     8.0475    -0.0037     2.4178     0.1503     0.3020
   85.0000   108.1757   -46.2502   189.8323    18.0307     8.2536   103.1271     8.0465    -0.0023     2.4245     0.1476     0.3038
   85.5000   108.2522   -46.4051   182.0092    17.8956     7.7124   104.7725     8.0454     0.0052     2.4298     0.1491     0.3017
   86.0000   107.1313   -46.7309   178.1775    17.8873     7.5504   104.7638     8.0444     0.0187     2.4328     0.1494     0.2945
   86.5000   105.7851   -46.8667   184.4222    17.8789     8.3760   100.1933     8.0434     0.0247     2.4289     0.1467     0.2821
   87.0000   104.9632   -47.1723   193.5601    17.8705     8.7289    97.8268     8.0424     0.0095     2.4311     0.1413     0.2770
   87.5000   104.6657   -47.4779   197.5924    17.9870     8.7248    98.7204     8.0414    -0.0026     2.4371     0.1365     0.2731
   88.0000   105.1922   -47.6328   198.8901    17.9782     8.5366   101.7191     8.0401     0.0132     2.4454     0.1371     0.2716
   88.5000   105.7936   -47.9384   197.4426    17.9678     8.4764   102.6148     8.0391     0.0334     2.4483     0.1366     0.2722
   89.0000   106.2451   -47.9478   198.7554    17.9594     8.6521   101.5513     8.0381     0.0409     2.4498     0.1354     0.2738
   89.5000   106.6967   -48.0988   200.0591    17.9509     8.7084   101.5426     8.0371     0.0454     2.4505     0.1354     0.2741
   90.0000   106.3992   -47.9514   201.3883    17.9425     8.8252   102.7368     8.0511     0.0498     2.4504     0.1354     0.2744
   90.5000   106.1017   -47.6557   205.5665    17.9341     8.8837   103.3296     8.0501     0.0513     2.4512     0.1351     0.2784
   91.0000   106.2537   -47.5083   205.4977    17.9257     8.8785   102.5690     8.0490     0.0527     2.4519     0.1354     0.2905
   91.5000   106.4805   -47.3621   208.3070    17.9171     8.7445   105.1145     8.0327     0.0493     2.4518     0.1370     0.2899
   92.0000   106.8572   -47.3675   208.2345    18.0339     8.6257   106.1606     8.0319     0.0269     2.4518     0.1376     0.2899
   92.5000   107.0840   -47.3720   208.1502    18.0233     8.5036   103.5933     8.0307     0.0223     2.4517     0.1370     0.2948
   93.0000   106.8614   -47.3773   209.5506    18.1427     8.6176   100.5770     8.0297     0.0283     2.4509     0.1380     0.2960
   93.5000   106.3339   -47.5323   212.4153    18.1321     8.7952   101.0194     8.0287     0.0312     2.4508     0.1431     0.2782
   94.0000   105.5103   -47.5367   215.3192    18.1236     9.0392   104.5799     8.0277     0.0220     2.4447     0.1483     0.2589
   94.5000   105.1396   -47.6916   221.3022    18.2415     9.2266   109.7216     8.0266     0.0084     2.4356     0.1477     0.2550
   95.0000   104.9081   -47.8466   227.6269    18.2326     9.4264   110.1661     8.0407     0.0098     2.4288     0.1450     0.2559
   95.5000   104.6249   -48.0015   233.7910    18.3516     9.6756   108.0500     8.0394     0.0173     2.4363     0.1396     0.2638
   96.0000   104.4023   -48.1566   235.3639    18.4711     9.6711   106.2367     8.0233     0.0172     2.4478     0.1338     0.2720
   96.5000   104.4919   -48.3125   233.6345    18.3323     9.5995   105.7790     8.0376     0.0156     2.4566     0.1321     0.2729
   97.0000   104.7205   -48.3169   231.9373    18.3237     9.5285   108.4749     8.0363     0.0140     2.4573     0.1333     0.2787
   97.5000   105.0834   -48.3212   227.0710    18.3151     9.2627   110.7218     8.0353     0.0155     2.4519     0.1381     0.2829
   98.0000   105.6098   -48.3256   220.7040    18.3064     9.1261   109.6000     8.0343     0.0275     2.4405     0.1421     0.2854
   98.5000   106.0614   -48.4805   217.6245    18.4256     8.9990   108.8998     8.0330     0.0395     2.4367     0.1439     0.2848
   99.0000   106.7377   -48.4849   216.0435    18.4148     8.8705   110.5431     8.0320     0.0409     2.4382     0.1421     0.2833
   99.5000   107.3391   -48.4903   217.4971    18.4062     8.7438   111.1358     8.0310     0.0288     2.4464     0.1394     0.2815
  100.0000   107.1165   -48.6446   222.8974    18.3997     8.9226   110.5804     8.0302     0.0231     2.4503     0.1373     0.2782
  100.5000   106.7441   -48.6500   228.1703    18.4906     9.2924   107.6603     8.0370     0.0104     2.4418     0.1419     0.2737
  101.0000   106.1469   -48.5026   229.6718    18.5149     9.6264   104.1945     8.0435    -0.0001     2.4433     0.1422     0.2710
  101.5000   105.6247   -48.3563   229.5577    18.5072     9.2924    99.9769     8.0428     0.0044     2.4501     0.1407     0.2746
  102.0000   105.3267   -48.3617   229.4665    18.5009     9.1604    97.4134     8.0421     0.0149     2.4553     0.1362     0.2771
  102.5000   105.4043   -48.2154   229.3753    18.4935     9.0933    96.9552     8.0414     0.0224     2.4514     0.1341     0.2808
  103.0000   105.5562   -48.2208   229.2613    18.6164     9.0897   101.4576     8.0557     0.0179     2.4500     0.1366     0.2896
