~VERSION INFORMATION
 VERS.                2.0:   CWLS LOG ASCII STANDARD - VERSION 2.0
 WRAP.                 NO:   ONE LINE PER DEPTH STEP
~WELL INFORMATION
#MNEM.UNIT      DATA TYPE    INFORMATION
#----------   ------------   ------------------------------
 STRT.F           11.5000:   START DEPTH
 STOP.F          697.0000:   STOP DEPTH
 STEP.F            0.5000:   STEP LENGTH
 NULL.          -999.2500:   NO VALUE
 COMP. FENIX & SCISSON INC:   COMPANY
 WELL.    NPR3 SX-2 #12-2:   WELL
 FLD .             TEAPOT:   FIELD
 LOC .       S2 T38N R78W:   LOCATION
 CNTY.            NATRONA:   COUNTY
 STAT.            WYOMING:   STATE
 CTRY. UNITED STATES OF AMERICA:   COUNTRY
 SRVC.           BIRDWELL:   SERVICE COMPANY
 DATE.        13-JAN-1978:   LOGDATE
 API .       490251055000:   API NUMBER
~CURVE INFORMATION
#MNEM.UNIT       API CODE    CURVE DESCRIPTION
#----------   ------------   ------------------------------
 DEPT.F                  :   
 CALD.IN     45 280 60 00:   CALIPER FROM DENSITY LOG
 CORR.G/C3   45 356 01 00:   DENSITY CORRECTION
 RHOB.G/C3   45 350 01 00:   BULK DENSITY
 GRD .GAPI   45 310 01 00:   GAMMA RAY FROM DENSITY LOG
 DPHI.DEC    45 890 12 00:   DENSITY POROSITY SANDSTONE
 ILD .OHMM   05 120 46 00:   INDUCTION LOG DEEP
 SN  .OHMM   05 040 16 00:   SHORT NORMAL 16"
 SPR .MV     05 010 01 00:   SPONTANEOUS POTENTIAL FROM RES.
~PARAMETER INFORMATION
#MNEM.UNIT          VALUE    DESCRIPTION
#----------   ------------   ------------------------------
 PD  .                 GL:   PERMANENT DATUM
 EPD .F              5094:   ELEVATION PERMANENT DATUM
 LMF .                 KB:   LOG MEASURED FROM
 DAPD.F                 4:   FEET ABOVE PERMANENT DATUM
 DMF .                 KB:   DRILLING MEASURED FROM
 EKB .F              5098:   KELLING BUSHING
 EGL .F              5094:   GROUND LEVEL
 DATE.        13-JAN-1978:   RUN DATE
 RUN .                  1:   RUN NUMBER
 DD  .F               695:   DEPTH DRILLER
 DL  .F               697:   DEPTH LOGGER
 BLI .F               692:   BOTTOM LOG INTERVAL
 TLI .F                30:   TOP LOG INTERVAL
 CS  .IN            8.625:   CASING SIZE
 CBD .F                35:   CASING BOTTOM DRILLER
 CBL .F                35:   CASING BOTTOM LOGGER
 BS  .IN            7.875:   BIT SIZE
 BSD .F               695:   BIT SIZE AT DEPTH
 DFT .                KCL:   DRILLING FLUID TYPE
 DFD .                8.6:   DRILLING FLUID DENSITY
 DFV .                 32:   DRILLING FLUID VISCOSITY
 DFPH.                9.5:   DRILLING FLUID PH
 DFL .                 12:   DRILLING FLUID LOSS
 MSS .           FLOWLINE:   MUD SAMPLE SOURCE
 RMS .OHMM            0.3:   RESISTIVITY MUD SAMPLE
 MST .F                59:   MUD SAMPLE TEMPERATURE
 RMF .OHMM           0.24:   RESISTIVITY MUD FILTRATE SAMPLE
 MFST.F                70:   MUD FILTRATE SAMPLE TEMPERATURE
 RMC .OHMM           0.56:   RESISTIVITY MUD CAKE
 MCST.F                63:   MUD CAKE SAMPLE TEMPERATURE
 MFSS.               MEAS:   MUD FILTRATE SAMPLE SOURCE
 MCSS.               MEAS:   MUD CAKE SAMPLE SOURCE
 RMB .OHMM           0.26:   RESISTIVITY MUD AT BHT
 BHT .F                72:   BOTTOM HOLE TEMPERATURE
 TCS .HRS               2:   TIME CURCULATED STOPPED
 MRT .F                72:   MAXIMUM RECORDED TEMPERATURE
 LUN .               2958:   LOGGING UNIT NUMBER
 LUL .             CASPER:   LOGGING UNIT LOCATION
 ENGI.           MARTINEZ:   RECORDING ENGINEER
 WITN.       MR. MCGINLEY:   WITNESSED BY
 CLNT.            A2DTECH:   CLIENT CODE
 ORIG.           5" PRINT:   ORIGIN OF DATA
 UWI .       490251055000:   UNIQUE WELL ID
 DICO. A2D Technologies, Inc.:   DIGITIZING COMPANY
~OTHER INFORMATION
~A   DEPT     CALD       CORR       RHOB         GRD      DPHI        ILD         SN        SPR   
# ...
  133.0000     8.6292     0.1141     2.4420    75.5737     0.1379    23.6658    19.0110    -4.3294
  133.5000     8.6441     0.1125     2.4330    75.2648     0.1430    23.1784    18.8772    -4.1798
  134.0000     8.6460     0.1003     2.4218    75.5836     0.1457    22.8585    18.6151    -4.0302
  134.5000     8.6588     0.0975     2.4165    75.5631     0.1421    22.2293    18.1041    -3.8731
  135.0000     8.6737     0.1005     2.4272    74.2348     0.1385    21.4370    17.7294    -3.7311
  135.5000     8.6886     0.1034     2.4285    73.0358     0.1397    20.4599    17.3626    -4.0350
  136.0000     8.6884     0.0763     2.4202    74.3908     0.1367    20.0385    17.1214    -4.6407
  136.5000     8.7033     0.0643     2.4157    76.9463     0.1409    20.1762    17.0010    -5.0953
  137.0000     8.6881     0.0567     2.4134    79.0513     0.1508    20.5977    16.8813    -5.5500
  137.5000     8.6880     0.0522     2.4119    80.8560     0.1472    21.0281    16.7621    -6.0046
  138.0000     8.6728     0.0521     2.4119    81.7818     0.1421    21.1729    16.5293    -6.3082
  138.5000     8.6726     0.0572     2.4186    80.7117     0.1367    20.8804    16.2997    -6.7628
  139.0000     8.6725     0.0881     2.4257    80.2642     0.1304    19.7553    16.0095    -7.3837
  139.5000     8.6573     0.1196     2.4463    81.1130     0.1235    18.2837    15.8501    -7.9746
  140.0000     8.6571     0.1420     2.4681    89.8804     0.1163    16.7320    15.5222    -8.4292
  140.5000     8.6570     0.1660     2.4853    95.1386     0.1073    15.3986    14.9919    -8.7328
  141.0000     8.6568     0.1915     2.5010    96.1926     0.1013    14.3689    14.3758    -9.1875
  141.5000     8.6717     0.2065     2.5220    95.4448     0.0945    13.4080    13.5666    -9.9442
  142.0000     8.6716     0.2184     2.5152    93.6459     0.0929    12.4251    12.1742   -10.7010
  142.5000     8.6564     0.2078     2.4987    90.7960     0.0977    11.6747    11.1246   -11.4577
  143.0000     8.6412     0.1836     2.4912    87.4956     0.1007    11.1223    10.6704   -12.3706
  143.5000     8.6260     0.1823     2.4946    85.3964     0.0971    10.8181    10.3775   -12.9940
  144.0000     8.6259     0.1837     2.5077    84.9489     0.0986    10.5184    10.1627   -13.5773
  144.5000     8.6107     0.1687     2.4874    89.0066     0.1082    10.3656    10.1614   -13.8809
  145.0000     8.6105     0.1356     2.4717    91.5621     0.1100    10.2337    10.0899   -14.1845
  145.5000     8.6103     0.1295     2.4694    92.4659     0.1106    10.1625    10.0885   -14.4881
  146.0000     8.6102     0.1400     2.4731    92.0184     0.1161    10.0918    10.0871   -14.4895
  146.5000     8.6101     0.1460     2.4589    91.4207     0.1256    10.0216    10.0855   -14.4910
  147.0000     8.6099     0.1339     2.4469    90.0723     0.1310    10.0209    10.0841   -14.3414
  147.5000     8.6098     0.1155     2.4392    88.8740     0.1349     9.9512    10.0827   -14.3429
  148.0000     8.6096     0.1038     2.4326    89.0271     0.1370     9.9505    10.0814   -14.1933
  148.5000     8.6095     0.1142     2.4311    90.9890     0.1340     9.9499    10.0105   -14.1951
  149.0000     8.6556     0.1472     2.4326    92.0551     0.1299     9.9409    10.0091   -14.3476
  149.5000     8.7445     0.1637     2.4430    92.6402     0.1286     9.8798    10.0078   -14.5002
  150.0000     8.8045     0.1667     2.4370    85.4357     0.1362     9.8791     9.9374   -14.5016
  150.5000     8.8645     0.1621     2.4220    85.2878     0.1483     9.9470     9.7993   -14.5031
  151.0000     8.8707     0.1651     2.4138    86.0422     0.1497     9.9743     9.7977   -14.5006
  151.5000     8.8788     0.2071     2.4205    85.1443     0.1407    10.0185     9.7964   -14.4979
  152.0000     8.8484     0.2626     2.4341    83.0452     0.1365    10.0627     9.7951   -14.5015
  152.5000     8.8030     0.2971     2.4445    82.4299     0.1314    10.1069     9.7937   -14.8162
  153.0000     8.7876     0.3076     2.4429    83.9520     0.1236    10.1511     9.8605   -15.0968
  153.5000     8.7873     0.3211     2.4594    85.6066     0.1155    10.1953     9.8591   -15.2460
  154.0000     8.8022     0.3571     2.4849    87.8659     0.1095    10.2395     9.8578   -15.2445
  154.5000     8.8168     0.3451     2.4834    88.4654     0.1038    10.2837     9.9250   -15.2430
  155.0000     8.8015     0.3571     2.5103    88.0030     0.0930    10.3279     9.9926   -15.2415
  155.5000     8.7862     0.3645     2.5351    87.3989     0.0834    10.3722    10.0607   -15.2401
  156.0000     8.7407     0.3420     2.5228    86.3443     0.0903    10.4236    10.1292   -15.2386
  156.5000     8.6803     0.3239     2.5065    86.0749     0.0873    10.4222    10.1275   -15.2371
  157.0000     8.6048     0.3074     2.5283    86.8294     0.0837    10.4208    10.1409   -15.2356
  157.5000     8.5444     0.2968     2.5455    86.5320     0.0852    10.4195    10.1632   -15.2442
  158.0000     8.5128     0.2773     2.5035    85.6341     0.0750    10.4179    10.1854   -15.3837
  158.5000     8.4817     0.2352     2.4835    84.2857     0.1082    10.4165    10.2077   -15.5333
  159.0000     8.4382     0.1796     2.4715    83.8375     0.1281    10.4151    10.2299   -15.6829
  159.5000     8.4228     0.1150     2.4535    84.1415     0.1302    10.4137    10.2522   -15.9835
  160.0000     8.4376     0.1315     2.4408    85.1955     0.1260    10.4123    10.2745   -16.1331
  160.5000     8.4673     0.1815     2.4558    88.3517     0.1149    10.4109    10.2967   -16.2827
  161.0000     8.4821     0.2100     2.4873    90.3066     0.1059    10.3377    10.3190   -16.4323
  161.5000     8.4969     0.2110     2.4918    91.8111     0.1032    10.2648    10.3412   -16.4304
  162.0000     8.5116     0.1599     2.4828    92.7149     0.1077    10.2634    10.3635   -16.4290
  162.5000     8.5264     0.1419     2.4753    93.3185     0.1113    10.1913    10.3857   -16.4275
  163.0000     8.5411     0.1479     2.4760    93.1713     0.1074    10.2609    10.3936   -16.5771
  163.5000     8.5708     0.1508     2.4715    93.0241     0.1101    10.2592    10.3201   -16.8773
  164.0000     8.5705     0.1388     2.4588    92.8769     0.1164    10.2579    10.2475   -17.0273
  164.5000     8.5853     0.1222     2.4490    94.0811     0.1257    10.2832    10.2462   -17.1769
  165.0000     8.6001     0.1177     2.4423    94.5346     0.1341    10.3263    10.3160   -17.1750
  165.5000     8.6148     0.1177     2.4415    93.9354     0.1282    10.3965    10.3146   -17.1736
  166.0000     8.6445     0.1162     2.4414    93.1732     0.1294    10.4311    10.3131   -17.0210
  166.5000     8.6893     0.1161     2.4295    89.3514     0.1330    10.4657    10.2403   -17.0195
  167.0000     8.7041     0.1146     2.4279    87.6395     0.1369    10.4643    10.2391   -16.7160
  167.5000     8.6887     0.1236     2.4224    87.9980     0.1414    10.3905    10.2375   -16.5634
  168.0000     8.6884     0.1341     2.4003    89.4480     0.1426    10.4615    10.2361   -16.1047
  168.5000     8.7182     0.1580     2.3951    87.4990     0.1450    10.4597    10.1641   -15.7870
  169.0000     8.7345     0.1971     2.4228    82.9975     0.1486    10.4583    10.1627   -15.6526
  169.5000     8.7477     0.2526     2.4595    81.1987     0.1326    10.5298    10.1614   -15.8022
  170.0000     8.7172     0.2766     2.4558    81.9524     0.1183    10.6011    10.2306   -15.9518
  170.5000     8.6267     0.2525     2.4738    83.5766     0.1090    10.6732    10.3348   -16.0065
  171.0000     8.5061     0.2570     2.4858    89.0151     0.1084    10.6717    10.3705   -16.1440
  171.5000     8.5058     0.2552     2.4685    90.2193     0.1114    10.7443    10.4411   -16.3505
  172.0000     8.5206     0.2434     2.4573    91.2733     0.1150    10.7429    10.4393   -16.5501
  172.5000     8.4902     0.2284     2.4438    91.4339     0.1198    10.7414    10.4379   -16.8505
  173.0000     8.4899     0.2359     2.4310    90.3784     0.1258    10.7399    10.4367   -17.1511
