~VERSION INFORMATION
 VERS.                2.0:   CWLS LOG ASCII STANDARD - VERSION 2.0
 WRAP.                 NO:   ONE LINE PER DEPTH STEP
~WELL INFORMATION
#MNEM.UNIT      DATA TYPE    INFORMATION
#----------   ------------   ------------------------------
 STRT.M         1049.9000:   START DEPTH
 STOP.M         2123.5000:   STOP DEPTH
 STEP.M            0.1000:   STEP LENGTH
 NULL.          -999.2500:   NO VALUE
 COMP. BROWN JOHN E&C INC:   COMPANY
 WELL. NAVAL PETROLEUM RESERVE 3 STX- #34-3:   WELL
 FLD .            WILDCAT:   FIELD
 LOC .       S3 T38N R78W:   LOCATION
 CNTY.            NATRONA:   COUNTY
 STAT.            WYOMING:   STATE
 CTRY. UNITED STATES OF AMERICA:   COUNTRY
 SRVC.            Unknown:   SERVICE COMPANY
 DATE.        04-SEP-1991:   LOGDATE
 API .       490251090400:   API NUMBER
~CURVE INFORMATION
#MNEM.UNIT       API CODE    CURVE DESCRIPTION
#----------   ------------   ------------------------------
 DEPT.M                  :   
 ROP .MIN/FT 91 810 01 00:   RAT OF DRILLING PENETRATION
 TGAS.UNITS  91 830 01 00:   TOTAL GAS FROM HOTWIRE
~PARAMETER INFORMATION
#MNEM.UNIT          VALUE    DESCRIPTION
#----------   ------------   ------------------------------
 EKB .F              5189:   KELLING BUSHING
 EGL .F              5179:   GROUND LEVEL
 DATE.             9-4-91:   RUN DATE
 DD  .F              2123:   DEPTH DRILLER
 CS  .IN            9.625:   CASING SIZE
 BS  .IN             8.75:   BIT SIZE
 BSD .F              2123:   BIT SIZE AT DEPTH
 ENGI.              TOWER:   RECORDING ENGINEER
 WITN.               HUSK:   WITNESSED BY
 CLNT.            A2DTECH:   CLIENT CODE
 ORIG.           5" PRINT:   ORIGIN OF DATA
 UWI .       490251090400:   UNIQUE WELL ID
 DICO. A2D Technologies, Inc.:   DIGITIZING COMPANY
~OTHER INFORMATION
~A  DEPT       ROP         TGAS 
# ...
 1681.7000     0.4732     2.1793
 1681.8000     0.4731     2.1814
 1681.9000     0.4729     2.1836
 1682.0000     0.4748     2.1857
 1682.1000     0.4769     2.1879
 1682.2000     0.4790     2.1900
 1682.3000     0.4810     2.1921
 1682.4000     0.4833     2.1943
 1682.5000     0.4897     2.1964
 1682.6000     0.4961     2.1986
 1682.7000     0.5026     2.2010
 1682.8000     0.5090     2.0463
 1682.9000     0.5158     1.9907
 1683.0000     0.5244     1.9929
 1683.1000     0.5330     1.9950
 1683.2000     0.5417     1.9971
 1683.3000     0.5503     1.9997
 1683.4000     0.5584     2.0014
 1683.5000     0.5648     2.0036
 1683.6000     0.5712     1.9412
 1683.7000     0.5777     1.7933
 1683.8000     0.5841     1.7959
 1683.9000     0.5914     1.7979
 1684.0000     0.5987     1.8000
 1684.1000     0.5986     1.8021
 1684.2000     0.5985     1.8043
 1684.3000     0.5983     1.7956
 1684.4000     0.5982     1.5946
 1684.5000     0.5981     1.5964
 1684.6000     0.5979     1.5986
 1684.7000     0.5978     1.5286
 1684.8000     0.5977     1.3882
 1684.9000     0.5976     1.3908
 1685.0000     0.5974     1.3929
 1685.1000     0.5973     1.3950
 1685.2000     0.5972     1.3023
 1685.3000     0.5970     1.1850
 1685.4000     0.5969     1.1871
 1685.5000     0.5968     1.1895
 1685.6000     0.5967     1.1914
 1685.7000     0.5965     1.1936
 1685.8000     0.5964     1.1957
 1685.9000     0.5963     1.1979
 1686.0000     0.5949     1.2000
 1686.1000     0.5925     1.2021
 1686.2000     0.5902     1.2043
 1686.3000     0.5879     1.2064
 1686.4000     0.5856     1.2086
 1686.5000     0.5802     1.2107
 1686.6000     0.5735     1.2130
 1686.7000     0.5668     1.2150
 1686.8000     0.5601     1.3422
 1686.9000     0.5521     1.4336
 1687.0000     0.5450     1.4357
 1687.1000     0.5361     1.4482
 1687.2000     0.5272     1.6546
 1687.3000     0.5183     1.6564
 1687.4000     0.5087     1.6586
 1687.5000     0.5005     1.7321
 1687.6000     0.4917     1.8771
 1687.7000     0.4828     1.8793
 1687.8000     0.4739     2.0523
 1687.9000     0.4651     2.2304
 1688.0000     0.4584     2.5028
 1688.1000     0.4517     2.8009
 1688.2000     0.4450     2.9968
 1688.3000     0.4383     3.3924
 1688.4000     0.4322     3.7051
 1688.5000     0.4298     3.9421
 1688.6000     0.4275     4.1203
 1688.7000     0.4252     4.2579
 1688.8000     0.4229     4.2600
 1688.9000     0.4211     4.2621
 1689.0000     0.4210     4.2643
 1689.1000     0.4209     4.2664
 1689.2000     0.4207     4.3321
 1689.3000     0.4206     4.4850
 1689.4000     0.4267     4.4873
 1689.5000     0.4441     4.4893
 1689.6000     0.4615     4.4914
 1689.7000     0.4789     4.4073
 1689.8000     0.4963     4.2814
 1689.9000     0.5116     4.2836
 1690.0000     0.5246     4.2861
 1690.1000     0.5376     4.2879
 1690.2000     0.5479     4.2900
 1690.3000     0.5478     4.2921
 1690.4000     0.5477     4.2943
 1690.5000     0.5475     4.2965
 1690.6000     0.5474     4.2986
 1690.7000     0.5473     4.3007
 1690.8000     0.5472     4.3029
 1690.9000     0.5470     4.3050
 1691.0000     0.5469     4.3071
 1691.1000     0.5468     4.3095
 1691.2000     0.5466     4.3114
 1691.3000     0.5465     4.3136
 1691.4000     0.5464     4.3157
 1691.5000     0.5463     4.3179
 1691.6000     0.5461     4.3200
 1691.7000     0.5460     4.3221
 1691.8000     0.5459     4.3243
 1691.9000     0.5457     4.3264
 1692.0000     0.5456     4.3286
 1692.1000     0.5455     4.3553
 1692.2000     0.5453     4.5473
 1692.3000     0.5562     4.5493
 1692.4000     0.5692     4.5514
 1692.5000     0.5822     4.5536
 1692.6000     0.5952     4.5557
 1692.7000     0.6089     4.5579
 1692.8000     0.6191     4.5600
 1692.9000     0.6300     4.5621
 1693.0000     0.6408     4.5643
 1693.1000     0.6516     4.5664
 1693.2000     0.6620     4.5686
 1693.3000     0.6640     4.5708
 1693.4000     0.6661     4.5729
 1693.5000     0.6681     4.5750
 1693.6000     0.6702     4.5771
 1693.7000     0.6719     4.5795
 1693.8000     0.6718     4.5814
 1693.9000     0.6716     4.5838
 1694.0000     0.6715     4.5857
 1694.1000     0.6714     4.5879
 1694.2000     0.6695     4.5900
 1694.3000     0.6628     4.5921
 1694.4000     0.6561     4.5943
 1694.5000     0.6494     4.5964
 1694.6000     0.6427     4.5986
 1694.7000     0.6343     4.6007
 1694.8000     0.6232     4.6029
 1694.9000     0.6122     4.6050
 1695.0000     0.6011     4.6073
 1695.1000     0.5900     4.6093
 1695.2000     0.5800     4.6114
 1695.3000     0.5711     4.6136
 1695.4000     0.5622     4.6157
 1695.5000     0.5534     4.6179
 1695.6000     0.5445     4.6204
 1695.7000     0.5356     4.6221
 1695.8000     0.5267     4.6243
 1695.9000     0.5178     4.6264
 1696.0000     0.5089     4.5972
 1696.1000     0.5000     4.4165
 1696.2000     0.4974     4.4186
 1696.3000     0.4973     4.4207
 1696.4000     0.4971     4.4229
 1696.5000     0.4970     4.4250
 1696.6000     0.4969     4.4271
 1696.7000     0.4967     4.4296
 1696.8000     0.4966     4.4314
 1696.9000     0.4965     4.4336
 1697.0000     0.4964     4.4357
 1697.1000     0.4962     4.4379
 1697.2000     0.4961     4.4400
 1697.3000     0.4960     4.4421
 1697.4000     0.4958     4.4443
 1697.5000     0.4957     4.4464
 1697.6000     0.4956     4.4486
 1697.7000     0.4955     4.4507
 1697.8000     0.4953     4.4530
 1697.9000     0.4952     4.4550
 1698.0000     0.4951     4.4571
 1698.1000     0.4949     4.4593
 1698.2000     0.4948     4.4614
 1698.3000     0.4947     4.4636
 1698.4000     0.4946     4.4661
 1698.5000     0.4944     4.4679
 1698.6000     0.4943     4.4700
 1698.7000     0.4942     4.4721
 1698.8000     0.4940     4.4743
 1698.9000     0.4939     4.4765
 1699.0000     0.4938     4.4786
 1699.1000     0.4937     4.4807
 1699.2000     0.4935     4.4829
 1699.3000     0.4934     4.4850
 1699.4000     0.4933     4.4871
 1699.5000     0.4931     4.4896
 1699.6000     0.4930     4.4914
 1699.7000     0.4929     4.4936
 1699.8000     0.4928     4.4957
 1699.9000     0.4926     4.4979
 1700.0000     0.4925     4.5000
 1700.1000     0.4924     9.0017
 1700.2000     0.4922     9.0035
 1700.3000     0.4921     9.3408
 1700.4000     0.4920     9.6926
 1700.5000     0.4919     9.8657
 1700.6000     0.4917     9.8674
 1700.7000     0.4916     9.8691
 1700.8000     0.4915     9.8711
 1700.9000     0.4913     9.8726
 1701.0000     0.4912     9.8743
 1701.1000     0.4911     9.8760
 1701.2000     0.4910     9.8203
 1701.3000     0.4908     9.4510
 1701.4000     0.4907     9.4526
 1701.5000     0.4906     9.2043
 1701.6000     0.4904     8.8560
 1701.7000     0.4903     8.6006
 1701.8000     0.4902     8.5879
 1701.9000     0.4901     8.1757
 1702.0000     0.4899     7.8914
 1702.1000     0.4898     7.7503
 1702.2000     0.4897     7.4944
 1702.3000     0.4896     6.8963
 1702.4000     0.4894     6.8984
 1702.5000     0.4893     6.5787
 1702.6000     0.4892     6.4731
 1702.7000     0.4890     6.3106
 1702.8000     0.4889     5.9623
 1702.9000     0.4888     5.6211
 1703.0000     0.4887     5.6229
 1703.1000     0.4885     5.3460
 1703.2000     0.4884     5.1977
 1703.3000     0.4883     5.1994
 1703.4000     0.4881     5.2011
 1703.5000     0.4880     5.2030
 1703.6000     0.4879     5.2046
 1703.7000     0.4878     4.9707
 1703.8000     0.4876     4.7794
 1703.9000     0.4875     4.7811
 1704.0000     0.4874     4.7829
 1704.1000     0.4872     4.7846
 1704.2000     0.4871     4.7863
 1704.3000     0.4980     4.7880
 1704.4000     0.5129     4.7897
 1704.5000     0.5216     4.7377
 1704.6000     0.5304     4.3646
 1704.7000     0.5391     4.3663
 1704.8000     0.5478     4.3683
 1704.9000     0.5566     4.3697
 1705.0000     0.5653     4.3714
 1705.1000     0.5740     4.3731
 1705.2000     0.5828     4.3749
 1705.3000     0.5915     4.3767
 1705.4000     0.5989     4.3783
 1705.5000     0.6055     4.3800
 1705.6000     0.6120     4.3817
 1705.7000     0.6185     4.3834
 1705.8000     0.6251     4.3851
 1705.9000     0.6283     4.3872
