~VERSION INFORMATION
 VERS.                2.0:   CWLS LOG ASCII STANDARD - VERSION 2.0
 WRAP.                 NO:   ONE LINE PER DEPTH STEP
~WELL INFORMATION
#MNEM.UNIT      DATA TYPE    INFORMATION
#----------   ------------   ------------------------------
 STRT.F           84.0000:   START DEPTH
 STOP.F          860.0000:   STOP DEPTH
 STEP.F            0.5000:   STEP LENGTH
 NULL.          -999.2500:   NO VALUE
 COMP.               NAVY:   COMPANY
 WELL. 52-S-11  NPR #3 #52S-11:   WELL
 FLD .        TEAPOT DOME:   FIELD
 LOC .      S11 T38N R78W:   LOCATION
 CNTY.            NATRONA:   COUNTY
 STAT.            WYOMING:   STATE
 CTRY. UNITED STATES OF AMERICA:   COUNTRY
 SRVC.       Schlumberger:   SERVICE COMPANY
 DATE.        01-JUL-1962:   LOGDATE
 API .       490250637300:   API NUMBER
~CURVE INFORMATION
#MNEM.UNIT       API CODE    CURVE DESCRIPTION
#----------   ------------   ------------------------------
 DEPT.F                  :   
 ASN .OHMM   05 041 16 00:   AMPLIFIED SHORT NORMAL 16"
 CILD.MMHO   05 110 46 00:   CONDUCTIVITY INDUCTION LOG DEEP
 ILD .OHMM   05 120 46 00:   INDUCTION LOG DEEP
 SPR .MV     05 010 01 00:   SPONTANEOUS POTENTIAL FROM RES.
 GR  .GAPI   30 310 01 00:   GAMMA RAY
~PARAMETER INFORMATION
#MNEM.UNIT          VALUE    DESCRIPTION
#----------   ------------   ------------------------------
 LMF .                 KB:   LOG MEASURED FROM
 DMF .                 KB:   DRILLING MEASURED FROM
 EKB .F              5191:   KELLING BUSHING
 EGL .F              5186:   GROUND LEVEL
 DATE.           7-1-1962:   RUN DATE
 RUN .                  1:   RUN NUMBER
 DD  .F               860:   DEPTH DRILLER
 DL  .F               861:   DEPTH LOGGER
 BLI .F               860:   BOTTOM LOG INTERVAL
 TLI .F                91:   TOP LOG INTERVAL
 CBD .F                10:   CASING BOTTOM DRILLER
 BS  .IN             6.75:   BIT SIZE
 BSD .F               860:   BIT SIZE AT DEPTH
 DFT .            GEL-OIL:   DRILLING FLUID TYPE
 DFD .               10.2:   DRILLING FLUID DENSITY
 DFV .                 45:   DRILLING FLUID VISCOSITY
 DFL .                  4:   DRILLING FLUID LOSS
 MSS .           FLOWLINE:   MUD SAMPLE SOURCE
 RMS .OHMM           5.54:   RESISTIVITY MUD SAMPLE
 MST .F                75:   MUD SAMPLE TEMPERATURE
 RMB .OHMM           5.19:   RESISTIVITY MUD AT BHT
 BHT .F                80:   BOTTOM HOLE TEMPERATURE
 TCS .HRS               1:   TIME CURCULATED STOPPED
 MRT .F                80:   MAXIMUM RECORDED TEMPERATURE
 LUN .               2503:   LOGGING UNIT NUMBER
 LUL .              CSPR.:   LOGGING UNIT LOCATION
 ENGI.             KNOBEL:   RECORDING ENGINEER
 WITN.          JORGENSEN:   WITNESSED BY
 CLNT.            A2DTECH:   CLIENT CODE
 ORIG.      2" & 5" PRINT:   ORIGIN OF DATA
 UWI .       490250637300:   UNIQUE WELL ID
 DICO. A2D Technologies, Inc.:   DIGITIZING COMPANY
~OTHER INFORMATION
~A   DEPT      ASN       CILD        ILD        SPR         GR   
# ...
  145.0000     6.3725   173.2655     6.1981   -30.8525  -999.2500
  145.5000     6.4022   173.3101     6.1929   -30.8638  -999.2500
  146.0000     6.2798   173.3548     6.1876   -30.7182  -999.2500
  146.5000     6.2486   173.3995     6.1824   -30.5748  -999.2500
  147.0000     6.2932   174.1995     6.1771   -30.5860  -999.2500
  147.5000     6.3226   175.0001     6.0960   -30.4404  -999.2500
  148.0000     6.3066   175.8006     6.0149   -30.2992  -999.2500
  148.5000     6.1390   175.9691     5.8579   -30.3083  -999.2500
  149.0000     5.9563   178.1658     5.7009   -30.1647  -999.2500
  149.5000     5.9101   181.2317     5.5439   -30.1739  -999.2500
  150.0000     6.0542   183.2448     5.5387   -30.3354  -999.2500
  150.5000     6.0602   188.9512     5.6333   -30.3441  -999.2500
  151.0000     6.0445   191.9389     5.5325   -30.6565  -999.2500
  151.5000     5.8622   191.2280     5.3019   -30.6640  -999.2500
  152.0000     5.6042   189.7617     5.3748   -30.5171  -999.2500
  152.5000     5.7704   188.2844     5.5236   -30.5265  -999.2500
  153.0000     5.8457   187.5831     5.5205   -30.5340  -999.2500
  153.5000     5.8604   186.1178     5.5935   -30.6939  -999.2500
  154.0000     5.9059   186.1632     5.5898   -31.0063  -999.2500
  154.5000     5.9656   184.5897     5.6634   -31.3187  -999.2500
  155.0000     5.9954   181.7195     5.6597   -31.3263  -999.2500
  155.5000     5.9949   180.2532     5.8084   -31.4863  -999.2500
  156.0000     5.9945   179.5423     5.8055   -31.3411  -999.2500
  156.5000     5.9940   179.5976     5.7266   -31.0438  -999.2500
  157.0000     6.0239   179.6420     5.6478   -30.8988  -999.2500
  157.5000     6.0689   180.4416     5.4930   -30.7539  -999.2500
  158.0000     6.0837   181.9965     5.4142   -30.4565  -999.2500
  158.5000     5.8407   182.7961     5.2595   -30.1591  -999.2500
  159.0000     5.7342   186.6168     5.1806   -30.0141  -999.2500
  159.5000     5.8398   190.5035     5.1775   -29.8692  -999.2500
  160.0000     5.9162   194.2598     5.1739   -29.7242  -999.2500
  160.5000     5.8774   196.5796     5.1709   -29.5793  -999.2500
  161.0000     5.7172   197.3792     5.1680   -29.5887  -999.2500
  161.5000     5.6864   197.4235     5.3175   -29.5961  -999.2500
  162.0000     5.7163   197.4678     5.4655   -29.6036  -999.2500
  162.5000     5.7916   195.9905     5.5391   -29.6113  -999.2500
  163.0000     5.8669   193.7801     5.6120   -29.6189  -999.2500
  163.5000     5.9877   191.5585     5.5324   -29.6280  -999.2500
  164.0000     6.0933   189.3370     5.5295   -29.6355  -999.2500
  164.5000     6.0474   187.1154     5.5265   -29.6430  -999.2500
  165.0000     5.6227   185.6242     5.5235   -29.6505  -999.2500
  165.5000     5.5920   183.4276     5.5205   -29.6579  -999.2500
  166.0000     5.8404   181.9614     5.5934   -29.6654  -999.2500
  166.5000     6.2728   182.0168     5.5897   -29.8254  -999.2500
  167.0000     6.3179   182.0611     5.5867   -29.8329  -999.2500
  167.5000     6.0749   182.1054     5.5837   -29.8403  -999.2500
  168.0000     6.0290   181.3945     5.6574   -29.6951  -999.2500
  168.5000     6.0286   181.4388     5.7303   -29.7029  -999.2500
  169.0000     6.0281   180.7167     5.7265   -29.7104  -999.2500
  169.5000     6.0277   180.7721     5.7236   -29.7180  -999.2500
  170.0000     6.0425   180.8165     5.7965   -29.7256  -999.2500
  170.5000     6.0571   180.8611     5.7935   -29.7347  -999.2500
  171.0000     6.1021   180.9064     5.8665   -29.5879  -999.2500
  171.5000     6.1623   181.7158     5.7875   -29.5973  -999.2500
  172.0000     6.1293   181.7601     5.7846   -29.6048  -999.2500
  172.5000     6.0401   181.8044     5.7056   -29.6122  -999.2500
  173.0000     5.9790   183.3593     5.7020   -29.6197  -999.2500
  173.5000     5.9483   184.1589     5.7756   -29.6272  -999.2500
  174.0000     5.9175   185.7138     5.6960   -29.7872  -999.2500
  174.5000     5.8868   185.7581     5.6930   -29.7947  -999.2500
  175.0000     5.8863   186.5577     5.6901   -29.8021  -999.2500
  175.5000     5.8859   187.3573     5.6871   -29.8096  -999.2500
  176.0000     5.9006   188.1670     5.6841   -29.8171  -999.2500
  176.5000     5.9456   189.7130     5.6811   -29.8247  -999.2500
  177.0000     5.9757   187.5014     5.7548   -29.8323  -999.2500
  177.5000     6.0220   184.5246     5.7511   -29.8120  -999.2500
  178.0000     6.0957   183.0472     5.8239   -29.6946  -999.2500
  178.5000     6.1408   183.1026     5.8210   -29.5497  -999.2500
  179.0000     6.2008   183.9022     5.8939   -29.5591  -999.2500
  179.5000     6.2610   185.4571     5.9668   -29.4141  -999.2500
  180.0000     6.2910   184.7462     6.0389   -29.4216  -999.2500
  180.5000     6.2904   181.7693     6.1118   -29.2767  -999.2500
  181.0000     6.2748   175.7713     6.1854   -29.2841  -999.2500
  181.5000     6.3198   169.0132     6.3335   -29.2916  -999.2500
  182.0000     6.4406   161.3696     6.4822   -29.2991  -999.2500
  182.5000     6.7129   155.5226     6.6310   -29.6115  -999.2500
  183.0000     7.1391   151.0352     6.8556   -29.6190  -999.2500
  183.5000     6.9978   148.0584     7.0803   -29.9314  -999.2500
  184.0000     7.1357   145.0816     7.3050   -29.9533  -999.2500
  184.5000     7.6504   142.1048     7.4537   -30.0991  -999.2500
  185.0000     7.9681   140.6385     7.4507   -30.2606  -999.2500
  185.5000     7.8768   141.4381     7.4393   -30.2681  -999.2500
  186.0000     7.4066   143.7483     7.2164   -30.2756  -999.2500
  186.5000     7.1789   149.0796     6.9858   -30.1287  -999.2500
  187.0000     7.0118   154.4109     6.9069   -29.9838  -999.2500
  187.5000     6.8901   161.4427     6.6763   -29.6883  -999.2500
  188.0000     6.7988   167.4723     6.5975   -29.5415  -999.2500
  188.5000     6.7225   170.4160     6.4428   -29.5508  -999.2500
  189.0000     6.6753   171.2156     6.3639   -29.5583  -999.2500
  189.5000     6.6459   168.9941     6.4368   -29.5658  -999.2500
  190.0000     6.6454   167.5167     6.4338   -29.5733  -999.2500
  190.5000     6.6602   163.7957     6.5826   -29.5808  -999.2500
  191.0000     6.7354   160.8189     6.8072   -29.5884  -999.2500
  191.5000     6.9016   157.8421     6.9560   -29.7485  -999.2500
  192.0000     7.2042   154.1099     7.0369   -29.7576  -999.2500
  192.5000     7.2342   149.6225     7.1777   -29.7651  -999.2500
  193.0000     7.2488   145.8356     7.3257   -29.7726  -999.2500
  193.5000     7.3392   142.7919     7.3993   -29.9325  -999.2500
  194.0000     7.5358   139.1926     7.5481   -29.9400  -999.2500
  194.5000     7.7192   136.9599     7.6210   -29.9475  -999.2500
  195.0000     7.8893   134.7495     7.6173   -29.9550  -999.2500
  195.5000     8.0192   132.5279     7.6909   -30.1149  -999.2500
  196.0000     8.0643   132.5723     7.7631   -30.1224  -999.2500
  196.5000     8.0637   131.8502     7.7601   -29.9771  -999.2500
  197.0000     8.0481   132.6609     7.8331   -29.9849  -999.2500
  197.5000     7.9113   135.7264     7.7541   -29.9924  -999.2500
  198.0000     7.7897   140.3024     7.6732   -29.8475  -999.2500
  198.5000     7.6377   146.4850     7.4368   -29.7025  -999.2500
  199.0000     7.3948   154.2201     7.1244   -29.5576  -999.2500
  199.5000     7.1065   159.3286     6.7551   -29.4126  -999.2500
  200.0000     6.8636   161.6277     6.5931   -29.2677  -999.2500
  200.5000     6.8629   157.1430     6.6001   -29.5813  -999.2500
  201.0000     6.9897   154.1590     6.8925   -29.5888  -999.2500
  201.5000     7.2552   151.1750     7.1885   -29.5963  -999.2500
  202.0000     7.4059   148.9463     7.1825   -29.6038  -999.2500
  202.5000     7.6173   147.4636     7.3298   -29.7638  -999.2500
  203.0000     7.5711   146.7455     7.4741   -29.7714  -999.2500
  203.5000     7.3279   145.2813     7.5455   -29.7623  -999.2500
  204.0000     7.6454   145.3185     7.5380   -29.6338  -999.2500
  204.5000     7.7054   147.6215     7.4562   -29.6432  -999.2500
  205.0000     7.6439   151.4350     7.0709   -29.4964  -999.2500
  205.5000     7.2340   158.4214     6.6855   -29.5058  -999.2500
