~VERSION INFORMATION
 VERS.                2.0:   CWLS LOG ASCII STANDARD - VERSION 2.0
 WRAP.                 NO:   ONE LINE PER DEPTH STEP
~WELL INFORMATION
#MNEM.UNIT      DATA TYPE    INFORMATION
#----------   ------------   ------------------------------
 STRT.F           86.0000:   START DEPTH
 STOP.F         1134.0000:   STOP DEPTH
 STEP.F            0.5000:   STEP LENGTH
 NULL.          -999.2500:   NO VALUE
 COMP.          U.S. NAVY:   COMPANY
 WELL. RES 3 TEAPOT DOM #64-S-2:   WELL
 FLD .             TEAPOT:   FIELD
 LOC .       S2 T38N R78W:   LOCATION
 CNTY.            NATRONA:   COUNTY
 STAT.            WYOMING:   STATE
 CTRY. UNITED STATES OF AMERICA:   COUNTRY
 SRVC. Schlumberger Well Surveying Corp:   SERVICE COMPANY
 DATE.        28-JUL-1964:   LOGDATE
 API .       490250644400:   API NUMBER
~CURVE INFORMATION
#MNEM.UNIT       API CODE    CURVE DESCRIPTION
#----------   ------------   ------------------------------
 DEPT.F                  :   
 ASN .OHMM   05 041 16 00:   AMPLIFIED SHORT NORMAL 16"
 CILD.MMHO   05 110 46 00:   CONDUCTIVITY INDUCTION LOG DEEP
 ILD .OHMM   05 120 46 00:   INDUCTION LOG DEEP
 SPR .MV     05 010 01 00:   SPONTANEOUS POTENTIAL FROM RES.
 DT  .US/F   60 520 33 00:   INTERVAL TRANSIT TIME
 GR  .GAPI   30 310 01 00:   GAMMA RAY
~PARAMETER INFORMATION
#MNEM.UNIT          VALUE    DESCRIPTION
#----------   ------------   ------------------------------
 PD  .                 GL:   PERMANENT DATUM
 EPD .F              5204:   ELEVATION PERMANENT DATUM
 LMF .                 KB:   LOG MEASURED FROM
 DAPD.F                 5:   FEET ABOVE PERMANENT DATUM
 DMF .                 KB:   DRILLING MEASURED FROM
 EKB .F              5209:   KELLING BUSHING
 EGL .F              5204:   GROUND LEVEL
 DATE.        28-JUL-1964:   RUN DATE
 RUN .                  1:   RUN NUMBER
 DD  .F              1135:   DEPTH DRILLER
 DL  .F              1135:   DEPTH LOGGER
 BLI .F              1134:   BOTTOM LOG INTERVAL
 TLI .F                86:   TOP LOG INTERVAL
 CS  .IN            10.75:   CASING SIZE
 CBD .F                11:   CASING BOTTOM DRILLER
 BS  .IN            7.875:   BIT SIZE
 BSD .F              1135:   BIT SIZE AT DEPTH
 DFT .            GEL-OIL:   DRILLING FLUID TYPE
 DFD .                9.5:   DRILLING FLUID DENSITY
 DFV .                 49:   DRILLING FLUID VISCOSITY
 DFL .                 10:   DRILLING FLUID LOSS
 MSS .           FLOWLINE:   MUD SAMPLE SOURCE
 RMS .OHMM           2.35:   RESISTIVITY MUD SAMPLE
 MST .F                89:   MUD SAMPLE TEMPERATURE
 RMF .OHMM           1.71:   RESISTIVITY MUD FILTRATE SAMPLE
 MFST.F                89:   MUD FILTRATE SAMPLE TEMPERATURE
 RMC .OHMM           3.01:   RESISTIVITY MUD CAKE
 MCST.F                89:   MUD CAKE SAMPLE TEMPERATURE
 MFSS.                 FP:   MUD FILTRATE SAMPLE SOURCE
 MCSS.                 FP:   MUD CAKE SAMPLE SOURCE
 TCS .HRS               1:   TIME CURCULATED STOPPED
 LUN .               3527:   LOGGING UNIT NUMBER
 LUL .               CSPR:   LOGGING UNIT LOCATION
 ENGI.             KNOBEL:   RECORDING ENGINEER
 WITN.          JORGENSEN:   WITNESSED BY
 CLNT.            A2DTECH:   CLIENT CODE
 ORIG.        2" 5" PRINT:   ORIGIN OF DATA
 UWI .       490250644400:   UNIQUE WELL ID
 DICO. A2D Technologies, Inc.:   DIGITIZING COMPANY
~OTHER INFORMATION
~A   DEPT        ASN      CILD        ILD       SPR         DT         GR   
# ...
  658.0000     7.3044   154.0514     6.4565   -24.5077   100.0620    69.8590
  658.5000     7.3267   152.1372     6.5726   -24.6499   100.5902    67.1664
  659.0000     7.4065   150.0126     6.7568   -24.6977   100.5164    67.0165
  659.5000     7.6058   147.2858     6.8318   -24.7983    99.8407    70.9145
  660.0000     7.7113   145.4317     6.9069   -24.8876    99.3907    74.5127
  660.5000     7.8034   144.2005     6.9820   -24.9469    99.0912    70.0150
  661.0000     7.8772   143.5316     6.9820   -24.9460    98.7917    68.0660
  661.5000     7.9168   144.5796     6.9530   -24.8681    98.3417    67.0165
  662.0000     7.9678   145.0652     6.9049   -24.7946    97.2897    70.9145
  662.5000     8.0069   146.3040     6.7818   -24.7938    97.4417    65.2174
  663.0000     8.0468   147.7737     6.7337   -24.6432    97.5937    66.6504
  663.5000     8.0738   149.5747     6.6817   -24.6322    97.9014    71.2144
  664.0000     8.0890   151.9679     6.6066   -24.4916    98.3712    68.6657
  664.5000     8.0435   153.6885     6.5145   -24.4910    99.1786    68.0660
  665.0000     7.8188   155.6102     6.3814   -24.3403    99.5563    68.9655
  665.5000     7.6502   156.7482     6.3814   -24.3396    99.8588    70.4648
  666.0000     7.4704   157.9870     6.3704   -24.1889   100.2365    66.5667
  666.5000     7.3534   159.3868     6.3063   -24.1881   100.8399    69.4153
  667.0000     7.3234   159.8218     6.3063   -24.1874   101.7443    69.5892
  667.5000     7.3989   159.3436     6.3063   -24.2129   101.9712    62.3688
  668.0000     7.6112   157.8922     6.3063   -24.3358   101.1453    64.3218
  668.5000     7.7252   157.8953     6.3063   -24.3351   100.7706    64.2998
  669.0000     7.8056   158.6521     6.3063   -24.1844   100.4711    62.8186
  669.5000     7.8659   160.1619     6.3063   -24.1835   100.0211    56.0720
  670.0000     7.6496   160.9187     6.3063   -24.0330    99.8721    58.0210
  670.5000     7.2800   161.6757     6.3063   -24.0322   100.4971    61.6192
  671.0000     7.2200   161.6792     6.3473   -23.9350   100.8536    60.7196
  671.5000     7.2215   161.6830     6.3814   -23.8808   100.8550    59.2204
  672.0000     7.2957   161.6871     6.3814   -23.8800   100.6308    58.9205
  672.5000     7.3798   161.6905     6.4565   -23.8793    99.9551    66.2669
  673.0000     7.5367   160.9410     6.5395   -23.8786    99.1288    65.6672
  673.5000     7.5678   160.1926     6.6066   -23.8777    98.9795    65.3673
  674.0000     7.4702   158.8604     6.7107   -24.0270    99.4328    67.2188
  674.5000     7.4020   157.1474     6.7588   -24.0262    99.7352    74.6627
  675.0000     7.3571   155.1832     6.8318   -24.0254   100.1129    71.8141
  675.5000     7.3423   153.1991     6.9069   -24.0247   100.3401    68.6657
  676.0000     7.3727   152.6807     6.9069   -24.0240   100.4169    62.5187
  676.5000     7.4488   151.4898     6.9069   -24.0232   100.2631    65.6672
  677.0000     7.6063   151.1817     6.9069   -24.0225    99.2384    66.2669
  677.5000     7.8997   151.1863     6.8318   -23.8718    97.5624    67.7661
  678.0000     7.9648   151.5712     6.7938   -23.8711    97.0371    66.8666
  678.5000     7.9753   152.9205     6.6707   -23.7204    96.8881    69.2654
  679.0000     7.9576   155.7159     6.5315   -23.5697    96.9648    67.6697
  679.5000     7.8763   159.6952     6.4244   -23.3448    97.3425    63.9400
  680.0000     7.6151   164.9598     6.2262   -23.2684    97.9460    65.0675
  680.5000     7.2990   168.5285     6.0811   -23.4174    99.4523    66.2669
  681.0000     7.0702   171.3128     5.9800   -23.4168   100.3568    65.8171
  681.5000     6.8338   173.0535     5.8559   -23.4160   100.8849    67.6162
  682.0000     6.7552   175.5070     5.7337   -23.4151   101.2626    71.6642
  682.5000     6.7132   177.0270     5.7057   -23.4145   101.6403    69.1154
  683.0000     6.7094   178.3361     5.6306   -23.4138   102.0978    68.5157
  683.5000     6.7886   178.7513     5.5896   -23.5032   102.4813    70.9145
  684.0000     6.9702   179.8494     5.5556   -23.5623   101.4194    66.1092
  684.5000     7.0485   180.6066     5.5556   -23.5614    98.9378    65.6672
  685.0000     7.0609   180.6099     5.5556   -23.5607    97.3591    68.6657
  685.5000     7.0160   180.6137     5.5556   -23.5600    96.8339    70.7646
  686.0000     6.9407   180.6181     5.6306   -23.5591    96.6097    69.4153
  686.5000     6.8295   179.5771     5.6306   -23.5585    96.6864    67.4663
  687.0000     6.6107   178.3458     5.7057   -23.5682    97.0641    65.6672
  687.5000     6.5533   176.6127     5.7558   -23.7069    99.3981    65.9670
  688.0000     6.5359   174.8997     5.9019   -23.7061   101.5065    68.2159
  688.5000     6.7167   171.6003     6.0811   -23.8553   102.4109    68.9477
  689.0000     6.9114   166.3829     6.2442   -23.8546   101.6599    68.5157
  689.5000     7.1682   161.1359     6.4905   -23.8930    97.2716    71.3643
  690.0000     7.4692   155.7985     6.6817   -24.0030    96.4710    61.1994
  690.5000     7.6419   153.1513     6.7568   -24.0830    99.7083    59.5202
  691.0000     7.6520   151.1773     6.8318   -24.1515   100.3118    71.3643
  691.5000     7.5972   150.5384     6.8318   -24.1506    99.6360    72.7136
  692.0000     7.5108   151.6164     6.7998   -24.1499    96.2515    72.4138
  692.5000     7.4853   152.8552     6.5966   -24.1492    96.4787    68.9655
  693.0000     7.5496   155.0685     6.3814   -24.1483    97.8346    69.2654
  693.5000     7.5919   157.0996     6.2543   -23.9978    97.9110    67.7661
  694.0000     7.5959   159.5934     6.0811   -23.9960    97.0851    67.6762
  694.5000     7.5565   162.0471     5.9590   -23.7496    96.3342    73.3133
  695.0000     7.5015   164.3198     5.9109   -23.5457    96.4861    73.9231
  695.5000     7.3721   167.1350     5.8559   -23.3950    97.3905    78.2664
  696.0000     7.2583   169.4680     5.8148   -23.3943    98.9882    82.3088
  696.5000     7.1112   171.1884     5.7808   -23.5732    99.9714    74.8126
  697.0000     7.0358   173.1706     5.7808   -23.8425   100.6308    76.6117
  697.5000     6.9741   173.1739     5.7808   -23.9918   101.0085    71.8141
  698.0000     6.9315   172.4245     5.7808   -24.0080   101.2358    73.3133
  698.5000     6.9253   171.6760     5.7808   -24.1402   101.3125    76.1619
  699.0000     6.9018   169.2997     5.8098   -24.0810   101.3139    73.1634
  699.5000     6.9021   165.5787     5.9349   -23.9888   101.3154    71.9640
  700.0000     6.9724   161.1449     6.1812   -23.9880   101.2417    71.8141
  700.5000     7.0980   156.4595     6.4505   -24.0330   101.1675    74.9905
  701.0000     7.3038   152.1161     6.7568   -24.1364   100.7931    72.5637
  701.5000     7.4959   148.2241     6.9510   -24.1357   100.3432    66.1169
  702.0000     7.7904   145.5874     7.0741   -24.1349    98.9902    68.3658
  702.5000     8.1094   143.0914     7.2072   -24.1341    97.1744    63.2684
  703.0000     8.2616   141.5889     7.1692   -24.1334    95.8945    67.3163
  703.5000     8.3024   141.8136     6.9599   -24.1327    95.2166    69.5862
  704.0000     8.2897   145.3619     6.6817   -24.1318    94.9901    70.4887
  704.5000     8.1918   148.9095     6.5105   -24.1312    95.1399    68.7566
  705.0000     7.9572   154.6561     6.2212   -23.9805    95.5154    66.5973
  705.5000     7.8317   161.1867     5.9309   -23.9796    95.2889    64.8011
  706.0000     7.6681   165.2462     5.6536   -23.8290    96.7178    55.3587
  706.5000     7.4235   169.4767     5.5556   -23.7674    98.0082    53.8624
  707.0000     7.0687   173.4363     5.4805   -23.6777    98.5222    54.9148
  707.5000     6.9472   175.7091     5.5756   -23.6768    98.5966    64.0632
  708.0000     6.8724   176.2653     5.7057   -23.6762    99.4988    76.9597
  708.5000     6.8434   176.2688     5.8218   -23.8253   101.0029    78.0735
  709.0000     6.8284   175.3790     5.9449   -23.9205   101.0022    70.9686
  709.5000     6.8443   174.0177     6.0811   -24.0167   100.7005    69.2833
