~VERSION INFORMATION
 VERS.                2.0:   CWLS LOG ASCII STANDARD - VERSION 2.0
 WRAP.                 NO:   ONE LINE PER DEPTH STEP
~WELL INFORMATION
#MNEM.UNIT      DATA TYPE    INFORMATION
#----------   ------------   ------------------------------
 STRT.F            3.0000:   START DEPTH
 STOP.F          462.0000:   STOP DEPTH
 STEP.F            0.5000:   STEP LENGTH
 NULL.          -999.2500:   NO VALUE
 COMP. LAWRENCE/ALLISON INC:   COMPANY
 WELL.    67-15-1 SX #3-3:   WELL
 FLD .             TEAPOT:   FIELD
 LOC .       S3 T38N R78W:   LOCATION
 CNTY.            NATRONA:   COUNTY
 STAT.            WYOMING:   STATE
 CTRY. UNITED STATES OF AMERICA:   COUNTRY
 SRVC.           Gearhart:   SERVICE COMPANY
 DATE.        11-JUN-1988:   LOGDATE
 API .       490251121800:   API NUMBER
~CURVE INFORMATION
#MNEM.UNIT       API CODE    CURVE DESCRIPTION
#----------   ------------   ------------------------------
 DEPT.F                  :   
 GRR .GAPI   07 310 01 00:   GAMMA RAY
 RILD.OHMM   07 120 46 00:   INDUCTION LOG DEEP RESISTIVITY
 RILM.OHMM   07 120 44 00:   INDUCTION LOG MEDIUM RESISTIVITY
~PARAMETER INFORMATION
#MNEM.UNIT          VALUE    DESCRIPTION
#----------   ------------   ------------------------------
 PD  .                 GL:   PERMANENT DATUM
 EPD .F              5175:   ELEVATION PERMANENT DATUM
 LMF .                 KB:   LOG MEASURED FROM
 DAPD.F                 5:   FEET ABOVE PERMANENT DATUM
 DMF .                 KB:   DRILLING MEASURED FROM
 EKB .F              5180:   KELLING BUSHING
 EGL .F              5175:   GROUND LEVEL
 DATE.        11-JUN-1988:   RUN DATE
 RUN .                  1:   RUN NUMBER
 DD  .F               470:   DEPTH DRILLER
 DL  .F             470.5:   DEPTH LOGGER
 BLI .F             461.5:   BOTTOM LOG INTERVAL
 TLI .F                41:   TOP LOG INTERVAL
 CS  .IN            8.625:   CASING SIZE
 CBD .F                41:   CASING BOTTOM DRILLER
 CBL .F                41:   CASING BOTTOM LOGGER
 BS  .IN            7.875:   BIT SIZE
 BSD .F               470:   BIT SIZE AT DEPTH
 DFT .                AIR:   DRILLING FLUID TYPE
 TLAB.HRS            0318:   TIME LOGGER AT BOTTOM
 MRT .F                70:   MAXIMUM RECORDED TEMPERATURE
 LUN .               7597:   LOGGING UNIT NUMBER
 LUL .           GILLETTE:   LOGGING UNIT LOCATION
 ENGI.          HUCKFELDT:   RECORDING ENGINEER
 WITN.             STRONG:   WITNESSED BY
 CLNT.            A2DTECH:   CLIENT CODE
 ORIG.        2" 5" PRINT:   ORIGIN OF DATA
 UWI .       490251121800:   UNIQUE WELL ID
 DICO. A2D Technologies, Inc.:   DIGITIZING COMPANY
~OTHER INFORMATION
~A    DEPT      GRR      RILD       RILM   
# ...
   94.0000    98.1707    12.2008    12.2208
   94.5000    95.1219    12.2819    12.2132
   95.0000    93.5976    12.3621    12.2056
   95.5000    93.2927    12.3546    12.1980
   96.0000    93.9024    12.3486    12.1903
   96.5000    95.7317    12.2565    12.1827
   97.0000    96.0366    12.0804    12.0903
   97.5000    95.4268    11.8239    11.9149
   98.0000    95.1219    11.5727    11.6603
   98.5000    95.4268    11.3270    11.4110
   99.0000    96.3415    11.1642    11.2455
   99.5000    98.7805    11.0038    10.9285
  100.0000   100.9146    10.8247    10.9224
  100.5000    99.0756    10.6918    10.6891
  101.0000    98.1519    10.6135    10.4614
  101.5000    97.2283    10.5249    10.3827
  102.0000    96.3046    10.3852    10.4500
  102.5000    96.2755    10.3816    10.3713
  103.0000    98.7256    10.3057    10.3656
  103.5000   100.2529    10.3021    10.3597
  104.0000   100.5368    10.2986    10.2819
  104.5000    98.6087    10.2233    10.2761
  105.0000    96.2482    10.1485    10.2692
  105.5000    95.0197    10.0743    10.1920
  106.0000    95.6226    10.0708    10.1154
  106.5000    97.4406    10.0673    10.0393
  107.0000    98.6534    10.0639    10.0338
  107.5000    98.3372    10.0604    10.0283
  108.0000    97.1087    10.0569    10.0945
  108.5000    95.5753    10.0535    10.1597
  109.0000    94.6516    10.0500    10.2253
  109.5000    94.9497    10.0465    10.2183
  110.0000    96.1579    10.0430    10.2127
  110.5000    96.7609    10.0396    10.2070
  111.0000    96.4448     9.9661     9.9200
  111.5000    96.1309     9.8139     9.6410
  112.0000    96.7316     9.4166     9.1753
  112.5000    99.1616     9.0265     8.8551
  113.0000   103.4697     8.7133     8.6664
  113.5000   106.1557     8.4700     8.6013
  114.0000   103.6586     8.4081     8.4770
  114.5000   101.5622     8.4052     8.3537
  115.0000   100.0288     8.4023     8.2331
  115.5000    99.4100     8.3994     8.2286
  116.0000    99.0961     8.3965     8.2240
  116.5000    99.3943     8.4525     8.2783
  117.0000    99.9927     8.4496     8.3318
  117.5000   101.5081     8.4467     8.3845
  118.0000   104.2430     8.5037     8.4398
  118.5000   105.1508     8.6198     8.5540
  119.0000   103.0054     8.6773     8.6093
  119.5000   101.1671     8.6743     8.7245
  120.0000   100.5483     8.7934     8.7821
  120.5000    99.6247     8.8552     8.8997
  121.0000    98.7010     8.9799     9.0201
  121.5000    98.3871     9.1608     9.1420
  122.0000    99.6055     9.2219     9.2657
  122.5000   103.6127     9.3485     9.3299
  123.0000   107.2744     9.4109     9.4517
  123.5000   108.1071     9.5393     9.5128
  124.0000   105.0470     9.6038     9.5062
  124.5000   103.2087     9.5996     9.5010
  125.0000   102.5900     9.5963     9.4957
  125.5000   102.8858     9.5930     9.4905
  126.0000   104.0963     9.5897     9.5531
  126.5000   105.6117     9.5864     9.5465
  127.0000   108.3465     9.5831     9.4748
  127.5000   110.1668     9.5130     9.4695
  128.0000   109.8529     9.4434     9.4643
  128.5000   105.5756     9.3744     9.4591
  129.0000   103.1275     9.3712     9.3880
  129.5000   101.2892     9.3679     9.3828
  130.0000   100.6704     9.3647     9.3123
  130.5000   101.8809     9.2962     9.3724
  131.0000   104.0060     9.2929     9.3673
  131.5000   105.5295     9.2250     9.3603
  132.0000   105.8173     9.2211     9.2269
  132.5000   105.5031     9.2179     9.2132
  133.0000   105.4939     9.1505     9.1524
  133.5000   105.7879     9.0836     9.1462
  134.0000   106.0860     9.0804     9.1412
  134.5000   103.0260     9.0140     9.1361
  135.0000   101.4925     8.9481     9.0675
  135.5000   100.5689     8.8208     8.9366
  136.0000   100.5599     8.6953     8.8076
  136.5000   101.7703     8.5716     8.6805
  137.0000   103.2857     8.5089     8.6152
  137.5000   103.8887     8.3878     8.3729
  138.0000   103.5725     8.2108     8.1946
  138.5000   102.9538     8.0376     7.9641
  139.0000   101.4203     7.8131     7.6862
  139.5000    99.5820     7.4895     7.4180
  140.0000    99.2480     7.2296     7.1092
  140.5000   102.3079     6.9739     6.8612
  141.0000   105.3718     6.6850     6.6663
  141.5000   106.8912     6.5485     6.5720
  142.0000   106.8090     6.7787     6.8090
  142.5000   104.0988     7.0667     7.1384
  143.0000   102.5654     7.3157     7.4402
  143.5000   101.9466     7.6265     7.7007
  144.0000   101.6327     7.8402     7.8607
  144.5000   101.6237     8.0598     8.0793
  145.0000   102.8342     8.2856     8.2460
  145.5000   104.0469     8.4583     8.3564
  146.0000   106.4746     8.5745     8.4694
  146.5000   104.3315     8.5118     8.4647
  147.0000   103.7127     8.4496     8.4011
  147.5000   104.6183     8.3293     8.2798
  148.0000   106.4385     8.2684     8.2176
  148.5000   106.7835     8.1508     8.0426
  149.0000   105.8107     8.0348     7.9265
  149.5000   105.4806     7.8653     7.8121
  150.0000   108.5366     7.8077     7.6456
  150.5000   110.0610     7.8585     7.8046
  151.0000   106.7073     7.4779     7.3240
  151.5000   104.5732     6.9689     6.8260
  152.0000   102.7439     6.5861     6.6345
  152.5000   104.8781     6.2243     6.5391
  153.0000   105.1829     6.0070     6.4002
  153.5000   103.3537     5.8791     6.3525
  154.0000   100.3049     5.8758     6.2612
  154.5000    98.1707     5.8725     6.2582
  155.0000    97.5610     6.0358     6.3433
  155.5000    99.7153     6.2035     6.5200
  156.0000   102.5002     6.5112     6.7488
  156.5000   105.8537     6.7864     7.1336
  157.0000   108.2317     7.1230     7.4879
  157.5000   108.1299     7.6347     7.6430
  158.0000   106.0976     7.8469     7.7469
  158.5000   103.9634     8.0088     7.9072
  159.0000   102.4390     8.1173     8.0146
  159.5000   102.1341     8.2269     8.1806
  160.0000   102.7439     8.3383     8.3499
  160.5000   103.0488     8.3921     8.4054
  161.0000   103.9634     8.4463     8.4613
  161.5000   104.5732     8.5605     8.5743
  162.0000   105.1829     8.6761     8.6302
  162.5000   105.7927     8.7321     8.6866
  163.0000   106.0976     8.8502     8.7433
  163.5000   106.4024     8.8452     8.8621
  164.0000   106.4024     8.9073     8.9199
  164.5000   107.0122     9.0228     8.9874
  165.0000   107.3171     9.0811     9.0471
  165.5000   107.6219     9.1397     9.1072
  166.0000   108.5366     9.1988     9.2194
  166.5000   108.2317     9.2582     9.2795
  167.0000   106.0976     9.2517     9.2739
  167.5000   104.8781     9.2466     9.3355
  168.0000   105.7927     9.2415     9.3299
  168.5000   106.7073     9.1720     9.2603
  169.0000   106.4024     9.1669     9.1913
  169.5000   105.1829     9.1618     9.1228
  170.0000   103.0488     9.0929     9.0548
  170.5000   102.4390     9.0245     9.0504
  171.0000   103.6585     9.0195     9.0460
  171.5000   103.6585     8.8892     8.9160
  172.0000   103.9634     8.7609     8.7879
  172.5000   105.4878     8.6344     8.7224
  173.0000   107.3171     8.4505     8.5970
  173.5000   107.9268     8.2704     8.4735
  174.0000   107.0122     8.0378     8.1783
  174.5000   107.9268     7.7573     7.7296
  175.0000   108.8415     7.3826     7.3567
  175.5000   109.7561     6.9770     6.9046
  176.0000   110.0610     6.4118     6.3457
  176.5000   109.7561     6.1021     5.9142
  177.0000   108.5366     5.4914     5.4355
  177.5000   107.0122     4.9417     4.7902
  178.0000   106.4024     4.3548     3.9090
  178.5000   107.6219     3.9465     3.5926
  179.0000   108.5366     3.6268     3.2559
  179.5000   109.4512     3.3799     3.0345
  180.0000   105.4878     3.1279     2.8480
  180.5000   101.2195     3.0828     2.7106
  181.0000    97.5610     3.0383     2.6904
  181.5000    94.8171     3.0366     2.7461
  182.0000    95.7317     3.1456     2.7644
  182.5000   102.7439     3.4209     2.9422
  183.0000   107.9268     3.7491     3.4299
  183.5000   111.2805     4.2195     3.9705
  184.0000   110.0610     4.6911     4.4384
  184.5000   108.8415     5.1323     4.9615
