~VERSION INFORMATION
 VERS.                2.0:   CWLS LOG ASCII STANDARD - VERSION 2.0
 WRAP.                 NO:   ONE LINE PER DEPTH STEP
~WELL INFORMATION
#MNEM.UNIT      DATA TYPE    INFORMATION
#----------   ------------   ------------------------------
 STRT.F          748.0000:   START DEPTH
 STOP.F         2238.0000:   STOP DEPTH
 STEP.F            0.5000:   STEP LENGTH
 NULL.          -999.2500:   NO VALUE
 COMP. LAWRENCE/ALLISON INC:   COMPANY
 WELL. NPR 3 #36-2-SHX-10:   WELL
 FLD .             TEAPOT:   FIELD
 LOC .      S10 T38N R78W:   LOCATION
 CNTY.            NATRONA:   COUNTY
 STAT.            WYOMING:   STATE
 CTRY. UNITED STATES OF AMERICA:   COUNTRY
 SRVC.            Unknown:   SERVICE COMPANY
 DATE.        02-JUN-1984:   LOGDATE
 API .       490256012900:   API NUMBER
~CURVE INFORMATION
#MNEM.UNIT       API CODE    CURVE DESCRIPTION
#----------   ------------   ------------------------------
 DEPT.F                  :   
 ROP .MIN/FT 91 810 01 00:   RATE OF DRILLING PENETRATION
 TGAS.UNITS  91 830 01 00:   TOTAL GAS FROM HOTWIRE
~PARAMETER INFORMATION
#MNEM.UNIT          VALUE    DESCRIPTION
#----------   ------------   ------------------------------
 EKB .F              5223:   KELLING BUSHING
 EGL .F              5213:   GROUND LEVEL
 DATE.             6-2-84:   RUN DATE
 DD  .F              2238:   DEPTH DRILLER
 BLI .F              2238:   BOTTOM LOG INTERVAL
 TLI .F               740:   TOP LOG INTERVAL
 CS  .IN            8.625:   CASING SIZE
 CBD .F               717:   CASING BOTTOM DRILLER
 LUN .               T-83:   LOGGING UNIT NUMBER
 ENGI.            JOHNSON:   RECORDING ENGINEER
 WITN.           SCHERGER:   WITNESSED BY
 CLNT.            A2DTECH:   CLIENT CODE
 ORIG.           5" PRINT:   ORIGIN OF DATA
 UWI .       490256012900:   UNIQUE WELL ID
 DICO. A2D Technologies, Inc.:   DIGITIZING COMPANY
~OTHER INFORMATION
~A   DEPT        ROP     TGAS   
# ...
 2084.5000     1.5315   206.5631
 2085.0000     1.4153   226.0093
 2085.5000     1.2992   288.1025
 2086.0000     1.1935   350.1956
 2086.5000     1.3219   384.5473
 2087.0000     1.4396   330.1538
 2087.5000     1.5803   267.6992
 2088.0000     1.5805   204.0954
 2088.5000     1.5807   167.1521
 2089.0000     1.5809   167.7435
 2089.5000     1.5811   168.3349
 2090.0000     1.5033   168.9264
 2090.5000     1.3948   169.5178
 2091.0000     1.2863   170.1092
 2091.5000     1.1779   170.7006
 2092.0000     1.0896   171.2921
 2092.5000     1.0691   171.8835
 2093.0000     1.0486   172.4749
 2093.5000     1.0281   173.0663
 2094.0000     1.0138   173.6577
 2094.5000     1.2355   174.2491
 2095.0000     1.4441   174.8406
 2095.5000     1.6528   175.4320
 2096.0000     1.7360   175.6495
 2096.5000     1.6690   175.6713
 2097.0000     1.6019   179.8775
 2097.5000     1.5348   181.9923
 2098.0000     1.4677   182.0125
 2098.5000     1.4006   182.0343
 2099.0000     1.3336   182.0544
 2099.5000     1.2665   182.0762
 2100.0000     1.2882   184.1877
 2100.5000     1.3688   184.2079
 2101.0000     1.4494   184.2314
 2101.5000     1.5047   184.2515
 2102.0000     1.5049   184.2733
 2102.5000     1.5051   186.3865
 2103.0000     1.5053   184.3116
 2103.5000     1.5055   184.3354
 2104.0000     1.5057   184.3556
 2104.5000     1.5475   184.3774
 2105.0000     1.6241   184.3992
 2105.5000     1.7007   184.2974
 2106.0000     1.7773   184.4412
 2106.5000     1.8539   182.3616
 2107.0000     1.9305   182.3884
 2107.5000     2.0153   182.4102
 2108.0000     1.9022   180.3340
 2108.5000     1.7756   176.1664
 2109.0000     1.6490   174.0936
 2109.5000     1.5282   174.1221
 2110.0000     1.5813   174.1422
 2110.5000     1.6412   169.9780
 2111.0000     1.7010   167.8984
 2111.5000     1.7609   165.8272
 2112.0000     1.8208   163.7577
 2112.5000     1.8807   159.5901
 2113.0000     1.9406   157.5172
 2113.5000     2.0004   151.2599
 2114.0000     1.9823   149.1871
 2114.5000     1.9262   147.1176
 2115.0000     1.8700   142.9500
 2115.5000     1.8139   140.8788
 2116.0000     1.7775   132.5335
 2116.5000     1.7868   199.9044
 2117.0000     1.7961   288.2348
 2117.5000     1.8053   376.5652
 2118.0000     1.8163   464.8957
 2118.5000     1.9773   553.2261
 2119.0000     2.1751   569.1906
 2119.5000     2.3728   450.0233
 2120.0000     2.5705   324.6968
 2120.5000     2.7682   199.3703
 2121.0000     2.9660   134.0628
 2121.5000     3.1637   119.4575
 2122.0000     3.3614   117.4103
 2122.5000     3.4104   117.4812
 2123.0000     3.2979   117.5313
 2123.5000     3.1854   117.5855
 2124.0000     3.0728   117.6356
 2124.5000     2.9603   119.7828
 2125.0000     2.8478   119.8329
 2125.5000     2.7353   126.1662
 2126.0000     2.6228   126.2162
 2126.5000     2.5695   126.2704
 2127.0000     2.5655   128.4135
 2127.5000     2.5616   128.4636
 2128.0000     2.5576   132.7080
 2128.5000     2.5537   132.7581
 2129.0000     2.6406   132.8123
 2129.5000     2.7751   134.9554
 2130.0000     2.9187   135.0096
 2130.5000     2.8656   135.0596
 2131.0000     2.8039   135.1097
 2131.5000     2.7421   135.1639
 2132.0000     2.6756   135.2182
 2132.5000     2.8600   133.1752
 2133.0000     3.0783   133.2294
 2133.5000     3.2966   133.2836
 2134.0000     3.5504   131.2281
 2134.5000     3.4463   129.1852
 2135.0000     3.3220   129.2519
 2135.5000     3.1976   129.3019
 2136.0000     3.0732   129.3562
 2136.5000     2.9838   129.4104
 2137.0000     2.9894   129.4604
 2137.5000     2.9951   129.5147
 2138.0000     3.0008   133.7508
 2138.5000     3.0064   135.8980
 2139.0000     3.0121   135.9523
 2139.5000     3.0177   135.9981
 2140.0000     3.0244   136.0524
 2140.5000     3.3651   136.1024
 2141.0000     3.7827   136.1525
 2141.5000     4.2003   136.2108
 2142.0000     4.6179   136.2651
 2142.5000     5.0354   136.3151
 2143.0000     5.4530   138.4582
 2143.5000     5.8706   138.5083
 2144.0000     6.2374   138.5666
 2144.5000     6.1620   138.6209
 2145.0000     6.1048   138.6709
 2145.5000     6.0476   138.7210
 2146.0000     5.9904   138.7710
 2146.5000     5.4673   138.8294
 2147.0000     4.7574   138.8795
 2147.5000     4.0474   138.9337
 2148.0000     3.4138   136.8740
 2148.5000     3.6188   136.9449
 2149.0000     3.8039   143.3277
 2149.5000     3.9890   158.0832
 2150.0000     4.0576   172.8388
 2150.5000     3.7947   187.5943
 2151.0000     3.5319   185.3431
 2151.5000     3.2691   170.3626
 2152.0000     2.9886   155.9273
 2152.5000     3.1536   139.4551
 2153.0000     3.3304   139.3631
 2153.5000     3.5072   139.2561
 2154.0000     3.6841   139.1490
 2154.5000     3.6066   139.0420
 2155.0000     3.2117   138.9349
 2155.5000     2.8168   138.8279
 2156.0000     2.4211   138.7208
 2156.5000     2.3018   138.6138
 2157.0000     2.1822   138.5067
 2157.5000     2.0762   138.3997
 2158.0000     2.2003   138.2926
 2158.5000     2.3117   138.1856
 2159.0000     2.4231   138.0786
 2159.5000     2.5345   137.9715
 2160.0000     2.8236   137.8645
 2160.5000     3.2611   137.7574
 2161.0000     3.6985   137.6504
 2161.5000     4.1360   137.5433
 2162.0000     4.6187   137.4363
 2162.5000     4.3252   137.3292
 2163.0000     3.9979   137.2222
 2163.5000     3.6705   137.1151
 2164.0000     3.3431   137.0081
 2164.5000     3.0157   136.9010
 2165.0000     2.6884   136.7940
 2165.5000     2.3610   136.6869
 2166.0000     1.9374   136.5799
 2166.5000     1.8633   136.4728
 2167.0000     1.8781   136.3658
 2167.5000     1.8928   136.2587
 2168.0000     1.9076   136.1517
 2168.5000     1.9223   136.0446
 2169.0000     1.9371   135.9376
 2169.5000     1.9518   135.8305
 2170.0000     1.9666   135.7235
 2170.5000     1.9813   135.6164
 2171.0000     1.9961   135.5094
 2171.5000     2.0938   135.4023
 2172.0000     2.2447   135.2953
 2172.5000     2.1802   135.1882
 2173.0000     2.1052   135.0812
 2173.5000     2.0302   134.9742
 2174.0000     1.9552   134.8671
 2174.5000     1.8802   134.7601
 2175.0000     1.8052   134.6530
 2175.5000     1.7302   134.5460
 2176.0000     1.6552   134.4389
 2176.5000     1.5802   134.3319
 2177.0000     1.5052   134.2248
 2177.5000     1.4302   134.1178
 2178.0000     1.3897   134.0107
 2178.5000     1.4591   133.9037
 2179.0000     1.5285   133.8400
 2179.5000     1.5978   138.0970
 2180.0000     1.8439   144.4261
 2180.5000     2.1611   173.7827
 2181.0000     2.4784   274.2979
 2181.5000     2.7956   500.3986
 2182.0000     3.1128   575.7975
 2182.5000     3.0328   592.5834
 2183.0000     2.6526   515.2040
 2183.5000     2.2724   442.0024
 2184.0000     2.0014   375.0799
 2184.5000     1.9873   291.4091
 2185.0000     1.9731   222.3935
 2185.5000     1.9590   184.7691
 2186.0000     1.9455   157.6141
 2186.5000     1.8453   149.2795
 2187.0000     1.7420   140.9575
 2187.5000     1.6387   132.6521
 2188.0000     1.5398   132.7064
 2188.5000     1.5824   130.6550
 2189.0000     1.6216   130.7176
 2189.5000     1.6611   132.8649
 2190.0000     1.7949   132.9149
 2190.5000     2.0118   135.0621
 2191.0000     2.2286   141.3913
 2191.5000     2.4455   141.4361
 2192.0000     2.5078   141.4884
 2192.5000     2.4942   141.5407
 2193.0000     2.4805   141.5930
 2193.5000     2.4669   141.6454
 2194.0000     2.3860   141.6977
 2194.5000     2.2201   141.7500
 2195.0000     2.0305   141.8023
 2195.5000     2.0307   141.8547
 2196.0000     2.0309   141.9070
 2196.5000     2.0311   141.9593
 2197.0000     2.0313   142.0116
 2197.5000     2.0315   142.0639
 2198.0000     2.0317   142.1163
 2198.5000     2.0319   142.1686
 2199.0000     2.0321   142.2209
 2199.5000     2.0323   142.2797
 2200.0000     2.0325   142.3339
 2200.5000     2.0298   142.3882
 2201.0000     1.9539   140.3285
 2201.5000     1.8781   138.3022
 2202.0000     1.8022   136.2467
 2202.5000     1.7287   136.3176
 2203.0000     1.8049   136.3677
 2203.5000     1.8788   134.3164
 2204.0000     1.9527   134.3789
 2204.5000     2.0267   134.4332
 2205.0000     2.1006   134.4832
 2205.5000     2.1745   134.5374
