~VERSION INFORMATION
 VERS.                2.0:   CWLS LOG ASCII STANDARD - VERSION 2.0
 WRAP.                 NO:   ONE LINE PER DEPTH STEP
~WELL INFORMATION
#MNEM.UNIT      DATA TYPE    INFORMATION
#----------   ------------   ------------------------------
 STRT.F         1005.5000:   START DEPTH
 STOP.F         2315.0000:   STOP DEPTH
 STEP.F            0.5000:   STEP LENGTH
 NULL.          -999.2500:   NO VALUE
 COMP. LAWRENCE/ALLISON INC:   COMPANY
 WELL.  32 SHX 15 #32 -15:   WELL
 FLD .             TEAPOT:   FIELD
 LOC .      S15 T38N R78W:   LOCATION
 CNTY.            NATRONA:   COUNTY
 STAT.            WYOMING:   STATE
 CTRY. UNITED STATES OF AMERICA:   COUNTRY
 SRVC.            Unknown:   SERVICE COMPANY
 DATE.        10-SEP-1988:   LOGDATE
 API .       490251124500:   API NUMBER
~CURVE INFORMATION
#MNEM.UNIT       API CODE    CURVE DESCRIPTION
#----------   ------------   ------------------------------
 DEPT.F                  :   
 ROP .MIN/FT 91 810 01 00:   RATE OF DRILLING PENETRATION
 TGAS.UNITS  91 830 01 00:   TOTAL GAS FROM HOTWIRE
~PARAMETER INFORMATION
#MNEM.UNIT          VALUE    DESCRIPTION
#----------   ------------   ------------------------------
 EKB .F              5259:   KELLING BUSHING
 EGL .F              5249:   GROUND LEVEL
 DATE.        10-SEP-1988:   RUN DATE
 RUN .                  1:   RUN NUMBER
 DD  .F              2316:   DEPTH DRILLER
 TLI .F              1005:   TOP LOG INTERVAL
 CS  .IN                7:   CASING SIZE
 CBD .F               991:   CASING BOTTOM DRILLER
 ENGI. R. HUSK/D. PETERSON:   RECORDING ENGINEER
 CLNT.            A2DTECH:   CLIENT CODE
 ORIG.           5" PRINT:   ORIGIN OF DATA
 UWI .       490251124500:   UNIQUE WELL ID
 DICO. A2D Technologies, Inc.:   DIGITIZING COMPANY
~OTHER INFORMATION
~A  DEPT         ROP       TGAS 
# ...
 2220.5000     0.3947     4.3849
 2221.0000     0.3953     4.3989
 2221.5000     0.3640     4.4128
 2222.0000     0.3646     4.4268
 2222.5000     0.3543     4.4408
 2223.0000     0.3549     4.4548
 2223.5000     0.3236     4.4688
 2224.0000     0.3134     4.4827
 2224.5000     0.3564     4.4967
 2225.0000     0.3991     4.5107
 2225.5000     0.4419     4.5247
 2226.0000     0.4424     4.5387
 2226.5000     0.4111     4.5526
 2227.0000     0.4009     4.5666
 2227.5000     0.4015     4.5806
 2228.0000     0.4125     4.5946
 2228.5000     0.4447     4.6085
 2229.0000     0.4452     4.6225
 2229.5000     0.4457     4.6365
 2230.0000     0.4461     4.6505
 2230.5000     0.4346     4.6645
 2231.0000     0.4153     4.6784
 2231.5000     0.4051     4.6924
 2232.0000     0.3741     4.7064
 2232.5000     0.3639     4.7204
 2233.0000     0.3644     4.7344
 2233.5000     0.3755     4.7483
 2234.0000     0.4077     4.7623
 2234.5000     0.4505     4.7763
 2235.0000     0.4615     4.7903
 2235.5000     0.4937     4.8042
 2236.0000     0.5259     4.8182
 2236.5000     0.5368     4.8322
 2237.0000     0.4951     4.8462
 2237.5000     0.4639     4.8602
 2238.0000     0.4536     4.8741
 2238.5000     0.4225     4.8881
 2239.0000     0.4230     4.9021
 2239.5000     0.4340     4.9161
 2240.0000     0.4238     4.9301
 2240.5000     0.4137     4.9440
 2241.0000     0.3720     4.9580
 2241.5000     0.3619     4.9720
 2242.0000     0.3412     4.9860
 2242.5000     0.3418     4.9999
 2243.0000     0.3422     5.0139
 2243.5000     0.3745     5.0279
 2244.0000     0.3749     5.0419
 2244.5000     0.3754     5.0559
 2245.0000     0.3759     5.0698
 2245.5000     0.3869     5.0838
 2246.0000     0.4191     5.0978
 2246.5000     0.4513     5.1118
 2247.0000     0.4624     5.1258
 2247.5000     0.4311     5.1397
 2248.0000     0.4208     5.1537
 2248.5000     0.4321     5.1677
 2249.0000     0.4748     5.1817
 2249.5000     0.5176     5.1957
 2250.0000     0.5498     5.2096
 2250.5000     0.5502     5.2236
 2251.0000     0.5083     5.2376
 2251.5000     0.4665     5.2516
 2252.0000     0.4247     5.2655
 2252.5000     0.3829     5.2795
 2253.0000     0.3517     5.2935
 2253.5000     0.3628     5.3075
 2254.0000     0.3844     5.3215
 2254.5000     0.4166     5.3354
 2255.0000     0.4382     5.3494
 2255.5000     0.4810     5.3634
 2256.0000     0.4920     5.3774
 2256.5000     0.4714     5.3914
 2257.0000     0.4401     5.4053
 2257.5000     0.4195     5.4193
 2258.0000     0.3986     5.4333
 2258.5000     0.3993     5.4473
 2259.0000     0.3998     5.4612
 2259.5000     0.3895     5.4752
 2260.0000     0.3901     5.4892
 2260.5000     0.3906     5.5032
 2261.0000     0.3804     5.5172
 2261.5000     0.3491     5.5311
 2262.0000     0.3391     5.5451
 2262.5000     0.3502     5.5591
 2263.0000     0.3613     5.5731
 2263.5000     0.3829     5.5871
 2264.0000     0.3939     5.6010
 2264.5000     0.4050     5.6150
 2265.0000     0.4371     5.6290
 2265.5000     0.4376     5.6430
 2266.0000     0.4381     5.6569
 2266.5000     0.4068     5.6709
 2267.0000     0.3862     5.6849
 2267.5000     0.3654     5.6989
 2268.0000     0.3553     5.7129
 2268.5000     0.3560     5.7268
 2269.0000     0.3564     5.7408
 2269.5000     0.3675     5.7548
 2270.0000     0.3891     5.7688
 2270.5000     0.4001     5.7828
 2271.0000     0.4429     5.7967
 2271.5000     0.4645     5.8107
 2272.0000     0.4861     5.8247
 2272.5000     0.4548     5.8387
 2273.0000     0.4447     5.8526
 2273.5000     0.4347     5.8666
 2274.0000     0.4139     5.8806
 2274.5000     0.4038     5.8946
 2275.0000     0.3938     5.9086
 2275.5000     0.3943     5.9225
 2276.0000     0.3735     5.9365
 2276.5000     0.4058     5.9505
 2277.0000     0.4169     5.9645
 2277.5000     0.4491     5.9785
 2278.0000     0.4600     5.9924
 2278.5000     0.4499     6.0064
 2279.0000     0.4188     6.0204
 2279.5000     0.3981     6.0344
 2280.0000     0.3667     6.0483
 2280.5000     0.3461     6.0623
 2281.0000     0.3678     6.0763
 2281.5000     0.3894     6.0903
 2282.0000     0.4111     6.1043
 2282.5000     0.4009     6.1182
 2283.0000     0.3801     6.1322
 2283.5000     0.3701     6.1462
 2284.0000     0.3707     6.1602
 2284.5000     0.4029     6.1742
 2285.0000     0.4245     6.1881
 2285.5000     0.4567     6.2021
 2286.0000     0.4995     6.2161
 2286.5000     0.5105     6.2301
 2287.0000     0.5003     6.2440
 2287.5000     0.5009     6.2580
 2288.0000     0.4696     6.2720
 2288.5000     0.4594     6.2860
 2289.0000     0.4283     6.3000
 2289.5000     0.4182     6.3139
 2290.0000     0.4187     6.3279
 2290.5000     0.4086     6.3419
 2291.0000     0.3878     6.3559
 2291.5000     0.3777     6.3699
 2292.0000     0.3676     6.3838
 2292.5000     0.3893     6.3978
 2293.0000     0.4215     6.4118
 2293.5000     0.4326     6.4258
 2294.0000     0.4330    10.4316
 2294.5000     0.4228    18.9439
 2295.0000     0.3811    27.4562
 2295.5000     0.3605    35.9685
 2296.0000     0.3397    44.4808
 2296.5000     0.3085    52.9931
 2297.0000     0.2985    61.5054
 2297.5000     0.3095    70.0177
 2298.0000     0.3100    80.9202
 2298.5000     0.3105   102.4518
 2299.0000     0.3003   123.9833
 2299.5000     0.3009   145.5149
 2300.0000     0.3013   167.0464
 2300.5000     0.3018  -999.2500
 2301.0000     0.3340  -999.2500
 2301.5000     0.3450  -999.2500
 2302.0000     0.3137  -999.2500
 2302.5000     0.3036  -999.2500
 2303.0000     0.2618  -999.2500
 2303.5000     0.2305  -999.2500
 2304.0000     0.2311  -999.2500
 2304.5000     0.2634  -999.2500
 2305.0000     0.3167  -999.2500
 2305.5000     0.3594  -999.2500
 2306.0000     0.3705  -999.2500
 2306.5000     0.3814  -999.2500
 2307.0000     0.3502  -999.2500
 2307.5000     0.3508  -999.2500
 2308.0000     0.3405  -999.2500
 2308.5000     0.3094  -999.2500
 2309.0000     0.2888  -999.2500
 2309.5000     0.2785  -999.2500
 2310.0000     0.2791  -999.2500
 2310.5000     0.3430  -999.2500
 2311.0000     0.3964  -999.2500
 2311.5000     0.4286  -999.2500
 2312.0000     0.4291  -999.2500
 2312.5000     0.3977  -999.2500
 2313.0000     0.3983  -999.2500
 2313.5000     0.3669  -999.2500
 2314.0000     0.3463  -999.2500
 2314.5000     0.3150  -999.2500
 2315.0000     0.3156  -999.2500
