~VERSION INFORMATION
 VERS.                2.0:   CWLS LOG ASCII STANDARD - VERSION 2.0
 WRAP.                 NO:   ONE LINE PER DEPTH STEP
~WELL INFORMATION
#MNEM.UNIT      DATA TYPE    INFORMATION
#----------   ------------   ------------------------------
 STRT.F            5.0000:   START DEPTH
 STOP.F          668.0000:   STOP DEPTH
 STEP.F            0.5000:   STEP LENGTH
 NULL.          -999.2500:   NO VALUE
 COMP. LAWRENCE/ALLISON INC:   COMPANY
 WELL.    38-61 SX #38-34:   WELL
 FLD .             TEAPOT:   FIELD
 LOC .      S34 T39N R78W:   LOCATION
 CNTY.            NATRONA:   COUNTY
 STAT.            WYOMING:   STATE
 CTRY. UNITED STATES OF AMERICA:   COUNTRY
 SRVC.           Gearhart:   SERVICE COMPANY
 DATE.        18-AUG-1987:   LOGDATE
 API .       490251116700:   API NUMBER
~CURVE INFORMATION
#MNEM.UNIT       API CODE    CURVE DESCRIPTION
#----------   ------------   ------------------------------
 DEPT.F                  :   
 GRR .GAPI   07 310 01 00:   GAMMA RAY
 ILD .OHMM   07 120 46 00:   INDUCTION LOG DEEP
 ILM .OHMM   07 120 44 00:   INDUCTION LOG MEDIUM
~PARAMETER INFORMATION
#MNEM.UNIT          VALUE    DESCRIPTION
#----------   ------------   ------------------------------
 PD  .                 GL:   PERMANENT DATUM
 EPD .F              5175:   ELEVATION PERMANENT DATUM
 LMF .                 KB:   LOG MEASURED FROM
 DAPD.F                 8:   FEET ABOVE PERMANENT DATUM
 DMF .                 KB:   DRILLING MEASURED FROM
 EKB .F              5183:   KELLING BUSHING
 EGL .F              5175:   GROUND LEVEL
 DATE.        18-AUG-1987:   RUN DATE
 RUN .                  1:   RUN NUMBER
 DD  .F               665:   DEPTH DRILLER
 DL  .F               669:   DEPTH LOGGER
 BLI .F               667:   BOTTOM LOG INTERVAL
 CBD .F                47:   CASING BOTTOM DRILLER
 CBL .F                47:   CASING BOTTOM LOGGER
 BS  .IN            7.875:   BIT SIZE
 BSD .F               665:   BIT SIZE AT DEPTH
 DFT .           NONE AIR:   DRILLING FLUID TYPE
 TLAB.HRS            0830:   TIME LOGGER AT BOTTOM
 MRT .F                80:   MAXIMUM RECORDED TEMPERATURE
 LUN .               7597:   LOGGING UNIT NUMBER
 LUL .           GILLETTE:   LOGGING UNIT LOCATION
 ENGI.        K.HUCKFELDT:   RECORDING ENGINEER
 WITN.          G. STRONG:   WITNESSED BY
 CLNT.            A2DTECH:   CLIENT CODE
 ORIG.           5" PRINT:   ORIGIN OF DATA
 UWI .       490251116700:   UNIQUE WELL ID
 DICO. A2D Technologies, Inc.:   DIGITIZING COMPANY
~OTHER INFORMATION
~A    DEPT      GRR       ILD        ILM   
# ...
  460.0000    76.1297    26.8501    25.6689
  460.5000    78.5657    26.3042    24.1162
  461.0000    79.8015    25.9353    22.9739
  461.5000    79.5176    24.8977    22.5027
  462.0000    79.2097    24.0567    22.3497
  462.5000    77.7389    23.6932    22.3534
  463.0000    75.9352    23.2476    22.2008
  463.5000    73.8276    22.9353    21.8971
  464.0000    74.1804    22.4706    21.3002
  464.5000    77.8239    22.1671    20.7045
  465.0000    81.1874    21.8678    20.0143
  465.5000    84.5509    21.7226    19.4681
  466.0000    87.3394    21.5601    19.0688
  466.5000    86.7236    21.4363    18.8037
  467.0000    84.6159    21.3983    18.6802
  467.5000    81.9004    21.2999    18.6832
  468.0000    79.4529    21.3139    18.6857
  468.5000    80.4256    21.4642    18.9498
  469.0000    82.5733    21.6202    19.0846
  469.5000    84.7210    21.7773    19.2207
  470.0000    86.9098    21.9382    19.6284
  470.5000    88.7174    22.1164    20.0446
  471.0000    89.3403    22.5686    20.4888
  471.5000    87.8455    22.7326    20.7597
  472.0000    85.0415    23.0574    20.9072
  472.5000    82.1155    23.5516    20.9100
  473.0000    80.9147    23.9257    21.2055
  473.5000    81.5476    24.2294    21.5059
  474.0000    82.7884    24.7469    21.9619
  474.5000    83.4163    25.2773    22.4277
  475.0000    83.4363    25.6385    23.2239
  475.5000    82.5445    25.6460    24.3859
  476.0000    80.4418    25.6536    24.9031
  476.5000    78.6381    25.4835    24.9063
  477.0000    77.1384    25.3146    24.5657
  477.5000    75.9422    25.1468    23.4028
  478.0000    75.3547    24.6355    22.2943
  478.5000    77.2034    23.9553    21.3864
  479.0000    79.6550    23.1596    20.6586
  479.5000    82.7146    22.3757    20.0947
  480.0000    86.3870    21.6183    19.6832
  480.5000    85.4951    21.0267    19.2789
  481.0000    84.2993    20.1811    18.8841
  481.5000    83.4073    19.9071    18.4968
  482.0000    83.4325    19.7766    18.1181
  482.5000    84.0604    19.6455    17.7465
  483.0000    83.4725    19.2474    17.5038
  483.5000    82.2767    18.9861    17.2644
  484.0000    79.8701    18.7297    17.0288
  484.5000    80.4980    18.6068    17.0311
  485.0000    83.8615    18.6138    16.9148
  485.5000    86.0092    18.6193    16.9175
  486.0000    84.8184    18.7546    17.0379
  486.5000    83.0147    18.7601    17.1594
  487.0000    81.8139    18.8966    17.1617
  487.5000    84.2705    18.9034    17.2837
  488.0000    86.4182    18.7767    17.4147
  488.5000    84.9234    18.7836    17.5308
  489.0000    83.1197    18.6591    17.5331
  489.5000    81.6200    18.4085    17.4134
  490.0000    84.0766    18.2865    17.1758
  490.5000    85.6164    18.1639    16.9414
  491.0000    86.5482    17.9199    16.8257
  491.5000    87.1763    17.8011    16.5956
  492.0000    86.2893    17.8077    16.3692
  492.5000    84.1817    17.8126    16.1458
  493.0000    84.5056    17.6949    15.9245
  493.5000    85.7659    17.4559    15.8163
  494.0000    87.8941    17.2202    15.6005
  494.5000    88.8260    16.9876    15.3871
  495.0000    87.0223    16.7043    15.2825
  495.5000    84.5786    16.5226    15.1787
  496.0000    81.5962    16.3098    15.3938
  496.5000    80.0964    16.0896    15.0781
  497.0000    81.6362    15.8734    14.8719
  497.5000    84.4123    15.7529    14.5669
  498.0000    84.1128    15.6637    14.3677
  498.5000    83.5249    15.6695    14.2700
  499.0000    84.4568    15.6741    14.0753
  499.5000    86.3253    15.6788    14.0675
  500.0000    87.2324    15.2553    13.9815
  500.5000    87.0024    15.1556    13.9846
  501.0000    86.7891    15.0586    13.8905
  501.5000    86.6689    15.0686    13.8939
  502.0000    85.1348    14.9720    13.9935
  502.5000    82.7532    14.9817    14.0939
  503.0000    80.6398    14.9896    14.1957
  503.5000    80.0462    14.8936    14.3973
  504.0000    81.3090    14.7982    14.5005
  504.5000    81.5944    14.6017    14.5034
  505.0000    80.3964    14.5099    14.5069
  505.5000    80.3789    14.4055    14.2103
  506.0000    84.0759    14.2257    13.9198
  506.5000    88.0416    14.0387    13.5407
  507.0000    89.8795    13.9486    13.0814
  507.5000    90.1977    13.8595    12.9027
  508.0000    88.9998    13.7707    12.9959
  508.5000    88.4026    13.6826    13.1804
  509.0000    88.1129    13.5965    13.2756
  509.5000    88.1307    13.5097    13.2782
  510.0000    88.4525    13.5185    13.1882
  510.5000    89.3786    13.4302    13.1000
  511.0000    90.6086    13.4390    12.8328
  511.5000    91.5348    13.4477    12.6581
  512.0000    90.3368    13.5486    12.5723
  512.5000    88.8313    13.5865    12.5754
  513.0000    87.9301    13.7524    12.6662
  513.5000    90.4467    13.8574    12.7570
  514.0000    92.2211    13.9612    12.9382
  514.5000    90.1077    13.9685    13.1219
  515.0000    88.2982    14.0731    13.3088
  515.5000    85.8844    14.1806    13.4043
  516.0000    86.8106    14.1880    13.5004
  516.5000    88.3446    14.0953    13.5031
  517.0000    88.6628    14.0068    13.5064
  517.5000    89.2885    13.9176    13.4148
  518.0000    89.3028    13.8281    13.2329
  518.5000    88.4052    13.6463    13.1401
  519.0000    87.5035    13.5588    12.9648
  519.5000    84.7898    13.2862    12.8776
  520.0000    80.8527    13.0207    12.7909
  520.5000    82.3867    12.8478    12.6127
  521.0000    86.1032    12.7655    12.3600
  521.5000    90.3216    12.7739    12.1067
  522.0000    93.6793    12.7806    11.8597
  522.5000    93.3860    12.7872    11.6930
  523.0000    93.4387    12.8831    11.5391
  523.5000    94.6375    12.9814    11.5419
  524.0000    96.1715    13.2616    11.6246
  524.5000    97.0976    13.6424    11.7081
  525.0000    97.1154    14.1319    12.0411
  525.5000    95.9139    15.1583    12.4694
  526.0000    93.8005    16.0328    13.9391
  526.5000    91.3831    17.1950    15.5045
  527.0000    84.7140    18.4465    17.9104
  527.5000    75.3058    20.6227    20.4432
  528.0000    70.7608    22.5833    23.3341
  528.5000    70.1671    24.7303    25.2310
  529.0000    71.4008    26.1621    26.2727
  529.5000    72.3269    27.0992    26.6457
  530.0000    72.6451    27.4926    26.8368
  530.5000    71.7475    27.3166    26.8422
  531.0000    71.7653    27.3310    26.4780
  531.5000    73.2993    26.9714    26.2984
  532.0000    74.5294    26.9855    26.3049
  532.5000    72.9889    27.1878    26.4937
  533.0000    70.3062    27.5931    27.0585
  533.5000    68.1928    28.1818    27.4427
  534.0000    68.5110    28.3930    27.6395
  534.5000    71.8723    28.4079    27.8380
  535.0000    72.1869    28.2260    27.8446
  535.5000    70.6850    27.8511    27.4656
  536.0000    69.7872    27.2946    26.9040
  536.5000    71.6289    26.7457    26.1727
  537.0000    74.0748    26.3762    25.4600
  537.5000    75.6088    25.6841    24.7667
  538.0000    74.7071    25.3431    23.9253
  538.5000    72.9053    24.8334    22.9536
  539.0000    72.3117    24.3185    22.3275
  539.5000    72.6299    23.5187    21.8710
  540.0000    73.8599    23.0458    21.2765
  540.5000    72.3580    22.7393    20.4123
  541.0000    71.7608    22.2805    19.9950
  541.5000    73.2984    21.8313    19.9989
  542.0000    75.4773    21.5321    19.9372
  542.5000    77.2818    21.2619    19.8682
  543.0000    78.5119    21.1698    19.8730
  543.5000    79.1341    21.1355    19.8769
  544.0000    79.1519    21.0015    19.8808
  544.5000    78.5547    20.8685    19.8857
  545.0000    78.2650    20.7361    19.6140
  545.5000    78.2828    20.7471    19.4820
  546.0000    78.6046    20.6141    19.0846
  546.5000    78.9228    20.6276    18.8257
  547.0000    80.1529    20.4928    18.8294
  547.5000    83.2219    20.2233    18.8331
  548.0000    86.5644    20.2365    18.9016
  548.5000    83.2387    20.2471    18.9729
  549.0000    81.1253    20.1149    19.1090
  549.5000    79.9027    20.1282    19.2460
  550.0000    79.6341    19.8747    19.5197
  550.5000    80.2665    19.7337    19.7316
