~VERSION INFORMATION
 VERS.                2.0:   CWLS LOG ASCII STANDARD - VERSION 2.0
 WRAP.                 NO:   ONE LINE PER DEPTH STEP
~WELL INFORMATION
#MNEM.UNIT      DATA TYPE    INFORMATION
#----------   ------------   ------------------------------
 STRT.F         1005.5000:   START DEPTH
 STOP.F         2315.0000:   STOP DEPTH
 STEP.F            0.5000:   STEP LENGTH
 NULL.          -999.2500:   NO VALUE
 COMP. LAWRENCE/ALLISON INC:   COMPANY
 WELL.  32 SHX 15 #32 -15:   WELL
 FLD .             TEAPOT:   FIELD
 LOC .      S15 T38N R78W:   LOCATION
 CNTY.            NATRONA:   COUNTY
 STAT.            WYOMING:   STATE
 CTRY. UNITED STATES OF AMERICA:   COUNTRY
 SRVC.            Unknown:   SERVICE COMPANY
 DATE.        10-SEP-1988:   LOGDATE
 API .       490251124500:   API NUMBER
~CURVE INFORMATION
#MNEM.UNIT       API CODE    CURVE DESCRIPTION
#----------   ------------   ------------------------------
 DEPT.F                  :   
 ROP .MIN/FT 91 810 01 00:   RATE OF DRILLING PENETRATION
 TGAS.UNITS  91 830 01 00:   TOTAL GAS FROM HOTWIRE
~PARAMETER INFORMATION
#MNEM.UNIT          VALUE    DESCRIPTION
#----------   ------------   ------------------------------
 EKB .F              5259:   KELLING BUSHING
 EGL .F              5249:   GROUND LEVEL
 DATE.        10-SEP-1988:   RUN DATE
 RUN .                  1:   RUN NUMBER
 DD  .F              2316:   DEPTH DRILLER
 TLI .F              1005:   TOP LOG INTERVAL
 CS  .IN                7:   CASING SIZE
 CBD .F               991:   CASING BOTTOM DRILLER
 ENGI. R. HUSK/D. PETERSON:   RECORDING ENGINEER
 CLNT.            A2DTECH:   CLIENT CODE
 ORIG.           5" PRINT:   ORIGIN OF DATA
 UWI .       490251124500:   UNIQUE WELL ID
 DICO. A2D Technologies, Inc.:   DIGITIZING COMPANY
~OTHER INFORMATION
~A  DEPT         ROP       TGAS 
# ...
 1613.0000     0.3969     7.5132
 1613.5000     0.3656     7.5090
 1614.0000     0.3554     7.5048
 1614.5000     0.3453     7.5006
 1615.0000     0.3245     7.4964
 1615.5000     0.3250     7.4922
 1616.0000     0.3147     7.4880
 1616.5000     0.3153     7.4838
 1617.0000     0.3157     7.4796
 1617.5000     0.3161     7.4754
 1618.0000     0.3166     7.4712
 1618.5000     0.3275     7.4670
 1619.0000     0.3491     7.4628
 1619.5000     0.3601     7.4586
 1620.0000     0.3711     7.4544
 1620.5000     0.3927     7.4502
 1621.0000     0.4036     7.4460
 1621.5000     0.4041     7.4418
 1622.0000     0.4151     7.4376
 1622.5000     0.4261     7.4334
 1623.0000     0.4476     7.4292
 1623.5000     0.4481     7.4250
 1624.0000     0.4485     7.4208
 1624.5000     0.4595     7.4166
 1625.0000     0.4492     7.4124
 1625.5000     0.4498     7.4082
 1626.0000     0.4502     7.4040
 1626.5000     0.4294     7.3998
 1627.0000     0.4192     7.3955
 1627.5000     0.4090     7.3913
 1628.0000     0.4096     7.3871
 1628.5000     0.4100     7.3829
 1629.0000     0.4104     7.3787
 1629.5000     0.4108     7.3745
 1630.0000     0.4113     7.3703
 1630.5000     0.4117     7.3661
 1631.0000     0.4121     7.3619
 1631.5000     0.4125     7.3577
 1632.0000     0.4129     7.3535
 1632.5000     0.4134     7.3493
 1633.0000     0.4244     7.3451
 1633.5000     0.4141     7.3409
 1634.0000     0.4041     7.3367
 1634.5000     0.3728     7.3325
 1635.0000     0.3626     7.3283
 1635.5000     0.3418     7.3241
 1636.0000     0.3317     7.3199
 1636.5000     0.3428     7.3157
 1637.0000     0.3749     7.3115
 1637.5000     0.4176     7.3073
 1638.0000     0.4603     7.3031
 1638.5000     0.4608     7.2989
 1639.0000     0.4294     7.2947
 1639.5000     0.4192     7.2905
 1640.0000     0.3880     7.2863
 1640.5000     0.3884     7.2821
 1641.0000     0.4100     7.2779
 1641.5000     0.4210     7.2737
 1642.0000     0.4320     7.2695
 1642.5000     0.4641     7.2653
 1643.0000     0.4751     7.2611
 1643.5000     0.4967     7.2568
 1644.0000     0.4971     7.2526
 1644.5000     0.5081     7.2484
 1645.0000     0.4980     7.2442
 1645.5000     0.4771     7.2400
 1646.0000     0.4459     7.2358
 1646.5000     0.4251     7.2316
 1647.0000     0.3939     7.2274
 1647.5000     0.3837     7.2232
 1648.0000     0.3630     7.2190
 1648.5000     0.3528     7.2148
 1649.0000     0.3639     7.2106
 1649.5000     0.3749     7.2064
 1650.0000     0.3965     7.2022
 1650.5000     0.4286     7.1980
 1651.0000     0.4396     7.1938
 1651.5000     0.4400     7.1896
 1652.0000     0.4404     7.1854
 1652.5000     0.4409     7.1812
 1653.0000     0.4307     7.1770
 1653.5000     0.4206     7.1728
 1654.0000     0.3997     7.1686
 1654.5000     0.3896     7.1644
 1655.0000     0.3690     7.1602
 1655.5000     0.3482     7.1560
 1656.0000     0.3487     7.1518
 1656.5000     0.3491     7.1476
 1657.0000     0.3388     7.1434
 1657.5000     0.3394     7.1392
 1658.0000     0.3398     7.1350
 1658.5000     0.3296     7.1308
 1659.0000     0.3301     7.1266
 1659.5000     0.3305     7.1223
 1660.0000     0.3309     7.1181
 1660.5000     0.3313     7.1139
 1661.0000     0.3317     7.1097
 1661.5000     0.3428     7.1055
 1662.0000     0.3538     7.1013
 1662.5000     0.3648     7.0971
 1663.0000     0.3863     7.0929
 1663.5000     0.3973     7.0887
 1664.0000     0.3977     7.0845
 1664.5000     0.3875     7.0803
 1665.0000     0.3668     7.0761
 1665.5000     0.3673     7.0719
 1666.0000     0.3677     7.0677
 1666.5000     0.3682     7.0635
 1667.0000     0.3791     7.0593
 1667.5000     0.3901     7.0551
 1668.0000     0.4011     7.0509
 1668.5000     0.4015     7.0467
 1669.0000     0.4126     7.0425
 1669.5000     0.4341     7.0383
 1670.0000     0.4451     7.0341
 1670.5000     0.4455     7.0299
 1671.0000     0.4459     7.0257
 1671.5000     0.4464     7.0215
 1672.0000     0.4468     7.0173
 1672.5000     0.4472     7.0131
 1673.0000     0.4582     7.0089
 1673.5000     0.4586     7.0047
 1674.0000     0.4591     7.0005
 1674.5000     0.4595     6.9963
 1675.0000     0.4492     6.9921
 1675.5000     0.4497     6.9879
 1676.0000     0.4396     6.9836
 1676.5000     0.4188     6.9794
 1677.0000     0.4087     6.9752
 1677.5000     0.4091     6.9710
 1678.0000     0.3939     6.9668
 1678.5000     0.3781     6.9626
 1679.0000     0.3680     6.9584
 1679.5000     0.3686     6.9542
 1680.0000     0.3372     6.9500
 1680.5000     0.3271     6.9458
 1681.0000     0.3275     6.9416
 1681.5000     0.3173     6.9374
 1682.0000     0.2965     6.9332
 1682.5000     0.2971     6.9290
 1683.0000     0.2869     6.9248
 1683.5000     0.2874     6.9206
 1684.0000     0.2878     6.9164
 1684.5000     0.2882     6.9122
 1685.0000     0.2886     6.9080
 1685.5000     0.2996     6.9038
 1686.0000     0.3212     6.8996
 1686.5000     0.3322     6.8954
 1687.0000     0.3643     6.8912
 1687.5000     0.3859     6.8870
 1688.0000     0.4075     6.8828
 1688.5000     0.4184     6.8786
 1689.0000     0.4295     6.8744
 1689.5000     0.4404     6.8702
 1690.0000     0.4620     6.8660
 1690.5000     0.4624     6.8618
 1691.0000     0.4734     6.8576
 1691.5000     0.4738     6.8534
 1692.0000     0.4636     6.8492
 1692.5000     0.4641     6.8449
 1693.0000     0.4645     6.8407
 1693.5000     0.4650     6.8365
 1694.0000     0.4442     6.8323
 1694.5000     0.4340     6.8281
 1695.0000     0.4345     6.8239
 1695.5000     0.4242     6.8197
 1696.0000     0.4141     6.8155
 1696.5000     0.3934     6.8113
 1697.0000     0.3832     6.8071
 1697.5000     0.3731     6.8029
 1698.0000     0.3524     6.7987
 1698.5000     0.3422     6.7945
 1699.0000     0.3216     6.7903
 1699.5000     0.3114     6.7861
 1700.0000     0.3119     6.7812
 1700.5000     0.3123     6.7883
 1701.0000     0.3128     6.7968
 1701.5000     0.3132     6.8052
 1702.0000     0.3136     6.8137
 1702.5000     0.3246     6.8221
 1703.0000     0.3461     6.8306
 1703.5000     0.3466     6.8390
 1704.0000     0.3576     6.8475
 1704.5000     0.3809     6.8559
 1705.0000     0.3901     6.8644
 1705.5000     0.3905     6.8729
 1706.0000     0.4016     6.8813
 1706.5000     0.4245     6.8898
 1707.0000     0.4356     6.8982
 1707.5000     0.4678     6.9067
 1708.0000     0.4683     6.9151
 1708.5000     0.4688     6.9236
 1709.0000     0.4694     6.9320
 1709.5000     0.4700     6.9405
 1710.0000     0.4705     6.9489
 1710.5000     0.4710     6.9574
 1711.0000     0.4715     6.9658
 1711.5000     0.4402     6.9743
 1712.0000     0.4302     6.9827
 1712.5000     0.4288     6.9912
 1713.0000     0.3995     6.9996
 1713.5000     0.3895     7.0081
 1714.0000     0.3690     7.0165
 1714.5000     0.3588     7.0250
 1715.0000     0.3595     7.0335
 1715.5000     0.3493     7.0419
 1716.0000     0.3500     7.0504
 1716.5000     0.3505     7.0588
 1717.0000     0.3511     7.0673
 1717.5000     0.3621     7.0757
 1718.0000     0.3944     7.0842
 1718.5000     0.4055     7.0926
 1719.0000     0.4483     7.1011
 1719.5000     0.4700     7.1095
 1720.0000     0.4388     7.1180
 1720.5000     0.3969     7.1264
 1721.0000     0.3657     7.1349
 1721.5000     0.3452     7.1433
 1722.0000     0.3244     7.1518
 1722.5000     0.3322     7.1602
 1723.0000     0.3574     7.1687
 1723.5000     0.3579     7.1772
 1724.0000     0.3902     7.1856
 1724.5000     0.4118     7.1941
 1725.0000     0.4440     7.2025
 1725.5000     0.4763     7.2110
 1726.0000     0.4768     7.2194
 1726.5000     0.4774     7.2279
 1727.0000     0.4884     7.2363
 1727.5000     0.4890     7.2448
 1728.0000     0.4895     7.2532
 1728.5000     0.4900     7.2617
 1729.0000     0.4906     7.2701
 1729.5000     0.4911     7.2786
 1730.0000     0.4916     7.2870
 1730.5000     0.4921     7.2955
 1731.0000     0.4927     7.3039
 1731.5000     0.4932     7.3124
 1732.0000     0.4937     7.3208
 1732.5000     0.4943     7.3293
 1733.0000     0.4948     7.3378
 1733.5000     0.4742     7.3462
 1734.0000     0.4640     7.3547
