~VERSION INFORMATION
 VERS.                2.0:   CWLS LOG ASCII STANDARD - VERSION 2.0
 WRAP.                 NO:   ONE LINE PER DEPTH STEP
~WELL INFORMATION
#MNEM.UNIT      DATA TYPE    INFORMATION
#----------   ------------   ------------------------------
 STRT.F           35.0000:   START DEPTH
 STOP.F          736.0000:   STOP DEPTH
 STEP.F            0.5000:   STEP LENGTH
 NULL.          -999.2500:   NO VALUE
 COMP. US DEPTMNT OF ENRGY:   COMPANY
 WELL.       NPR 3 #73-15:   WELL
 FLD .   TEAPOT NAVAL RES:   FIELD
 LOC .      S15 T38N R78W:   LOCATION
 CNTY.            NATRONA:   COUNTY
 STAT.            WYOMING:   STATE
 CTRY. UNITED STATES OF AMERICA:   COUNTRY
 SRVC.           Gearhart:   SERVICE COMPANY
 DATE.        02-SEP-1987:   LOGDATE
 API .       490251122300:   API NUMBER
~CURVE INFORMATION
#MNEM.UNIT       API CODE    CURVE DESCRIPTION
#----------   ------------   ------------------------------
 DEPT.F                  :   
 GRR .GAPI   07 310 01 00:   GAMMA RAY
 RILD.OHMM   07 120 46 00:   INDUCTION LOG DEEP RESISTIVITY
 RILM.OHMM   07 120 44 00:   INDUCTION LOG MEDIUM RESISTIVITY
~PARAMETER INFORMATION
#MNEM.UNIT          VALUE    DESCRIPTION
#----------   ------------   ------------------------------
 PD  .                 GL:   PERMANENT DATUM
 LMF .                 KB:   LOG MEASURED FROM
 DAPD.F              10.5:   FEET ABOVE PERMANENT DATUM
 DMF .                 KB:   DRILLING MEASURED FROM
 DATE.        02-SEP-1987:   RUN DATE
 RUN .                  1:   RUN NUMBER
 DD  .F               740:   DEPTH DRILLER
 DL  .F               743:   DEPTH LOGGER
 BLI .F               735:   BOTTOM LOG INTERVAL
 TLI .F                30:   TOP LOG INTERVAL
 CS  .IN            9.625:   CASING SIZE
 CBD .F               740:   CASING BOTTOM DRILLER
 CBL .F                40:   CASING BOTTOM LOGGER
 BS  .IN             8.75:   BIT SIZE
 BSD .F               740:   BIT SIZE AT DEPTH
 DFT .                AIR:   DRILLING FLUID TYPE
 TCS .HRS            0230:   TIME CURCULATED STOPPED
 TLAB.HRS            0447:   TIME LOGGER AT BOTTOM
 MRT .F                80:   MAXIMUM RECORDED TEMPERATURE
 LUN .               7697:   LOGGING UNIT NUMBER
 LUL .           GILLETTE:   LOGGING UNIT LOCATION
 ENGI.         WEATHERMON:   RECORDING ENGINEER
 WITN.             STRONG:   WITNESSED BY
 CLNT.            A2DTECH:   CLIENT CODE
 ORIG.           5" PRINT:   ORIGIN OF DATA
 UWI .       490251122300:   UNIQUE WELL ID
 DICO. A2D Technologies, Inc.:   DIGITIZING COMPANY
~OTHER INFORMATION
~A   DEPT       GRR      RILD       RILM   
# ...
  126.0000    99.5247    15.2615    15.6360
  126.5000    90.5894    15.2677    15.6402
  127.0000    87.9030    15.3795    15.5361
  127.5000    87.3233    15.4920    15.4317
  128.0000    88.8747    15.6054    15.1183
  128.5000    91.3161    15.8292    15.0166
  129.0000    90.1484    15.9451    15.0217
  129.5000    89.2747    16.1738    15.3425
  130.0000    89.6094    16.4058    15.6700
  130.5000    89.9442    16.7572    15.8967
  131.0000    91.7895    17.0024    16.3464
  131.5000    93.9369    17.3695    16.9301
  132.0000   100.0119    17.7471    17.2916
  132.5000    97.2357    18.1149    17.9080
  133.0000    92.8681    18.3748    18.6758
  133.5000    87.4291    18.6384    19.0745
  134.0000    83.8364    18.9057    19.3468
  134.5000    84.7753    19.3107    19.4871
  135.0000    88.1312    19.7243    19.6283
  135.5000    91.1850    19.8687    19.9085
  136.0000    91.2177    20.0141    20.0529
  136.5000    91.2503    20.1605    20.0585
  137.0000    90.9726    20.3082    20.0651
  137.5000    90.4092    20.4570    20.2105
  138.0000    89.2334    20.6081    20.2160
  138.5000    88.6616    20.7589    20.5046
  139.0000    89.0131    20.9109    20.7973
  139.5000    90.2769    21.0639    20.9481
  140.0000    92.3932    21.2180    21.0999
  140.5000    93.3322    21.5224    21.2529
  141.0000    93.0546    21.6799    21.4070
  141.5000    94.0017    21.6873    21.7248
  142.0000    94.3365    21.8460    22.3852
  142.5000    92.8585    21.8534    23.4522
  143.0000    90.4742    21.6916    23.6222
  143.5000    87.4857    21.2686    23.3008
  144.0000    87.2081    21.1285    22.6696
  144.5000    88.7595    20.8456    21.9012
  145.0000    90.3027    20.5648    21.3064
  145.5000    92.7562    20.2878    20.8721
  146.0000    95.8308    20.0145    20.5898
  146.5000    96.7450    19.8809    20.4508
  147.0000    94.6710    19.7500    20.0214
  147.5000    92.8909    19.6213    19.6279
  148.0000    92.0090    19.6282    19.3635
  148.5000    93.5604    18.4071    19.2332
  149.0000    96.9163    16.5508    18.3260
  149.5000    99.6680    14.7770    15.7315
  150.0000   101.2030    13.5990    14.5775
  150.5000   100.0352    12.6022    12.8674
  151.0000   100.0678    11.7600    11.9243
  151.5000   101.0066    10.8225    10.5989
  152.0000   104.7006     9.9598     9.4865
  152.5000   112.6737     8.7914     8.8444
  153.0000   119.5414     8.1470     8.4179
  153.5000   124.1056     7.8713     7.9268
  154.0000   128.3678     7.7639     7.6586
  154.5000   130.2130     7.6548     7.3995
  155.0000   128.7349     7.6103     7.1492
  155.5000   125.7463     7.6135     7.0529
  156.0000   120.3408     7.6692     7.0058
  156.5000   115.8416     7.6180     7.0577
  157.0000   111.9466     7.6213     7.1589
  157.5000   109.8643     7.6771     7.2616
  158.0000   109.8973     7.7332     7.4172
  158.5000   110.5770     7.7898     7.4729
  159.0000   112.0848     7.6849     7.6316
  159.5000   112.7135     7.6342     7.6348
  160.0000   108.8266     7.5314     7.5319
  160.5000   105.5359     7.4818     7.3279
  161.0000   104.3518     7.4325     7.0800
  161.5000   106.5073     7.3835     6.9840
  162.0000   110.7694     7.3867     6.9870
  162.5000   116.8443     7.4407     6.9410
  163.0000   119.8979     7.4432     6.9918
  163.5000   119.3202     7.4977     7.0921
  164.0000   118.4524     7.6053     7.3454
  164.5000   119.1450     7.7682     7.6608
  165.0000   117.3171     7.8796     7.7169
  165.5000   114.0264     7.9373     7.7735
  166.0000   104.6934     7.9400     7.7767
  166.5000   100.7984     7.9433     7.7248
  167.0000   101.1331     7.9460     7.7820
  167.5000   105.9994     7.9487     7.8389
  168.0000   112.3764     7.9515     7.8963
  168.5000   116.6385     8.0096     7.8990
  169.0000   116.6828     8.0124     7.9017
  169.5000   115.7972     8.1273     7.9044
  170.0000   115.1460     8.1868     7.9622
  170.5000   112.8492     8.3621     8.1328
  171.0000   111.0691     8.4821     8.2495
  171.5000   110.4893     8.5442     8.3679
  172.0000   110.2197     8.5472     8.4298
  172.5000   110.8646     8.4915     8.4326
  173.0000   111.8034     8.4355     8.3764
  173.5000   113.9508     8.3792     8.2642
  174.0000   114.3363     8.3240     8.1529
  174.5000   111.5989     8.2119     8.0985
  175.0000   108.0060     8.1578     7.9901
  175.5000   103.5069     8.0479     7.8825
  176.0000   104.2497     7.9954     7.7762
  176.5000   109.3202     7.9428     7.6715
  177.0000   113.8845     7.8358     7.5682
  177.5000   118.7508     7.7842     7.5183
  178.0000   113.6474     7.7875     7.5210
  178.5000   110.4995     7.8992     7.5241
  179.0000   106.4617     7.9019     7.5792
  179.5000   104.0692     7.9598     7.6346
  180.0000   105.9225     8.0180     7.7442
  180.5000   108.0699     8.0767     7.8008
  181.0000   109.9395     8.1358     7.8579
  181.5000   112.3656     8.1953     7.9706
  182.0000   111.1967     8.1412     7.9734
  182.5000   108.8123     8.1441     7.9761
  183.0000   107.9385     8.0904     7.9788
  183.5000   108.2732     8.0933     7.9815
  184.0000   110.4205     8.0966     8.0400
  184.5000   113.1721     8.1559     8.0995
  185.0000   115.0091     8.1586     8.1587
  185.5000   112.6329     8.2184     8.2185
  186.0000   111.1548     8.2211     8.2786
  186.5000   109.0726     8.2813     8.2814
  187.0000   106.3383     8.2841     8.2262
  187.5000   104.5066     8.2294     8.2297
  188.0000   104.3363     8.1186     8.1188
  188.5000   107.7002     8.0093     8.0094
  189.0000   111.0560     7.8964     7.8468
  189.5000   112.5991     7.7315     7.7411
  190.0000   113.2359     7.4798     7.5840
  190.5000   113.2684     7.2771     7.4300
  191.0000   113.5949     7.1785     7.3305
  191.5000   112.4260     7.1312     7.2318
  192.0000   110.6524     7.0842     7.1841
  192.5000   110.0725     7.0872     7.0873
  193.0000   111.0195     7.0405     7.0898
  193.5000   111.6563     7.0920     7.0424
  194.0000   111.9828     7.1439     6.9966
  194.5000   111.7132     7.1962     6.9990
  195.0000   112.0560     7.2490     6.9528
  195.5000   112.0885     7.3535     6.9071
  196.0000   113.0274     7.4073     6.9095
  196.5000   113.9668     7.5660     6.9119
  197.0000   114.6042     7.6213     6.9148
  197.5000   115.5500     7.7306     6.9171
  198.0000   117.9995     7.8962     6.9677
  198.5000   119.5345     8.0095     7.0677
  199.0000   116.5540     8.0681     7.2191
  199.5000   114.1696     8.0709     7.4252
  200.0000   110.8786     8.0182     7.6732
  200.5000   110.5988     8.1905     7.9651
  201.0000   110.9381     8.1939     8.1357
  201.5000   111.0101     8.1396     8.1953
  202.0000   108.8828     8.0866     8.1981
  202.5000   107.0998     8.0338     8.1441
  203.0000   105.3169     7.9270     8.0904
  203.5000   105.4139     7.8752     8.0371
  204.0000   107.2951     7.7697     7.9842
  204.5000   109.9453     7.6656     7.9323
  205.0000   110.8813     7.5629     7.8793
  205.5000   109.7026     7.4544     7.7200
  206.0000   109.7324     7.3113     7.6160
  206.5000   109.7621     7.3653     7.4608
  207.0000   109.4897     7.5236     7.3603
  207.5000   108.9152     7.6853     7.2618
  208.0000   108.3333     7.9052     7.1633
  208.5000   108.6726     8.0751     7.2164
  209.0000   109.0045     8.1347     7.3199
  209.5000   108.7321     8.3096     7.5814
  210.0000   105.7407     8.4293     7.8522
  210.5000   102.1450     8.6105     8.2543
  211.0000    99.1359     8.7346     8.5492
  211.5000    99.1843     8.7992     8.6644
  212.0000   101.6112     8.7418     8.6674
  212.5000   108.6159     8.6749     8.6095
  213.0000   113.1773     8.5684     8.4943
  213.5000   114.4081     8.3377     8.4376
  214.0000   112.0283     8.1690     8.2670
  214.5000   110.8422     8.0036     7.9874
  215.0000   110.8794     7.8956     7.7710
  215.5000   111.8154     7.8996     7.5605
  216.0000   115.4706     7.7398     7.3047
  216.5000   120.0320     7.5831     7.1068
