~VERSION INFORMATION
 VERS.                2.0:   CWLS LOG ASCII STANDARD - VERSION 2.0
 WRAP.                 NO:   ONE LINE PER DEPTH STEP
~WELL INFORMATION
#MNEM.UNIT      DATA TYPE    INFORMATION
#----------   ------------   ------------------------------
 STRT.F            8.0000:   START DEPTH
 STOP.F          419.0000:   STOP DEPTH
 STEP.F            0.5000:   STEP LENGTH
 NULL.          -999.2500:   NO VALUE
 COMP. LAWRENCE/ALLISON INC:   COMPANY
 WELL.   62-46 -SX #10-10:   WELL
 FLD .             TEAPOT:   FIELD
 LOC .      S10 T38N R78W:   LOCATION
 CNTY.            NATRONA:   COUNTY
 STAT.            WYOMING:   STATE
 CTRY. UNITED STATES OF AMERICA:   COUNTRY
 SRVC.           Gearhart:   SERVICE COMPANY
 DATE.        27-MAY-1988:   LOGDATE
 API .       490251120800:   API NUMBER
~CURVE INFORMATION
#MNEM.UNIT       API CODE    CURVE DESCRIPTION
#----------   ------------   ------------------------------
 DEPT.F                  :   
 GRR .GAPI   07 310 01 00:   GAMMA RAY
 ILD .OHMM   07 120 46 00:   INDUCTION LOG DEEP
 ILM .OHMM   07 120 44 00:   INDUCTION LOG MEDIUM
~PARAMETER INFORMATION
#MNEM.UNIT          VALUE    DESCRIPTION
#----------   ------------   ------------------------------
 PD  .                 GL:   PERMANENT DATUM
 EPD .F              5157:   ELEVATION PERMANENT DATUM
 LMF .                 KB:   LOG MEASURED FROM
 DAPD.F                 5:   FEET ABOVE PERMANENT DATUM
 DMF .                 KB:   DRILLING MEASURED FROM
 EKB .F              5162:   KELLING BUSHING
 EGL .F              5157:   GROUND LEVEL
 DATE.        27-MAY-1988:   RUN DATE
 RUN .                  1:   RUN NUMBER
 DD  .F               449:   DEPTH DRILLER
 DL  .F               437:   DEPTH LOGGER
 BLI .F               419:   BOTTOM LOG INTERVAL
 CS  .IN            8.625:   CASING SIZE
 CBD .F                45:   CASING BOTTOM DRILLER
 CBL .F                45:   CASING BOTTOM LOGGER
 BS  .IN            7.875:   BIT SIZE
 BSD .F               449:   BIT SIZE AT DEPTH
 DFT .                AIR:   DRILLING FLUID TYPE
 TLAB.HRS            0910:   TIME LOGGER AT BOTTOM
 MRT .F                70:   MAXIMUM RECORDED TEMPERATURE
 LUN .               7597:   LOGGING UNIT NUMBER
 LUL .           GILLETTE:   LOGGING UNIT LOCATION
 ENGI.          HUCKFELDT:   RECORDING ENGINEER
 WITN.             STRONG:   WITNESSED BY
 CLNT.            A2DTECH:   CLIENT CODE
 ORIG.           5" PRINT:   ORIGIN OF DATA
 UWI .       490251120800:   UNIQUE WELL ID
 DICO. A2D Technologies, Inc.:   DIGITIZING COMPANY
~OTHER INFORMATION
~A    DEPT      GRR       ILD        ILM   
# ...
  372.0000   100.1887    13.4350    13.3239
  372.5000   101.0961    13.5583    13.3272
  373.0000   100.7844    13.6305    13.4241
  373.5000   100.1698    13.7293    13.4268
  374.0000    98.3375    13.7321    13.4296
  374.5000    98.9406    13.7350    13.4329
  375.0000    99.2392    13.7382    13.4356
  375.5000    98.9276    13.6442    13.2504
  376.0000    97.7041    13.4573    13.1601
  376.5000    97.0895    13.3659    13.1628
  377.0000    98.9163    13.0906    13.0737
  377.5000   102.8604    13.0017    12.9839
  378.0000   105.5943    12.7333    12.8954
  378.5000   109.2415    12.6461    12.8075
  379.0000   103.1474    12.4712    12.8107
  379.5000   100.3846    12.3021    12.6341
  380.0000    99.7859    12.1330    12.4544
  380.5000    98.5624    12.0500    12.1172
  381.0000    97.6434    11.9681    11.9501
  381.5000    97.3332    11.8042    11.7854
  382.0000    97.6318    11.7240    11.5414
  382.5000    98.8422    11.5634    11.3823
  383.0000   100.0541    11.4045    11.2253
  383.5000   100.8818    11.3270    11.1488
  384.0000   101.8690    11.0932    10.9185
  384.5000   103.1284    10.9324    10.8436
  385.0000   103.9883    10.6404    10.6196
  385.5000   104.8958    10.2755    10.4617
  386.0000   105.8018     9.9231    10.1849
  386.5000   106.1005     9.5828     9.6970
  387.0000   107.3109     9.1100     9.1033
  387.5000   109.1316     8.1006     8.0779
  388.0000   111.2567     7.1907     7.0967
  388.5000   115.8171     6.7046     6.3610
  389.0000   121.9565     6.6587     5.8467
  389.5000   129.1983     6.7550     5.5273
  390.0000   134.0632     7.0966     5.6866
  390.5000   125.8382     7.3515     6.1508
  391.0000   119.1353     7.7234     6.8805
  391.5000   112.0690     8.1712     7.7026
  392.0000   107.8590     8.6450     8.3835
  392.5000   105.4179     9.1559     8.8711
  393.0000   104.1944     9.6770     9.1917
  393.5000   103.8650    10.1664     9.4557
  394.0000   109.1426    10.5317     9.4577
  394.5000   110.8742    10.8338     9.6615
  395.0000   106.3007    11.0706    10.2957
  395.5000   103.8596    11.3847    10.6668
  396.0000   103.2450    11.6293    10.8968
  396.5000   106.8908    11.7961    11.0541
  397.0000   106.5806    12.1345    11.2131
  397.5000   105.9660    12.3974    11.5357
  398.0000   107.1793    12.6622    11.8677
  398.5000   109.6297    12.8438    12.2092
  399.0000   112.0354    13.0281    12.5611
  399.5000   112.6399    13.2149    12.8316
  400.0000   109.2846    13.3107    13.2941
  400.5000   106.2333    13.5972    13.5753
  401.0000   103.7922    13.5999    13.8629
  401.5000   100.7422    13.6985    14.0572
  402.0000   107.1291    13.8950    14.2536
  402.5000   110.1675    13.9964    14.3525
  403.0000   107.1161    14.1971    14.4509
  403.5000   104.9794    14.3000    14.4485
  404.0000   104.6697    14.4036    14.5483
  404.5000  -999.2500    14.4066    14.6482
  405.0000  -999.2500    14.4102    14.7491
  405.5000  -999.2500    14.4131    14.7466
  406.0000  -999.2500    14.4160    14.7436
  406.5000  -999.2500    14.4188    14.7412
  407.0000  -999.2500    14.4218    14.7387
  407.5000  -999.2500    14.4254    14.7357
  408.0000  -999.2500    14.4283    14.7333
  408.5000  -999.2500    14.3295    14.5248
  409.0000  -999.2500    14.3331    14.3193
  409.5000  -999.2500    14.3360    14.2159
  410.0000  -999.2500    14.2386    14.2134
  410.5000  -999.2500    14.1425    14.2110
  411.0000  -999.2500    14.1454    14.2087
  411.5000  -999.2500    14.0485    14.0077
  412.0000  -999.2500    14.0520    13.9065
  412.5000  -999.2500    14.0468    13.9042
  413.0000  -999.2500    13.8624    13.7075
  413.5000  -999.2500    13.6719    13.7052
  414.0000  -999.2500    13.5783    13.6062
  414.5000  -999.2500    13.2987    13.5085
  415.0000  -999.2500    13.1128    13.4115
  415.5000  -999.2500  -999.2500    13.2218
  416.0000  -999.2500  -999.2500    13.0342
  416.5000  -999.2500  -999.2500    12.7596
  417.0000  -999.2500  -999.2500    12.4908
  417.5000  -999.2500  -999.2500    12.3105
  418.0000  -999.2500  -999.2500    12.0542
  418.5000  -999.2500  -999.2500    11.8003
  419.0000  -999.2500  -999.2500    11.6485
