~VERSION INFORMATION
 VERS.                2.0:   CWLS LOG ASCII STANDARD - VERSION 2.0
 WRAP.                 NO:   ONE LINE PER DEPTH STEP
~WELL INFORMATION
#MNEM.UNIT      DATA TYPE    INFORMATION
#----------   ------------   ------------------------------
 STRT.F           25.0000:   START DEPTH
 STOP.F          832.0000:   STOP DEPTH
 STEP.F            0.5000:   STEP LENGTH
 NULL.          -999.2500:   NO VALUE
 COMP.          U.S. NAVY:   COMPANY
 WELL. RES 3 TEAPOT DOM #32-S-2:   WELL
 FLD .        TEAPOT DOME:   FIELD
 LOC .       S2 T38N R78W:   LOCATION
 CNTY.            NATRONA:   COUNTY
 STAT.            WYOMING:   STATE
 CTRY. UNITED STATES OF AMERICA:   COUNTRY
 SRVC. Schlumberger Well Surveying Corp:   SERVICE COMPANY
 DATE.        03-AUG-1959:   LOGDATE
 API .       490250646800:   API NUMBER
~CURVE INFORMATION
#MNEM.UNIT       API CODE    CURVE DESCRIPTION
#----------   ------------   ------------------------------
 DEPT.F                  :   
 SPR .MV     05 010 01 00:   SPONTANEOUS POTENTIAL FROM RES.
 ILD .OHMM   05 120 46 00:   INDUCTION LOG DEEP
 CILD.MMHO   05 110 46 00:   CONDUCTIVITY INDUCTION LOG DEEP
 ASN .OHMM   05 041 16 00:   AMPLIFIED SHORT NORMAL 16"
~PARAMETER INFORMATION
#MNEM.UNIT          VALUE    DESCRIPTION
#----------   ------------   ------------------------------
 LMF .                 KB:   LOG MEASURED FROM
 DMF .                 KB:   DRILLING MEASURED FROM
 EKB .F              5126:   KELLING BUSHING
 EGL .F              5122:   GROUND LEVEL
 DATE.           8-3-1959:   RUN DATE
 RUN .                  1:   RUN NUMBER
 DD  .F               840:   DEPTH DRILLER
 DL  .F               841:   DEPTH LOGGER
 BLI .F               835:   BOTTOM LOG INTERVAL
 TLI .F                17:   TOP LOG INTERVAL
 CBD .F                17:   CASING BOTTOM DRILLER
 CBL .F                17:   CASING BOTTOM LOGGER
 BS  .IN             6.75:   BIT SIZE
 BSD .F               840:   BIT SIZE AT DEPTH
 DFT .                GEL:   DRILLING FLUID TYPE
 DFD .                9.5:   DRILLING FLUID DENSITY
 DFV .                100:   DRILLING FLUID VISCOSITY
 DFPH.                9.5:   DRILLING FLUID PH
 DFL .                  4:   DRILLING FLUID LOSS
 RMS .OHMM              4:   RESISTIVITY MUD SAMPLE
 MST .F                73:   MUD SAMPLE TEMPERATURE
 RMF .OHMM            3.9:   RESISTIVITY MUD FILTRATE SAMPLE
 MFST.F                73:   MUD FILTRATE SAMPLE TEMPERATURE
 RMC .OHMM            4.1:   RESISTIVITY MUD CAKE
 MCST.F                73:   MUD CAKE SAMPLE TEMPERATURE
 RMB .OHMM              4:   RESISTIVITY MUD AT BHT
 BHT .F                73:   BOTTOM HOLE TEMPERATURE
 TCS .HRS               1:   TIME CURCULATED STOPPED
 LUN .               2523:   LOGGING UNIT NUMBER
 LUL .              CSPR.:   LOGGING UNIT LOCATION
 ENGI.             ATWOOD:   RECORDING ENGINEER
 WITN.             MARTIN:   WITNESSED BY
 CLNT.            A2DTECH:   CLIENT CODE
 ORIG.           5" PRINT:   ORIGIN OF DATA
 UWI .       490250646800:   UNIQUE WELL ID
 DICO. A2D Technologies, Inc.:   DIGITIZING COMPANY
~OTHER INFORMATION
~A   DEPT      SPR        ILD       CILD        ASN   
# ...
  609.0000   -76.4069     7.7093   130.4912     8.0141
  609.5000   -76.3349     7.7586   130.1881     8.0242
  610.0000   -76.2629     7.8122   130.5242     8.0174
  610.5000   -76.1909     7.8135   130.8603     7.9908
  611.0000   -76.1188     7.8022   131.1964     7.9497
  611.5000   -76.0468     7.7942   131.5325     7.8956
  612.0000   -75.9748     7.7846   131.8687     7.8456
  612.5000   -75.9028     7.7759   132.2048     7.7915
  613.0000   -75.8308     7.7668   132.5409     7.7706
  613.5000   -75.7589     7.7577   132.8770     7.7728
  614.0000   -75.6869     7.7490   133.2131     7.7728
  614.5000   -75.6150     7.7399   133.6109     7.7713
  615.0000   -75.5431     7.7249   134.5374     7.7762
  615.5000   -75.4712     7.6062   135.6717     7.7257
  616.0000   -75.3994     7.4470   137.6880     7.5675
  616.5000   -75.3276     7.2951   140.8910     7.3218
  617.0000   -75.2446     7.1394   144.0940     7.1173
  617.5000   -75.0809     6.9863   147.1694     6.8675
  618.0000   -74.8791     6.8307   150.7850     6.8315
  618.5000   -74.6826     6.6786   154.6175     6.6966
  619.0000   -74.4846     6.5206   159.1551     6.4950
  619.5000   -74.2856     6.3736   162.0250     6.5894
  620.0000   -74.0906     6.2008   164.0102     6.7883
  620.5000   -73.8855     6.0794   165.9954     6.7200
  621.0000   -73.7221     5.9686   170.2279     6.5054
  621.5000   -73.6041     5.8297   177.0343     6.1239
  622.0000   -73.4763     5.7052   183.4821     5.7035
  622.5000   -73.3533     5.5694   188.1613     5.4087
  623.0000   -73.2274     5.4477   189.2957     5.4849
  623.5000   -73.1036     5.3043   196.0936     5.6407
  624.0000   -72.9777     5.1986   205.4929     5.5159
  624.5000   -72.8546     5.0237   215.8658     5.7795
  625.0000   -72.7297     5.3283   211.1204     6.2278
  625.5000   -72.6880     5.9269   198.7207     6.7150
  626.0000   -72.6943     6.4269   178.8842     6.8702
  626.5000   -72.6915     6.9622   155.3045     7.0440
  627.0000   -72.6940     7.0406   148.0597     7.0964
  627.5000   -72.6924     7.0730   142.0714     7.1606
  628.0000   -72.6962     7.0719   141.8183     7.2236
  628.5000   -72.6750     6.8345   144.4577     7.2338
  629.0000   -72.4161     6.5977   152.8627     7.1049
  629.5000   -72.1039     6.3620   160.3172     6.7624
  630.0000   -71.8014     6.1227   166.5046     6.3203
  630.5000   -71.4952     5.8987   170.2172     6.0255
  631.0000   -71.1890     5.7425   173.3825     5.9736
  631.5000   -70.8868     5.6015   181.2313     5.8988
  632.0000   -70.5749     5.4885   192.5406     6.0094
  632.5000   -70.2823     5.3579   194.5455     6.3107
  633.0000   -69.9461     5.5810   193.3443     6.6655
  633.5000   -69.7486     6.1703   179.1589     7.1831
  634.0000   -69.7414     6.7495   160.1597     7.5640
  634.5000   -69.7001     7.3646   144.4594     7.8646
  635.0000   -69.6758     7.6492   133.7134     7.9840
  635.5000   -69.6423     7.9730   127.2451     8.0994
  636.0000   -69.6138     8.2461   124.2614     8.2222
  636.5000   -69.5828     8.2778   122.3935     8.3244
  637.0000   -69.5533     8.2709   120.8928     8.3441
  637.5000   -69.5221     8.2733   120.5986     8.3515
  638.0000   -69.4931     8.2713   120.3496     8.3871
  638.5000   -69.4602     8.2717   120.0421     8.4378
  639.0000   -69.4348     8.2710   120.2620     8.4596
  639.5000   -69.3584     8.2708   120.5213     8.4851
  640.0000   -69.2181     8.2706   120.7806     8.4987
  640.5000   -69.0830     8.2703   121.0399     8.5141
  641.0000   -68.9445     8.2709   121.2992     8.4647
  641.5000   -68.8079     8.2703   121.5585     8.3631
  642.0000   -68.6703     8.2762   121.8601     8.3027
  642.5000   -68.5332     8.3336   121.4674     8.2397
  643.0000   -68.3958     8.3907   120.9980     8.3334
  643.5000   -68.2586     8.4558   120.5286     8.4626
  644.0000   -68.1208     8.5053   120.0592     8.7001
  644.5000   -67.9841     8.5676   119.5898     8.9316
  645.0000   -67.8446     8.3378   119.1484     8.9589
  645.5000   -67.7110     7.8365   123.6679     8.7978
  646.0000   -67.5664     7.3595   132.0344     8.2365
  646.5000   -67.4421     6.9223   139.8996     7.4874
  647.0000   -67.2776     6.7033   147.3344     6.8766
  647.5000   -67.3382     6.5170   154.6912     6.6937
  648.0000   -67.6335     6.3140   160.9631     6.7174
  648.5000   -67.8949     6.1392   170.5269     6.7899
  649.0000   -68.1692     5.9202   179.1845     7.1324
  649.5000   -68.4463     6.3963   177.8112     8.1052
  650.0000   -68.6629     7.3041   162.1948     8.8077
  650.5000   -68.6020     8.1426   143.1032     9.3989
  651.0000   -68.5222     9.0215   124.9492     9.7816
  651.5000   -68.4438     9.4237   108.5005    10.1887
  652.0000   -68.3662     9.7727   101.4707    10.5944
  652.5000   -68.2848     9.8579    99.5036    10.6977
  653.0000   -68.2125     9.8917   100.2599    10.6443
  653.5000   -68.1202     9.9410   101.0162    10.6095
  654.0000   -68.0649     9.9907   101.7724    10.5864
  654.5000   -67.9377    10.2093   101.5804    10.4834
  655.0000   -68.2524    10.4276   100.4454    11.2777
  655.5000   -68.9192    10.7016    98.2293    12.1732
  656.0000   -69.5727    10.8514    94.8481    13.4794
  656.5000   -70.1448    11.6183    88.9064    15.2445
  657.0000   -71.3397    12.8693    81.1905    17.0133
  657.5000   -73.1424    14.7069    73.4639    18.7783
  658.0000   -74.8197    16.8057    65.7507    20.5357
  658.5000   -76.5479    18.8178    58.0689    22.2842
  659.0000   -78.2636    20.8945    50.4170    24.0312
  659.5000   -79.9599    22.6650    44.1331    26.7103
  660.0000   -81.7386    23.9464    38.7511    26.2014
  660.5000   -82.1734    23.3866    39.2372    25.3206
  661.0000   -81.5052    22.2546    39.7163    24.4398
  661.5000   -81.1272    21.1809    43.3014    23.7274
  662.0000   -81.0350    20.6033    45.2506    24.8048
  662.5000   -81.3991    20.6822    45.5558    26.5856
  663.0000   -81.9691    21.4582    45.9324    28.4127
  663.5000   -82.4451    22.7906    43.4648    30.2260
  664.0000   -82.9660    24.1088    41.0069    30.3364
  664.5000   -83.4578    25.4233    38.5491    30.4135
  665.0000   -84.0118    26.7430    36.0912    32.3338
  665.5000   -84.8587    27.5973    34.1817    34.1849
  666.0000   -85.7875    28.1355    33.1726    34.4397
  666.5000   -86.6893    28.7023    32.3476    33.4550
  667.0000   -87.5886    29.2731    31.5226    33.8078
  667.5000   -87.4267    29.7034    30.5661    33.7188
  668.0000   -85.2206    29.1889    31.2019    32.6018
  668.5000   -83.7343    28.2741    31.9581    31.5623
  669.0000   -83.8003    27.7905    32.7144    32.5120
  669.5000   -84.1357    28.5866    33.0001    33.9721
  670.0000   -85.3457    29.5256    31.9111    35.4383
  670.5000   -86.6049    30.4583    30.8221    36.8904
  671.0000   -87.6161    31.4020    29.7331    37.3763
  671.5000   -88.3920    32.3210    28.6441    36.9822
  672.0000   -88.7520    33.2951    27.7950    36.5285
  672.5000   -88.3158    34.0016    27.5790    36.0205
  673.0000   -87.7908    33.2535    27.3629    35.2521
  673.5000   -87.2856    32.4677    27.1468    34.3795
  674.0000   -86.7229    31.5544    26.9505    33.6357
  674.5000   -86.7254    30.9378    28.0341    33.2385
  675.0000   -87.3342    30.6703    29.0267    32.8440
  675.5000   -87.8415    30.4439    30.0193    32.4476
  676.0000   -88.4452    29.4288    31.0119    31.2288
  676.5000   -88.7122    27.5652    32.0045    29.2074
  677.0000   -87.7924    25.8590    32.9971    27.1855
  677.5000   -87.3792    24.0791    35.3116    25.1642
  678.0000   -84.8372    22.3425    37.7973    23.2025
  678.5000   -80.7195    20.5769    41.8008    21.1965
  679.0000   -76.8162    18.8219    46.1321    20.4513
  679.5000   -75.5530    17.3370    50.4635    19.6484
  680.0000   -75.7938    16.6251    54.7948    19.0477
  680.5000   -76.0768    16.5924    57.1305    18.8414
  681.0000   -76.3952    16.5277    57.6832    18.6656
  681.5000   -76.6972    16.6529    57.5254    18.4818
