~VERSION INFORMATION
 VERS.                2.0:   CWLS LOG ASCII STANDARD - VERSION 2.0
 WRAP.                 NO:   ONE LINE PER DEPTH STEP
~WELL INFORMATION
#MNEM.UNIT      DATA TYPE    INFORMATION
#----------   ------------   ------------------------------
 STRT.F           70.0000:   START DEPTH
 STOP.F         1088.0000:   STOP DEPTH
 STEP.F            0.5000:   STEP LENGTH
 NULL.          -999.2500:   NO VALUE
 COMP. U S NAVY/INTEX OIL CO:   COMPANY
 WELL. RES 3 TEAPOT DOME #66S-11:   WELL
 FLD .             TEAPOT:   FIELD
 LOC .      S11 T38N R78W:   LOCATION
 CNTY.            NATRONA:   COUNTY
 STAT.            WYOMING:   STATE
 CTRY. UNITED STATES OF AMERICA:   COUNTRY
 SRVC.         Lane Wells:   SERVICE COMPANY
 DATE.        06-MAR-1960:   LOGDATE
 API .       490250633400:   API NUMBER
~CURVE INFORMATION
#MNEM.UNIT       API CODE    CURVE DESCRIPTION
#----------   ------------   ------------------------------
 DEPT.F                  :   
 SPR .MV     05 010 01 00:   SPONTANEOUS POTENTIAL FROM RES.
 ILD .OHMM   05 120 46 00:   INDUCTION LOG DEEP
 CILD.MMHO   05 110 00 00:   CONDUCTIVITY INDUCTION LOG
 ASN .OHMM   05 041 16 00:   AMPLIFIED SHORT NORMAL 16"
~PARAMETER INFORMATION
#MNEM.UNIT          VALUE    DESCRIPTION
#----------   ------------   ------------------------------
 PD  .                 GL:   PERMANENT DATUM
 EPD .F              5238:   ELEVATION PERMANENT DATUM
 LMF .                 KB:   LOG MEASURED FROM
 DAPD.F                 5:   FEET ABOVE PERMANENT DATUM
 DMF .                 KB:   DRILLING MEASURED FROM
 EKB .F              5243:   KELLING BUSHING
 EGL .F              5238:   GROUND LEVEL
 DATE.             3-6-60:   RUN DATE
 RUN .                  1:   RUN NUMBER
 DD  .F              1085:   DEPTH DRILLER
 DL  .F              1087:   DEPTH LOGGER
 BLI .F              1085:   BOTTOM LOG INTERVAL
 TLI .F                70:   TOP LOG INTERVAL
 CS  .IN            8.625:   CASING SIZE
 CBD .F                12:   CASING BOTTOM DRILLER
 BS  .IN            7.875:   BIT SIZE
 BSD .F              1085:   BIT SIZE AT DEPTH
 DFT .   GEL/OIL EMULSION:   DRILLING FLUID TYPE
 DFD .               10.3:   DRILLING FLUID DENSITY
 DFV .                 37:   DRILLING FLUID VISCOSITY
 DFPH.                8.5:   DRILLING FLUID PH
 DFL .                7.2:   DRILLING FLUID LOSS
 MSS .          FLOW LINE:   MUD SAMPLE SOURCE
 RMS .OHMM           1.65:   RESISTIVITY MUD SAMPLE
 MST .F                70:   MUD SAMPLE TEMPERATURE
 RMF .OHMM            1.2:   RESISTIVITY MUD FILTRATE SAMPLE
 MFST.F                68:   MUD FILTRATE SAMPLE TEMPERATURE
 RMC .OHMM            1.8:   RESISTIVITY MUD CAKE
 MCST.F                68:   MUD CAKE SAMPLE TEMPERATURE
 MFSS.              PRESS:   MUD FILTRATE SAMPLE SOURCE
 MCSS.              PRESS:   MUD CAKE SAMPLE SOURCE
 RMB .OHMM            1.5:   RESISTIVITY MUD AT BHT
 BHT .F                74:   BOTTOM HOLE TEMPERATURE
 MRT .F                74:   MAXIMUM RECORDED TEMPERATURE
 LUN .               4474:   LOGGING UNIT NUMBER
 LUL .             CASPER:   LOGGING UNIT LOCATION
 ENGI.      NELSON/GRIGGS:   RECORDING ENGINEER
 WITN.   JORGENSEN/HUDSON:   WITNESSED BY
 CLNT.            A2DTECH:   CLIENT CODE
 ORIG.       2", 5" PRINT:   ORIGIN OF DATA
 UWI .       490250633400:   UNIQUE WELL ID
 DICO. A2D Technologies, Inc.:   DIGITIZING COMPANY
~OTHER INFORMATION
~A   DEPT      SPR          ILD      CILD         ASN 
# ...
  216.0000   -47.2052     7.0901   152.8483     7.5866
  216.5000   -47.3335     7.1098   153.0152     7.5473
  217.0000   -47.0318     7.1030   153.1823     7.5080
  217.5000   -46.7274     7.0632   153.3487     7.4715
  218.0000   -46.8236     7.0238   153.4841     7.4350
  218.5000   -47.0747     6.9845   153.4828     7.4175
  219.0000   -47.3314     6.9451   153.4828     7.4836
  219.5000   -47.5880     6.9058   153.4828     7.5259
  220.0000   -47.8453     6.8666   153.4828     7.4838
  220.5000   -48.0991     6.8368   153.4828     7.4415
  221.0000   -48.2110     6.8374   153.4828     7.3999
  221.5000   -47.8557     6.8375   153.4828     7.3791
  222.0000   -47.5163     6.8375   153.4828     7.4228
  222.5000   -47.1768     6.8375   153.4828     7.4643
  223.0000   -46.8372     6.8376   153.4828     7.5048
  223.5000   -46.5041     6.8373   153.4828     7.5117
  224.0000   -46.3986     6.8207   153.4828     7.4432
  224.5000   -46.7786     6.7702   154.4779     7.3760
  225.0000   -47.1548     6.7202   155.6460     7.3005
  225.5000   -46.8688     6.6701   156.8142     7.2106
  226.0000   -46.5003     6.6201   157.9823     7.1207
  226.5000   -46.2764     6.5701   159.1504     7.0302
  227.0000   -46.3698     6.5201   160.3186     6.9390
  227.5000   -46.4704     6.4701   161.4867     6.9489
  228.0000   -46.5718     6.4200   162.6548     6.9659
  228.5000   -46.6726     6.3700   163.8243     6.9825
  229.0000   -46.7727     6.3200   164.9976     6.9991
  229.5000   -46.7944     6.2940   166.1696     7.0058
  230.0000   -46.7288     6.2939   165.8715     6.9511
  230.5000   -46.6638     6.2950   165.5656     6.8937
  231.0000   -46.5984     6.3248   165.2596     6.8366
  231.5000   -46.5332     6.3556   164.9537     6.7792
  232.0000   -46.4680     6.3862   164.6477     6.7529
  232.5000   -46.4027     6.4167   164.3607     6.7758
  233.0000   -46.3375     6.4473   163.6520     6.8876
  233.5000   -46.2723     6.4779   162.9845     6.9985
  234.0000   -46.2070     6.5084   162.3170     7.1091
  234.5000   -46.1418     6.5390   161.6495     7.2194
  235.0000   -46.0765     6.5696   160.9820     7.3144
  235.5000   -46.0113     6.6002   160.3145     7.2805
  236.0000   -45.9461     6.6308   159.6470     7.2485
  236.5000   -45.8808     6.6568   158.9794     7.2161
  237.0000   -45.8155     6.6733   158.3119     7.2419
  237.5000   -45.7489     6.6980   157.6444     7.3386
  238.0000   -45.7302     6.7230   156.9769     7.4726
  238.5000   -45.7703     6.7480   156.3094     7.6229
  239.0000   -45.9906     6.7730   155.6419     7.7178
  239.5000   -46.2067     6.7980   154.9744     7.7987
  240.0000   -46.4224     6.8231   154.3069     7.8607
  240.5000   -46.6374     6.8481   153.6394     7.8592
  241.0000   -46.8546     6.8731   153.1081     7.8578
  241.5000   -47.1099     6.8980   152.6186     7.9195
  242.0000   -47.1907     6.9228   152.1291     7.9969
  242.5000   -47.1468     6.9574   151.6396     8.0746
  243.0000   -46.9917     6.9941   151.1501     8.1516
  243.5000   -46.8393     7.0308   150.6606     8.2168
  244.0000   -46.6870     7.0678   150.1711     8.2209
  244.5000   -46.5348     7.1053   149.9580     8.1812
  245.0000   -46.3826     7.0760   150.2404     8.1221
  245.5000   -46.2304     7.0374   150.5222     8.0515
  246.0000   -46.0772     6.9986   150.8052     7.9811
  246.5000   -45.9197     6.9600   151.0864     7.9107
  247.0000   -45.8339     6.9214   151.3700     7.8403
  247.5000   -45.7494     6.8828   151.6698     7.7698
  248.0000   -45.6642     6.8442   153.2487     7.6980
  248.5000   -45.5787     6.8056   154.9299     7.6369
  249.0000   -45.4935     6.7664   156.6138     7.5547
  249.5000   -45.4096     6.7138   158.2967     7.4461
  250.0000   -45.4380     6.6449   159.9793     7.3381
  250.5000   -45.5863     6.5763   161.6620     7.2297
  251.0000   -45.7338     6.5075   163.3447     7.1214
  251.5000   -45.8815     6.4387   165.0273     7.0131
  252.0000   -46.0305     6.3699   166.7100     6.9048
  252.5000   -46.0959     6.3012   168.3927     6.7964
  253.0000   -46.0864     6.2323   170.0753     6.6882
  253.5000   -45.8854     6.1772   171.6126     6.5790
  254.0000   -45.6866     6.1310   171.9752     6.5416
  254.5000   -45.4892     6.0908   172.3089     6.5909
  255.0000   -45.2921     6.0541   172.6427     6.6418
  255.5000   -45.0947     6.0175   172.9765     6.6923
  256.0000   -44.8979     5.9806   173.3102     6.7365
  256.5000   -44.6971     5.9446   175.5749     6.7176
  257.0000   -44.7125     5.8699   178.8597     6.6214
  257.5000   -44.8239     5.7791   182.1446     6.4818
  258.0000   -44.9380     5.6874   185.4294     6.3403
  258.5000   -45.0522     5.5956   188.7142     6.1988
  259.0000   -45.1674     5.5039   191.9991     6.0575
  259.5000   -45.2792     5.4122   195.2839     5.9161
  260.0000   -45.2668     5.3206   198.5687     5.7748
  260.5000   -44.7897     5.2292   201.8535     5.6334
  261.0000   -44.4392     5.1342   205.2433     5.4917
  261.5000   -44.6914     5.0680   205.9897     5.3473
  262.0000   -45.0004     5.0259   205.7449     5.3212
  262.5000   -45.3179     5.0257   205.5002     5.3478
  263.0000   -45.1937     5.0262   205.2554     5.4411
  263.5000   -44.9826     5.0262   205.0107     5.5330
  264.0000   -44.7727     5.0262   204.7659     5.6250
  264.5000   -44.6615     5.0289   204.5211     5.7157
  265.0000   -44.7467     5.0366   204.2764     5.7651
  265.5000   -44.8286     5.0442   203.8149     5.7368
  266.0000   -44.9125     5.0519   203.3281     5.7300
  266.5000   -44.9945     5.0595   202.8382     5.7566
  267.0000   -44.8140     5.0672   202.3486     5.7831
  267.5000   -44.6072     5.0748   201.8588     5.8091
  268.0000   -44.4013     5.0824   201.3689     5.7813
  268.5000   -44.1982     5.0901   200.8801     5.7496
  269.0000   -44.1854     5.0977   200.7215     5.7190
  269.5000   -44.3989     5.1053   200.9375     5.7479
  270.0000   -44.6127     5.1129   201.1535     5.8447
  270.5000   -44.7977     5.1171   201.3694     5.9320
  271.0000   -44.3218     5.1276   201.5854     5.8394
  271.5000   -44.2068     5.1385   201.8014     5.7397
  272.0000   -44.4167     5.1493   202.0175     5.6517
  272.5000   -44.6324     5.1601   202.2318     5.7140
  273.0000   -44.8488     5.1708   202.4332     5.7740
  273.5000   -45.0646     5.1816   202.4332     5.7289
  274.0000   -45.2823     5.1925   204.4275     5.6507
  274.5000   -45.3391     5.2032   206.2631     5.5723
  275.0000   -45.1199     5.2078   208.0988     5.4939
  275.5000   -44.8972     5.1723   209.9344     5.4156
  276.0000   -44.6750     5.1178   211.7700     5.3370
  276.5000   -44.4533     5.0627   213.6057     5.2587
  277.0000   -44.2314     5.0076   215.1241     5.1982
  277.5000   -44.0095     4.9519   215.1241     5.2369
  278.0000   -43.7768     4.9355   215.1241     5.2760
  278.5000   -43.7826     4.9524   215.1241     5.2585
  279.0000   -43.8665     4.9763   215.1241     5.2224
  279.5000   -43.9526     5.0003   214.4586     5.2112
  280.0000   -44.0381     5.0243   213.5385     5.2999
  280.5000   -44.1237     5.0482   212.0384     5.3854
  281.0000   -44.2085     5.0721   210.3406     5.4484
  281.5000   -44.2583     5.0960   208.6461     5.4862
  282.0000   -44.2020     5.1199   206.9517     5.5351
  282.5000   -44.1485     5.1439   205.2573     5.5854
  283.0000   -44.0909     5.1679   203.5628     5.5705
  283.5000   -44.2565     5.1913   202.4332     5.5420
  284.0000   -44.4621     5.1969   203.1051     5.5756
  284.5000   -44.6684     5.1644   205.0487     5.6194
  285.0000   -44.8708     5.1326   206.9923     5.6485
  285.5000   -44.9214     5.1006   208.9359     5.5941
  286.0000   -44.7038     5.0687   210.8795     5.5002
  286.5000   -44.4903     5.0368   212.8232     5.4067
  287.0000   -44.2760     5.0050   214.7668     5.3131
  287.5000   -44.0620     4.9731   216.7104     5.2189
  288.0000   -43.8480     4.9412   218.7500     5.1253
  288.5000   -43.6339     4.9092   220.5630     5.1219
