~VERSION INFORMATION
 VERS.                2.0:   CWLS LOG ASCII STANDARD - VERSION 2.0
 WRAP.                 NO:   ONE LINE PER DEPTH STEP
~WELL INFORMATION
#MNEM.UNIT      DATA TYPE    INFORMATION
#----------   ------------   ------------------------------
 STRT.F           15.0000:   START DEPTH
 STOP.F          692.0000:   STOP DEPTH
 STEP.F            0.5000:   STEP LENGTH
 NULL.          -999.2500:   NO VALUE
 COMP.    FENIX & SCISSON:   COMPANY
 WELL. S 15 NPR #3 #73-15:   WELL
 FLD .             TEAPOT:   FIELD
 LOC .      S15 T38N R78W:   LOCATION
 CNTY.            NATRONA:   COUNTY
 STAT.            WYOMING:   STATE
 CTRY. UNITED STATES OF AMERICA:   COUNTRY
 SRVC.              Welex:   SERVICE COMPANY
 DATE.        23-FEB-1977:   LOGDATE
 API .       490251057900:   API NUMBER
~CURVE INFORMATION
#MNEM.UNIT       API CODE    CURVE DESCRIPTION
#----------   ------------   ------------------------------
 DEPT.F                  :   
 SPR .MV     07 010 01 00:   SPONTANEOUS POTENTIAL
 SGRD.OHMM   07 220 05 00:   SHALLOW GUARD RESISTIVITY
 ILD .OHMM   07 120 46 00:   INDUCTION LOG DEEP
 ILM .OHMM   07 120 44 00:   INDUCTION LOG MEDIUM
 CALD.IN     45 280 60 00:   CALIPER
 GRD .GAPI   45 310 01 00:   GAMMA RAY FROM DENSITY LOG
 CORR.G/C3   45 356 01 00:   DENSITY CORRECTION
 DPHI.DEC    45 890 10 00:   DENSITY POROSITY SANDSTONE
 RHOB.G/C3   45 350 01 00:   BULK DENSITY
~PARAMETER INFORMATION
#MNEM.UNIT          VALUE    DESCRIPTION
#----------   ------------   ------------------------------
 PD  .                 GL:   PERMANENT DATUM
 EPD .F              5251:   ELEVATION PERMANENT DATUM
 LMF .                 GL:   LOG MEASURED FROM
 DMF .                 GL:   DRILLING MEASURED FROM
 EGL .F              5251:   GROUND LEVEL
 DATE.            2-23-77:   RUN DATE
 RUN .                  1:   RUN NUMBER
 DD  .F               686:   DEPTH DRILLER
 DL  .F               695:   DEPTH LOGGER
 BLI .F               693:   BOTTOM LOG INTERVAL
 TLI .F                42:   TOP LOG INTERVAL
 CS  .IN            8.625:   CASING SIZE
 CBD .F                42:   CASING BOTTOM DRILLER
 CBL .F                42:   CASING BOTTOM LOGGER
 BS  .IN            7.875:   BIT SIZE
 BSD .F               686:   BIT SIZE AT DEPTH
 DFT .           CHEM GEL:   DRILLING FLUID TYPE
 DFD .                8.8:   DRILLING FLUID DENSITY
 DFV .                 33:   DRILLING FLUID VISCOSITY
 DFPH.                  7:   DRILLING FLUID PH
 DFL .               11.2:   DRILLING FLUID LOSS
 MSS .          FLOW LINE:   MUD SAMPLE SOURCE
 RMS .OHMM            .32:   RESISTIVITY MUD SAMPLE
 MST .F                68:   MUD SAMPLE TEMPERATURE
 RMF .OHMM            .28:   RESISTIVITY MUD FILTRATE SAMPLE
 MFST.F                68:   MUD FILTRATE SAMPLE TEMPERATURE
 RMC .OHMM            .61:   RESISTIVITY MUD CAKE
 MCST.F                68:   MUD CAKE SAMPLE TEMPERATURE
 MFSS.           MEASURED:   MUD FILTRATE SAMPLE SOURCE
 MCSS.           MEASURED:   MUD CAKE SAMPLE SOURCE
 RMB .OHMM           .410:   RESISTIVITY MUD AT BHT
 BHT .F                53:   BOTTOM HOLE TEMPERATURE
 TCS .HRS               2:   TIME CURCULATED STOPPED
 MRT .F                53:   MAXIMUM RECORDED TEMPERATURE
 LUN .               8611:   LOGGING UNIT NUMBER
 LUL .           GILLETTE:   LOGGING UNIT LOCATION
 ENGI.            C. DOAK:   RECORDING ENGINEER
 WITN.         STUEBINGER:   WITNESSED BY
 CLNT.            A2DTECH:   CLIENT CODE
 ORIG. 1", 2.5", 5" PRINT:   ORIGIN OF DATA
 UWI .       490251057900:   UNIQUE WELL ID
 DICO. A2D Technologies, Inc.:   DIGITIZING COMPANY
~OTHER INFORMATION
~A   DEPT      SPR       SGRD        ILD        ILM       CALD         GRD      CORR       DPHI       RHOB   
# ...
  453.0000   -55.9713     9.5019     5.5747     8.7444     8.3414   131.0336     0.0830     0.0898     2.4981
  453.5000   -55.9186     9.5585     5.4185     8.2986     8.3395   131.7439     0.0846     0.0907     2.4959
  454.0000   -55.8659     8.8085     5.2666     7.8755     8.3375   131.8701     0.0832     0.0916     2.4939
  454.5000   -55.8133     7.9379     5.1190     7.4740     8.3357   130.6383     0.0821     0.0921     2.4926
  455.0000   -55.7606     7.2468     4.9756     7.0930     8.3337   129.5729     0.0809     0.0921     2.4954
  455.5000   -55.7078     5.6673     4.8361     6.7314     8.3314   128.6931     0.0797     0.0921     2.4956
  456.0000   -55.6551     4.1655     4.7400     6.4871     8.3336   132.1266     0.0785     0.0944     2.4900
  456.5000   -55.6025     5.2487     4.7400     6.6205     8.3424   136.6444     0.0774     0.1027     2.4811
  457.0000   -55.5491     8.9433     4.7400     6.8955     8.3508   141.5015     0.0762     0.1151     2.4575
  457.5000   -55.4973     8.8164     4.8814     7.1819     8.3592   142.8940     0.0750     0.1214     2.4405
  458.0000   -55.4445     8.5278     5.0411     7.4360     8.3677   141.8215     0.0739     0.1132     2.4496
  458.5000   -55.3871     8.2821     5.2061     7.6048     8.3761   135.9624     0.0727     0.1034     2.4719
  459.0000   -55.3629     8.2285     5.3765     7.7775     8.3845   130.6652     0.0740     0.0944     2.4916
  459.5000   -55.3950     8.3792     5.5524     7.9541     8.3931   132.3806     0.0757     0.0919     2.4966
  460.0000   -55.4219     8.6488     5.7341     8.1348     8.4013   135.2589     0.0770     0.0896     2.5016
  460.5000   -55.4493     8.9242     5.9220     8.3199     8.4096   136.9284     0.0779     0.0869     2.5061
  461.0000   -55.4777     9.2053     6.1160     8.5083     8.4130   132.1462     0.0788     0.0841     2.5077
  461.5000   -55.5053     9.4952     6.3163     8.7010     8.4192   130.7460     0.0798     0.0838     2.5034
  462.0000   -55.5332     9.7365     6.5231     8.8979     8.4246   130.7044     0.0807     0.0854     2.5010
  462.5000   -55.5611     9.9179     6.6480     9.0992     8.4303   128.7943     0.0816     0.0804     2.5125
  463.0000   -55.5889     9.9576     6.7145     9.3053     8.4359   124.5861     0.0825     0.0737     2.5218
  463.5000   -55.6169    10.0074     6.7815     9.5623     8.4415   126.1073     0.0834     0.0690     2.5316
  464.0000   -55.6446    10.0574     6.8492     9.5559     8.4471   129.1635     0.0845     0.0705     2.5306
  464.5000   -55.6721    10.1083     6.9177     9.5617     8.4528   125.4294     0.0835     0.0729     2.5257
  465.0000   -55.7010    10.1586     6.9842     9.5608     8.4584   122.3683     0.0812     0.0753     2.5205
  465.5000   -55.7274    10.2093     6.9842     9.5580     8.4640   124.8754     0.0790     0.0777     2.5162
  466.0000   -55.7509    10.2606     6.9842     9.5584     8.4696   128.0025     0.0766     0.0801     2.5138
  466.5000   -55.7142    10.3125     6.9842     9.5585     8.4753   130.4088     0.0742     0.0825     2.5099
  467.0000   -55.6789    10.3647     6.9842     9.5585     8.4809   132.1901     0.0717     0.0841     2.5079
  467.5000   -55.6408    10.4171     6.9842     9.5585     8.4865   130.4360     0.0692     0.0833     2.5080
  468.0000   -55.6039    10.4796     6.9842     9.5586     8.4921   126.7967     0.0666     0.0809     2.5077
  468.5000   -55.5670    10.3512     6.9842     9.5587     8.4977   123.3060     0.0647     0.0840     2.5020
  469.0000   -55.5297    10.1597     6.9842     9.5588     8.5034   123.1957     0.0654     0.0893     2.4962
  469.5000   -55.4927     9.9717     7.0674     9.5588     8.5090   124.9328     0.0661     0.0946     2.4902
  470.0000   -55.4556     9.7346     7.1437     9.6450     8.5146   126.1908     0.0667     0.0976     2.4840
  470.5000   -55.4186     9.8563     7.2207     9.7404     8.5202   126.8392     0.0674     0.0963     2.4828
  471.0000   -55.3815    10.2325     7.2987     9.8372     8.5258   127.5014     0.0681     0.0952     2.4869
  471.5000   -55.3445    10.6230     7.3818     9.9354     8.5326   128.7014     0.0680     0.0973     2.4878
  472.0000   -55.3075    11.2858     7.0957    10.0295     8.5423   130.1891     0.0665     0.1003     2.4810
  472.5000   -55.2704    11.1925     6.8048    10.1282     8.5519   127.0263     0.0650     0.1032     2.4744
  473.0000   -55.2334    10.8768     6.5258    10.2909     8.5615   122.5801     0.0716     0.1009     2.4813
  473.5000   -55.1963    10.9716     6.2520     9.9399     8.5712   118.0440     0.0791     0.0966     2.4885
  474.0000   -55.1591    11.2297     5.8736     9.0569     8.5808   117.8670     0.0868     0.0897     2.4938
  474.5000   -55.1222    11.4961     5.5097     8.2524     8.5904   118.8010     0.0943     0.0947     2.4889
  475.0000   -55.0846     7.7447     5.1684     7.5194     8.6001   120.5581     0.1019     0.1079     2.4728
  475.5000   -55.0479     4.6864     5.0099     7.2468     8.6097   123.4476     0.1095     0.1212     2.4409
  476.0000   -55.0116     3.2169     5.0099     8.5606     8.6194   127.1965     0.1124     0.1366     2.3971
  476.5000   -54.9708     6.5416     5.1983     9.5813     8.6290   130.8500     0.1023     0.1780     2.3405
  477.0000   -54.9824    11.7102     5.4044     9.3460     8.6387   134.2718     0.0900     0.2344     2.2841
  477.5000   -55.0281    12.3769     5.7502     8.7939     8.6483   138.2216     0.0783     0.2527     2.2190
  478.0000   -55.0700    12.3769     6.1181     8.9827     8.6580   133.1340     0.0648     0.2374     2.2391
  478.5000   -55.1109    12.3769     6.5095    10.1330     8.6677   124.4378     0.0749     0.1907     2.3546
  479.0000   -55.1535    12.5298     6.9260    11.2923     8.6771   119.4505     0.0989     0.0482     2.5875
  479.5000   -55.1951    12.6763     7.3691    11.2822     8.6868   123.3597     0.1000     0.0435     2.5643
  480.0000   -55.2362    12.8450     7.6584    11.3149     8.6827   126.7206     0.0972     0.0498     2.5635
  480.5000   -55.2802    12.7212     8.1740    11.3465     8.6733   126.6866     0.0941     0.0582     2.5539
  481.0000   -55.3193    12.4671     8.6225    11.3780     8.6640   123.8311     0.0913     0.0653     2.5455
  481.5000   -55.3507    12.1451     8.8434    11.4085     8.6549   121.2708     0.0886     0.0701     2.5352
  482.0000   -55.2635    12.1535     9.0700    11.4380     8.6456   118.7167     0.0853     0.0738     2.5245
  482.5000   -55.1841    12.1394     9.3028    11.5026     8.6364   120.2601     0.0869     0.0699     2.5265
  483.0000   -55.0985    12.2884     9.5595    11.4865     8.6271   123.2571     0.0914     0.0639     2.5361
  483.5000   -55.0153    12.4319     9.9326    11.9552     8.6179   126.2074     0.0962     0.0586     2.5440
  484.0000   -54.9323    12.6075    10.3518    12.8689     8.6087   128.8295     0.0955     0.0649     2.5370
  484.5000   -54.8482    15.1954    10.7888    13.8524     8.5994   130.0586     0.0938     0.0721     2.5254
  485.0000   -54.7650    18.0360    11.2884    14.9110     8.5900   124.8487     0.0918     0.0792     2.5134
  485.5000   -54.6820    20.4177    11.8948    16.0506     8.5815   118.7257     0.0901     0.0863     2.5013
  486.0000   -54.5970    23.1824    12.5338    16.3250     8.5720   112.8591     0.0888     0.0945     2.4892
  486.5000   -54.5506    20.7521    13.0816    16.3250     8.5918    93.0936     0.0932     0.1038     2.4773
  487.0000   -54.5336    13.5736    13.3726    16.0531     8.6234    79.3023     0.0971     0.1046     2.4699
  487.5000   -54.5147    13.6994    13.6237    15.3857     8.6525    73.9435     0.1013     0.1081     2.4693
  488.0000   -54.4955    14.3517    13.8796    14.7368     8.6859    71.8410     0.1037     0.1171     2.4529
  488.5000   -54.4770    15.0350    14.1402    14.1152     8.6938    74.3455     0.1007     0.1260     2.4365
  489.0000   -54.4581    15.7334    14.4058    13.5191     8.7077    77.3929     0.0979     0.1349     2.4191
