~VERSION INFORMATION
 VERS.                2.0:   CWLS LOG ASCII STANDARD - VERSION 2.0
 WRAP.                 NO:   ONE LINE PER DEPTH STEP
~WELL INFORMATION
#MNEM.UNIT      DATA TYPE    INFORMATION
#----------   ------------   ------------------------------
 STRT.F           15.0000:   START DEPTH
 STOP.F          620.0000:   STOP DEPTH
 STEP.F            0.5000:   STEP LENGTH
 NULL.          -999.2500:   NO VALUE
 COMP.       F D SERV INC:   COMPANY
 WELL. NAVAL PETROLEUM RESERVE 3 SX-1 #87-1-10:   WELL
 FLD .             TEAPOT:   FIELD
 LOC .      S10 T38N R78W:   LOCATION
 CNTY.            NATRONA:   COUNTY
 STAT.            WYOMING:   STATE
 CTRY. UNITED STATES OF AMERICA:   COUNTRY
 SRVC.     Atlas Wireline:   SERVICE COMPANY
 DATE.        02-JAN-1991:   LOGDATE
 API .       490252247100:   API NUMBER
~CURVE INFORMATION
#MNEM.UNIT       API CODE    CURVE DESCRIPTION
#----------   ------------   ------------------------------
 DEPT.F                  :   
 GRR .GAPI   07 310 01 00:   GAMMA RAY
 RILD.OHMM   07 120 46 00:   INDUCTION LOG DEEP RESISTIVITY
 RILM.OHMM   07 120 44 00:   INDUCTION LOG MEDIUM RESISTIVITY
~PARAMETER INFORMATION
#MNEM.UNIT          VALUE    DESCRIPTION
#----------   ------------   ------------------------------
 PD  .                 GL:   PERMANENT DATUM
 EPD .F              5239:   ELEVATION PERMANENT DATUM
 LMF .                 KB:   LOG MEASURED FROM
 DAPD.F                10:   FEET ABOVE PERMANENT DATUM
 DMF .                 KB:   DRILLING MEASURED FROM
 EKB .F              5249:   KELLING BUSHING
 EDF .F              5248:   DRILLING FLOOR
 EGL .F              5239:   GROUND LEVEL
 DATE.        02-JAN-1991:   RUN DATE
 RUN .                  1:   RUN NUMBER
 DD  .F               630:   DEPTH DRILLER
 DL  .F               630:   DEPTH LOGGER
 BLI .F               628:   BOTTOM LOG INTERVAL
 CS  .IN            9.625:   CASING SIZE
 CBD .F                40:   CASING BOTTOM DRILLER
 CBL .F                50:   CASING BOTTOM LOGGER
 BS  .IN            8.625:   BIT SIZE
 BSD .F               630:   BIT SIZE AT DEPTH
 DFT .                AIR:   DRILLING FLUID TYPE
 LUN .            HL 6274:   LOGGING UNIT NUMBER
 LUL .             CASPER:   LOGGING UNIT LOCATION
 ENGI.       P. RASMUSSEN:   RECORDING ENGINEER
 WITN.          G. STRONG:   WITNESSED BY
 CLNT.            A2DTECH:   CLIENT CODE
 ORIG.           5" PRINT:   ORIGIN OF DATA
 UWI .       490252247100:   UNIQUE WELL ID
 DICO. A2D Technologies, Inc.:   DIGITIZING COMPANY
~OTHER INFORMATION
~A   DEPT       GRR      RILD       RILM   
# ...
  470.0000   100.8970    12.5365    11.8942
  470.5000   101.4849    12.5423    12.0566
  471.0000   104.4607    12.7026    12.2214
  471.5000   106.8514    12.6973    12.3029
  472.0000   107.4256    12.6930    12.3850
  472.5000   104.4134    12.7779    12.3808
  473.0000   102.6025    12.8623    12.2921
  473.5000   101.3903    12.6802    12.2041
  474.0000   100.1782    12.5886    12.0331
  474.5000   100.7661    12.3257    12.0299
  475.0000   102.5443    12.1521    11.8613
  475.5000   104.3262    11.9802    11.7676
  476.0000   103.7126    11.7301    11.5305
  476.5000   102.4970    11.5650    11.3690
  477.0000   102.4825    11.4022    11.3659
  477.5000   102.4679    11.3198    11.2067
  478.0000   102.4534    11.2379    11.0497
  478.5000   103.0376    11.0798    11.0467
  479.0000   104.8195    11.0759    11.0437
  479.5000   106.0030    11.1492    11.1946
  480.0000   109.5808    11.2998    11.3475
  480.5000   113.5630    11.4544    11.5302
  481.0000   114.3422    11.8527    11.8222
  481.5000   112.5276    12.4368    12.1499
  482.0000   108.9202    13.4159    12.6616
  482.5000   105.3129    14.6738    13.4716
  483.0000    99.9091    16.5193    14.5331
  483.5000    93.9065    18.4834    16.4565
  484.0000    87.6046    21.5954    19.5592
  484.5000    83.9521    24.7925    22.7905
  485.0000    80.6886    28.0717    26.7899
  485.5000    79.4734    31.3478    29.5996
  486.0000    81.2553    32.8954    29.7991
  486.5000    83.6360    32.2060    29.3796
  487.0000    84.2239    31.5337    28.9680
  487.5000    86.0021    30.8575    27.9753
  488.0000    88.9816    30.0199    27.0167
  488.5000    91.9610    29.1906    26.2720
  489.0000    93.1441    28.1884    25.5479
  489.5000    91.3295    27.4096    24.8436
  490.0000    90.1173    26.4686    24.4941
  490.5000    89.8034    25.7373    24.4875
  491.0000    91.2859    24.8537    24.3120
  491.5000    92.7683    24.1643    23.1562
  492.0000    95.1490    23.4776    22.5180
  492.5000    95.4591    22.6907    21.8973
  493.0000    93.6029    22.0639    21.2938
  493.5000    92.0659    21.7533    20.9955
  494.0000    91.1949    21.7460    20.7012
  494.5000    91.1804    21.7387    20.6955
  495.0000    91.7646    21.7314    20.6888
  495.5000    92.0531    21.7241    20.6832
  496.0000    90.5380    21.7166    20.6776
  496.5000    89.3258    21.7076    20.6720
  497.0000    89.3014    22.0028    20.6665
  497.5000    91.1177    22.1481    20.6609
  498.0000    93.4701    22.2963    20.9432
  498.5000    94.6568    22.2869    20.9375
  499.0000    94.9381    22.1258    21.0772
  499.5000    95.8254    21.9658    20.9248
  500.0000    97.6036    21.8070    20.9192
  500.5000    96.9902    21.4825    20.5913
  501.0000    96.6702    21.1641    20.2534
  501.5000    95.1557    20.9274    19.9144
  502.0000    96.4072    20.5946    19.6226
  502.5000    99.9068    20.1797    19.2255
  503.0000   103.7816    19.8969    18.8254
  503.5000   103.4647    19.7544    18.5616
  504.0000    98.0580    19.4777    18.3016
  504.5000    93.8489    19.0723    17.7971
  505.0000    92.0351    18.5467    17.1873
  505.5000    90.8200    18.0355    16.5983
  506.0000    93.2137    17.5384    16.0295
  506.5000    95.7007    16.9260    15.6901
  507.0000    99.1464    16.3559    15.3353
  507.5000   101.5242    15.9051    14.8416
  508.0000   103.0037    15.4667    14.5328
  508.5000   103.8888    15.1449    14.2304
  509.0000   104.1664    14.8297    13.9342
  509.5000   103.2507    14.7235    13.9305
  510.0000   101.4368    14.7195    14.0234
  510.5000   100.2076    15.0242    14.2151
  511.0000   100.2036    15.2478    14.3125
  511.5000   101.9789    15.7603    14.7075
  512.0000   101.3626    16.3108    15.1162
  512.5000    98.3511    16.5347    15.6431
  513.0000    95.9384    16.8759    16.0778
  513.5000    94.7277    17.2264    16.5246
  514.0000    95.3054    17.4618    16.8678
  514.5000    94.3890    17.4045    16.9804
  515.0000    91.6367    17.2113    16.5113
  515.5000    88.0623    16.8442    16.1677
  516.0000    89.8412    16.2746    15.6049
  516.5000    93.1172    15.8260    15.0776
  517.0000    92.8003    15.1783    14.5609
  517.5000    91.8846    14.5571    14.1596
  518.0000    92.7697    13.9613    13.7693
  518.5000    92.8623    13.5765    13.4828
  519.0000    92.1316    13.3863    13.2939
  519.5000    91.4891    13.3827    13.2903
  520.0000    92.6911    13.4720    13.2867
  520.5000    96.2665    13.3753    13.2831
  521.0000    99.8418    13.3710    13.0969
  521.5000    98.6267    13.2752    13.0023
  522.0000    97.1123    13.0892    12.9092
  522.5000    96.7954    12.9058    12.7283
  523.0000    97.0778    12.8134    12.6371
  523.5000    96.1617    12.6339    12.5466
  524.0000    95.5449    12.4569    12.3708
  524.5000    96.7211    12.3627    12.1975
  525.0000    98.5001    12.2789    12.0266
  525.5000    98.4826    12.1062    12.0233
  526.0000    96.0699    12.1029    12.0193
  526.5000    94.8549    12.0997    12.0161
  527.0000    96.0350    12.0964    12.0128
  527.5000    98.4127    12.1779    12.0096
  528.0000   103.4972    12.0899    12.0064
  528.5000   106.8363    12.0866    12.0031
  529.0000   107.9412    12.0833    11.9999
  529.5000   105.2247    12.0800    11.9967
  530.0000   103.1114    12.0761    11.9107
  530.5000   101.3019    12.0728    11.8253
  531.0000   101.8833    11.9037    11.7399
  531.5000   101.8614    11.9005    11.6558
  532.0000   101.5446    11.7337    11.6526
  532.5000   103.3536    11.6497    11.5692
  533.0000   106.0439    11.5662    11.4863
  533.5000   107.7752    11.4042    11.4832
  534.0000   108.6603    11.4010    11.4009
  534.5000   107.7403    11.3187    11.3192
  535.0000   107.1284    11.3156    11.3161
  535.5000   108.9029    11.2346    11.3124
  536.0000   109.7837    11.2315    11.1539
  536.5000   110.3650    11.2285    11.1509
  537.0000   111.2457    11.2255    11.1479
  537.5000   111.8271    11.2225    11.1449
  538.0000   110.0088    11.2194    11.1419
  538.5000   108.4944    11.2943    11.1389
  539.0000   109.0757    11.2905    11.1359
  539.5000   111.4534    11.2875    11.1328
  540.0000   111.7397    11.2844    11.1291
  540.5000   109.9215    11.2814    11.1261
  541.0000   108.1076    11.2006    11.1231
  541.5000   107.7907    11.1976    11.1201
  542.0000   109.8647    11.1945    11.1171
  542.5000   107.7514    11.1143    11.1141
  543.0000   106.2370    11.0346    11.1111
  543.5000   107.4171    11.0310    11.0315
  544.0000   108.6016    10.9520    10.9525
  544.5000   107.6816    10.8735    10.7870
  545.0000   106.7659    10.7212    10.6471
  545.5000   108.5448    10.5710    10.4979
  546.0000   110.9500    10.4229    10.3508
  546.5000   113.2959    10.3482    10.3480
  547.0000   115.3743    10.2741    10.2030
  547.5000   114.4586    10.1301    10.0601
  548.0000   113.5429     9.9876     9.9191
  548.5000   113.2261     9.7797     9.7802
  549.0000   115.0050     9.7097     9.7020
  549.5000   117.9815     9.5076     9.5074
  550.0000   121.2575     9.3098     9.3742
  550.5000   123.0698     9.0532     9.1791
  551.0000   123.9346     8.6228     8.7439
  551.5000   121.5285     8.3273     8.3866
  552.0000   120.3222     7.8123     8.0439
  552.5000   119.4153     7.1470     7.8227
  553.0000   118.8077     6.3962     7.4513
  553.5000   121.4936     5.6456     7.0975
  554.0000   127.1735     5.3033     6.6217
  554.5000   138.0183     5.2290     6.0928
  555.0000   145.0192     5.2276     4.8391
  555.5000   151.6960     5.2262     4.7146
  556.0000   150.4897     5.3344     5.0862
  556.5000   143.8942     5.4867     5.6414
  557.0000   131.3106     5.8060     6.3443
  557.5000   123.5174     6.4692     7.0857
  558.0000   115.7243     7.2247     7.7511
  558.5000   113.6197     7.9026     8.1906
  559.0000   114.8383     8.6441     8.2459
  559.5000   116.8935     8.9460     8.4756
  560.0000   118.0824     9.1318     8.7117
  560.5000   118.6746     9.1921     8.8922
