~VERSION INFORMATION
 VERS.                2.0:   CWLS LOG ASCII STANDARD - VERSION 2.0
 WRAP.                 NO:   ONE LINE PER DEPTH STEP
~WELL INFORMATION
#MNEM.UNIT      DATA TYPE    INFORMATION
#----------   ------------   ------------------------------
 STRT.F            6.0000:   START DEPTH
 STOP.F         4020.0000:   STOP DEPTH
 STEP.F            0.5000:   STEP LENGTH
 NULL.          -999.2500:   NO VALUE
 COMP. LAWRENCE/ALLISON INC:   COMPANY
 WELL.       66 JX #33-33:   WELL
 FLD .              NPR-3:   FIELD
 LOC .      S33 T39N R78W:   LOCATION
 CNTY.            NATRONA:   COUNTY
 STAT.            WYOMING:   STATE
 CTRY. UNITED STATES OF AMERICA:   COUNTRY
 SRVC.      Dresser Atlas:   SERVICE COMPANY
 DATE.        02-DEC-1983:   LOGDATE
 API .       490251095100:   API NUMBER
~CURVE INFORMATION
#MNEM.UNIT       API CODE    CURVE DESCRIPTION
#----------   ------------   ------------------------------
 DEPT.F                  :   
 CALD.IN     45 280 60 00:   CALIPER
 CNC .DEC    42 890 03 00:   NEUTRON POROSITY SANDSTONE
 PORD.DEC    45 890 12 00:   POROSITY DENSITY SANDSTONE
 DEN .G/C3   45 350 01 00:   COMPENSATED BULK DENSTIY
 CORR.G/C3   45 356 01 00:   DENSITY CORRECTION
 RFOC.OHMM   07 220 04 00:   RESISTIVITY FOCUSED LOG
 RILD.OHMM   07 120 46 00:   INDUCTION LOG DEEP RESISTIVITY
 RILM.OHMM   07 120 44 00:   INDUCTION LOG MEDIUM RESISTIVITY
 GRR .GAPI   07 310 01 00:   GAMMA RAY FROM RES. LOG.
 DT  .US/F   60 520 00 00:   INTERVAL TRANSIT TIME
 SPR .MV     07 010 01 00:   SPONTANEOUS POTENTIAL
~PARAMETER INFORMATION
#MNEM.UNIT          VALUE    DESCRIPTION
#----------   ------------   ------------------------------
 PD  .                 GL:   PERMANENT DATUM
 EPD .F              5141:   ELEVATION PERMANENT DATUM
 LMF .                 KB:   LOG MEASURED FROM
 DAPD.F                10:   FEET ABOVE PERMANENT DATUM
 DMF .                 KB:   DRILLING MEASURED FROM
 EKB .F              5151:   KELLING BUSHING
 EGL .F              5141:   GROUND LEVEL
 DATE.            12-2-83:   RUN DATE
 RUN .                  1:   RUN NUMBER
 DD  .F              4025:   DEPTH DRILLER
 DL  .F              4020:   DEPTH LOGGER
 BLI .F              4018:   BOTTOM LOG INTERVAL
 TLI .F                10:   TOP LOG INTERVAL
 CS  .IN            8.625:   CASING SIZE
 CBD .F               718:   CASING BOTTOM DRILLER
 CBL .F               722:   CASING BOTTOM LOGGER
 BS  .IN            7.875:   BIT SIZE
 BSD .F              4025:   BIT SIZE AT DEPTH
 DFT .            GEL/KCL:   DRILLING FLUID TYPE
 DFD .                  9:   DRILLING FLUID DENSITY
 DFV .                 45:   DRILLING FLUID VISCOSITY
 DFPH.                8.5:   DRILLING FLUID PH
 DFL .                 12:   DRILLING FLUID LOSS
 MSS .           FLOWLINE:   MUD SAMPLE SOURCE
 RMS .OHMM            .37:   RESISTIVITY MUD SAMPLE
 MST .F                88:   MUD SAMPLE TEMPERATURE
 RMF .OHMM            .29:   RESISTIVITY MUD FILTRATE SAMPLE
 MFST.F                88:   MUD FILTRATE SAMPLE TEMPERATURE
 RMC .OHMM            .46:   RESISTIVITY MUD CAKE
 MCST.F                88:   MUD CAKE SAMPLE TEMPERATURE
 MFSS.               MEAS:   MUD FILTRATE SAMPLE SOURCE
 MCSS.               CALC:   MUD CAKE SAMPLE SOURCE
 RMB .OHMM            .26:   RESISTIVITY MUD AT BHT
 BHT .F               127:   BOTTOM HOLE TEMPERATURE
 TCS .HRS               4:   TIME CURCULATED STOPPED
 MRT .F               127:   MAXIMUM RECORDED TEMPERATURE
 LUN .               6264:   LOGGING UNIT NUMBER
 LUL .              WLSTN:   LOGGING UNIT LOCATION
 ENGI.            PANASUK:   RECORDING ENGINEER
 WITN.              SCOTT:   WITNESSED BY
 CLNT.            A2DTECH:   CLIENT CODE
 ORIG.       2", 5" PRINT:   ORIGIN OF DATA
 UWI .       490251095100:   UNIQUE WELL ID
 DICO. A2D Technologies, Inc.:   DIGITIZING COMPANY
~OTHER INFORMATION
~A    DEPT    CALD        CNC       PORD        DEN       CORR       RFOC       RILD       RILM          GRR       DT        SPR   
# ...
 3544.0000     9.3232     0.3055     0.1425     2.4233     0.0181     2.5464     3.2346     3.3879   231.9001   109.1191   -29.2323
 3544.5000     9.3236     0.2914     0.1201     2.4656    -0.0075     2.7918     3.2346     3.6567   212.2448   107.0766   -29.5194
 3545.0000     9.3344     0.2776     0.0978     2.4902    -0.0075     4.7877     3.2346     3.8832   196.4946   100.3787   -30.2826
 3545.5000     9.3463     0.2794     0.0915     2.4971     0.0135     7.3361     3.2645     4.0383   196.5003    91.6228   -30.9516
 3546.0000     9.3582     0.2936     0.0903     2.4930     0.0391     6.9700     3.4182     4.1996   202.3792    88.1982   -31.7703
 3546.5000     9.3702     0.2994     0.0939     2.4891     0.0650     6.2196     3.8449     4.3673   209.3318    90.7594   -32.3570
 3547.0000     9.3823     0.3006     0.0974     2.4899     0.0680     5.4650     4.3072     4.5417   213.9227    93.4394   -32.6188
 3547.5000     9.3940     0.2996     0.0977     2.4934     0.0501     5.3654     4.4694     4.6820   207.2121    94.8999   -32.9388
 3548.0000     9.3900     0.2898     0.0945     2.4966     0.0299     5.7733     4.4141     4.7169   193.2739    94.9234   -33.4051
 3548.5000     9.3221     0.2789     0.0934     2.4915     0.0094     6.3904     4.3524     4.6193   183.4861    94.5465   -33.9114
 3549.0000     9.2558     0.2754     0.0979     2.4855     0.0031     6.2578     4.2920     4.5146   185.8992    94.2042   -34.3264
 3549.5000     9.1904     0.2806     0.1010     2.4822     0.0029     5.9930     4.2328     4.4498   189.8312    94.6842   -34.7574
 3550.0000     9.1519     0.2864     0.0942     2.4935     0.0031     5.7395     4.1743     4.3858   193.5047    95.3702   -35.2043
 3550.5000     9.1906     0.2922     0.0865     2.5059     0.0158     5.6161     4.1167     4.3420   191.6571    96.2062   -35.0370
 3551.0000     9.2268     0.2954     0.0788     2.5189     0.0302     5.6199     4.0604     4.2873   188.8600    95.9971   -34.6507
 3551.5000     9.2631     0.2983     0.0738     2.5258     0.0367     5.6199     4.0339     4.2386   186.4261    95.3302   -34.7297
 3552.0000     9.2992     0.3013     0.0738     2.5261     0.0259     5.5151     4.0339     4.1904   186.2232    94.2772   -34.7554
 3552.5000     9.3445     0.2986     0.0769     2.5225     0.0137     5.6258     4.0146     4.1427   185.7915    93.2057   -34.6215
 3553.0000     9.4085     0.3002     0.0837     2.5134     0.0013     5.7759     3.9970     4.0956   185.3337    92.4024   -34.6362
 3553.5000     9.4723     0.2761     0.0863     2.5076    -0.0005     5.6758     3.9268     4.0490   180.4883    92.2677   -34.6277
 3554.0000     9.5360     0.2670     0.0854     2.5085     0.0240     5.5048     3.8366     4.0030   174.1298    92.4765   -34.6325
 3554.5000     9.5999     0.2650     0.0864     2.5059     0.0414     5.3083     3.7476     3.9574   168.0684    92.9800   -34.6298
 3555.0000     9.6635     0.2630     0.0875     2.5025     0.0341     5.0807     3.7133     3.9124   161.7100    93.4835   -34.6324
 3555.5000     9.7032     0.2626     0.0863     2.5104     0.0252     4.9826     3.6827     3.8679   156.9378    94.0040   -34.6308
 3556.0000     9.5983     0.2689     0.0781     2.5221     0.0164     5.0193     3.6449     3.8239   150.5638    93.7177   -34.6343
 3556.5000     9.3758     0.2770     0.0698     2.5332     0.0134     5.0739     3.6074     3.7805   148.8702    93.2142   -34.6177
 3557.0000     9.1567     0.2846     0.0649     2.5398     0.0199     5.1302     3.5704     3.7476   150.6131    92.7107   -34.4731
 3557.5000     8.9740     0.2857     0.0676     2.5349     0.0261     5.1735     3.5337     3.7048   155.6009    92.3549   -34.3615
 3558.0000     8.8564     0.2867     0.0706     2.5292     0.0311     4.9736     3.4299     3.6104   162.4833    92.2683   -34.1964
 3558.5000     8.9447     0.2882     0.0737     2.5236     0.0301     4.6737     3.2645     3.5184   163.5650    92.4810   -33.9874
 3559.0000     9.0884     0.2926     0.0814     2.5138     0.0289     4.6309     3.1185     3.4182   165.6936    92.8727   -33.6503
 3559.5000     9.2314     0.3004     0.0931     2.4974     0.0279     4.7237     2.9589     3.2298   170.3217    93.2412   -33.2344
 3560.0000     9.2407     0.3042     0.1059     2.4746     0.0311     4.8489     2.8075     2.9727   177.3635    93.5035   -32.8352
 3560.5000     9.2081     0.2970     0.1185     2.4516     0.0503     4.4109     2.6638     2.7158   184.3103    94.4120   -32.4330
 3561.0000     9.1823     0.2864     0.1251     2.4453     0.0686     3.7241     2.5601     2.6419   191.0338    95.3028   -32.0206
 3561.5000     9.2256     0.2753     0.1156     2.4609     0.0601     3.1442     2.5292     2.6537   185.6241    95.7764   -31.7352
 3562.0000     9.2738     0.2642     0.1044     2.4797     0.0239     3.0051     2.4988     2.6902   175.9653    94.9347   -31.5844
 3562.5000     9.3213     0.2531     0.0932     2.4970    -0.0015     3.4261     2.4687     2.7272   152.2018    92.0535   -31.4001
 3563.0000     9.3643     0.2420     0.0906     2.4933     0.0186     3.9385     2.4319     2.7662   142.8038    88.3595   -31.2607
 3563.5000     9.3331     0.2308     0.1002     2.4833     0.0566     4.6737     2.4676     2.8121   136.9178    84.6974   -31.0972
 3564.0000     9.2993     0.2246     0.1065     2.4746     0.0830     4.7605     2.5321     2.8607   142.8648    83.5936   -30.7813
 3564.5000     9.2657     0.2324     0.0992     2.4914     0.0583     4.1948     2.5983     2.9100   149.5202    84.4419   -30.6398
 3565.0000     9.2311     0.2489     0.0874     2.5152     0.0195     3.7823     2.6663     2.9503   148.0122    86.0299   -31.1951
 3565.5000     9.2214     0.2586     0.0766     2.5214    -0.0094     3.9442     2.6573     2.8878   146.1383    87.6179   -31.9041
 3566.0000     9.2058     0.2678     0.0772     2.5215    -0.0071     4.1126     2.6461     2.8176   149.5096    88.4117   -32.6609
 3566.5000     9.1902     0.2762     0.0770     2.5228     0.0026     3.7628     2.6419     2.8609   155.9502    88.8989   -33.1874
 3567.0000     9.1869     0.2746     0.0755     2.5244     0.0127     3.3904     2.7269     2.9318   155.1679    90.1842   -33.4749
 3567.5000     9.1924     0.2697     0.0754     2.5213     0.0228     3.4849     2.7918     3.0043   149.7574    91.4014   -33.6438
 3568.0000     9.1981     0.2617     0.0789     2.5181     0.0325     3.9410     2.7662     3.0892   141.6254    91.1970   -33.3285
 3568.5000     9.2042     0.2537     0.0810     2.5170     0.0419     4.5451     2.8063     3.0633   134.8768    89.7569   -32.9751
 3569.0000     9.1731     0.2454     0.0768     2.5261     0.0512     4.3959     2.8678     3.0051   135.5278    88.0148   -32.6079
 3569.5000     9.1348     0.2458     0.0721     2.5284     0.0606     4.1770     2.9307     3.0207   135.7734    86.3624   -32.2552
 3570.0000     9.0964     0.2594     0.0814     2.5121     0.0701     4.1088     2.9513     3.0533   138.9019    85.2953   -31.8732
 3570.5000     9.0575     0.2669     0.1038     2.4768     0.0796     4.0378     2.8982     3.0892   143.6180    85.3116   -31.4268
 3571.0000     9.0579     0.2692     0.1237     2.4426     0.0702     3.8149     2.8068     2.9787   144.0166    85.9409   -30.8130
 3571.5000     9.0789     0.2909     0.1325     2.4274     0.0281     3.6793     2.7180     2.8672   144.3746    86.3671   -30.0997
 3572.0000     9.1018     0.3168     0.1487     2.4014     0.0044     4.2629     2.6319     2.7598   149.4368    86.9610   -29.4158
 3572.5000     9.0370     0.3337     0.1687     2.3736     0.0805     4.2238     2.5482     2.6564   168.7583    89.7407   -28.7037
 3573.0000     8.9375     0.3103     0.1730     2.3632     0.0770     3.3276     2.4670     2.5570   188.5988    94.5636   -28.0287
 3573.5000     8.8354     0.3046     0.1534     2.3905     0.0496     2.5231     2.3862     2.4544   198.8177    99.8311   -27.3818
 3574.0000     8.8037     0.3154     0.1305     2.4296     0.0015     2.6379     2.3343     2.4818   179.2463   104.3198   -27.5804
