~VERSION INFORMATION
 VERS.                2.0:   CWLS LOG ASCII STANDARD - VERSION 2.0
 WRAP.                 NO:   ONE LINE PER DEPTH STEP
~WELL INFORMATION
#MNEM.UNIT      DATA TYPE    INFORMATION
#----------   ------------   ------------------------------
 STRT.F           80.0000:   START DEPTH
 STOP.F          740.0000:   STOP DEPTH
 STEP.F            0.5000:   STEP LENGTH
 NULL.          -999.2500:   NO VALUE
 COMP. U S NAVY/INTEX OIL CO:   COMPANY
 WELL. NPR 3 TEAPOT DOME #73-S-34:   WELL
 FLD .             TEAPOT:   FIELD
 LOC .      S34 T39N R78W:   LOCATION
 CNTY.            NATRONA:   COUNTY
 STAT.            WYOMING:   STATE
 CTRY. UNITED STATES OF AMERICA:   COUNTRY
 SRVC. Schlumberger Well Surveying Corp:   SERVICE COMPANY
 DATE.        19-FEB-1961:   LOGDATE
 API .       490250655200:   API NUMBER
~CURVE INFORMATION
#MNEM.UNIT       API CODE    CURVE DESCRIPTION
#----------   ------------   ------------------------------
 DEPT.F                  :   
 GR  .CPS    99 310 30 00:   GAMMA RAY FROM PERFORATING FORMATION COLLAR CHART
 SPR .MV     05 010 01 00:   SPONTANEOUS POTENTIAL
 ILD .OHMM   05 120 46 00:   INDUCTION LOG DEEP
 CILD.MMHO   05 110 46 00:   CONDUCTIVITY INDUCTION LOG DEEP
 ASN .OHMM   05 041 16 00:   AMPLIFIED SHORT NORMAL 16"
~PARAMETER INFORMATION
#MNEM.UNIT          VALUE    DESCRIPTION
#----------   ------------   ------------------------------
 LMF .                 KB:   LOG MEASURED FROM
 DMF .                 KB:   DRILLING MEASURED FROM
 EKB .F              5044:   KELLING BUSHING
 EGL .F              5040:   GROUND LEVEL
 DATE.          2-19-1961:   RUN DATE
 RUN .                  1:   RUN NUMBER
 DD  .F               740:   DEPTH DRILLER
 DL  .F               741:   DEPTH LOGGER
 BLI .F               740:   BOTTOM LOG INTERVAL
 TLI .F                80:   TOP LOG INTERVAL
 CBD .F               740:   CASING BOTTOM DRILLER
 CBL .F               741:   CASING BOTTOM LOGGER
 BS  .IN            7.875:   BIT SIZE
 BSD .F               740:   BIT SIZE AT DEPTH
 DFT .       GEL-OIL EMUL:   DRILLING FLUID TYPE
 DFD .                9.2:   DRILLING FLUID DENSITY
 DFV .                 49:   DRILLING FLUID VISCOSITY
 DFPH.                  8:   DRILLING FLUID PH
 DFL .               11.4:   DRILLING FLUID LOSS
 MSS .           FLOWLINE:   MUD SAMPLE SOURCE
 RMS .OHMM            .84:   RESISTIVITY MUD SAMPLE
 MST .F                74:   MUD SAMPLE TEMPERATURE
 RMF .OHMM            .83:   RESISTIVITY MUD FILTRATE SAMPLE
 MFST.F                75:   MUD FILTRATE SAMPLE TEMPERATURE
 RMC .OHMM            .52:   RESISTIVITY MUD CAKE
 MCST.F                74:   MUD CAKE SAMPLE TEMPERATURE
 RMB .OHMM           1.98:   RESISTIVITY MUD AT BHT
 BHT .F                70:   BOTTOM HOLE TEMPERATURE
 TCS .HRS               1:   TIME CURCULATED STOPPED
 MRT .F                70:   MAXIMUM RECORDED TEMPERATURE
 LUN .               2523:   LOGGING UNIT NUMBER
 LUL .               CSPR:   LOGGING UNIT LOCATION
 ENGI.             KNOBEL:   RECORDING ENGINEER
 WITN.          JORGENSEN:   WITNESSED BY
 CLNT.            A2DTECH:   CLIENT CODE
 ORIG.        2" 5" PRINT:   ORIGIN OF DATA
 UWI .       490250655200:   UNIQUE WELL ID
 DICO. A2D Technologies, Inc.:   DIGITIZING COMPANY
~OTHER INFORMATION
~A   DEPT       GR        SPR          ILD      CILD         ASN 
# ...
  324.0000  -999.2500   -22.6624     9.9319   100.2997    12.6729
  324.5000  -999.2500   -22.7645     9.8653   101.4552    12.5391
  325.0000  -999.2500   -22.8031     9.7988   102.4746    12.4054
  325.5000  -999.2500   -22.7237     9.7322   103.2790    12.2730
  326.0000  -999.2500   -22.6463     9.6656   104.0779    12.1995
  326.5000  -999.2500   -22.5685     9.5990   104.8775    12.2331
  327.0000  -999.2500   -22.4908     9.5331   105.6775    12.2648
  327.5000  -999.2500   -22.4132     9.4991   106.4774    12.2969
  328.0000  -999.2500   -22.3355     9.5206   107.2774    12.3290
  328.5000  -999.2500   -22.2578     9.5413   107.0803    12.3611
  329.0000  -999.2500   -22.1801     9.5621   106.7603    12.3924
  329.5000  -999.2500   -22.1025     9.5829   106.4403    12.3708
  330.0000  -999.2500   -22.0248     9.6037   106.1203    12.3045
  330.5000  -999.2500   -21.9471     9.6245   105.8003    12.2389
  331.0000  -999.2500   -21.8694     9.6454   105.4804    12.1732
  331.5000  -999.2500   -21.7917     9.6662   105.2905    12.1075
  332.0000  -999.2500   -21.7140     9.6863   105.6550    12.0418
  332.5000  -999.2500   -21.6364     9.6642   106.5464    11.9761
  333.0000  -999.2500   -21.5912     9.5767   107.4378    11.9104
  333.5000  -999.2500   -21.6731     9.4902   108.3291    11.8440
  334.0000  -999.2500   -21.7632     9.4035   109.2205    11.7774
  334.5000  -999.2500   -21.8534     9.3168   110.1126    11.8051
  335.0000  -999.2500   -21.9435     9.2307   111.0068    11.8403
  335.5000  -999.2500   -22.0336     9.1898   111.5660    11.8751
  336.0000  -999.2500   -22.1236     9.2136   111.6890    11.9099
  336.5000  -999.2500   -22.2137     9.2366   111.8114    11.9453
  337.0000  -999.2500   -22.3037     9.2602   111.9337    11.9781
  337.5000  -999.2500   -22.3938     9.2822   112.0561    11.8687
  338.0000  -999.2500   -22.4839     9.2197   112.1784    11.7468
  338.5000  -999.2500   -22.5736     9.1501   112.3008    11.6252
  339.0000  -999.2500   -22.6238     9.0806   112.4231    11.5038
  339.5000  -999.2500   -22.5890     9.0113   112.5519    11.3818
  340.0000  -999.2500   -22.5097     8.9423   113.7344    11.2598
  340.5000  -999.2500   -22.4310     8.8691   114.9824    11.2297
  341.0000  -999.2500   -22.3520     8.7045   116.1359    11.2046
  341.5000  -999.2500   -22.2731     8.5310   117.9668    11.1784
  342.0000  -999.2500   -22.1942     8.3575   120.7400    11.1492
  342.5000  -999.2500   -22.1153     8.1842   123.5131    10.9602
  343.0000  -999.2500   -22.0364     8.0109   126.6664    10.5398
  343.5000  -999.2500   -21.9574     7.8376   130.2523    10.1293
  344.0000  -999.2500   -21.8780     7.6643   133.8502    10.0827
  344.5000  -999.2500   -21.8004     7.4906   137.4476    10.0549
  345.0000  -999.2500   -21.7975     7.3126   141.0364    10.0261
  345.5000  -999.2500   -21.8255     7.1155   144.7095     9.9270
  346.0000  -999.2500   -21.8850     7.2062   144.2012     9.7903
  346.5000  -999.2500   -21.9440     7.3109   143.6722     9.7262
  347.0000  -999.2500   -22.0033     7.4000   142.6349     9.9660
  347.5000  -999.2500   -22.0625     7.5784   138.5373    10.2169
  348.0000  -999.2500   -22.1214     7.7560   134.3776    10.4278
  348.5000  -999.2500   -22.1782     7.9344   130.2178    10.6288
  349.0000  -999.2500   -22.2216     8.1126   126.0373    10.7399
  349.5000  -999.2500   -22.3611     8.2909   124.6577    10.9480
  350.0000  -999.2500   -22.2534     8.4713   123.2711    11.1457
  350.5000  -999.2500   -22.1455     8.6501   121.8880    11.1540
  351.0000  -999.2500   -22.0362     8.5313   122.9305    11.0479
  351.5000  -999.2500   -21.9272     8.3973   123.9704    10.8398
  352.0000  -999.2500   -21.8182     8.2643   125.0104    10.6394
  352.5000  -999.2500   -21.7092     8.1324   126.0503    10.5331
  353.0000  -999.2500   -21.6000     7.9994   127.0902    10.5273
  353.5000  -999.2500   -21.4904     7.9748   128.1120    10.5282
  354.0000  -999.2500   -21.3870     8.0470   128.1120    10.5326
  354.5000  -999.2500   -21.3833     8.1202   128.1120    10.6344
  355.0000  -999.2500   -21.4632     8.1938   128.1120    10.7390
  355.5000  -999.2500   -21.6138     8.2672   126.4066    10.8431
  356.0000  -999.2500   -21.7644     8.3406   124.7427    10.9471
  356.5000  -999.2500   -21.9155     8.4142   123.7171    11.0514
  357.0000  -999.2500   -22.0672     8.4878   123.2550    11.1566
  357.5000  -999.2500   -22.2039     8.5568   122.7928    11.2479
  358.0000  -999.2500   -22.1112     8.5285   122.3306    11.1180
  358.5000  -999.2500   -22.0124     8.4728   121.8880    10.9830
  359.0000  -999.2500   -21.9147     8.4173   122.4536    10.8491
  359.5000  -999.2500   -21.8172     8.3618   122.9961    10.7154
  360.0000  -999.2500   -21.7197     8.3064   123.5387    10.5814
  360.5000  -999.2500   -21.6222     8.2507   124.0813    10.4472
  361.0000  -999.2500   -21.5249     8.1949   124.6238    10.3228
  361.5000  -999.2500   -21.4270     8.1455   125.1664    10.3259
  362.0000  -999.2500   -21.3847     8.1793   125.7090    10.4427
  362.5000  -999.2500   -21.4232     8.2145   126.2516    10.5593
  363.0000  -999.2500   -21.4920     8.2467   126.7942    10.6747
  363.5000  -999.2500   -21.5611     8.2174   127.3367    10.7912
  364.0000  -999.2500   -21.6302     8.1655   127.8793    10.8181
  364.5000  -999.2500   -21.6992     8.1135   128.2605    10.7818
  365.0000  -999.2500   -21.7682     8.0615   128.5205    10.7445
  365.5000  -999.2500   -21.8373     8.0095   128.7805    10.7070
  366.0000  -999.2500   -21.9064     7.9574   129.0405    10.6697
  366.5000  -999.2500   -21.9764     7.9056   129.3004    10.6324
  367.0000  -999.2500   -22.0000     7.8530   129.5604    10.5950
  367.5000  -999.2500   -21.9267     7.8477   129.8204    10.5577
  368.0000  -999.2500   -21.8540     7.8732   130.0804    10.5204
  368.5000  -999.2500   -21.7819     7.8990   130.3404    10.4830
  369.0000  -999.2500   -21.7099     7.9258   130.6004    10.4457
  369.5000  -999.2500   -21.6378     7.8998   130.8604    10.4084
  370.0000  -999.2500   -21.5658     7.8409   131.1203    10.3710
  370.5000  -999.2500   -21.4937     7.7815   131.7048    10.3337
  371.0000  -999.2500   -21.4217     7.7220   132.5048    10.2964
  371.5000  -999.2500   -21.3496     7.6625   133.3047    10.2591
  372.0000  -999.2500   -21.2776     7.6032   134.1047    10.2217
  372.5000  -999.2500   -21.2050     7.5430   134.9046    10.1842
  373.0000  -999.2500   -21.1776     7.5372   135.7046    10.1478
  373.5000  -999.2500   -21.2163     7.5626   136.3498    10.1121
  374.0000  -999.2500   -21.2780     7.5887   135.8299    10.2239
  374.5000  -999.2500   -21.3402     7.6140   135.3734    10.2696
  375.0000  -999.2500   -21.4024     7.6900   135.1697    10.3496
  375.5000  -999.2500   -21.4645     7.7932   133.5355    10.4311
  376.0000  -999.2500   -21.5266     7.8972   131.9013    10.5125
  376.5000  -999.2500   -21.5888     8.0013   130.2671    10.5939
  377.0000  -999.2500   -21.6510     8.1053   128.6329    10.6753
  377.5000  -999.2500   -21.7131     8.2093   126.9987    10.7567
  378.0000  -999.2500   -21.7759     8.3137   125.3645    10.8381
  378.5000  -999.2500   -21.7973     8.3888   123.8360    10.9195
  379.0000  -999.2500   -21.7928     8.4486   122.9446    11.0011
  379.5000  -999.2500   -21.7582     8.5078   122.0532    11.0826
  380.0000  -999.2500   -21.7235     8.5463   121.1618    11.1535
  380.5000  -999.2500   -21.6890     8.4514   121.6629    11.1382
  381.0000  -999.2500   -21.6544     8.3577   122.9108    11.0429
  381.5000  -999.2500   -21.6199     8.2644   124.1260    10.9480
  382.0000  -999.2500   -21.5854     8.1712   125.1660    10.8534
  382.5000  -999.2500   -21.5509     8.0780   126.2059    10.7589
  383.0000  -999.2500   -21.5164     7.9847   127.2458    10.6644
  383.5000  -999.2500   -21.4818     7.8915   128.4595    10.5698
  384.0000  -999.2500   -21.4473     7.7983   130.5394    10.4753
  384.5000  -999.2500   -21.4128     7.7050   132.6193    10.3807
