~VERSION INFORMATION
 VERS.                2.0:   CWLS LOG ASCII STANDARD - VERSION 2.0
 WRAP.                 NO:   ONE LINE PER DEPTH STEP
~WELL INFORMATION
#MNEM.UNIT      DATA TYPE    INFORMATION
#----------   ------------   ------------------------------
 STRT.F           12.5000:   START DEPTH
 STOP.F          688.0000:   STOP DEPTH
 STEP.F            0.5000:   STEP LENGTH
 NULL.          -999.2500:   NO VALUE
 COMP. FENIX & SCISSON INC:   COMPANY
 WELL. 26-66 SX 11 WO #26-11:   WELL
 FLD .             TEAPOT:   FIELD
 LOC .      S11 T38N R78W:   LOCATION
 CNTY.            NATRONA:   COUNTY
 STAT.            WYOMING:   STATE
 CTRY. UNITED STATES OF AMERICA:   COUNTRY
 SRVC.      Dresser Atlas:   SERVICE COMPANY
 DATE.        28-AUG-1980:   LOGDATE
 API .       490251084700:   API NUMBER
~CURVE INFORMATION
#MNEM.UNIT       API CODE    CURVE DESCRIPTION
#----------   ------------   ------------------------------
 DEPT.F                  :   
 SFL .OHMM   07 220 01 00:   SHALLOW FOCUSED LOG RESISTIVITY
 ILD .OHMM   07 120 46 00:   INDUCTION LOG DEEP
 ILM .OHMM   07 120 44 00:   INDUCTION LOG MEDIUM
 SPR .MV     07 010 01 00:   SPONTANEOUS POTENTIAL
 CORR.G/C3   45 356 01 00:   DENSITY CORRECTION
 RHOB.G/C3   45 350 01 00:   BULK DENSITY
 DPOR.DEC    45 890 12 00:   DENSITY POROSITY SANDSTONE
 NPOR.DEC    42 890 03 00:   NEUTRON POROSITY SANDSTONE
 GRD .GAPI   45 310 01 00:   GAMMA RAY FROM DENSITY LOG
~PARAMETER INFORMATION
#MNEM.UNIT          VALUE    DESCRIPTION
#----------   ------------   ------------------------------
 PD  .                 GL:   PERMANENT DATUM
 EPD .F              5194:   ELEVATION PERMANENT DATUM
 LMF .                 KB:   LOG MEASURED FROM
 DAPD.F                 5:   FEET ABOVE PERMANENT DATUM
 DMF .                 KB:   DRILLING MEASURED FROM
 EKB .F              5199:   KELLING BUSHING
 EGL .F              5194:   GROUND LEVEL
 DATE.          8-28-1980:   RUN DATE
 RUN .                  1:   RUN NUMBER
 DD  .F               700:   DEPTH DRILLER
 DL  .F               689:   DEPTH LOGGER
 BLI .F               688:   BOTTOM LOG INTERVAL
 TLI .F                14:   TOP LOG INTERVAL
 BS  .IN             8.75:   BIT SIZE
 BSD .F               700:   BIT SIZE AT DEPTH
 DFT .                KCL:   DRILLING FLUID TYPE
 DFD .                8.8:   DRILLING FLUID DENSITY
 DFV .                 55:   DRILLING FLUID VISCOSITY
 DFPH.                 11:   DRILLING FLUID PH
 DFL .                  8:   DRILLING FLUID LOSS
 MSS .           FLOWLINE:   MUD SAMPLE SOURCE
 RMS .OHMM            .72:   RESISTIVITY MUD SAMPLE
 MST .F                66:   MUD SAMPLE TEMPERATURE
 RMF .OHMM            .21:   RESISTIVITY MUD FILTRATE SAMPLE
 MFST.F                66:   MUD FILTRATE SAMPLE TEMPERATURE
 RMC .OHMM           1.24:   RESISTIVITY MUD CAKE
 MCST.F                66:   MUD CAKE SAMPLE TEMPERATURE
 MFSS.               MEAS:   MUD FILTRATE SAMPLE SOURCE
 MCSS.               MEAS:   MUD CAKE SAMPLE SOURCE
 BHT .F               100:   BOTTOM HOLE TEMPERATURE
 TCS .HRS               2:   TIME CURCULATED STOPPED
 MRT .F               100:   MAXIMUM RECORDED TEMPERATURE
 LUN .               6240:   LOGGING UNIT NUMBER
 LUL .               RYTN:   LOGGING UNIT LOCATION
 ENGI.           J. GETTY:   RECORDING ENGINEER
 WITN.              FIVAS:   WITNESSED BY
 CLNT.            A2DTECH:   CLIENT CODE
 ORIG.      1" 2.5" PRINT:   ORIGIN OF DATA
 UWI .       490251084700:   UNIQUE WELL ID
 DICO. A2D Technologies, Inc.:   DIGITIZING COMPANY
~OTHER INFORMATION
~A   DEPT      SFL        ILD        ILM        SPR       CORR       RHOB       DPOR         NPOR      GRD   
# ...
  268.0000     9.3375     7.9180     8.0680   -70.6995     0.0077     2.4325     0.1474     0.3425   138.3045
  268.5000     9.2888     7.9187     8.1167   -70.6482     0.0120     2.4382     0.1385     0.3196   136.5548
  269.0000     9.2404     7.9191     8.1649   -70.5792     0.0176     2.4480     0.1285     0.3039   135.6339
  269.5000     9.1922     7.9537     8.2136   -70.5168     0.0165     2.4579     0.1280     0.3113   136.4897
  270.0000     9.4146     7.9936     8.2634   -70.4571     0.0117     2.4646     0.1253     0.3212   139.0734
  270.5000     9.7060     8.0342     8.3133   -70.3941     0.0197     2.4714     0.1186     0.3193   142.1478
  271.0000    10.0064     8.0749     8.3636   -70.3312     0.0312     2.4899     0.1116     0.2946   134.4542
  271.5000    10.4554     8.1158     8.4142   -70.2688     0.0334     2.4883     0.1150     0.2771   121.9926
  272.0000    10.3538     8.1570     8.4651   -70.2065     0.0318     2.4818     0.1186     0.2542   116.8785
  272.5000    10.1750     8.1983     8.5176   -70.1444     0.0348     2.4842     0.1129     0.2542   122.0512
  273.0000     9.9993     8.2399     8.5010   -70.0818     0.0430     2.4968     0.1084     0.2805   128.0584
  273.5000     9.7414     8.2817     8.4677   -70.0204     0.0501     2.4979     0.1064     0.2975   131.1142
  274.0000     9.7860     8.3229     8.4347   -69.9595     0.0575     2.5063     0.1028     0.3085   134.8730
  274.5000    10.0451     8.3698     8.4017   -69.8971     0.0662     2.5235     0.0924     0.3178   136.7422
  275.0000    10.3111     8.3137     8.3688   -69.9362     0.0611     2.5139     0.0972     0.3228   136.1253
  275.5000    10.6378     8.2509     8.3360   -70.0180     0.0469     2.4973     0.1092     0.3210   131.1986
  276.0000    10.6126     8.1886     8.3034   -70.1029     0.0342     2.4796     0.1211     0.3216   127.9342
  276.5000    10.5629     8.1267     8.2709   -70.1855     0.0315     2.4656     0.1269     0.3184   127.0943
  277.0000    10.5122     8.0653     8.2385   -70.2703     0.0278     2.4544     0.1327     0.3107   127.1411
  277.5000    10.4543     8.0043     8.2063   -71.0229     0.0316     2.4431     0.1386     0.3139   128.1920
  278.0000    10.6900     7.9438     8.1742   -71.9892     0.0341     2.4350     0.1442     0.3284   129.0098
  278.5000    10.9717     7.8836     8.1423   -73.0873     0.0362     2.4540     0.1386     0.3429   129.9507
  279.0000    11.2551     7.8239     8.1104   -72.8474     0.0401     2.4877     0.1138     0.3504   130.6450
  279.5000    10.8941     7.7647     8.0787   -72.5636     0.0420     2.4811     0.1160     0.3442   130.6109
  280.0000    10.5525     7.7059     8.0239   -72.2328     0.0389     2.4662     0.1240     0.3384   130.7849
  280.5000    10.2221     7.6475     7.9543   -71.9122     0.0123     2.4518     0.1318     0.3325   132.1333
  281.0000     9.9022     7.5896     7.8853   -71.5935     0.0127     2.4353     0.1398     0.3265   137.2538
  281.5000     9.5924     7.5321     7.8169   -71.2532     0.0121     2.4342     0.1458     0.3171   142.2010
  282.0000     9.2921     7.4749     7.7491   -71.2104     0.0116     2.4336     0.1453     0.3059   142.0910
  282.5000     9.0991     7.4181     7.6819   -71.5016     0.0122     2.4360     0.1441     0.3020   136.7159
  283.0000     8.9648     7.3617     7.6299   -71.7737     0.0136     2.4501     0.1371     0.3087   133.1916
  283.5000     8.8523     7.3058     7.6718   -72.0138     0.0319     2.4685     0.1235     0.3165   134.1563
  284.0000     9.0315     7.2184     7.7545   -72.3021     0.0429     2.4816     0.1154     0.3243   132.4353
  284.5000     9.1879     7.2526     7.8380   -71.7094     0.0348     2.4683     0.1197     0.3321   129.0034
  285.0000     9.3551     7.3481     7.9225   -71.0282     0.0327     2.4640     0.1284     0.3393   126.7566
  285.5000     9.8388     7.4455     8.0078   -70.3262     0.0427     2.4708     0.1245     0.3311   126.5452
  286.0000    10.4554     7.5434     8.0942   -70.5060     0.0593     2.4895     0.1118     0.3192   128.4073
  286.5000    10.4859     7.6426     8.1814   -70.6864     0.0564     2.5016     0.1052     0.3155   132.9758
  287.0000    10.5225     7.7431     8.2696   -70.8973     0.0463     2.4881     0.1099     0.3217   136.8345
  287.5000    10.5592     7.8120     8.3587   -71.1070     0.0360     2.4694     0.1194     0.3273   138.9289
  288.0000    10.5961     7.8679     8.4488   -71.2934     0.0263     2.4456     0.1289     0.3282   133.0689
  288.5000    10.6331     7.9241     8.5399   -71.4959     0.0155     2.4516     0.1355     0.3274   128.9173
  289.0000    10.7423     7.9808     8.6320   -71.2081     0.0144     2.4668     0.1257     0.3208   128.3865
  289.5000    10.9211     8.0379     8.7251   -70.9032     0.0202     2.4807     0.1139     0.3136   128.8451
  290.0000    11.1028     8.0954     8.8451   -70.5964     0.0240     2.4865     0.1181     0.3063   128.0653
  290.5000    11.2876     8.1533     8.8351   -70.3042     0.0240     2.4569     0.1261     0.3000   126.4716
  291.0000    11.4754     8.2170     8.8141   -70.4302     0.0242     2.4576     0.1331     0.2940   125.8795
  291.5000    11.6664     8.2170     8.7932   -70.5461     0.0238     2.4618     0.1297     0.2887   128.9911
  292.0000    11.8605     8.2170     8.7723   -70.6763     0.0266     2.4613     0.1290     0.2847   133.2567
  292.5000    11.5844     8.2170     8.7515   -70.8074     0.0314     2.4608     0.1306     0.2794   136.5085
  293.0000    11.0531     8.2170     8.7307   -70.9299     0.0360     2.4625     0.1273     0.2695   134.4773
  293.5000    11.4365     8.2170     8.7101   -71.0539     0.0404     2.4744     0.1210     0.2665   131.5159
  294.0000    11.9271     8.2170     8.6869   -71.3148     0.0444     2.4861     0.1131     0.2777   131.2764
  294.5000    12.3500     8.2169     8.6618   -72.0984     0.0407     2.4788     0.1181     0.2936   131.8028
  295.0000    12.5841     8.2168     8.6334   -72.7851     0.0293     2.4557     0.1317     0.2934   132.4129
  295.5000    12.2761     8.2170     8.6051   -72.7378     0.0208     2.4423     0.1404     0.3019   131.0242
  296.0000    11.9105     8.2167     8.5771   -72.1249     0.0148     2.4509     0.1339     0.3149   129.0570
  296.5000    12.0538     8.2153     8.5345   -71.8084     0.0513     2.4633     0.1273     0.3283   127.2170
  297.0000    12.3486     8.2161     8.5677   -71.6596     0.0461     2.4723     0.1219     0.3283   127.2911
  297.5000    12.0125     8.2170     8.7658   -71.5078     0.0428     2.4725     0.1213     0.2900   129.3415
  298.0000    11.6284     8.2170     8.9687   -71.4866     0.0370     2.4727     0.1205     0.2935   128.5571
  298.5000    11.2606     8.4235     9.1763   -70.9471     0.0323     2.4758     0.1191     0.2996   125.9162
  299.0000    11.8726     8.6196     9.3887   -70.4598     0.0314     2.4806     0.1175     0.2867   123.1766
  299.5000    12.5075     8.8203     9.6060   -69.9495     0.0302     2.4816     0.1171     0.2747   122.4189
  300.0000    13.3035     9.0258     9.8284   -69.4410     0.0295     2.4772     0.1191     0.2706   123.9155
  300.5000    13.3731     9.2360    10.0559   -68.9371     0.0285     2.4707     0.1225     0.2751   124.3659
  301.0000    13.4582     9.4510    10.2886   -68.4220     0.0265     2.4643     0.1253     0.2805   122.8371
  301.5000    13.5438     9.6712    10.5268   -68.2160     0.0194     2.4584     0.1276     0.2860   122.7579
  302.0000    13.6300     9.8964    10.7704   -68.2025     0.0118     2.4509     0.1329     0.2923   123.1014
  302.5000    13.7167    10.1268    11.0197   -68.1837     0.0078     2.4451     0.1387     0.2916   126.7654
  303.0000    13.8059    10.3627    11.2747   -68.1586     0.0083     2.4600     0.1352     0.2838   132.0159
  303.5000    13.9983    10.4554    11.5089   -68.1363     0.0154     2.4854     0.1243     0.2763   133.6268
  304.0000    14.3173    10.5970    11.6658   -68.1148     0.0248     2.5057     0.1044     0.2677   132.6220
