~VERSION INFORMATION
 VERS.                2.0:   CWLS LOG ASCII STANDARD - VERSION 2.0
 WRAP.                 NO:   ONE LINE PER DEPTH STEP
~WELL INFORMATION
#MNEM.UNIT      DATA TYPE    INFORMATION
#----------   ------------   ------------------------------
 STRT.F            2.0000:   START DEPTH
 STOP.F          484.0000:   STOP DEPTH
 STEP.F            0.5000:   STEP LENGTH
 NULL.          -999.2500:   NO VALUE
 COMP. LAWRENCE/ALLISON INC:   COMPANY
 WELL. NPR 3 #68-52-1-SX-3:   WELL
 FLD .             NPR #3:   FIELD
 LOC .       S3 T38N R78W:   LOCATION
 CNTY.            NATRONA:   COUNTY
 STAT.            WYOMING:   STATE
 CTRY. UNITED STATES OF AMERICA:   COUNTRY
 SRVC.           Gearhart:   SERVICE COMPANY
 DATE.        14-JUN-1988:   LOGDATE
 API .       490251122200:   API NUMBER
~CURVE INFORMATION
#MNEM.UNIT       API CODE    CURVE DESCRIPTION
#----------   ------------   ------------------------------
 DEPT.F                  :   
 GRR .GAPI   07 310 01 00:   GAMMA RAY FROM RES. LOG.
 RILD.OHMM   07 120 46 00:   INDUCTION LOG DEEP RESISTIVITY
 RILM.OHMM   07 120 44 00:   INDUCTION LOG MEDIUM RESISTIVITY
~PARAMETER INFORMATION
#MNEM.UNIT          VALUE    DESCRIPTION
#----------   ------------   ------------------------------
 PD  .                 GL:   PERMANENT DATUM
 EPD .F              5168:   ELEVATION PERMANENT DATUM
 LMF .                 KB:   LOG MEASURED FROM
 DAPD.F                 5:   FEET ABOVE PERMANENT DATUM
 DMF .                 KB:   DRILLING MEASURED FROM
 EKB .F              5173:   KELLING BUSHING
 EGL .F              5168:   GROUND LEVEL
 DATE.          6-14-1988:   RUN DATE
 RUN .                  1:   RUN NUMBER
 DD  .F               490:   DEPTH DRILLER
 DL  .F               491:   DEPTH LOGGER
 BLI .F               484:   BOTTOM LOG INTERVAL
 TLI .F                40:   TOP LOG INTERVAL
 CS  .IN            8.625:   CASING SIZE
 CBD .F                40:   CASING BOTTOM DRILLER
 CBL .F                40:   CASING BOTTOM LOGGER
 BS  .IN            7.875:   BIT SIZE
 BSD .F               490:   BIT SIZE AT DEPTH
 DFT .                AIR:   DRILLING FLUID TYPE
 TLAB.HRS            2248:   TIME LOGGER AT BOTTOM
 MRT .F                75:   MAXIMUM RECORDED TEMPERATURE
 LUN .               7597:   LOGGING UNIT NUMBER
 LUL .           GILLETTE:   LOGGING UNIT LOCATION
 ENGI.              BENCK:   RECORDING ENGINEER
 WITN.             STRONG:   WITNESSED BY
 CLNT.            A2DTECH:   CLIENT CODE
 ORIG.           5" PRINT:   ORIGIN OF DATA
 UWI .       490251122200:   UNIQUE WELL ID
 DICO. A2D Technologies, Inc.:   DIGITIZING COMPANY
~OTHER INFORMATION
~A    DEPT      GRR      RILD       RILM   
# ...
  366.0000    79.5071    23.1375    20.3170
  366.5000    79.9969    22.8926    20.1031
  367.0000    78.2837    22.6502    19.8910
  367.5000    76.1040    22.5254    19.7136
  368.0000    74.2449    22.3686    19.5542
  368.5000    74.2585    22.2129    19.3966
  369.0000    74.8836    22.0583    19.2402
  369.5000    75.8938    21.9438    19.0937
  370.0000    75.5607    21.9853    19.1823
  370.5000    74.3182    22.0247    19.2684
  371.0000    73.9164    22.0642    19.3543
  371.5000    74.7397    22.1038    19.4402
  372.0000    74.9675    22.1434    19.4512
  372.5000    74.7630    22.1831    19.4512
  373.0000    74.5473    22.2228    19.4498
  373.5000    74.3163    22.2627    19.4538
  374.0000    74.6942    22.3018    19.1191
  374.5000    75.5120    22.3412    18.8963
  375.0000    77.7692    22.3590    18.4838
  375.5000    79.5996    21.9081    17.9501
  376.0000    79.5580    21.5711    17.4651
  376.5000    79.5438    21.3416    16.9932
  377.0000    79.6098    21.1280    16.6137
  377.5000    81.3008    20.8963    16.9765
  378.0000    83.0432    20.6671    17.4958
  378.5000    84.3658    20.4404    18.0309
  379.0000    83.9113    20.2162    18.4358
  379.5000    83.6754    19.9945    18.5697
  380.0000    85.9785    19.7752    18.0613
  380.5000    86.7606    19.4592    17.6252
  381.0000    84.9061    18.9623    17.1996
  381.5000    82.9868    18.5116    16.7842
  382.0000    81.0566    18.1325    16.3788
  382.5000    80.3816    17.7611    15.9834
  383.0000    80.3741    17.3973    15.5974
  383.5000    79.9251    17.0410    15.2523
  384.0000    76.3959    16.6904    15.0693
  384.5000    73.0546    16.4333    14.8885
  385.0000    73.0425    16.2013    14.7098
  385.5000    75.3122    15.9735    14.5333
  386.0000    78.1820    15.7487    14.3589
  386.5000    79.4396    15.5272    14.0609
  387.0000    79.5644    15.3087    13.8446
  387.5000    79.5520    15.0933    13.6311
  388.0000    79.5923    14.8809    13.4211
  388.5000    80.4864    14.6725    13.2145
  389.0000    81.3851    14.5512    13.0537
  389.5000    82.2812    14.4606    12.9262
  390.0000    83.1652    14.3689    12.8013
  390.5000    83.9866    14.2780    12.6777
  391.0000    83.3119    14.1876    12.5554
  391.5000    81.7115    14.0978    12.4621
  392.0000    80.0772    14.0086    12.4621
  392.5000    79.7965    13.9199    12.4621
  393.0000    80.8428    13.8007    12.4621
  393.5000    81.8573    13.8215    12.4620
  394.0000    81.9673    13.8537    12.4616
  394.5000    81.8825    13.8860    12.4605
  395.0000    81.7987    13.9184    12.5344
  395.5000    81.7139    14.0591    12.6035
  396.0000    81.6401    13.9163    12.6734
  396.5000    81.9073    13.8194    12.6955
  397.0000    83.3158    13.7233    12.4995
  397.5000    84.6696    13.6733    12.3679
  398.0000    86.0224    13.7988    12.2375
  398.5000    87.3770    13.5653    12.1199
  399.0000    88.7211    13.4079    12.1198
  399.5000    89.6326    13.2525    12.1201
  400.0000    89.3370    13.0992    12.1201
  400.5000    86.3945    12.9332    12.1201
  401.0000    86.7670    12.9162    12.1201
  401.5000    88.1601    12.8921    12.0246
  402.0000    89.6080    12.8682    11.8394
  402.5000    90.8244    12.8443    11.6571
  403.0000    89.8654    12.8202    11.4641
  403.5000    88.9202    12.7966    11.4641
  404.0000    89.5986    12.7727    11.4642
  404.5000    90.4253    12.7489    11.4251
  405.0000    91.2520    12.7252    11.3585
  405.5000    90.9534    12.7015    11.4369
  406.0000    90.5662    12.6778    11.5439
  406.5000    90.1612    12.6543    11.6519
  407.0000    90.5050    12.6306    11.6988
  407.5000    91.0880    12.6072    11.7352
  408.0000    91.6673    12.5842    11.7875
  408.5000    91.0791    12.4941    11.7478
  409.0000    90.1904    12.3848    11.6779
  409.5000    88.1176    12.2764    11.6084
  410.0000    88.4969    12.1690    11.5393
  410.5000    89.9744    12.0626    11.4706
  411.0000    91.6203    11.9571    11.4023
  411.5000    93.2483    11.8525    11.3345
  412.0000    93.2041    11.7488    11.2670
  412.5000    93.0576    11.6461    11.1025
  413.0000    92.9075    11.5442    10.9161
  413.5000    93.5630    11.4641    10.8435
  414.0000    94.1300    11.2165    10.6752
  414.5000    93.6554    11.0438    10.5108
  415.0000    92.2820    10.8737    10.3539
  415.5000    90.9529    10.7062    10.1941
  416.0000    91.6810    10.5414    10.0072
  416.5000    94.0996    10.3800     9.8223
  417.0000    96.4695    10.2175     9.6410
  417.5000    96.2776     9.8835     9.3734
  418.0000    95.7693     9.4558     9.0114
  418.5000    95.9962     9.0490     8.6818
  419.0000    97.5830     8.6795     8.0719
  419.5000    99.1547     7.9427     7.4930
  420.0000   100.7171     7.2953     6.9550
  420.5000   102.2766     6.7022     6.4486
  421.0000   104.9828     6.1592     5.8431
  421.5000   111.2165     5.9338     5.2945
  422.0000   118.4940     5.9338     4.8836
  422.5000   123.5846     6.0003     4.8386
  423.0000   121.5084     6.1416     5.0892
  423.5000   112.3476     6.2734     5.6513
  424.0000   102.9031     6.8780     6.2755
  424.5000    94.7731     7.5493     6.9686
  425.0000    94.1101     8.2861     7.6048
  425.5000    94.5989     9.0784     8.1550
  426.0000    95.8093     9.7919     8.7449
  426.5000    97.0061    10.2000     9.1895
  427.0000    98.2145    10.2753     9.3101
  427.5000    99.4566    10.3511     9.4323
  428.0000   100.6118    10.4275     9.5561
  428.5000    99.2555    10.6111     9.6815
  429.0000    97.8696    10.8393     9.7917
  429.5000    97.3057    11.0725     9.9038
  430.0000   100.1583    11.3108    10.0587
  430.5000   100.9907    11.5541    10.2162
  431.0000    98.9437    11.8027    10.3739
  431.5000    96.9143    12.0566    10.5426
  432.0000    95.7404    12.1828    10.8102
  432.5000    96.3445    12.2968    11.0866
  433.0000    99.3671    12.4118    11.3698
  433.5000   101.8252    12.5280    11.6636
  434.0000    99.4884    12.6452    11.8949
  434.5000    96.6869    12.7635    11.9284
  435.0000    94.4645    12.8829    11.9588
  435.5000    96.0874    13.0034    11.9999
  436.0000    98.4475    13.1251    11.9963
  436.5000    99.2819    13.2981    12.1448
  437.0000    98.0812    13.2981    12.1868
  437.5000    97.0036    13.2981    12.2289
  438.0000    96.3115    13.2981    12.2712
  438.5000    95.5573    13.2981    12.3134
  439.0000    94.7864    13.2981    12.3469
  439.5000    94.6052    13.2980    12.3148
  440.0000    94.7021    13.2983    12.2881
  440.5000    94.8006    13.2992    12.2615
  441.0000    94.9260    13.2244    12.2350
  441.5000    93.7641    13.1645    12.2085
  442.0000    92.0371    13.1048    12.1821
  442.5000    90.3234    13.0454    12.1558
  443.0000    89.6211    12.9863    12.1295
  443.5000    90.5508    12.9274    12.1201
  444.0000    91.7571    12.8688    12.1202
  444.5000    93.3892    12.8138    12.1201
  445.0000    94.9752    12.6534    12.0212
  445.5000    96.5536    12.4687    11.7439
  446.0000    98.1315    12.2867    11.4443
  446.5000    99.7271    12.1074    11.1517
  447.0000   100.2647    11.9306    10.8666
  447.5000   100.3678    11.7565    10.5892
  448.0000   100.4627    11.5849    10.4478
  448.5000   100.5572    11.4641    10.3799
  449.0000   100.5356    11.3061    10.3170
  449.5000   100.3888    11.1628    10.2545
  450.0000   100.2372    11.0213    10.1924
  450.5000   100.2745    10.8816    10.1457
  451.0000   100.9158    10.7434    10.1140
  451.5000   101.5646    10.6087    10.0824
  452.0000   102.2028    10.5032     9.8145
  452.5000   102.5759    10.3806     9.2767
  453.0000   102.3804    10.2595     9.4748
  453.5000   102.1951    10.1618     9.6431
  454.0000   102.0058    10.1333     9.8145
  454.5000   101.8389    10.1045     9.8830
  455.0000   102.2212    10.0758     9.6840
  455.5000   102.5881    10.0472     9.5451
  456.0000   103.9315    10.0186     9.4082
  456.5000   105.4332     9.9914     9.2732
