~VERSION INFORMATION
 VERS.                2.0:   CWLS LOG ASCII STANDARD - VERSION 2.0
 WRAP.                 NO:   ONE LINE PER DEPTH STEP
~WELL INFORMATION
#MNEM.UNIT      DATA TYPE    INFORMATION
#----------   ------------   ------------------------------
 STRT.F           57.5000:   START DEPTH
 STOP.F         4049.0000:   STOP DEPTH
 STEP.F            0.5000:   STEP LENGTH
 NULL.          -999.2500:   NO VALUE
 COMP. LAWRENCE/ALLISON INC:   COMPANY
 WELL.     NPR #3` #13-11:   WELL
 FLD .             NPR #3:   FIELD
 LOC .      S11 T38N R78W:   LOCATION
 CNTY.            NATRONA:   COUNTY
 STAT.            WYOMING:   STATE
 CTRY. UNITED STATES OF AMERICA:   COUNTRY
 SRVC.      Dresser Atlas:   SERVICE COMPANY
 DATE.        13-MAR-1986:   LOGDATE
 API .       490251106500:   API NUMBER
~CURVE INFORMATION
#MNEM.UNIT       API CODE    CURVE DESCRIPTION
#----------   ------------   ------------------------------
 DEPT.F                  :   
 CALR.IN     07 280 01 00:   CALIPER FROM RESISTIVITY
 GRR .GAPI   07 310 01 00:   GAMMA RAY FROM RESISTIVITY
 RILD.OHMM   07 120 46 00:   RESISTIVITY INDUCTION LOG DEEP
 RILM.OHMM   07 120 44 00:   RESISTIVITY INDUCTION LOG MEDIUM
 RFOC.OHMM   07 220 04 00:   RESISTIVITY FOCUSED LOG
 SPR .MV     07 010 01 00:   SPONTANEOUS POTENTIAL FROM RES.
 PORD.DEC    45 890 12 00:   POROSITY DENSITY SANDSTONE
 CNC .DEC    42 890 03 00:   COMPENSATED NEUTRON POROSITY SANDSTONE
 CORR.G/C3   45 356 01 00:   DENSITY CORRECTION
 DEN .G/C3   45 350 01 00:   COMPENSATED BULK DENSTIY
 DT  .US/F   60 520 00 00:   INTERVAL TRANSIT TIME
~PARAMETER INFORMATION
#MNEM.UNIT          VALUE    DESCRIPTION
#----------   ------------   ------------------------------
 PD  .                 GL:   PERMANENT DATUM
 EPD .F              5176:   ELEVATION PERMANENT DATUM
 LMF .                 KB:   LOG MEASURED FROM
 DAPD.F              11.8:   FEET ABOVE PERMANENT DATUM
 DMF .                 KB:   DRILLING MEASURED FROM
 EKB .F            5187.8:   KELLING BUSHING
 EGL .F              5176:   GROUND LEVEL
 DATE.        13-MAR-1986:   RUN DATE
 RUN .                  1:   RUN NUMBER
 DD  .F              4051:   DEPTH DRILLER
 DL  .F              4051:   DEPTH LOGGER
 BLI .F              4049:   BOTTOM LOG INTERVAL
 TLI .F               564:   TOP LOG INTERVAL
 CS  .IN            8.625:   CASING SIZE
 CBD .F               564:   CASING BOTTOM DRILLER
 CBL .F               564:   CASING BOTTOM LOGGER
 BS  .IN            7.875:   BIT SIZE
 BSD .F              4051:   BIT SIZE AT DEPTH
 DFT .          POLY- KCL:   DRILLING FLUID TYPE
 DFD .                8.9:   DRILLING FLUID DENSITY
 DFV .                 36:   DRILLING FLUID VISCOSITY
 DFPH.                8.5:   DRILLING FLUID PH
 DFL .               13.5:   DRILLING FLUID LOSS
 MSS .           FLOWLINE:   MUD SAMPLE SOURCE
 RMS .OHMM           .275:   RESISTIVITY MUD SAMPLE
 MST .F                55:   MUD SAMPLE TEMPERATURE
 RMF .OHMM           .206:   RESISTIVITY MUD FILTRATE SAMPLE
 MFST.F                55:   MUD FILTRATE SAMPLE TEMPERATURE
 RMC .OHMM           .344:   RESISTIVITY MUD CAKE
 MCST.F                55:   MUD CAKE SAMPLE TEMPERATURE
 MFSS.               CALC:   MUD FILTRATE SAMPLE SOURCE
 MCSS.               CALC:   MUD CAKE SAMPLE SOURCE
 RMB .OHMM           .092:   RESISTIVITY MUD AT BHT
 BHT .F               164:   BOTTOM HOLE TEMPERATURE
 TCS .HRS            0400:   TIME CURCULATED STOPPED
 MRT .F               164:   MAXIMUM RECORDED TEMPERATURE
 LUN .               6274:   LOGGING UNIT NUMBER
 LUL .           GILLETTE:   LOGGING UNIT LOCATION
 ENGI.             MILLER:   RECORDING ENGINEER
 WITN.             STRONG:   WITNESSED BY
 CLNT.            A2DTECH:   CLIENT CODE
 ORIG.         2.5" PRINT:   ORIGIN OF DATA
 UWI .       490251106500:   UNIQUE WELL ID
 DICO. A2D Technologies, Inc.:   DIGITIZING COMPANY
~OTHER INFORMATION
~A   DEPT     CALR         GRR      RILD       RILM       RFOC        SPR       PORD        CNC       CORR        DEN         DT   
# ...
 1277.5000    11.6476    90.7362     8.3559     8.3597     8.1016   -59.1768  -999.2500  -999.2500  -999.2500  -999.2500  -999.2500
 1278.0000    11.6777    90.7239     8.2942     8.3574     8.1005   -59.1158  -999.2500  -999.2500  -999.2500  -999.2500  -999.2500
 1278.5000    11.6772    90.0981     8.2372     8.3551     8.0994   -58.8835  -999.2500  -999.2500  -999.2500  -999.2500  -999.2500
 1279.0000    11.6768    88.1164     8.1219     8.1232     8.0982   -58.5214  -999.2500  -999.2500  -999.2500  -999.2500  -999.2500
 1279.5000    11.7069    84.6725     8.0608     8.1209     8.0379   -57.9811  -999.2500  -999.2500  -999.2500  -999.2500  -999.2500
 1280.0000    11.6758    83.3129     8.0065     8.0063     7.9843   -57.9878  -999.2500  -999.2500  -999.2500  -999.2500  -999.2500
 1280.5000    11.6142    85.2611     8.0048     8.0041     7.9832   -57.9939  -999.2500  -999.2500  -999.2500  -999.2500  -999.2500
 1281.0000    11.5832    89.0531     7.9435     8.0019     7.9821   -58.4207  -999.2500  -999.2500  -999.2500  -999.2500  -999.2500
 1281.5000    11.5170    90.6405     7.8911     8.1119     8.0417   -58.9771  -999.2500  -999.2500  -999.2500  -999.2500  -999.2500
 1282.0000    11.4905    90.6258     7.8895     8.1097     8.0915   -59.2866  -999.2500  -999.2500  -999.2500  -999.2500  -999.2500
 1282.5000    11.4901    91.4673     7.8878     8.1074     8.0904   -59.5427  -999.2500  -999.2500  -999.2500  -999.2500  -999.2500
 1283.0000    11.4896    92.6808     7.8862     8.1052     8.2024   -59.2434  -999.2500  -999.2500  -999.2500  -999.2500  -999.2500
 1283.5000    11.4891    91.9530     7.9459     8.1029     8.2013   -59.1997  -999.2500  -999.2500  -999.2500  -999.2500  -999.2500
 1284.0000    11.4887    88.6386     7.9932     8.1007     8.2644   -58.9025  -999.2500  -999.2500  -999.2500  -999.2500  -999.2500
 1284.5000    11.4882    85.7977     8.0545     8.3273     8.3137   -58.3003  -999.2500  -999.2500  -999.2500  -999.2500  -999.2500
 1285.0000    11.4878    84.7954     8.1658     8.4418     8.3125   -58.0483  -999.2500  -999.2500  -999.2500  -999.2500  -999.2500
 1285.5000    11.4873    84.4072     8.2787     8.4394     8.3776   -58.0549  -999.2500  -999.2500  -999.2500  -999.2500  -999.2500
 1286.0000    11.4869    92.2208     8.3264     8.4371     8.4265   -57.7557  -999.2500  -999.2500  -999.2500  -999.2500  -999.2500
 1286.5000    11.5230    91.8914     8.4411     8.5531     8.4253   -58.1082  -999.2500  -999.2500  -999.2500  -999.2500  -999.2500
 1287.0000    11.5471    89.4273     8.4394     8.5507     8.4925   -58.9878  -999.2500  -999.2500  -999.2500  -999.2500  -999.2500
 1287.5000    11.5773    86.9630     8.5556     8.5483     8.5408   -59.2988  -999.2500  -999.2500  -999.2500  -999.2500  -999.2500
 1288.0000    11.5768    85.5705     8.6735     8.6659     8.5396   -59.3049  -999.2500  -999.2500  -999.2500  -999.2500  -999.2500
 1288.5000    11.5457    85.5583     8.7930     8.7850     8.6579   -59.2759  -999.2500  -999.2500  -999.2500  -999.2500  -999.2500
 1289.0000    11.5453    86.3865     8.8641     8.7826     8.7285   -59.0119  -999.2500  -999.2500  -999.2500  -999.2500  -999.2500
 1289.5000    11.5448    88.2137     8.9123     8.7802     8.7765   -58.6814  -999.2500  -999.2500  -999.2500  -999.2500  -999.2500
 1290.0000    11.5443    89.8182     9.0351     8.6563     8.8978   -58.3841  -999.2500  -999.2500  -999.2500  -999.2500  -999.2500
 1290.5000    11.5745    88.7425     9.0328     8.5341     8.8966   -58.1156  -999.2500  -999.2500  -999.2500  -999.2500  -999.2500
 1291.0000    11.5740    86.5012     8.9064     8.5317     8.7726   -58.1220  -999.2500  -999.2500  -999.2500  -999.2500  -999.2500
 1291.5000    11.5735    85.2628     8.9045     8.4114     8.7714   -58.1280  -999.2500  -999.2500  -999.2500  -999.2500  -999.2500
 1292.0000    11.6037    84.8611     8.7798     7.9532     8.6492   -57.8290  -999.2500  -999.2500  -999.2500  -999.2500  -999.2500
 1292.5000    11.6723    87.3470     8.4197     7.4159     8.4110   -57.8354  -999.2500  -999.2500  -999.2500  -999.2500  -999.2500
 1293.0000    11.6946    90.7936     8.3018     7.1103     8.1794   -57.8415  -999.2500  -999.2500  -999.2500  -999.2500  -999.2500
 1293.5000    11.6940    93.0154     8.0726     7.1083     7.9542   -57.8476  -999.2500  -999.2500  -999.2500  -999.2500  -999.2500
 1294.0000    11.6936    95.2414     7.9596     7.1063     7.8434   -57.8721  -999.2500  -999.2500  -999.2500  -999.2500  -999.2500
 1294.5000    11.6931    91.5122     7.7399     7.1044     7.7341   -58.1646  -999.2500  -999.2500  -999.2500  -999.2500  -999.2500
 1295.0000    11.6927    88.0369     7.6315     7.2020     7.7330   -58.4908  -999.2500  -999.2500  -999.2500  -999.2500  -999.2500
 1295.5000    11.6922    87.8426     7.5920     7.4035     7.7319   -59.0915  -999.2500  -999.2500  -999.2500  -999.2500  -999.2500
 1296.0000    11.6917    88.8669     7.7351     7.5054     7.8390   -59.4023  -999.2500  -999.2500  -999.2500  -999.2500  -999.2500
 1296.5000    11.6913    90.4815     7.8417     7.7153     7.8379   -59.1036  -999.2500  -999.2500  -999.2500  -999.2500  -999.2500
 1297.0000    11.6815    90.8733     7.9500     7.9311     8.0576   -59.1097  -999.2500  -999.2500  -999.2500  -999.2500  -999.2500
 1297.5000    11.6598    89.2129     8.0592     8.0402     8.0565   -58.8033  -999.2500  -999.2500  -999.2500  -999.2500  -999.2500
 1298.0000    11.6287    85.7186     8.1706     8.2651     8.1683   -58.5060  -999.2500  -999.2500  -999.2500  -999.2500  -999.2500
 1298.5000    11.6186    80.6030     8.2831     8.3787     8.2812   -58.2134  -999.2500  -999.2500  -999.2500  -999.2500  -999.2500
 1299.0000    11.5972    78.1390     8.3198     8.3764     8.2801   -58.2195  -999.2500  -999.2500  -999.2500  -999.2500  -999.2500
 1299.5000    11.6274    76.7014     8.3645     8.4916     8.3947   -58.2256  -999.2500  -999.2500  -999.2500  -999.2500  -999.2500
 1300.0000    11.6370    81.3290     8.3938     8.4892     8.5810   -57.9268  -999.2500  -999.2500  -999.2500  -999.2500  -999.2500
 1300.5000    11.6597    87.1135     8.6288     8.6307     8.5787   -58.2348  -999.2500  -999.2500  -999.2500  -999.2500  -999.2500
 1301.0000    11.6633    88.9509     8.7485     8.8489     8.5763   -58.2378  -999.2500  -999.2500  -999.2500  -999.2500  -999.2500
 1301.5000    11.6669    87.7208     8.9935     8.8476     8.5739   -58.2409  -999.2500  -999.2500  -999.2500  -999.2500  -999.2500
 1302.0000    11.6705    86.4907     8.9923     8.8467     8.6912   -58.2439  -999.2500  -999.2500  -999.2500  -999.2500  -999.2500
 1302.5000    11.6742    85.2606     8.9910     8.7230     8.6888   -58.2470  -999.2500  -999.2500  -999.2500  -999.2500  -999.2500
 1303.0000    11.6778    83.4170     8.7434     8.7218     8.6864   -58.2500  -999.2500  -999.2500  -999.2500  -999.2500  -999.2500
 1303.5000    11.6814    83.4139     8.6705     8.7206     8.5643   -58.2530  -999.2500  -999.2500  -999.2500  -999.2500  -999.2500
 1304.0000    11.6832    84.0244     8.4329     8.5353     8.3747   -58.2561  -999.2500  -999.2500  -999.2500  -999.2500  -999.2500
 1304.5000    11.6826    88.3157     8.2676     8.3015     8.2111   -58.2591  -999.2500  -999.2500  -999.2500  -999.2500  -999.2500
 1305.0000    11.6820    87.6992     8.0887     7.9623     8.0307   -58.2622  -999.2500  -999.2500  -999.2500  -999.2500  -999.2500
 1305.5000    11.6813    84.6286     7.8671     7.3292     7.8097   -58.2652  -999.2500  -999.2500  -999.2500  -999.2500  -999.2500
 1306.0000    11.6807    82.1715     7.8175     7.0709     7.7009   -58.2683  -999.2500  -999.2500  -999.2500  -999.2500  -999.2500
 1306.5000    11.6801    83.3954     7.8164     7.0699     7.6525   -58.2713  -999.2500  -999.2500  -999.2500  -999.2500  -999.2500
 1307.0000    11.7101    84.0058     7.8153     7.1119     7.6503   -58.2744  -999.2500  -999.2500  -999.2500  -999.2500  -999.2500
 1307.5000    11.7095    84.0027     7.8142     7.3101     7.7061   -58.3257  -999.2500  -999.2500  -999.2500  -999.2500  -999.2500
