~VERSION INFORMATION
 VERS.                2.0:   CWLS LOG ASCII STANDARD - VERSION 2.0
 WRAP.                 NO:   ONE LINE PER DEPTH STEP
~WELL INFORMATION
#MNEM.UNIT      DATA TYPE    INFORMATION
#----------   ------------   ------------------------------
 STRT.F           20.5000:   START DEPTH
 STOP.F          544.0000:   STOP DEPTH
 STEP.F            0.5000:   STEP LENGTH
 NULL.          -999.2500:   NO VALUE
 COMP. LAWRENCE/ALLISON INC:   COMPANY
 WELL.    45-65 SX #10-10:   WELL
 FLD .             TEAPOT:   FIELD
 LOC .      S10 T38N R78W:   LOCATION
 CNTY.            NATRONA:   COUNTY
 STAT.            WYOMING:   STATE
 CTRY. UNITED STATES OF AMERICA:   COUNTRY
 SRVC.            Unknown:   SERVICE COMPANY
 DATE.        01-SEP-1984:   LOGDATE
 API .       490251098400:   API NUMBER
~CURVE INFORMATION
#MNEM.UNIT       API CODE    CURVE DESCRIPTION
#----------   ------------   ------------------------------
 DEPT.F                  :   
 GRD .GAPI   45 310 01 00:   GAMMA RAY FROM DENSITY LOG
 CALD.IN     45 280 60 00:   CALIPER
 DEN .G/C3   45 350 01 00:   COMPENSATED BULK DENSTIY
 CORR.G/C3   45 356 01 00:   DENSITY CORRECTION
 CNC .DEC    42 890 03 00:   NEUTRON POROSITY SANDSTONE
 PORD.DEC    45 890 12 00:   POROSITY DENSITY SANDSTONE
 AC  .US/F   60 520 00 00:   ACOUSTIC SONIC
 SPR .MV     07 010 01 00:   SPONTANEOUS POTENTIAL
 RILD.OHMM   07 120 46 00:   INDUCTION LOG DEEP RESISTIVITY
 RILM.OHMM   07 120 44 00:   INDUCTION LOG MEDIUM RESISTIVITY
 RFOC.OHMM   07 220 04 00:   RESISTIVITY FOCUSED LOG
~PARAMETER INFORMATION
#MNEM.UNIT          VALUE    DESCRIPTION
#----------   ------------   ------------------------------
 PD  .                 GL:   PERMANENT DATUM
 EPD .F              5208:   ELEVATION PERMANENT DATUM
 LMF .                 KB:   LOG MEASURED FROM
 DAPD.F                12:   FEET ABOVE PERMANENT DATUM
 DMF .                 KB:   DRILLING MEASURED FROM
 EKB .F              5220:   KELLING BUSHING
 EGL .F              5208:   GROUND LEVEL
 DATE.        1-SEPT-1984:   RUN DATE
 RUN .                  1:   RUN NUMBER
 DD  .F               550:   DEPTH DRILLER
 DL  .F               544:   DEPTH LOGGER
 BLI .F               544:   BOTTOM LOG INTERVAL
 TLI .F                30:   TOP LOG INTERVAL
 CBL .F                44:   CASING BOTTOM LOGGER
 BS  .IN            7.875:   BIT SIZE
 BSD .F               550:   BIT SIZE AT DEPTH
 DFT .          KCL WATER:   DRILLING FLUID TYPE
 MSS .               TANK:   MUD SAMPLE SOURCE
 RMS .OHMM           .236:   RESISTIVITY MUD SAMPLE
 MST .F                75:   MUD SAMPLE TEMPERATURE
 TCS .HRS               3:   TIME CURCULATED STOPPED
 MRT .F               100:   MAXIMUM RECORDED TEMPERATURE
 LUN .               4082:   LOGGING UNIT NUMBER
 LUL .               ROOS:   LOGGING UNIT LOCATION
 ENGI.             MILLER:   RECORDING ENGINEER
 WITN.            JOHNSON:   WITNESSED BY
 CLNT.            A2DTECH:   CLIENT CODE
 ORIG.       2", 5" PRINT:   ORIGIN OF DATA
 UWI .       490251098400:   UNIQUE WELL ID
 DICO. A2D Technologies, Inc.:   DIGITIZING COMPANY
~OTHER INFORMATION
~A   DEPT      GRD       CALD        DEN       CORR          CNC     PORD         AC        SPR       RILD       RILM       RFOC   
# ...
  447.5000   102.5749     7.6799     2.5094     0.0351     0.2127     0.1019    93.7996   -62.6909    12.6473    12.0916    13.3064
  448.0000    99.8364     7.6752     2.5030     0.0347     0.2193     0.0963    94.1385   -62.6722    12.3664    11.8448    13.0437
  448.5000    99.7203     7.6699     2.5138     0.0492     0.2267     0.0946    94.6387   -62.7812    12.0917    11.6039    12.7545
  449.0000   105.3109     7.6647     2.5233     0.0634     0.2305     0.0974    95.0725   -62.9068    11.8982    11.4931    12.5680
  449.5000   108.1684     7.6599     2.5096     0.0773     0.2279     0.0954    95.4944   -63.0275    11.8282    11.4010    12.3842
  450.0000   105.2671     7.6600     2.4895     0.0681     0.2292     0.1150    95.9163   -63.3510    11.7640    11.3096    12.2031
  450.5000   100.3381     7.6600     2.4879     0.0356     0.2160     0.1058    96.3290   -63.7453    11.6815    11.2189    12.0081
  451.0000    98.8319     7.6600     2.4964     0.0334     0.2195     0.1044    96.6640   -64.1454    11.8058    11.1567    12.1994
  451.5000    99.4125     7.6600     2.5050     0.0320     0.2193     0.1048    96.9990   -64.5628    11.9837    11.3307    12.3591
  452.0000    99.2566     7.6600     2.5051     0.0273     0.2239     0.1080    97.1780   -64.5023    12.1642    11.5241    12.5209
  452.5000    99.3849     7.6600     2.5000    -0.0010     0.2306     0.1086    96.9988   -64.2985    12.3476    11.7214    12.6847
  453.0000   101.5661     7.6600     2.4966    -0.0143     0.2341     0.1078    96.7066   -64.0908    12.5342    11.9221    12.8508
  453.5000   106.4546     7.6600     2.4971     0.0075     0.2328     0.1045    96.4145   -63.8838    12.7226    12.1257    13.0190
  454.0000   111.4110     7.6600     2.5070     0.0343     0.2316     0.0985    96.1224   -63.6761    12.9244    12.3438    13.1642
  454.5000   112.1785     7.6600     2.5169     0.0546     0.2305     0.0950    96.1746   -63.4729    12.6357    12.3438    13.1642
  455.0000   106.9095     7.6600     2.5197     0.0432     0.2310     0.0950    96.7004   -63.4639    12.3388    11.9320    12.8036
  455.5000   100.2022     7.6600     2.5227     0.0310     0.2307     0.0939    97.2299   -63.4650    12.0479    11.5746    12.5568
  456.0000    95.2643     7.6600     2.5257     0.0313     0.2407     0.0918    97.7575   -63.4654    11.7643    11.2033    12.3147
  456.5000    96.9515     7.6596     2.5251     0.0446     0.2525     0.1002    98.2807   -63.4654    11.4874    10.8316    12.0595
  457.0000   102.5848     7.6578     2.5161     0.0574     0.2397     0.0973    98.4740   -63.4648    11.2171    10.4723    11.7303
  457.5000   108.2110     7.6560     2.5075     0.0587     0.2460     0.1062    98.5826   -63.4628    10.9530    10.1249    11.4391
  458.0000   110.1553     7.6543     2.5018     0.0380     0.2304     0.1017    98.6922   -63.4787    10.6952     9.7888    11.2927
  458.5000   109.1627     7.6525     2.5100     0.0319     0.2299     0.0954    99.0763   -63.8388    10.4435     9.4635    11.1468
  459.0000   107.6516     7.6508     2.5179     0.0392     0.2321     0.1010    99.4628   -64.2070    10.1977     9.1507    11.0028
  459.5000   106.9470     7.6491     2.5170     0.0461     0.2305     0.0958    99.7041   -64.5734     9.9577     8.9505    10.8607
  460.0000   107.3880     7.6473     2.5065     0.0445     0.2377     0.1062    99.7376   -64.9399     9.7233     9.1960    10.7204
  460.5000   107.8318     7.6456     2.5027     0.0387     0.2446     0.1022    99.7711   -65.3072     9.4944     9.3729    10.5581
  461.0000   108.2884     7.6438     2.5072     0.0331     0.2464     0.1033    99.9171   -65.6433     9.2281     9.0307    10.6391
  461.5000   108.0772     7.6421     2.5071     0.0273     0.2456     0.1072   100.2127   -65.5204     8.9606     8.5282    10.7380
  462.0000   103.4818     7.6403     2.4979     0.0266     0.2713     0.1122   100.5083   -65.3763     8.5063     8.0679    10.8377
  462.5000    99.3674     7.6402     2.4915     0.0377     0.2499     0.1126   100.7892   -65.2482     7.9731     7.6325    10.9384
  463.0000    98.7591     7.6402     2.4985     0.0485     0.2406     0.1002   101.6444   -65.2469     7.4734     7.2429    10.9535
  463.5000    99.6674     7.6402     2.5130     0.0576     0.2381     0.0994   103.5679   -65.2476     7.1670     7.3021     9.3687
  464.0000   101.1153     7.6402     2.5174     0.0498     0.2544     0.1095   105.9687   -65.2473     6.7915     7.3585     7.8526
  464.5000   103.5351     7.6402     2.5036     0.0334     0.2601     0.1347   106.4835   -65.2123     6.9743     7.4655     6.6560
  465.0000   106.9436     7.6402     2.4708     0.0172     0.2504     0.1275   105.0849   -65.1017     7.2562     7.6561     6.6540
  465.5000   112.8990     7.6402     2.4284     0.0003     0.2452     0.1190   102.5724   -64.8318     7.5463     7.9102     8.7127
  466.0000   120.0573     7.6402     2.4181    -0.0063     0.2433     0.1547   100.2897   -64.4984     7.9043     8.3483    10.6612
  466.5000   117.5432     7.6402     2.4345     0.0087     0.2526     0.1295    98.5191   -64.2150     8.2696     8.8036    10.6555
  467.0000   110.6099     7.6399     2.4588     0.0291     0.2565     0.1214    98.1712   -63.9809     8.7729     9.2851    10.8395
  467.5000   104.2053     7.6553     2.4783     0.0505     0.2501     0.1193    97.7988   -63.7431     9.3070     9.7929    11.0410
  468.0000   103.9552     7.6564     2.4779     0.0501     0.2601     0.1179    97.0182   -63.5035     9.8770    10.3284    11.2496
  468.5000   107.1951     7.6516     2.4795     0.0388     0.2309     0.1180    95.9124   -63.2766    10.4820    10.8932    11.4621
  469.0000   110.6458     7.6466     2.4834     0.0274     0.2313     0.1193    94.7963   -63.3756    10.6813    11.0589    11.6786
  469.5000   110.9601     7.6413     2.4801     0.0161     0.2320     0.1206    94.1289   -63.5723    10.7606    11.0919    11.8992
  470.0000   108.1989     7.6446     2.4763     0.0069     0.2310     0.1167    93.8961   -64.1434    10.8405    11.1250    12.1240
  470.5000   106.9123     7.6507     2.4785     0.0080     0.2282     0.1059    93.8961   -64.7055    10.9211    11.1582    12.3523
  471.0000   106.3083     7.6569     2.4986     0.0273     0.2253     0.0998    93.8961   -65.2842    11.0029    11.1916    12.4601
  471.5000   106.3040     7.6600     2.5141     0.0450     0.2225     0.1036    94.1327   -65.5145    11.0543    11.2251    12.3292
  472.0000   107.4550     7.6600     2.5092     0.0542     0.2196     0.1103    94.4468   -65.6291    11.0103    11.2596    12.2342
  472.5000   108.2421     7.6600     2.4918     0.0160     0.2167     0.1163    94.7609   -65.7387    10.9773    11.2183    12.1403
  473.0000   104.8485     7.6600     2.4807    -0.0033     0.2184     0.1217    94.9311   -65.8415    10.9445    11.1749    12.0471
  473.5000    99.4481     7.6600     2.4710    -0.0120     0.2180     0.1259    94.9950   -65.7644    10.9119    11.1319    11.8982
  474.0000    97.3309     7.6600     2.4611    -0.0050     0.2264     0.1174    94.9342   -65.6513    10.8794    11.0891    11.9702
  474.5000   101.3849     7.6601     2.4595     0.0150     0.2328     0.1315    94.8412   -65.5371    10.8533    11.0427    12.0628
  475.0000   106.3091     7.6600     2.4638     0.0352     0.2393     0.1253    94.7047   -65.4229    11.0547    10.9810    12.1561
  475.5000   105.6639     7.6575     2.4774     0.0432     0.2345     0.1190    94.6125   -65.3089    11.2263    10.9196    12.2502
  476.0000   101.6030     7.6471     2.4931     0.0426     0.2411     0.1283    94.6953   -65.1947    11.4007    10.8586    12.3438
  476.5000   100.8233     7.6372     2.5112     0.0170     0.2185     0.0998    94.8931   -65.0761    11.5778    10.7979    12.1659
  477.0000   101.5060     7.6272     2.5118    -0.0086     0.2222     0.1074    95.0883   -65.0499    11.6815    10.7376    11.9928
  477.5000   100.7382     7.6173     2.5025    -0.0106     0.2207     0.1043    95.2812   -65.0481    11.3782    10.6776    11.8218
