~VERSION INFORMATION
 VERS.                2.0:   CWLS LOG ASCII STANDARD - VERSION 2.0
 WRAP.                 NO:   ONE LINE PER DEPTH STEP
~WELL INFORMATION
#MNEM.UNIT      DATA TYPE    INFORMATION
#----------   ------------   ------------------------------
 STRT.F           15.0000:   START DEPTH
 STOP.F          531.0000:   STOP DEPTH
 STEP.F            0.1000:   STEP LENGTH
 NULL.          -999.2500:   NO VALUE
 COMP. LAWRENCE/ALLISON INC:   COMPANY
 WELL.   NPR 3 #42-61SX10:   WELL
 FLD .          N.P.R. #3:   FIELD
 LOC .      S10 T38N R78W:   LOCATION
 CNTY.            NATRONA:   COUNTY
 STAT.            WYOMING:   STATE
 CTRY. UNITED STATES OF AMERICA:   COUNTRY
 SRVC.           Gearhart:   SERVICE COMPANY
 DATE.        06-JUL-1986:   LOGDATE
 API .       490251109500:   API NUMBER
~CURVE INFORMATION
#MNEM.UNIT       API CODE    CURVE DESCRIPTION
#----------   ------------   ------------------------------
 DEPT.F                  :   
 GRR .GAPI   07 310 01 00:   GAMMA RAY
 RILD.OHMM   07 120 46 00:   INDUCTION LOG DEEP
 RILM.OHMM   07 120 44 00:   INDUCTION LOG MEDIUM
~PARAMETER INFORMATION
#MNEM.UNIT          VALUE    DESCRIPTION
#----------   ------------   ------------------------------
 PD  .                 GL:   PERMANENT DATUM
 EPD .F              5196:   ELEVATION PERMANENT DATUM
 LMF .                 KB:   LOG MEASURED FROM
 DAPD.F                 5:   FEET ABOVE PERMANENT DATUM
 DMF .                 KB:   DRILLING MEASURED FROM
 EKB .F              5201:   KELLING BUSHING
 EGL .F              5196:   GROUND LEVEL
 DATE.        06-JUL-1986:   RUN DATE
 RUN .                  1:   RUN NUMBER
 DD  .F               548:   DEPTH DRILLER
 DL  .F               541:   DEPTH LOGGER
 BLI .F               531:   BOTTOM LOG INTERVAL
 TLI .F                15:   TOP LOG INTERVAL
 CS  .IN            8.625:   CASING SIZE
 CBD .F                47:   CASING BOTTOM DRILLER
 CBL .F                47:   CASING BOTTOM LOGGER
 BS  .IN            7.875:   BIT SIZE
 BSD .F               548:   BIT SIZE AT DEPTH
 DFT .                AIR:   DRILLING FLUID TYPE
 BHT .F                82:   BOTTOM HOLE TEMPERATURE
 TCS .HRS            2000:   TIME CURCULATED STOPPED
 TLAB.HRS            2130:   TIME LOGGER AT BOTTOM
 MRT .F                82:   MAXIMUM RECORDED TEMPERATURE
 LUN .               7609:   LOGGING UNIT NUMBER
 LUL .           GILLETTE:   LOGGING UNIT LOCATION
 ENGI.              BAUER:   RECORDING ENGINEER
 WITN.           JENNINGS:   WITNESSED BY
 CLNT.            A2DTECH:   CLIENT CODE
 ORIG.           5" PRINT:   ORIGIN OF DATA
 UWI .       490251109500:   UNIQUE WELL ID
 DICO. A2D Technologies, Inc.:   DIGITIZING COMPANY
~OTHER INFORMATION
~A   DEPT      GRR       RILD       RILM   
# ...
  178.8000   106.0104     8.8516     8.8777
  178.9000   105.2236     8.8360     8.8325
  179.0000   103.7678     8.8361     8.8327
  179.1000   102.9126     8.8363     8.8328
  179.2000   101.9025     8.8365     8.8329
  179.3000   100.9997     8.8366     8.8330
  179.4000   100.2419     8.8368     8.8186
  179.5000    99.4840     8.8039     8.7715
  179.6000    98.7261     8.7752     8.7716
  179.7000    98.1683     8.7754     8.7717
  179.8000    97.6627     8.7755     8.7718
  179.9000    97.4386     8.7757     8.7491
  180.0000    97.8117     8.7349     8.7107
  180.1000    98.8689     8.7145     8.7108
  180.2000   100.3066     8.6952     8.7110
  180.3000   101.4454     8.6538     8.7111
  180.4000   102.3194     8.6540     8.7112
  180.5000   103.1552     8.6057     8.7113
  180.6000   104.1083     8.5937     8.7015
  180.7000   104.6631     8.5939     8.6506
  180.8000   105.1147     8.5940     8.6508
  180.9000   105.6179     8.5877     8.6509
  181.0000   106.0010     8.5342     8.6510
  181.1000   106.2520     8.5343     8.6329
  181.2000   106.5030     8.5344     8.5907
  181.3000   106.7931     8.5099     8.5909
  181.4000   107.0050     8.4750     8.5439
  181.5000   107.2560     8.4751     8.5310
  181.6000   107.4003     8.4753     8.5311
  181.7000   107.3456     8.4327     8.5154
  181.8000   107.0921     8.4162     8.4717
  181.9000   106.8387     8.3944     8.4718
  182.0000   105.9867     8.3576     8.4277
  182.1000   105.1230     8.3578     8.4128
  182.2000   104.3652     8.3579     8.3893
  182.3000   103.6474     8.3183     8.3408
  182.4000   103.1157     8.2997     8.2958
  182.5000   102.6361     8.2805     8.2960
  182.6000   102.1305     8.2418     8.2548
  182.7000   101.7578     8.2420     8.2071
  182.8000   101.4245     8.1952     8.1597
  182.9000   100.9456     8.1479     8.1126
  183.0000   100.6655     8.1009     8.0657
  183.1000   100.4387     8.0707     8.0105
  183.2000   100.1852     8.0641     7.9728
  183.3000   100.1708     8.0145     7.9267
  183.4000   100.4218     7.9712     7.8809
  183.5000   100.6860     7.9252     7.8354
  183.6000   101.2688     7.8560     7.7892
  183.7000   101.9047     7.7654     7.7012
  183.8000   102.6602     7.6758     7.6465
  183.9000   103.2035     7.5773     7.6023
  184.0000   103.5074     7.4999     7.5276
  184.1000   104.0110     7.3845     7.4100
  184.2000   104.5137     7.2571     7.3644
  184.3000   104.8181     7.1423     7.2455
  184.4000   105.0691     7.0579     7.1506
  184.5000   105.3201     6.9166     7.0470
  184.6000   105.5318     6.8167     6.9253
  184.7000   105.5303     6.6991     6.8096
  184.8000   105.2906     6.5835     6.7227
  184.9000   105.0371     6.4698     6.6192
  185.0000   104.7837     6.3580     6.5050
  185.1000   104.5303     6.2847     6.4103
  185.2000   104.2247     6.1840     6.3266
  185.3000   103.3855     6.0977     6.2172
  185.4000   102.9341     6.0146     6.0939
  185.5000   102.2564     5.9107     6.0047
  185.6000   101.6175     5.8036     5.9011
  185.7000   101.1119     5.7085     5.7992
  185.8000   100.5936     5.6342     5.6918
  185.9000    99.7140     5.5353     5.5613
  186.0000    99.2896     5.4181     5.4469
  186.1000    98.7839     5.3245     5.3464
  186.2000    98.4892     5.2237     5.2237
  186.3000    98.4879     5.1424     5.1151
  186.4000    98.4867     5.0538     5.0267
  186.5000    98.4855     4.9528     4.9374
  186.6000    98.6825     4.8543     4.8276
  186.7000    98.7884     4.7982     4.7377
  186.8000    98.8792     4.7349     4.6265
  186.9000    99.0915     4.6652     4.5028
  187.0000    99.0900     4.5847     4.3993
  187.1000    99.0889     4.4944     4.2910
  187.2000    99.2725     4.3968     4.1998
  187.3000    99.3918     4.3204     4.1206
  187.4000    99.3905     4.2023     4.0376
  187.5000    99.3639     4.1247     3.9517
  187.6000    99.0826     4.0579     3.8834
  187.7000    99.0815     4.0022     3.8086
  187.8000    99.0803     3.9330     3.7506
  187.9000    99.0791     3.8629     3.6859
  188.0000    99.0779     3.8198     3.6223
  188.1000    99.0766     3.7430     3.5597
  188.2000    99.0752     3.6571     3.4982
  188.3000    99.0742     3.5800     3.4283
  188.4000    99.0730     3.5156     3.3786
  188.5000    99.0718     3.4284     3.3203
  188.6000    99.0188     3.3741     3.2789
  188.7000    98.7640     3.3159     3.2519
  188.8000    98.7627     3.2587     3.1958
  188.9000    98.5639     3.2078     3.1590
  189.0000    98.4550     3.1707     3.1226
  189.1000    98.3623     3.1295     3.0971
  189.2000    98.1089     3.1137     3.0725
  189.3000    97.8405     3.0840     3.0400
  189.4000    97.3647     3.0484     3.0218
  189.5000    96.8590     3.0174     3.0050
  189.6000    96.3534     3.0000     2.9876
  189.7000    95.8477     2.9796     2.9704
  189.8000    95.3173     2.9655     2.9532
  189.9000    94.4744     2.9483     2.9383
  190.0000    93.8015     2.9382     2.9384
  190.1000    93.2144     2.9349     2.9228
  190.2000    92.8265     2.9177     2.9179
  190.3000    92.7021     2.9178     2.9179
  190.4000    92.9531     2.9178     2.9180
  190.5000    93.2456     2.9179     2.9180
  190.6000    93.6656     2.9179     2.9180
  190.7000    94.1688     2.9180     2.9181
  190.8000    94.7762     2.9180     2.9181
  190.9000    95.5827     2.9181     2.9260
  191.0000    96.5985     2.9305     2.9430
  191.1000    97.3478     2.9387     2.9602
  191.2000    98.3003     2.9388     2.9804
  191.3000    99.3079     2.9405     3.0095
  191.4000   100.2248     2.9596     3.0447
  191.5000   101.0179     2.9750     3.0878
  191.6000   102.0873     2.9924     3.1382
  191.7000   102.7963     3.0098     3.1750
  191.8000   103.5517     3.0320     3.2497
  191.9000   104.1767     3.0683     3.3109
  192.0000   104.6025     3.1311     3.3691
  192.1000   104.8294     3.1774     3.4284
  192.2000   104.8280     3.2333     3.4920
  192.3000   104.8269     3.3065     3.5777
  192.4000   104.8257     3.3953     3.6379
  192.5000   104.8244     3.4550     3.7020
  192.6000   104.9510     3.5364     3.7552
  192.7000   105.4435     3.6197     3.8065
  192.8000   105.7366     3.7049     3.8706
  192.9000   106.3652     3.7920     3.9200
  193.0000   106.9639     3.8773     3.9829
  193.1000   107.4671     3.9488     4.0364
  193.2000   108.0208     4.0374     4.0954
  193.3000   108.7841     4.1324     4.1604
  193.4000   109.0325     4.2297     4.2128
  193.5000   109.4799     4.3374     4.3251
  193.6000   109.8398     4.4589     4.3912
  193.7000   110.0908     4.5450     4.4858
  193.8000   110.3418     4.6417     4.5913
  193.9000   110.6088     4.7317     4.7059
  194.0000   110.8437     4.8150     4.8433
  194.1000   111.0948     4.8996     4.9775
  194.2000   111.2159     4.9857     5.0497
  194.3000   111.1379     5.0862     5.1760
  194.4000   110.9081     5.1628     5.3029
  194.5000   110.9067     5.2537     5.3961
  194.6000   110.9056     5.3461     5.4919
  194.7000   110.9044     5.4401     5.6199
  194.8000   110.9032     5.5356     5.7000
  194.9000   110.9653     5.6521     5.7861
  195.0000   111.2062     5.7324     5.8628
  195.1000   111.2047     5.8129     5.9023
  195.2000   111.2037     5.8943     5.9751
  195.3000   111.3586     5.9916     6.0413
  195.4000   111.5066     6.0639     6.0858
  195.5000   111.5552     6.0982     6.1213
  195.6000   111.8094     6.1610     6.1686
  195.7000   112.0572     6.2132     6.2366
  195.8000   112.3082     6.2495     6.2766
  195.9000   112.5592     6.2860     6.3429
  196.0000   112.8102     6.3257     6.3655
  196.1000   113.0976     6.3597     6.3836
  196.2000   113.6341     6.3968     6.4209
  196.3000   113.8685     6.4342     6.4558
  196.4000   114.1195     6.4609     6.4559
  196.5000   114.3705     6.4640     6.4883
  196.6000   114.6976     6.5066     6.5262
  196.7000   115.1549     6.5067     6.5475
  196.8000   115.1534     6.5069     6.5475
  196.9000   115.3744     6.5241     6.5476
