~VERSION INFORMATION
 VERS.                2.0:   CWLS LOG ASCII STANDARD - VERSION 2.0
 WRAP.                 NO:   ONE LINE PER DEPTH STEP
~WELL INFORMATION
#MNEM.UNIT      DATA TYPE    INFORMATION
#----------   ------------   ------------------------------
 STRT.F           28.0000:   START DEPTH
 STOP.F          884.0000:   STOP DEPTH
 STEP.F            0.5000:   STEP LENGTH
 NULL.          -999.2500:   NO VALUE
 COMP. U S NAVY-INTEX OIL:   COMPANY
 WELL. NPR 3 TEAPOT DOM #43-SX-2:   WELL
 FLD .             TEAPOT:   FIELD
 LOC .       S2 T38N R78W:   LOCATION
 CNTY.            NATRONA:   COUNTY
 STAT.            WYOMING:   STATE
 CTRY. UNITED STATES OF AMERICA:   COUNTRY
 SRVC.       Schlumberger:   SERVICE COMPANY
 DATE.        19-JUL-1963:   LOGDATE
 API .       490250967900:   API NUMBER
~CURVE INFORMATION
#MNEM.UNIT       API CODE    CURVE DESCRIPTION
#----------   ------------   ------------------------------
 DEPT.F                  :   
 ASN .OHMM   05 041 16 00:   AMPLIFIED SHORT NORMAL 16"
 CILD.MMHO   05 110 46 00:   CONDUCTIVITY INDUCTION LOG DEEP
 ILD .OHMM   05 120 46 00:   INDUCTION LOG DEEP
 SPR .MV     05 010 01 00:   SPONTANEOUS POTENTIAL FROM RES.
 GR  .GAPI   30 310 01 00:   GAMMA RAY
~PARAMETER INFORMATION
#MNEM.UNIT          VALUE    DESCRIPTION
#----------   ------------   ------------------------------
 LMF .                 KB:   LOG MEASURED FROM
 DMF .                 KB:   DRILLING MEASURED FROM
 EKB .F              5151:   KELLING BUSHING
 EGL .F              5146:   GROUND LEVEL
 DATE.        19-JUL-1963:   RUN DATE
 RUN .                  1:   RUN NUMBER
 DD  .F               881:   DEPTH DRILLER
 DL  .F               885:   DEPTH LOGGER
 BLI .F               884:   BOTTOM LOG INTERVAL
 TLI .F                30:   TOP LOG INTERVAL
 CS  .IN            8.625:   CASING SIZE
 CBD .F                12:   CASING BOTTOM DRILLER
 BS  .IN             6.75:   BIT SIZE
 BSD .F               881:   BIT SIZE AT DEPTH
 DFT .           GEL- OIL:   DRILLING FLUID TYPE
 DFD .                9.6:   DRILLING FLUID DENSITY
 DFV .                 39:   DRILLING FLUID VISCOSITY
 DFPH.                8.5:   DRILLING FLUID PH
 DFL .                4.4:   DRILLING FLUID LOSS
 RMS .OHMM           2.58:   RESISTIVITY MUD SAMPLE
 MST .F                72:   MUD SAMPLE TEMPERATURE
 RMF .OHMM           2.26:   RESISTIVITY MUD FILTRATE SAMPLE
 MFST.F                72:   MUD FILTRATE SAMPLE TEMPERATURE
 TCS .HRS               3:   TIME CURCULATED STOPPED
 LUN .               4507:   LOGGING UNIT NUMBER
 LUL .             CASPER:   LOGGING UNIT LOCATION
 ENGI.            WINKLER:   RECORDING ENGINEER
 WITN.          JORGENSEN:   WITNESSED BY
 CLNT.            A2DTECH:   CLIENT CODE
 ORIG.      2.5" 5" PRINT:   ORIGIN OF DATA
 UWI .       490250967900:   UNIQUE WELL ID
 DICO. A2D Technologies, Inc.:   DIGITIZING COMPANY
~OTHER INFORMATION
~A   DEPT      ASN         CILD       ILD       SPR         GR   
# ...
  394.0000    17.2296    54.7273    16.6667   -44.8258  -999.2500
  394.5000    17.1553    53.1970    16.6667   -44.2278  -999.2500
  395.0000    17.0770    53.1818    16.6667   -44.5335  -999.2500
  395.5000    16.9887    53.1667    16.4778   -44.8391  -999.2500
  396.0000    16.6222    53.6162    15.8828   -44.8435  -999.2500
  396.5000    16.3194    56.6995    14.7454   -44.8479  -999.2500
  397.0000    15.8655    61.8991    13.9737   -44.5511  -999.2500
  397.5000    14.8073    70.2651    13.0050   -44.5281  -999.2500
  398.0000    13.4471    81.0605    11.9030   -43.8736  -999.2500
  398.5000    12.2379    90.3411    11.1242   -42.6440  -999.2500
  399.0000    11.1797    98.7474    10.2808   -41.4146  -999.2500
  399.5000    10.7730   112.1336     9.3939   -40.1852  -999.2500
  400.0000    10.3469   129.1793     8.5723   -38.8547  -999.2500
  400.5000     9.7817   135.2670     7.1593   -37.3293  -999.2500
  401.0000     8.9773   142.8733     6.6682   -36.7299  -999.2500
  401.5000     8.5526   148.9597     6.2957   -36.4546  -999.2500
  402.0000     8.3208   153.5264     6.0636   -36.4578  -999.2500
  402.5000     8.0577   153.5339     6.0644   -36.4608  -999.2500
  403.0000     7.7936   153.5413     6.2168   -36.4639  -999.2500
  403.5000     7.8237   153.5487     6.2176   -36.4669  -999.2500
  404.0000     7.9142   152.0364     6.3698   -36.1682  -999.2500
  404.5000     8.0047   152.0441     6.5221   -36.4729  -999.2500
  405.0000     8.0952   152.0517     6.5228   -36.1741  -999.2500
  405.5000     8.2158   152.0593     6.5236   -36.1777  -999.2500
  406.0000     8.1553   152.0669     6.5243   -36.1807  -999.2500
  406.5000     8.0645   151.7249     6.5250   -36.1837  -999.2500
  407.0000     7.9435   150.5613     6.5258   -36.1867  -999.2500
  407.5000     7.7581   150.5699     6.5265   -36.1898  -999.2500
  408.0000     7.5807   149.0564     6.5273   -36.1933  -999.2500
  408.5000     7.6107   149.0654     6.5280   -36.1963  -999.2500
  409.0000     7.6815   149.0730     6.6803   -36.5005  -999.2500
  409.5000     7.7748   148.3358     6.6811   -36.5034  -999.2500
  410.0000     7.8902   147.5684     6.6818   -36.5064  -999.2500
  410.5000     7.9821   145.1798     6.6826   -36.5093  -999.2500
  411.0000     8.0027   143.0243     6.6399   -36.5123  -999.2500
  411.5000     7.9903   147.5924     6.5325   -36.5152  -999.2500
  412.0000     7.9722   149.1196     6.5333   -36.2169  -999.2500
  412.5000     7.9267   152.1666     6.5341   -36.2199  -999.2500
  413.0000     7.8950   152.1740     6.5348   -35.9217  -999.2500
  413.5000     7.8207   152.1815     6.5356   -35.9247  -999.2500
  414.0000     7.7299   153.7086     6.5364   -35.9277  -999.2500
  414.5000     7.6391   153.7161     6.5371   -35.9644  -999.2500
  415.0000     7.6087   153.7235     6.5380   -36.2801  -999.2500
  415.5000     7.6086   153.7310     6.6903   -36.5392  -999.2500
  416.0000     7.6387   153.7386     6.6910   -36.6104  -999.2500
  416.5000     7.6687   152.2261     6.6918   -36.8464  -999.2500
  417.0000     7.7290   150.5015     6.8440   -36.5477  -999.2500
  417.5000     7.8195   148.9235     6.8448   -36.5512  -999.2500
  418.0000     7.9100   147.3454     6.8455   -36.2524  -999.2500
  418.5000     7.9739   145.7674     6.9978   -36.2560  -999.2500
  419.0000     8.1276   144.1895     7.1500   -36.2590  -999.2500
  419.5000     8.1814   143.1522     7.1508   -36.4111  -999.2500
  420.0000     8.2115   142.5532     7.3030   -36.5663  -999.2500
  420.5000     8.2564   140.9752     7.3038   -36.2681  -999.2500
  421.0000     8.3409   137.8774     7.3045   -36.2717  -999.2500
  421.5000     8.4026   136.2994     7.4568   -36.2746  -999.2500
  422.0000     8.4759   134.7214     7.6091   -36.2776  -999.2500
  422.5000     8.5561   131.0424     7.8043   -36.2805  -999.2500
  423.0000     8.6625   129.5302     7.9136   -35.9819  -999.2500
  423.5000     8.7718   128.0178     8.0659   -35.6840  -999.2500
  424.0000     8.8620   126.5046     7.9152   -35.6870  -999.2500
  424.5000     8.9654   126.5129     7.9159   -35.6899  -999.2500
  425.0000     9.0559   129.5599     7.9167   -35.6929  -999.2500
  425.5000     9.0860   131.0871     7.9174   -35.9971  -999.2500
  426.0000     8.9951   131.0945     7.7667   -36.3012  -999.2500
  426.5000     8.9346   132.6217     7.6159   -36.3042  -999.2500
  427.0000     8.8438   134.1489     7.4653   -36.3072  -999.2500
  427.5000     8.7228   135.6763     7.4660   -36.3102  -999.2500
  428.0000     8.6018   135.8257     7.3152   -36.3133  -999.2500
  428.5000     8.4808   137.2112     7.3160   -36.3163  -999.2500
  429.0000     8.3574   137.2189     7.3167   -36.0177  -999.2500
  429.5000     8.2034   137.2264     7.3175   -35.7195  -999.2500
  430.0000     8.0534   138.7538     7.3182   -35.7229  -999.2500
  430.5000     8.0929   140.2812     7.3189   -35.7259  -999.2500
  431.0000     8.2150   140.2888     7.3197   -35.7289  -999.2500
  431.5000     8.2080   140.2964     7.3205   -35.7319  -999.2500
  432.0000     8.1680   140.3039     7.3212   -35.7349  -999.2500
  432.5000     8.1171   138.7918     7.3220   -35.4367  -999.2500
  433.0000     8.1294   138.7994     7.3227   -35.4398  -999.2500
  433.5000     8.1911   138.8070     7.3235   -35.7440  -999.2500
  434.0000     8.2226   137.2963     7.3242   -35.7476  -999.2500
  434.5000     8.3145   137.3037     7.3250   -35.7505  -999.2500
  435.0000     8.4184   137.3112     7.3258   -35.7535  -999.2500
  435.5000     8.4485   135.7988     7.3265   -35.7564  -999.2500
  436.0000     8.3879   135.8063     7.3273   -36.0606  -999.2500
  436.5000     8.3273   135.8137     7.4033   -36.0635  -999.2500
  437.0000     8.2970   135.8211     7.4803   -36.0665  -999.2500
  437.5000     8.2666   135.8286     7.4811   -36.0695  -999.2500
  438.0000     8.2665   135.8360     7.4820   -36.0724  -999.2500
  438.5000     8.2965   135.8435     7.4827   -36.0754  -999.2500
  439.0000     8.3266   135.8511     7.4834   -36.0783  -999.2500
  439.5000     8.3573   135.8587     7.4842   -35.7801  -999.2500
  440.0000     8.4189   135.6636     7.4849   -35.7831  -999.2500
  440.5000     8.4875   132.8337     7.6372   -35.7861  -999.2500
  441.0000     8.7429   131.3214     7.6379   -35.7892  -999.2500
  441.5000     8.9301   131.7299     7.4871   -35.7922  -999.2500
  442.0000     8.7559   134.8430     7.3364   -35.4936  -999.2500
  442.5000     8.5702   137.4240     7.3371   -35.4192  -999.2500
  443.0000     8.4148   139.5491     7.1773   -35.1984  -999.2500
  443.5000     8.2594   141.9985     7.0200   -35.2018  -999.2500
  444.0000     8.1039   143.5258     6.8848   -35.5060  -999.2500
  444.5000     7.8587   145.8485     6.8856   -35.8102  -999.2500
  445.0000     7.7205   148.1003     6.7348   -35.8133  -999.2500
  445.5000     7.6902   149.6291     6.7356   -35.8163  -999.2500
  446.0000     7.6787   152.6761     6.6879   -35.8193  -999.2500
  446.5000     7.7201   154.2032     6.5855   -35.8223  -999.2500
  447.0000     7.7199   154.2107     6.4347   -35.8259  -999.2500
  447.5000     7.7198   155.7379     6.4356   -35.8288  -999.2500
  448.0000     7.6894   155.7453     6.5879   -35.5301  -999.2500
  448.5000     7.6288   155.7528     6.5886   -35.5335  -999.2500
  449.0000     7.5985   155.7602     6.7409   -35.5365  -999.2500
  449.5000     7.5077   155.7676     6.7418   -35.5395  -999.2500
  450.0000     7.4773   155.7751     6.7425   -35.5424  -999.2500
  450.5000     7.4470   154.2628     6.8948   -35.2442  -999.2500
  451.0000     7.4799   154.2705     6.8955   -35.2471  -999.2500
  451.5000     7.6062   154.0804     7.0478   -35.2501  -999.2500
  452.0000     7.7353   152.5025     7.0485   -35.2530  -999.2500
  452.5000     7.8834   149.4048     7.2008   -35.2560  -999.2500
  453.0000     8.0070   147.4315     7.2015   -35.2590  -999.2500
  453.5000     8.1206   143.6691     7.3538   -35.2620  -999.2500
  454.0000     8.1710   141.6313     7.3545   -35.2651  -999.2500
  454.5000     8.2011   137.6049     7.3639   -35.5693  -999.2500
