~VERSION INFORMATION
 VERS.                2.0:   CWLS LOG ASCII STANDARD - VERSION 2.0
 WRAP.                 NO:   ONE LINE PER DEPTH STEP
~WELL INFORMATION
#MNEM.UNIT      DATA TYPE    INFORMATION
#----------   ------------   ------------------------------
 STRT.F           21.0000:   START DEPTH
 STOP.F          495.0000:   STOP DEPTH
 STEP.F            0.5000:   STEP LENGTH
 NULL.          -999.2500:   NO VALUE
 COMP. FENIX & SCISSON U.S. NAVY:   COMPANY
 WELL.        NPR #42-S-3:   WELL
 FLD .             TEAPOT:   FIELD
 LOC .       S3 T38N R78W:   LOCATION
 CNTY.            NATRONA:   COUNTY
 STAT.            WYOMING:   STATE
 CTRY. UNITED STATES OF AMERICA:   COUNTRY
 SRVC.              Welex:   SERVICE COMPANY
 DATE.        05-MAY-1977:   LOGDATE
 API .       490251034800:   API NUMBER
~CURVE INFORMATION
#MNEM.UNIT       API CODE    CURVE DESCRIPTION
#----------   ------------   ------------------------------
 DEPT.F                  :   
 SPR .MV     07 010 01 00:   SPONTANEOUS POTENTIAL
 SGRD.OHMM   07 221 05 00:   SHALLOW SHORT GUARD RESISTIVITY
 ILD .OHMM   07 120 46 00:   INDUCTION LOG DEEP
 ILM .OHMM   07 120 44 00:   INDUCTION LOG MEDIUM
 GRD .GAPI   45 310 01 00:   GAMMA RAY FROM DENSITY LOG
 CALD.IN     45 280 60 00:   CALIPER FROM DENSITY LOG
 CORR.G/C3   45 356 01 00:   DENSITY CORRECTION
 RHOB.G/C3   45 350 01 00:   BULK DENSITY
 DPHI.DEC    45 890 12 00:   DENSITY POROSITY SANDSTONE
~PARAMETER INFORMATION
#MNEM.UNIT          VALUE    DESCRIPTION
#----------   ------------   ------------------------------
 PD  .                 GL:   PERMANENT DATUM
 EPD .F              5120:   ELEVATION PERMANENT DATUM
 LMF .                 GL:   LOG MEASURED FROM
 DMF .                 GL:   DRILLING MEASURED FROM
 EGL .F              5120:   GROUND LEVEL
 DATE.        05-MAY-1977:   RUN DATE
 RUN .                  1:   RUN NUMBER
 DD  .F               490:   DEPTH DRILLER
 DL  .F               495:   DEPTH LOGGER
 BLI .F               493:   BOTTOM LOG INTERVAL
 TLI .F                20:   TOP LOG INTERVAL
 CS  .IN            8.625:   CASING SIZE
 CBD .F                25:   CASING BOTTOM DRILLER
 CBL .F                25:   CASING BOTTOM LOGGER
 BS  .IN            7.875:   BIT SIZE
 BSD .F               490:   BIT SIZE AT DEPTH
 DFT .            KCL MUD:   DRILLING FLUID TYPE
 DFD .                8.8:   DRILLING FLUID DENSITY
 DFV .                 34:   DRILLING FLUID VISCOSITY
 DFPH.                8.0:   DRILLING FLUID PH
 DFL .                8.4:   DRILLING FLUID LOSS
 MSS .           FLOWLINE:   MUD SAMPLE SOURCE
 RMS .OHMM           0.26:   RESISTIVITY MUD SAMPLE
 MST .F                60:   MUD SAMPLE TEMPERATURE
 RMF .OHMM           0.14:   RESISTIVITY MUD FILTRATE SAMPLE
 MFST.F                60:   MUD FILTRATE SAMPLE TEMPERATURE
 RMC .OHMM           0.41:   RESISTIVITY MUD CAKE
 MCST.F                60:   MUD CAKE SAMPLE TEMPERATURE
 MFSS.           FANN KIT:   MUD FILTRATE SAMPLE SOURCE
 MCSS.            FANNKIT:   MUD CAKE SAMPLE SOURCE
 RMB .OHMM           0.21:   RESISTIVITY MUD AT BHT
 BHT .F                71:   BOTTOM HOLE TEMPERATURE
 TCS .HRS            0130:   TIME CURCULATED STOPPED
 MRT .F                71:   MAXIMUM RECORDED TEMPERATURE
 LUN .               8611:   LOGGING UNIT NUMBER
 LUL .             CASPER:   LOGGING UNIT LOCATION
 ENGI.            C. DOAK:   RECORDING ENGINEER
 WITN.            R. LYON:   WITNESSED BY
 CLNT.            A2DTECH:   CLIENT CODE
 ORIG.           5" PRINT:   ORIGIN OF DATA
 UWI .       490251034800:   UNIQUE WELL ID
 DICO. A2D Technologies, Inc.:   DIGITIZING COMPANY
~OTHER INFORMATION
~A   DEPT      SPR       SGRD        ILD        ILM         GRD        CALD       CORR       RHOB       DPHI 
# ...
   94.0000   -54.5416    12.1410     8.0704     9.6628   131.7863     7.8228     0.0007     2.4528     0.1324
   94.5000   -54.5487    12.5676     8.0688     9.6596   129.9836     7.8231     0.0000     2.4506     0.1333
   95.0000   -54.5544    11.9668     8.1230     9.5907   128.6317     7.8234    -0.0007     2.4506     0.1321
   95.5000   -54.5602    12.6401     8.1209     9.5223   126.9790     7.8387     0.0000     2.4546     0.1297
   96.0000   -54.5659    12.7244     8.1193     9.4544   125.1759     7.8389     0.0007     2.4611     0.1273
   96.5000   -54.5716    12.7191     8.1177     9.5173   123.3389     7.8392     0.0015     2.4633     0.1257
   97.0000   -54.5774    12.7149     8.1161     9.6468   122.6225     7.8395     0.0030     2.4641     0.1249
   97.5000   -54.5845    13.0661     8.1145     9.6436   123.6769     7.8398     0.0045     2.4656     0.1249
   98.0000   -54.5902    12.4328     8.1129     9.7756   124.4303     7.8402     0.0022     2.4648     0.1264
   98.5000   -54.5959    11.7746     8.1108     9.9087   124.8828     7.8405     0.0007     2.4626     0.1282
   99.0000   -54.6016    12.3517     8.1092     9.9054   125.0343     7.8408     0.0007     2.4610     0.1285
   99.5000   -54.6074    12.4340     8.1641     9.9028   123.0812     7.8261     0.0015     2.4618     0.1276
  100.0000   -54.6131    12.4295     8.1510     9.9001   121.5789     7.8252     0.0024     2.4664     0.1246
  100.5000   -54.4363    12.5137     8.0793     9.5994   121.0419     7.8185     0.0043     2.4762     0.1190
  101.0000   -54.3293    12.4256     8.0075     9.4268   120.8271     7.8117     0.0060     2.4835     0.1147
  101.5000   -54.3383    11.9205     7.9369     9.4951   121.2782     7.7969     0.0067     2.4903     0.1116
  102.0000   -54.3455    12.5082     7.9908     9.5592   121.8797     7.7820     0.0060     2.4888     0.1101
  102.5000   -54.5015    12.8562     8.0450     9.6243   122.3308     7.7822     0.0045     2.4858     0.1128
  103.0000   -54.3600    12.6651     8.0437     9.8238   122.4812     7.7973     0.0021     2.4828     0.1146
  103.5000   -54.3690    12.2469     8.2106     9.8908   121.7293     7.7975     0.0015     2.4806     0.1164
  104.0000   -54.2256    11.5882     8.2666    10.0958   120.6767     7.7976     0.0022     2.4806     0.1170
  104.5000   -54.2346    12.4136     8.3224    10.3054   119.4737     7.7978     0.0037     2.4836     0.1161
  105.0000   -54.0912    13.2978     8.4368    10.6654   117.8195     7.7979     0.0037     2.4851     0.1143
  105.5000   -53.9496    13.3111     8.5019    11.0583   117.2180     7.7981     0.0045     2.4881     0.1119
  106.0000   -53.6607    14.1452     8.6701    11.6619   119.4737     7.7982     0.0052     2.4896     0.1104
  106.5000   -53.3706    14.8426     8.7893    11.8226   119.1729     7.7984     0.0052     2.4874     0.1107
  107.0000   -53.0802    13.8515     8.9718    11.4201   117.6692     7.7985     0.0045     2.4836     0.1127
  107.5000   -52.9386    14.5344     9.0951    11.5775   116.3158     7.7987     0.0022     2.4777     0.1151
  108.0000   -52.9476    14.8367     9.2840    12.1479   115.2632     7.7988     0.0015     2.4799     0.1169
  108.5000   -52.8042    14.3316     9.5423    12.8350   114.6617     7.7990     0.0015     2.4837     0.1136
  109.0000   -52.5138    14.4288     9.7448    13.3876   114.5113     7.7841     0.0007     2.4874     0.1112
  109.5000   -52.3722    14.9329    10.0114    14.2290   114.8120     7.7993     0.0015     2.4949     0.1091
  110.0000   -52.3812    17.1540    10.2899    14.7260   115.2632     7.7994     0.0015     2.4957     0.1082
  110.5000   -52.2396    17.2545    10.5036    15.2405   116.0150     7.8145     0.0022     2.4904     0.1094
  111.0000   -51.9492    16.8984    10.7213    15.6650   115.5639     7.8297     0.0022     2.4859     0.1112
  111.5000   -51.8076    16.2116    10.9438    15.6624   113.4586     7.8298     0.0015     2.4837     0.1130
  112.0000   -51.6678    16.2094    11.1711    15.6603   111.5038     7.8300     0.0015     2.4837     0.1142
  112.5000   -51.5244    16.6604    11.4030    15.7665   109.0977     7.8301     0.0015     2.4852     0.1135
  113.0000   -51.3828    17.6027    11.4803    16.0939   107.2932     7.8302     0.0007     2.4852     0.1126
  113.5000   -51.2430    19.0025    11.4784    16.5416   106.2406     7.8154     0.0015     2.4860     0.1126
  114.0000   -51.2502    19.9230    11.4769    16.5389   105.9398     7.8156     0.0016     2.4860     0.1129
  114.5000   -51.2574    16.5371    11.3965    16.5367   108.0451     7.8157     0.0037     2.4860     0.1126
  115.0000   -51.1158    17.1148    11.3950    16.3081   108.0451     7.8009     0.0045     2.4868     0.1117
  115.5000   -51.1248    16.4186    11.3152    16.0826   106.6917     7.8011     0.0052     2.4898     0.1096
  116.0000   -50.8344    16.7594    11.1588    15.7513   107.4436     7.8012     0.0067     2.4957     0.1066
  116.5000   -50.8417    17.1074    11.0806    15.2086   109.8496     7.8013     0.0082     2.5002     0.1032
  117.0000   -50.8489    16.9876    10.8520    14.7993   108.7970     7.8015     0.0082     2.4965     0.1024
  117.5000   -50.8561    16.1721    10.7020    15.0027   107.4436     7.8017     0.0075     2.4920     0.1075
  118.0000   -50.8633    15.6346    10.6270    15.4201   106.5414     7.8018     0.0060     2.4875     0.1105
  118.5000   -50.8705    16.9808    10.6256    15.6327   105.6391     7.8020     0.0045     2.4846     0.1131
  119.0000   -50.7289    16.1781    10.6242    15.5227   104.8872     7.8021     0.0022     2.4793     0.1161
  119.5000   -50.7366    15.4144    10.6228    15.2029   105.0376     7.8172     0.0030     2.4719     0.1200
  120.0000   -50.7451    15.8427    10.5484    14.7874   105.9398     7.8174     0.0045     2.4689     0.1230
  120.5000   -50.7523    16.3961    10.5469    14.3832   106.8421     7.8325     0.0030     2.4666     0.1242
  121.0000   -50.7596    16.7450    10.4728    14.5805   106.8421     7.8327     0.0022     2.4666     0.1236
  121.5000   -50.7668    16.9666    10.4714    14.9862   106.6917     7.8328     0.0015     2.4674     0.1239
  122.0000   -50.7740    15.1922    10.3980    15.4032   109.6992     7.8329     0.0007     2.4644     0.1248
  122.5000   -50.7813    15.7229    10.3967    15.5082   110.4511     7.8331     0.0015     2.4667     0.1238
  123.0000   -50.7887    16.4980    10.3953    15.1882   107.8947     7.8332     0.0022     2.4741     0.1211
  123.5000   -50.7974    16.9570    10.3225    14.7731   106.0902     7.8334     0.0037     2.4824     0.1172
  124.0000   -50.9534    16.6077    10.3211    13.7745   105.1880     7.8336     0.0052     2.4846     0.1148
  124.5000   -50.9607    15.3896    10.2485    13.5965   107.1429     7.8337     0.0067     2.4787     0.1163
  125.0000   -50.9679    15.2849    10.2471    13.9748   109.2481     7.8338     0.0067     2.4674     0.1220
  125.5000   -50.9751    15.1775    10.2457    13.7812   109.5489     7.8190     0.0067     2.4689     0.1232
  126.0000   -50.9823    14.7627    10.2444    13.4973   109.6992     7.8192     0.0067     2.4727     0.1217
  126.5000   -50.9896    14.1631    10.1726    12.8597   109.2481     7.8193     0.0052     2.4772     0.1199
  127.0000   -50.9970    14.8609    10.1014    12.6703   107.5940     7.8195     0.0052     2.4772     0.1187
  127.5000   -51.3033    15.4865     9.9617    13.2157   106.3910     7.8196     0.0044     2.4750     0.1193
  128.0000   -51.4594    14.7548     9.9512    13.3974   110.3008     7.8198     0.0030     2.4712     0.1214
  128.5000   -51.4666    14.9577     9.8903    13.0308   109.6992     7.8199     0.0022     2.4674     0.1237
  129.0000   -51.6226    14.9552     9.8211    12.5011   107.2932     7.8201     0.0030     2.4697     0.1243
  129.5000   -51.7786    14.3473     9.7523    11.9106   105.6391     7.8202     0.0022     2.4750     0.1195
  130.0000   -51.7858    13.7641     9.6840    11.6652   106.0902     7.8204     0.0015     2.4720     0.1183
