~VERSION INFORMATION
 VERS.                2.0:   CWLS LOG ASCII STANDARD - VERSION 2.0
 WRAP.                 NO:   ONE LINE PER DEPTH STEP
~WELL INFORMATION
#MNEM.UNIT      DATA TYPE    INFORMATION
#----------   ------------   ------------------------------
 STRT.F           90.0000:   START DEPTH
 STOP.F          784.0000:   STOP DEPTH
 STEP.F            0.5000:   STEP LENGTH
 NULL.          -999.2500:   NO VALUE
 COMP.               NAVY:   COMPANY
 WELL. RES 3 TEAPOT DOM #41S-11:   WELL
 FLD .             TEAPOT:   FIELD
 LOC .      S11 T38N R78W:   LOCATION
 CNTY.            NATRONA:   COUNTY
 STAT.            WYOMING:   STATE
 CTRY. UNITED STATES OF AMERICA:   COUNTRY
 SRVC.       Schlumberger:   SERVICE COMPANY
 DATE.        14-JUL-1962:   LOGDATE
 API .       490250638000:   API NUMBER
~CURVE INFORMATION
#MNEM.UNIT       API CODE    CURVE DESCRIPTION
#----------   ------------   ------------------------------
 DEPT.F                  :   
 GR  .GAPI   30 310 01 00:   GAMMA RAY
 SPR .MV     05 010 01 00:   SPONTANEOUS POTENTIAL FROM RES.
 ASN .OHMM   05 041 16 00:   AMPLIFIED SHORT NORMAL 16"
 ILD .OHMM   05 120 46 00:   INDUCTION LOG DEEP
 CILD.MMHO   05 110 46 00:   CONDUCTIVITY INDUCTION LOG DEEP
~PARAMETER INFORMATION
#MNEM.UNIT          VALUE    DESCRIPTION
#----------   ------------   ------------------------------
 LMF .                 KB:   LOG MEASURED FROM
 DMF .                 KB:   DRILLING MEASURED FROM
 EKB .F              5162:   KELLING BUSHING
 EGL .F              5157:   GROUND LEVEL
 DATE.        14-JUL-1962:   RUN DATE
 RUN .                  1:   RUN NUMBER
 DD  .F               785:   DEPTH DRILLER
 DL  .F               785:   DEPTH LOGGER
 BLI .F               784:   BOTTOM LOG INTERVAL
 TLI .F               100:   TOP LOG INTERVAL
 CBD .F                10:   CASING BOTTOM DRILLER
 BS  .IN             6.75:   BIT SIZE
 BSD .F               785:   BIT SIZE AT DEPTH
 DFT .           OIL EMUL:   DRILLING FLUID TYPE
 DFD .               10.2:   DRILLING FLUID DENSITY
 DFV .                 43:   DRILLING FLUID VISCOSITY
 DFL .                4.6:   DRILLING FLUID LOSS
 RMS .OHMM            5.2:   RESISTIVITY MUD SAMPLE
 MST .F                78:   MUD SAMPLE TEMPERATURE
 RMF .OHMM            5.2:   RESISTIVITY MUD FILTRATE SAMPLE
 MFST.F                78:   MUD FILTRATE SAMPLE TEMPERATURE
 RMC .OHMM              6:   RESISTIVITY MUD CAKE
 MCST.F                78:   MUD CAKE SAMPLE TEMPERATURE
 TCS .HRS              .5:   TIME CURCULATED STOPPED
 LUN .               2503:   LOGGING UNIT NUMBER
 LUL .               CSPR:   LOGGING UNIT LOCATION
 ENGI.           ELLERMAN:   RECORDING ENGINEER
 WITN.          JORGENSON:   WITNESSED BY
 CLNT.            A2DTECH:   CLIENT CODE
 ORIG.           5" PRINT:   ORIGIN OF DATA
 UWI .       490250638000:   UNIQUE WELL ID
 DICO. A2D Technologies, Inc.:   DIGITIZING COMPANY
~OTHER INFORMATION
~A   DEPT       GR        SPR          ASN        ILD       CILD 
# ...
  212.0000  -999.2500   -42.0357     6.5710     7.9879   124.1617
  212.5000  -999.2500   -41.2761     6.4955     7.6095   133.1427
  213.0000  -999.2500   -40.9696     6.2991     7.0004   149.8022
  213.5000  -999.2500   -41.5796     6.0008     6.0973   174.7950
  214.0000  -999.2500   -41.8674     5.5287     5.3413   206.6059
  214.5000  -999.2500   -41.4088     4.9698     4.5097   268.3190
  215.0000  -999.2500   -40.6492     4.3505     3.9803   356.5897
  215.5000  -999.2500   -40.0406     3.8286     3.5264   413.4007
  216.0000  -999.2500   -39.2709     3.3233     3.0724   473.0576
  216.5000  -999.2500   -38.5204     3.1873     2.8451   508.8408
  217.0000  -999.2500   -38.2139     3.0514     2.7688   534.1368
  217.5000  -999.2500   -37.9086     2.9909     2.8438   536.8567
  218.0000  -999.2500   -38.5074     3.0211     2.9940   498.9689
  218.5000  -999.2500   -39.4294     3.1873     3.2314   424.7192
  219.0000  -999.2500   -41.3678     3.4441     3.6721   358.8029
  219.5000  -999.2500   -42.5719     3.8822     4.2756   305.2574
  220.0000  -999.2500   -43.0208     4.6727     5.3323   223.1806
  220.5000  -999.2500   -43.0165     6.3746     6.4645   162.5673
  221.0000  -999.2500   -42.8610     7.2356     8.6239   122.4086
  221.5000  -999.2500   -42.8557     8.1722    10.3148   101.1893
  222.0000  -999.2500   -43.1535     8.6573    11.5226    83.4541
  222.5000  -999.2500   -43.6024     9.1239    12.1261    76.1730
  223.0000  -999.2500   -44.2023     9.2598    12.1254    74.6507
  223.5000  -999.2500   -44.6611     9.2447    11.5763    79.1889
  224.0000  -999.2500   -44.7979     9.0181    10.0845    89.7878
  224.5000  -999.2500   -44.1882     8.7160     8.3466   107.0538
  225.0000  -999.2500   -43.2776     8.2477     7.5906   131.4382
  225.5000  -999.2500   -42.5180     7.2508     6.9856   159.4613
  226.0000  -999.2500   -41.4462     6.5106     6.3766   174.6056
  226.5000  -999.2500   -40.2424     6.0973     5.8511   183.6893
  227.0000  -999.2500   -39.6339     5.6647     5.5482   192.1163
  227.5000  -999.2500   -39.3274     4.9547     5.3965   196.5518
  228.0000  -999.2500   -39.4743     5.2417     5.3202   198.0616
  228.5000  -999.2500   -39.6309     6.1934     5.8512   191.2344
  229.0000  -999.2500   -40.5219     7.5378     6.5270   175.3181
  229.5000  -999.2500   -41.1218     7.9909     7.0550   161.1686
  230.0000  -999.2500   -41.1175     8.6556     7.5830   137.4230
  230.5000  -999.2500   -40.9621     8.8973     8.1110   119.2340
  231.0000  -999.2500   -40.8066     9.0708     8.6390   104.0753
  231.5000  -999.2500   -41.2545     9.3505     9.3178    95.7347
  232.0000  -999.2500   -41.7044     9.6526     9.8458    91.1819
  232.5000  -999.2500   -42.3033     9.9849    10.2983    88.1427
  233.0000  -999.2500   -42.7521    10.8645    10.6752    85.1052
  233.5000  -999.2500   -43.3620    11.0142    11.1276    82.0677
  234.0000  -999.2500   -43.6498    11.1634    11.5157    78.2726
  234.5000  -999.2500   -43.4934    11.2371    11.8815    75.1337
  235.0000  -999.2500   -43.1870    11.2349    12.1072    73.7109
  235.5000  -999.2500   -42.8805    11.2330    12.1822    73.7037
  236.0000  -999.2500   -43.0273    11.3068    12.1813    74.4541
  236.5000  -999.2500   -43.1740    11.4555    12.0964    75.2045
  237.0000  -999.2500   -43.6218    11.5297    12.0286    75.9548
  237.5000  -999.2500   -43.9196    11.6034    12.0279    75.9458
  238.0000  -999.2500   -44.0664    11.7523    12.1028    74.4234
  238.5000  -999.2500   -44.2131    11.9770    12.2530    72.9010
  239.0000  -999.2500   -44.0566    12.2013    12.4789    70.6211
  239.5000  -999.2500   -44.3544    12.3505    12.5537    69.8561
  240.0000  -999.2500   -44.9543    12.3487    12.5528    69.8473
  240.5000  -999.2500   -44.9703    12.1958    12.5521    69.8401
  241.0000  -999.2500   -44.9456    12.2700    12.5513    69.0753
  241.5000  -999.2500   -45.3935    12.6454    12.9318    69.0681
  242.0000  -999.2500   -45.9934    12.8802    13.2295    69.0606
  242.5000  -999.2500   -46.8954    13.0194    13.3045    69.0518
  243.0000  -999.2500   -47.6464    13.0171    13.2280    69.0446
  243.5000  -999.2500   -47.4809    12.9402    13.2273    69.0374
  244.0000  -999.2500   -47.0324    13.0139    13.2266    68.2726
  244.5000  -999.2500   -46.8771    13.1627    13.3014    67.5076
  245.0000  -999.2500   -46.7228    13.2426    13.3762    66.7412
  245.5000  -999.2500   -47.1706    13.6118    13.5265    65.9764
  246.0000  -999.2500   -47.6294    13.9121    13.6767    65.9692
  246.5000  -999.2500   -48.0683    13.9863    13.8270    65.2044
  247.0000  -999.2500   -48.3661    14.0600    14.1283    64.4394
  247.5000  -999.2500   -48.3607    14.3598    14.4296    62.1579
  248.0000  -999.2500   -48.2053    14.8162    14.8821    59.8779
  248.5000  -999.2500   -47.7477    15.4887    15.4856    56.8404
  249.0000  -999.2500   -47.2892    16.3932    16.3157    53.0453
  249.5000  -999.2500   -46.8318    17.5999    17.1775    48.3913
  250.0000  -999.2500   -46.2649    19.4863    18.2225    43.7976
  250.5000  -999.2500   -45.5699    21.2971    19.4268    42.0046
  251.0000  -999.2500   -44.8749    22.5793    20.6311    40.1972
  251.5000  -999.2500   -44.1798    24.0181    21.7009    38.7039
  252.0000  -999.2500   -44.0968    25.3021    22.9607    36.4586
  252.5000  -999.2500   -45.0251    25.9063    23.6405    34.9653
  253.0000  -999.2500   -45.9215    25.9139    23.8671    33.4666
  253.5000  -999.2500   -46.2236    24.8489    23.9426    32.7309
  254.0000  -999.2500   -45.7704    23.4139    23.7160    33.5159
  254.5000  -999.2500   -45.1662    22.9145    22.9607    35.0530
  255.0000  -999.2500   -44.7130    22.2810    21.7875    36.7173
  255.5000  -999.2500   -44.4109    21.2991    20.3172    39.6477
  256.0000  -999.2500   -43.9577    21.0424    19.4109    43.4575
  256.5000  -999.2500   -43.6556    19.0332    18.5045    45.7521
  257.0000  -999.2500   -44.7130    18.5045    17.5982    48.0467
  257.5000  -999.2500   -46.8278    17.8060    16.6918    50.3414
  258.0000  -999.2500   -48.7915    16.4653    15.8590    53.4442
  258.5000  -999.2500   -50.3021    15.4079    15.2326    57.2088
  259.0000  -999.2500   -50.4532    14.8011    14.5015    61.0186
  259.5000  -999.2500   -49.6797    14.5015    14.1239    63.3133
  260.0000  -999.2500   -48.3384    14.4260    14.0483    64.0927
  260.5000  -999.2500   -47.1299    14.3505    14.0483    63.3516
  261.0000  -999.2500   -46.3746    14.1239    14.0483    63.3790
  261.5000  -999.2500   -46.2236    13.9728    14.0483    62.6433
  262.0000  -999.2500   -46.8278    13.6707    13.8973    62.6707
  262.5000  -999.2500   -47.2810    12.9909    13.3686    64.9653
  263.0000  -999.2500   -48.0585    12.2356    12.6888    74.0781
  263.5000  -999.2500   -48.7915    11.1782    11.7069    83.1909
  264.0000  -999.2500   -48.6405     9.8807    10.5740    93.0613
  264.5000  -999.2500   -47.4320     9.2615     9.5166   103.7400
  265.0000  -999.2500   -45.7704     8.5669     8.6758   114.8239
  265.5000  -999.2500   -44.1088     7.7966     8.0816   127.9810
  266.0000  -999.2500   -42.7412     7.2983     7.4773   137.8514
  266.5000  -999.2500   -41.3897     7.0685     6.9486   146.2066
  267.0000  -999.2500   -40.4834     6.9815     6.7976   153.0467
  267.5000  -999.2500   -40.6344     7.2989     6.7976   156.8565
  268.0000  -999.2500   -41.2387     7.4502     7.0242   156.8285
  268.5000  -999.2500   -42.1450     7.5561     7.2578   153.1179
  269.0000  -999.2500   -42.5982     7.4052     7.4018   150.1095
  269.5000  -999.2500   -41.5167     7.1486     7.2508   147.8587
  270.0000  -999.2500   -39.5770     6.9373     7.0242   146.3600
  270.5000  -999.2500   -39.5770     6.8620     6.8731   150.1752
  271.0000  -999.2500   -39.7281     6.8009     6.7221   153.2274
  271.5000  -999.2500   -39.5770     6.6914     6.6465   154.0075
  272.0000  -999.2500   -39.2749     6.6057     6.6465   153.2713
  272.5000  -999.2500   -39.4260     6.6211     6.6465   151.7835
