~VERSION INFORMATION
 VERS.                2.0:   CWLS LOG ASCII STANDARD - VERSION 2.0
 WRAP.                 NO:   ONE LINE PER DEPTH STEP
~WELL INFORMATION
#MNEM.UNIT      DATA TYPE    INFORMATION
#----------   ------------   ------------------------------
 STRT.F           89.0000:   START DEPTH
 STOP.F         1360.0000:   STOP DEPTH
 STEP.F            0.5000:   STEP LENGTH
 NULL.          -999.2500:   NO VALUE
 COMP.           U S NAVY:   COMPANY
 WELL.     NPR 3 #85 S-11:   WELL
 FLD .             TEAPOT:   FIELD
 LOC .      S11 T38N R78W:   LOCATION
 CNTY.            NATRONA:   COUNTY
 STAT.            WYOMING:   STATE
 CTRY. UNITED STATES OF AMERICA:   COUNTRY
 SRVC.       Schlumberger:   SERVICE COMPANY
 DATE.        15-AUG-1966:   LOGDATE
 API .       490250959000:   API NUMBER
~CURVE INFORMATION
#MNEM.UNIT       API CODE    CURVE DESCRIPTION
#----------   ------------   ------------------------------
 DEPT.F                  :   
 SPR .MV     05 010 01 00:   SPONTANEOUS POTENTIAL FROM RES.
 CILD.MMHO   05 110 46 00:   CONDUCTIVITY INDUCTION LOG DEEP
 ASN .OHMM   05 041 16 00:   AMPLIFIED SHORT NORMAL 16"
 ILD .OHMM   05 120 46 00:   INDUCTION LOG DEEP
 GR  .GAPI   30 310 01 00:   GAMMA RAY
~PARAMETER INFORMATION
#MNEM.UNIT          VALUE    DESCRIPTION
#----------   ------------   ------------------------------
 PD  .                 GL:   PERMANENT DATUM
 EPD .F              5288:   ELEVATION PERMANENT DATUM
 LMF .                 KB:   LOG MEASURED FROM
 DAPD.F                 5:   FEET ABOVE PERMANENT DATUM
 DMF .                 KB:   DRILLING MEASURED FROM
 EKB .F            5286.9:   KELLING BUSHING
 EGL .F            5281.9:   GROUND LEVEL
 DATE.        15-AUG-1966:   RUN DATE
 RUN .                  1:   RUN NUMBER
 DD  .F              1360:   DEPTH DRILLER
 DL  .F              1361:   DEPTH LOGGER
 BLI .F              1360:   BOTTOM LOG INTERVAL
 TLI .F                88:   TOP LOG INTERVAL
 CS  .IN            8.625:   CASING SIZE
 CBD .F                12:   CASING BOTTOM DRILLER
 BS  .IN            7.875:   BIT SIZE
 BSD .F              1360:   BIT SIZE AT DEPTH
 DFT .          CHEM- GEL:   DRILLING FLUID TYPE
 DFD .                9.6:   DRILLING FLUID DENSITY
 DFV .                 60:   DRILLING FLUID VISCOSITY
 DFPH.                7.2:   DRILLING FLUID PH
 DFL .                6.4:   DRILLING FLUID LOSS
 MSS .         CIRCULATED:   MUD SAMPLE SOURCE
 RMS .OHMM           1.41:   RESISTIVITY MUD SAMPLE
 MST .F                72:   MUD SAMPLE TEMPERATURE
 RMF .OHMM           0.75:   RESISTIVITY MUD FILTRATE SAMPLE
 MFST.F                73:   MUD FILTRATE SAMPLE TEMPERATURE
 MFSS.               MEAS:   MUD FILTRATE SAMPLE SOURCE
 TCS .HRS             2.5:   TIME CURCULATED STOPPED
 LUN .               3527:   LOGGING UNIT NUMBER
 LUL .              CSPR.:   LOGGING UNIT LOCATION
 ENGI.               HAUG:   RECORDING ENGINEER
 WITN.             TUTTLE:   WITNESSED BY
 CLNT.            A2DTECH:   CLIENT CODE
 ORIG.       2", 5" PRINT:   ORIGIN OF DATA
 UWI .       490250959000:   UNIQUE WELL ID
 DICO. A2D Technologies, Inc.:   DIGITIZING COMPANY
~OTHER INFORMATION
~A   DEPT      SPR       CILD          ASN        ILD       GR   
   89.0000  -999.2500  -999.2500     3.3535     3.4422  -999.2500
   89.5000   -55.2611   302.2683     3.8920     3.7525  -999.2500
   90.0000   -55.1717   284.8281     4.3162     3.9621  -999.2500
   90.5000   -54.8999   263.7307     4.4660     4.0991  -999.2500
   91.0000   -54.8414   255.2723     4.6233     4.3411  -999.2500
   91.5000   -54.6067   250.0262     4.9513     4.6307  -999.2500
   92.0000   -54.6121   243.3486     5.1373     4.7499  -999.2500
   92.5000   -54.7689   237.6868     5.4435     4.9266  -999.2500
   93.0000   -54.7745   232.0752     5.6109     5.1165  -999.2500
   93.5000   -54.9311   223.9740     5.6384     5.1610  -999.2500
   94.0000   -54.9364   219.1181     5.5777     5.2195  -999.2500
   94.5000   -54.9423   221.1796     5.4218     5.2169  -999.2500
   95.0000   -54.9470   227.0210     5.2154     5.2945  -999.2500
   95.5000   -55.1038   231.3117     5.2148     5.3620  -999.2500
   96.0000   -55.1091   231.5496     5.2585     5.4351  -999.2500
   96.5000   -55.1586   229.1467     5.3797     5.4319  -999.2500
   97.0000   -55.2715   226.7339     5.4969     5.4293  -999.2500
   97.5000   -55.2765   223.3760     5.6463     5.4267  -999.2500
   98.0000   -55.2818   219.2975     5.7397     5.4238  -999.2500
   98.5000   -55.2878   216.6840     5.7544     5.4214  -999.2500
   99.0000   -55.2924   216.7070     5.7169     5.4188  -999.2500
   99.5000   -55.2977   217.4701     5.5727     5.4157  -999.2500
  100.0000   -55.3030   218.2362     5.4518     5.3384  -999.2500
  100.5000   -55.1559   223.5862     5.3911     5.3356  -999.2500
  101.0000   -55.0109   228.5575     5.3906     5.3331  -999.2500
  101.5000   -55.0159   230.2518     5.4519     5.2553  -999.2500
  102.0000   -55.0212   228.3857     5.6307     5.1772  -999.2500
  102.5000   -55.0272   224.8568     5.7048     5.1748  -999.2500
  103.0000   -54.8803   221.3406     5.7202     5.0899  -999.2500
  103.5000   -54.7340   221.3565     5.7046     5.0187  -999.2500
  104.0000   -54.7394   223.6970     5.6578     4.9153  -999.2500
  104.5000   -54.7447   231.5284     5.5983     4.8635  -999.2500
  105.0000   -54.5988   234.1679     5.5306     4.6955  -999.2500
  105.5000   -54.6038   239.0496     5.4810     4.5234  -999.2500
  106.0000   -54.7606   243.5426     5.3259     4.3291  -999.2500
  106.5000   -54.7666   246.4611     5.2275     4.2515  -999.2500
  107.0000   -54.9859   249.8905     5.1515     4.2569  -999.2500
  107.5000   -55.0795   249.9066     5.0534     4.3214  -999.2500
  108.0000   -55.0849   249.8854     5.0496     4.3940  -999.2500
  108.5000   -55.2417   247.4726     5.2055     4.4665  -999.2500
  109.0000   -55.3988   244.6412     5.4115     4.5391  -999.2500
  109.5000   -55.4038   239.5190     5.5349     4.5545  -999.2500
  110.0000   -55.4091   236.0986     5.6235     4.6840  -999.2500
  110.5000   -55.4151   232.4701     5.7142     4.7939  -999.2500
  111.0000   -55.4197   228.3657     5.7629     4.9135  -999.2500
  111.5000   -55.4250   225.9604     5.8028     5.0518  -999.2500
  112.0000   -55.4303   223.1091     5.8387     5.1248  -999.2500
  112.5000   -55.4356   220.6963     5.8622     5.1974  -999.2500
  113.0000   -55.2897   218.2835     5.8618     5.3170  -999.2500
  113.5000   -55.2126   215.7520     5.9049     5.3616  -999.2500
  114.0000   -55.1479   215.7698     6.0415     5.4150  -999.2500
  114.5000   -55.0030   214.7820     6.1849     5.4124  -999.2500
  115.0000   -54.8561   210.5778     6.3913     5.4950  -999.2500
  115.5000   -54.8614   205.5817     6.5522     5.6323  -999.2500
  116.0000   -55.0687   201.4449     6.5970     5.6592  -999.2500
  116.5000   -55.1750   195.6875     6.5089     5.7031  -999.2500
  117.0000   -55.1806   193.0020     6.3400     5.7511  -999.2500
  117.5000   -55.1856   189.7429     6.4593     5.7990  -999.2500
  118.0000   -55.1404   188.1764     6.6102     5.8470  -999.2500
  118.5000   -54.2878   185.9031     6.8053     5.8950  -999.2500
  119.0000   -53.3833   184.5687     6.9985     5.9430  -999.2500
  119.5000   -53.3950   183.0904     7.0078     5.9956  -999.2500
  120.0000   -53.8485   181.5645     6.8966     6.1349  -999.2500
  120.5000   -56.4295   180.1418     6.8324     6.1327  -999.2500
  121.0000   -55.2230   179.1704     6.8183     6.1301  -999.2500
  121.5000   -53.6876   177.9341     6.8179     6.1274  -999.2500
  122.0000   -53.4146   177.2048     6.8175     6.0496  -999.2500
  122.5000   -54.3302   176.3266     6.8170     6.0468  -999.2500
  123.0000   -54.7641   175.7474     6.8166     5.9692  -999.2500
  123.5000   -55.2556   177.5299     6.8161     5.9575  -999.2500
  124.0000   -55.5071   181.1360     6.8157     5.8131  -999.2500
  124.5000   -55.5619   184.0280     6.8152     5.6605  -999.2500
  125.0000   -55.4167   186.5346     6.8147     5.5827  -999.2500
  125.5000   -55.2705   189.2942     6.7822     5.4578  -999.2500
  126.0000   -55.2758   190.9367     6.7231     5.4271  -999.2500
  126.5000   -55.1302   193.3869     6.6150     5.4242  -999.2500
  127.0000   -54.9202   196.0781     6.4546     5.5351  -999.2500
  127.5000   -54.6855   198.3371     6.3908     5.6450  -999.2500
  128.0000   -54.5899   199.1031     6.3903     5.7169  -999.2500
  128.5000   -54.3490   199.1250     6.3922     5.8189  -999.2500
  129.0000   -54.2470   199.3996     6.4195     5.9376  -999.2500
  129.5000   -54.2523   199.9069     6.4403     5.9831  -999.2500
  130.0000   -54.4596   199.4768     6.4493     6.1027  -999.2500
  130.5000   -54.7181   199.1940     6.4734     6.1553  -999.2500
  131.0000   -54.9374   199.2169     6.4781     6.1917  -999.2500
  131.5000   -55.1826   198.4865     6.4775     6.1500  -999.2500
  132.0000   -55.1879   198.5052     6.4607     6.1470  -999.2500
  132.5000   -55.1932   198.5270     6.4236     6.0094  -999.2500
  133.0000   -55.1988   198.5426     6.3557     5.9146  -999.2500
  133.5000   -55.0523   198.5614     6.3122     5.7896  -999.2500
  134.0000   -54.9055   198.5800     6.2627     5.6647  -999.2500
  134.5000   -54.7605   199.5254     6.2338     5.6077  -999.2500
  135.0000   -54.7652   200.8610     6.2334     5.5651  -999.2500
  135.5000   -54.6188   201.6255     6.2179     5.4402  -999.2500
  136.0000   -54.6242   202.3916     6.2175     5.2989  -999.2500
  136.5000   -54.5854   203.1606     6.2019     5.2966  -999.2500
  137.0000   -54.4833   203.9238     6.2015     5.2939  -999.2500
  137.5000   -54.4886   204.6898     6.1791     5.2913  -999.2500
  138.0000   -54.4687   205.1769     6.1554     5.2887  -999.2500
  138.5000   -54.3477   207.1587     6.1398     5.2860  -999.2500
  139.0000   -54.3530   209.2316     6.0637     5.2834  -999.2500
  139.5000   -54.3582   211.8797     6.0035     5.2808  -999.2500
  140.0000   -54.2121   214.7982     5.9639     5.2779  -999.2500
  140.5000   -54.2174   218.2576     5.9389     5.2756  -999.2500
  141.0000   -54.2230   219.7683     5.9268     5.2729  -999.2500
  141.5000   -54.2280   217.5149     5.9186     5.2698  -999.2500
  142.0000   -54.2333   214.3647     5.9427     5.3434  -999.2500
  142.5000   -54.2393   211.2045     5.9706     5.3401  -999.2500
  143.0000   -54.4586   208.6335     6.0321     5.4128  -999.2500
  143.5000   -54.8553   207.1263     6.1203     5.4242  -999.2500
  144.0000   -54.9616   204.8231     6.2028     5.5576  -999.2500
  144.5000   -55.1689   202.7119     6.2854     5.5553  -999.2500
  145.0000   -55.1745   201.6816     6.4201     5.5526  -999.2500
  145.5000   -55.1795   199.7372     6.4881     5.6247  -999.2500
  146.0000   -55.0328   198.0518     6.5591     5.7218  -999.2500
  146.5000   -55.0393   196.5956     6.6145     5.8454  -999.2500
  147.0000   -54.8924   194.5826     6.6562     5.8860  -999.2500
  147.5000   -54.8977   192.3082     6.7199     5.9909  -999.2500
  148.0000   -54.8020   189.8953     6.7783     5.9877  -999.2500
  148.5000   -54.5611   187.1661     6.8213     5.8761  -999.2500
  149.0000   -54.3078   185.0697     6.8834     5.7512  -999.2500
  149.5000   -54.2434   182.6570     6.9293     5.5285  -999.2500
