~VERSION INFORMATION
 VERS.                2.0:   CWLS LOG ASCII STANDARD - VERSION 2.0
 WRAP.                 NO:   ONE LINE PER DEPTH STEP
~WELL INFORMATION
#MNEM.UNIT      DATA TYPE    INFORMATION
#----------   ------------   ------------------------------
 STRT.F          672.0000:   START DEPTH
 STOP.F         2343.5000:   STOP DEPTH
 STEP.F            0.5000:   STEP LENGTH
 NULL.          -999.2500:   NO VALUE
 COMP. FENIX & SCISSON INC:   COMPANY
 WELL.   23 SHX-33 #23-33:   WELL
 FLD .             TEAPOT:   FIELD
 LOC .      S33 T39N R78W:   LOCATION
 CNTY.            NATRONA:   COUNTY
 STAT.            WYOMING:   STATE
 CTRY. UNITED STATES OF AMERICA:   COUNTRY
 SRVC.            Unknown:   SERVICE COMPANY
 DATE.        01-MAY-1978:   LOGDATE
 API .       490251062700:   API NUMBER
~CURVE INFORMATION
#MNEM.UNIT       API CODE    CURVE DESCRIPTION
#----------   ------------   ------------------------------
 DEPT.F                  :   
 IL  .OHMM   05 120 00 00:   INDUCTION LOG
 CIL .MMHO   05 110 00 00:   CONDUCTIVITY INDUCTION LOG
 CALD.IN     45 280 60 00:   CALIPER FROM DENSITY LOG
 GRD .GAPI   45 310 01 00:   GAMMA RAY FROM DENSITY LOG
 DPHI.DEC    45 890 12 00:   DENSITY POROSITY SANDSTONE
 RHOB.G/C3   45 350 01 00:   BULK DENSITY
 CORR.G/C3   45 356 01 00:   DENSITY CORRECTION
~PARAMETER INFORMATION
#MNEM.UNIT          VALUE    DESCRIPTION
#----------   ------------   ------------------------------
 PD  .                 GL:   PERMANENT DATUM
 EPD .F              5163:   ELEVATION PERMANENT DATUM
 LMF .                 KB:   LOG MEASURED FROM
 DAPD.F                10:   FEET ABOVE PERMANENT DATUM
 DMF .                 KB:   DRILLING MEASURED FROM
 EKB .F              5173:   KELLING BUSHING
 EGL .F              5163:   GROUND LEVEL
 DATE.           5-1-1978:   RUN DATE
 RUN .                  1:   RUN NUMBER
 DD  .F              2331:   DEPTH DRILLER
 DL  .F              2260:   DEPTH LOGGER
 BLI .F              2250:   BOTTOM LOG INTERVAL
 TLI .F               690:   TOP LOG INTERVAL
 CS  .IN            9.625:   CASING SIZE
 CBD .F               683:   CASING BOTTOM DRILLER
 CBL .F               690:   CASING BOTTOM LOGGER
 BS  .IN             8.75:   BIT SIZE
 BSD .F              2331:   BIT SIZE AT DEPTH
 DFT .                OIL:   DRILLING FLUID TYPE
 BHT .F               104:   BOTTOM HOLE TEMPERATURE
 TCS .HRS               5:   TIME CURCULATED STOPPED
 MRT .F               104:   MAXIMUM RECORDED TEMPERATURE
 LUN .               2958:   LOGGING UNIT NUMBER
 LUL .               CASP:   LOGGING UNIT LOCATION
 ENGI.             MILLER:   RECORDING ENGINEER
 WITN.           MCGINLEY:   WITNESSED BY
 CLNT.            A2DTECH:   CLIENT CODE
 ORIG.       2", 5" PRINT:   ORIGIN OF DATA
 UWI .       490251062700:   UNIQUE WELL ID
 DICO. A2D Technologies, Inc.:   DIGITIZING COMPANY
~OTHER INFORMATION
~A   DEPT       IL        CIL       CALD         GRD      DPHI       RHOB       CORR   
# ...
 1081.5000     8.2944   111.6162    10.3843   132.5293     0.0094     2.5354     0.0371
 1082.0000     8.2884   111.6162    10.3893   130.8039     0.0071     2.5320     0.0389
 1082.5000     8.2514   111.8718    10.4324   125.4822     0.0042     2.5361     0.0407
 1083.0000     8.2148   112.2871    10.4815   122.9069     0.0061     2.5417     0.0425
 1083.5000     8.1781   112.7028    10.5308   123.8494    -0.0004     2.5378     0.0443
 1084.0000     8.1414   113.1185    10.5802   124.5618    -0.0063     2.5367     0.0462
 1084.5000     8.1048   113.5341    10.6298   123.0460    -0.0048     2.5459     0.0472
 1085.0000     8.0681   113.9497    10.6750   121.6105    -0.0031     2.5548     0.0458
 1085.5000     8.0314   114.3653    10.6748   120.0135    -0.0031     2.5550     0.0430
 1086.0000     7.9948   114.7809    10.6952   114.8221    -0.0038     2.5530     0.0399
 1086.5000     7.9582   115.1964    10.6957   109.8589    -0.0046     2.5520     0.0366
 1087.0000     7.9389   115.6120    10.6960   109.6086    -0.0055     2.5546     0.0334
 1087.5000     7.9372   115.8515    10.6970   120.6849    -0.0041     2.5579     0.0333
 1088.0000     7.9354   116.0667    10.6514   124.3888     0.0027     2.5558     0.0341
 1088.5000     7.9337   116.2833    10.5970   116.3543     0.0096     2.5440     0.0359
 1089.0000     7.9320   116.4999    10.5574   114.2835     0.0132     2.5325     0.0377
 1089.5000     7.9303   116.7165    10.5381   113.3229     0.0132     2.5271     0.0396
 1090.0000     7.9285   116.9332    10.5582   107.1325     0.0132     2.5271     0.0414
 1090.5000     7.9268   117.1498    10.5569   101.5275     0.0203     2.5234     0.0432
 1091.0000     7.9251   117.3664    10.5566   100.4874     0.0247     2.5173     0.0451
 1091.5000     7.9234   117.5831    10.5567    99.6322     0.0202     2.5110     0.0469
 1092.0000     7.9216   117.3655    10.5565   100.9840     0.0145     2.5064     0.0481
 1092.5000     7.9199   116.8396    10.5520   103.2336     0.0088     2.5245     0.0524
 1093.0000     7.9182   116.3016    10.5475   105.5120     0.0032     2.5242     0.0566
 1093.5000     7.9165   115.7650    10.5429   107.6763    -0.0025     2.5334     0.0608
 1094.0000     7.9147   116.0391    10.5400   108.0352    -0.0055     2.5600     0.0650
 1094.5000     7.9130   116.5187    10.5162   108.0458    -0.0047     2.5695     0.0561
 1095.0000     7.9113   116.9983    10.4950   106.9606    -0.0014     2.5570     0.0417
 1095.5000     7.9096   117.4779    10.3931   105.8714     0.0022     2.5572     0.0391
 1096.0000     7.9078   117.9575    10.1982   105.4879     0.0058     2.5489     0.0404
 1096.5000     7.9061   118.4371    10.0993   105.2899     0.0080     2.5396     0.0525
 1097.0000     7.9044   118.9167    10.0993   105.2785     0.0069     2.5330     0.0653
 1097.5000     7.9027   119.3963    10.0993   105.3215     0.0037     2.5333     0.0781
 1098.0000     7.9009   119.8759    10.0994   107.7690     0.0003     2.5375     0.0908
 1098.5000     7.8996   120.3555    10.0994   114.4928     0.0001     2.5419     0.0835
 1099.0000     7.8750   120.8351    10.0994   120.2888     0.0031     2.5460     0.0739
 1099.5000     7.8407   121.3147    10.0995   122.1670     0.0061     2.5463     0.0652
 1100.0000     7.8059   121.7943    10.0993   121.9727     0.0092     2.5380     0.0679
 1100.5000     7.7710   122.2739    10.0858   120.6963    -0.0114     2.5289     0.0802
 1101.0000     7.7363   122.7535    10.0706   114.5971    -0.0049     2.5472     0.0824
 1101.5000     7.7015   123.2331    10.0554   113.7251     0.0025     2.5631     0.0777
 1102.0000     7.6667   123.7374    10.0415   115.1340     0.0025     2.5554     0.0729
 1102.5000     7.6319   122.8558     9.9897   116.0341     0.0017     2.5480     0.0680
 1103.0000     7.5972   121.9140     9.9253   115.8688     0.0037     2.5430     0.0665
 1103.5000     7.5624   122.4859     9.9135   107.8591     0.0116     2.5430     0.0651
 1104.0000     7.5276   123.4704     9.9436   103.6976     0.0176     2.5376     0.0637
 1104.5000     7.4928   124.4620     9.9601   108.3576     0.0084     2.5208     0.0623
 1105.0000     7.4580   125.4513     9.9478   113.4078     0.0088     2.5256     0.0609
 1105.5000     7.4233   126.4405     9.9214   117.4367     0.0151     2.5305     0.0595
 1106.0000     7.3885   127.4298     9.8951   119.5674     0.0232     2.5300     0.0581
 1106.5000     7.3537   127.8059     9.8688   123.5330     0.0225     2.5157     0.0571
 1107.0000     7.3189   127.8492     9.8365   123.8932     0.0205     2.5083     0.0570
 1107.5000     7.2840   127.8925     9.8501   117.1824     0.0177     2.5085     0.0631
 1108.0000     7.2528   127.9358     9.8875   109.1704     0.0112     2.5169     0.0703
 1108.5000     7.2508   127.9791     9.9257   101.2820     0.0069     2.5258     0.0775
 1109.0000     7.2491   128.0224     9.9638   103.9150     0.0053     2.5279     0.0847
 1109.5000     7.2473   128.0657     9.9993   106.8347     0.0008     2.5267     0.0919
 1110.0000     7.2455   128.1091    10.0002   107.6435    -0.0036     2.5444     0.0919
 1110.5000     7.2438   128.1524    10.0001   110.0754    -0.0063     2.5616     0.0754
 1111.0000     7.2420   128.1957     9.9998   113.4690    -0.0076     2.5630     0.0573
 1111.5000     7.2402   128.2390     9.9848   115.0150    -0.0087     2.5554     0.0408
 1112.0000     7.2384   128.2823     9.9341   115.3738    -0.0097     2.5506     0.0413
 1112.5000     7.2366   128.3256     9.9079   117.5229    -0.0108     2.5562     0.0388
 1113.0000     7.2348   128.3689     9.9642   125.1966    -0.0114     2.5615     0.0355
 1113.5000     7.2330   128.4123    10.0180   132.8280    -0.0091     2.5647     0.0322
 1114.0000     7.2312   128.4556    10.0167   129.7050    -0.0110     2.5611     0.0290
 1114.5000     7.2294   128.4989    10.0071   124.2256    -0.0114     2.5603     0.0257
 1115.0000     7.2276   128.5422     9.9978   119.1327    -0.0066     2.5638     0.0224
 1115.5000     7.2258   128.5855     9.9886   119.0134    -0.0011     2.5649     0.0191
 1116.0000     7.2240   128.6288     9.9794   121.3928     0.0043     2.5628     0.0158
 1116.5000     7.2222   128.6721     9.9702   121.4086     0.0061     2.5554     0.0134
 1117.0000     7.2204   128.7155     9.9610   115.0042     0.0069     2.5482     0.0136
 1117.5000     7.2186   128.7588     9.9518   111.7180     0.0072     2.5394     0.0143
 1118.0000     7.2168   128.4211     9.9426   112.3914     0.0045     2.5360     0.0149
 1118.5000     7.2150   127.3030     9.9334   113.2247     0.0028     2.5368     0.0156
 1119.0000     7.2135   126.1850     9.9241   113.0087     0.0048     2.5380     0.0162
 1119.5000     7.2136   125.0669     9.9210   112.8070     0.0069     2.5391     0.0169
 1120.0000     7.2536   123.9489     9.9364   112.6050     0.0072     2.5372     0.0175
 1120.5000     7.3219   122.8308     9.9527   112.1576     0.0070     2.5348     0.0182
 1121.0000     7.4682   121.7172     9.9684   110.4957     0.0067     2.5324     0.0188
 1121.5000     7.6186   118.2963     9.9660   106.0835     0.0064     2.5346     0.0192
 1122.0000     7.8007   114.8889     9.9011   101.6973     0.0086     2.5351     0.0220
 1122.5000     8.0284   111.4815     9.8360    99.9102     0.0099     2.5310     0.0258
 1123.0000     8.2576   108.0741     9.8343   100.5092     0.0005     2.5300     0.0295
 1123.5000     8.4870   102.3394     9.8525   100.8053    -0.0003     2.5369     0.0330
 1124.0000     8.7164    96.2061     9.8604   102.7846     0.0001     2.5437     0.0353
 1124.5000     8.9460    95.4546     9.8462   109.7334     0.0013     2.5480     0.0314
 1125.0000     9.1747    95.4546     9.8308   116.7314     0.0026     2.5450     0.0274
 1125.5000     9.4048    95.4546     9.8154   119.9708     0.0060     2.5440     0.0233
 1126.0000     9.5132    95.4546     9.8000   118.8088     0.0113     2.5463     0.0194
 1126.5000     9.5153    95.4546     9.7846   117.4546     0.0132     2.5361     0.0197
