~VERSION INFORMATION
 VERS.                2.0:   CWLS LOG ASCII STANDARD - VERSION 2.0
 WRAP.                 NO:   ONE LINE PER DEPTH STEP
~WELL INFORMATION
#MNEM.UNIT      DATA TYPE    INFORMATION
#----------   ------------   ------------------------------
 STRT.F            8.0000:   START DEPTH
 STOP.F         1010.0000:   STOP DEPTH
 STEP.F            0.5000:   STEP LENGTH
 NULL.          -999.2500:   NO VALUE
 COMP.          U.S. NAVY:   COMPANY
 WELL. RES 3 TEAPOT DOM #47S-35:   WELL
 FLD .             TEAPOT:   FIELD
 LOC .      S35 T39N R78W:   LOCATION
 CNTY.            NATRONA:   COUNTY
 STAT.            WYOMING:   STATE
 CTRY. UNITED STATES OF AMERICA:   COUNTRY
 SRVC.      NL McCullough:   SERVICE COMPANY
 DATE.        12-NOV-1958:   LOGDATE
 API .       490250650800:   API NUMBER
~CURVE INFORMATION
#MNEM.UNIT       API CODE    CURVE DESCRIPTION
#----------   ------------   ------------------------------
 DEPT.F                  :   
 GRN .GAPI   35 310 01 00:   GAMMA RAY
 NEUT.NAPI   35 330 01 00:   NEUTRON
~PARAMETER INFORMATION
#MNEM.UNIT          VALUE    DESCRIPTION
#----------   ------------   ------------------------------
 PD  .                 GL:   PERMANENT DATUM
 EPD .F             51891:   ELEVATION PERMANENT DATUM
 DATE.        11-NOV-1959:   RUN DATE
 RUN .                  1:   RUN NUMBER
 BLI .F              1004:   BOTTOM LOG INTERVAL
 CS  .IN            8.625:   CASING SIZE
 WITN.             MARTNE:   WITNESSED BY
 CLNT.            A2DTECH:   CLIENT CODE
 ORIG.         2.5" PRINT:   ORIGIN OF DATA
 UWI .       490250650800:   UNIQUE WELL ID
 DICO. A2D Technologies, Inc.:   DIGITIZING COMPANY
~OTHER INFORMATION
~A    DEPT     GRN       NEUT   
# ...
  251.0000     5.2133   204.6623
  251.5000     5.2521   197.3239
  252.0000     5.2207   190.7046
  252.5000     5.0811   186.2943
  253.0000     4.9635   183.7020
  253.5000     4.9223   187.9085
  254.0000     4.9013   202.1290
  254.5000  -999.2500   206.9340
  255.0000  -999.2500   208.8706
  255.5000  -999.2500  -999.2500
  256.0000  -999.2500  -999.2500
  256.5000  -999.2500  -999.2500
  257.0000  -999.2500  -999.2500
  257.5000  -999.2500  -999.2500
  258.0000  -999.2500  -999.2500
  258.5000  -999.2500  -999.2500
  259.0000  -999.2500  -999.2500
  259.5000  -999.2500  -999.2500
  260.0000  -999.2500  -999.2500
  260.5000  -999.2500  -999.2500
  261.0000  -999.2500  -999.2500
  261.5000  -999.2500  -999.2500
  262.0000  -999.2500  -999.2500
  262.5000  -999.2500  -999.2500
  263.0000  -999.2500  -999.2500
  263.5000  -999.2500   204.8497
  264.0000  -999.2500   202.4887
  264.5000     5.5409   200.7970
  265.0000     5.6221   198.8746
  265.5000     5.6425   198.8831
  266.0000     5.6427   197.8611
  266.5000     5.6227   196.0096
  267.0000     5.5621   192.5787
  267.5000     5.5016   188.7181
  268.0000     5.4607   185.7371
  268.5000     5.3768   183.1872
  269.0000     5.2932   180.1960
  269.5000     5.1924   176.4552
  270.0000     5.1138   171.9647
  270.5000     5.0676   169.7232
  271.0000     4.9908   168.2312
  271.5000     4.9293   168.2385
  272.0000     4.8959   166.7466
  272.5000     4.9049   166.0043
  273.0000     4.9360   165.0824
  273.5000     5.0084   162.7611
  274.0000     5.0703   159.8601
  274.5000     5.1602   156.7392
  275.0000     5.1807   151.2993
  275.5000     5.2214   146.1495
  276.0000     5.2418   140.6596
  276.5000     5.2825   139.0780
  277.0000     5.2857   140.2449
  277.5000     5.2424   142.0929
  278.0000     5.1413   142.1002
  278.5000     5.0808   139.8586
  279.0000     5.0000   138.3658
  279.5000     4.9799   133.1266
  280.0000     5.0031   127.1369
  280.5000     5.0650   123.3961
  281.0000     5.1315   121.1544
  281.5000     5.1888   121.9716
  282.0000     5.2240   128.1558
  282.5000     5.2167   132.4208
  283.0000     5.1469   125.8722
  283.5000     4.9459   117.4738
  284.0000     4.7588   112.7336
  284.5000     4.7187   114.7501
  285.0000     4.7392   122.2643
  285.5000     4.8609   132.7361
  286.0000     4.9826   138.1211
  286.5000     5.0233   142.2264
  287.0000     5.0640   139.2368
  287.5000     5.0845   138.4933
  288.0000     5.1657   137.0025
  288.5000     5.2468   137.0098
  289.0000     5.3483   137.0171
  289.5000     5.4927   137.0244
  290.0000     5.6525   137.7813
  290.5000     5.6504   139.2879
  291.0000     5.5589   139.3553
  291.5000     5.4094   141.6917
  292.0000     5.2172   144.7776
  292.5000     4.9791   147.8636
  293.0000     4.9924   150.7597
  293.5000     5.1064   153.2859
  294.0000     5.2264   155.3523
  294.5000     5.3199   156.5892
  295.0000     5.3305   158.0460
  295.5000     5.1419   166.8590
  296.0000     5.0879   175.8920
  296.5000     5.0815   181.3582
  297.0000     5.0883   189.6114
  297.5000     5.0932   192.6172
  298.0000     5.1090   193.3741
  298.5000     5.1092   181.3874
  299.0000     5.1499   170.8999
  299.5000     5.2513   167.9087
  300.0000     5.3325   165.6672
  300.5000     5.2923   166.6147
  301.0000     5.2648   165.6827
  301.5000     5.1916   155.1951
  302.0000     5.2678   148.2959
  302.5000     5.3529   135.1951
  303.0000     5.4064   114.6879
  303.5000     5.4157   105.7486
  304.0000     5.4160   112.1144
  304.5000     5.4163   122.1866
  305.0000     5.3760   128.1359
  305.5000     5.1738   134.2666
  306.0000     5.2689   132.7745
  306.5000     5.6083   118.5388
  307.0000     5.7542   118.5460
  307.5000     5.8312   115.5547
  308.0000     5.7742   114.8122
  308.5000     5.5402   114.9675
  309.0000     5.4797   119.4355
  309.5000     5.4598   127.3061
  310.0000     5.4601   134.6326
  310.5000     5.3794   137.4238
  311.0000     5.1974   139.5965
  311.5000     5.1977   140.3533
  312.0000     5.2231   135.8627
  312.5000     5.2861   125.3751
  313.0000     5.2999   116.3072
  313.5000     5.3002    97.2913
  314.0000     5.2803    91.6635
  314.5000     5.2604    96.4565
  315.0000     5.2404   100.9495
  315.5000     5.2204   102.1814
  316.0000     5.1802   101.0295
  316.5000     5.0129    98.4496
  317.0000     4.5355    96.9575
  317.5000     4.4318    90.2180
  318.0000     4.4946    90.9749
  318.5000     4.6423    97.7286
  319.0000     4.7476   102.3639
  319.5000     4.7976   104.6226
  320.0000     4.7574   104.2979
  320.5000     4.7172    99.9550
  321.0000     4.6973    94.5129
  321.5000     4.7178    85.3225
  322.0000     5.0688    76.0433
  322.5000     5.1518    71.5527
  323.0000     5.2047    65.5629
  323.5000     5.0222    61.0723
  324.0000     4.8611    54.3329
  324.5000     4.8962    53.5904
  325.0000     5.1655    59.3452
  325.5000     5.3075    65.2349
  326.0000     5.2268    67.3663
  326.5000     5.2068    66.5542
  327.0000     5.2072    58.0460
  327.5000     5.2075    52.8874
  328.0000     5.1287    49.8961
  328.5000     5.0663    43.1567
  329.0000     5.1644    35.6676
  329.5000     5.2087    34.1755
  330.0000     5.1685    34.2328
  330.5000     5.1485    37.7761
  331.0000     5.1084    44.6827
  331.5000     5.0681    57.4662
  332.0000     4.9874    75.4322
  332.5000     4.9445    84.8827
  333.0000     4.9038    94.1993
  333.5000     4.8668   100.2035
  334.0000     4.8469   106.2077
  334.5000     4.8180   109.9630
  335.0000     4.7760   112.9686
  335.5000     4.7264   118.4357
  336.0000     4.6659   127.7762
  336.5000     4.6055   134.5127
  337.0000     4.4437   135.4861
  337.5000     4.4845    92.6397
  338.0000     4.6930    53.7334
  338.5000     4.8280    48.2509
  339.0000     5.0808    50.0611
  339.5000     5.2096    50.2349
  340.0000     5.3055    32.8341
  340.5000     5.4114    31.3418
  341.0000     5.4992    35.2374
  341.5000     5.5602    38.9556
  342.0000     5.6213    37.6012
  342.5000     5.6418    33.6581
  343.0000     5.6826    32.1275
  343.5000     5.6602    38.1086
  344.0000     5.6427    47.8875
  344.5000     5.6430    39.6488
  345.0000     5.7122    31.4101
  345.5000     5.7749    28.4188
  346.0000     5.8870    42.6689
  346.5000     5.9545    49.4227
  347.0000     5.8066    40.4247
  347.5000     5.6449    32.1956
  348.0000     5.4629    36.5817
  348.5000     5.3811    76.7116
  349.0000     5.3622    82.4638
  349.5000     5.4533    74.6102
  350.0000     5.5654    65.2186
  350.5000     5.6726    56.9799
  351.0000     5.7385    55.4878
  351.5000     5.7081    54.7451
  352.0000     5.6476    53.2533
  352.5000     5.5669    52.5108
  353.0000     5.5469    53.7331
  353.5000     5.5473    56.9415
  354.0000     5.5476    59.2790
  354.5000     5.5514    48.1135
  355.0000     5.5684    37.8062
  355.5000     5.6238    26.3206
  356.0000     5.6997    25.5772
  356.5000     5.7111    25.5853
  357.0000     5.4077    27.0917
  357.5000     5.3270    28.6608
  358.0000     5.3070    37.2513
  358.5000     5.2871    57.0862
  359.0000     5.2466    62.3538
  359.5000     5.2045    58.1360
  360.0000     5.1664    45.7768
  360.5000     5.1608    29.0605
  361.0000     5.1390    48.1422
  361.5000     5.0969    54.8960
  362.0000     5.0751    47.4069
  362.5000     5.0667    27.9238
  363.0000     5.1278    31.7537
  363.5000     5.2496    48.6133
  364.0000     5.3714    55.6815
  364.5000     5.4349    37.5539
  365.0000     5.6312    18.9642
  365.5000     5.7368    39.1657
  366.0000     5.7177    47.7362
  366.5000     5.6361    24.2367
  367.0000     5.7175    26.4927
  367.5000     5.3938    33.9962
  368.0000     5.2929    63.2387
  368.5000     5.2324    72.2414
  369.0000     5.2732    76.1269
  369.5000     5.3342    79.6651
  370.0000     5.3575    89.8054
  370.5000     5.4385   101.3444
  371.0000     5.5781   100.1604
  371.5000     5.5714    82.3412
  372.0000     5.5447    47.5576
