~VERSION INFORMATION
 VERS.                2.0:   CWLS LOG ASCII STANDARD - VERSION 2.0
 WRAP.                 NO:   ONE LINE PER DEPTH STEP
~WELL INFORMATION
#MNEM.UNIT      DATA TYPE    INFORMATION
#----------   ------------   ------------------------------
 STRT.F           36.0000:   START DEPTH
 STOP.F          564.0000:   STOP DEPTH
 STEP.F            0.5000:   STEP LENGTH
 NULL.          -999.2500:   NO VALUE
 COMP.    FENIX & SCISSON:   COMPANY
 WELL.        NPR #73-S-3:   WELL
 FLD .             TEAPOT:   FIELD
 LOC .       S3 T38N R78W:   LOCATION
 CNTY.            NATRONA:   COUNTY
 STAT.            WYOMING:   STATE
 CTRY. UNITED STATES OF AMERICA:   COUNTRY
 SRVC.       Schlumberger:   SERVICE COMPANY
 DATE.        19-FEB-1977:   LOGDATE
 API .       490251027900:   API NUMBER
~CURVE INFORMATION
#MNEM.UNIT       API CODE    CURVE DESCRIPTION
#----------   ------------   ------------------------------
 DEPT.F                  :   
 SPR .MV     07 010 01 00:   SPONTANEOUS POTENTIAL
 ILD .OHMM   07 120 46 00:   INDUCTION LOG DEEP
 ILM .OHMM   07 120 44 00:   INDUCTION LOG MEDIUM
 LL8 .OHMM   07 220 08 00:   LATEROLOG-8 RES.
 CALD.IN     45 280 60 00:   CALIPER FROM DENSITY LOG
 CORR.G/C3   45 356 01 00:   DENSITY CORRECTION
 RHOB.G/C3   45 350 01 00:   BULK DENSITY
 DPHI.DEC    45 890 12 00:   DENSITY POROSITY SANDSTONE
 GRD .GAPI   45 310 01 00:   GAMMA RAY FROM DENSITY LOG
~PARAMETER INFORMATION
#MNEM.UNIT          VALUE    DESCRIPTION
#----------   ------------   ------------------------------
 PD  .                 GL:   PERMANENT DATUM
 EPD .F              5128:   ELEVATION PERMANENT DATUM
 LMF .                 GL:   LOG MEASURED FROM
 DAPD.F                 5:   FEET ABOVE PERMANENT DATUM
 DMF .                 KB:   DRILLING MEASURED FROM
 EKB .F              5133:   KELLING BUSHING
 EGL .F              5128:   GROUND LEVEL
 DATE.        19-FEB-1977:   RUN DATE
 RUN .                  1:   RUN NUMBER
 DD  .F               570:   DEPTH DRILLER
 DL  .F               565:   DEPTH LOGGER
 BLI .F               564:   BOTTOM LOG INTERVAL
 TLI .F                36:   TOP LOG INTERVAL
 CS  .IN            8.625:   CASING SIZE
 CBD .F                40:   CASING BOTTOM DRILLER
 CBL .F                41:   CASING BOTTOM LOGGER
 BS  .IN            7.875:   BIT SIZE
 BSD .F               570:   BIT SIZE AT DEPTH
 DFT .                FGM:   DRILLING FLUID TYPE
 DFD .                8.9:   DRILLING FLUID DENSITY
 DFV .                 31:   DRILLING FLUID VISCOSITY
 DFPH.                8.2:   DRILLING FLUID PH
 DFL .                9.2:   DRILLING FLUID LOSS
 MSS .            MUD PIT:   MUD SAMPLE SOURCE
 RMS .OHMM           .244:   RESISTIVITY MUD SAMPLE
 MST .F                78:   MUD SAMPLE TEMPERATURE
 RMF .OHMM           .233:   RESISTIVITY MUD FILTRATE SAMPLE
 MFST.F                68:   MUD FILTRATE SAMPLE TEMPERATURE
 RMC .OHMM            .36:   RESISTIVITY MUD CAKE
 MCST.F                78:   MUD CAKE SAMPLE TEMPERATURE
 MFSS.               MEAS:   MUD FILTRATE SAMPLE SOURCE
 MCSS.               CALC:   MUD CAKE SAMPLE SOURCE
 RMB .OHMM            .35:   RESISTIVITY MUD AT BHT
 BHT .F                55:   BOTTOM HOLE TEMPERATURE
 TCS .HRS               2:   TIME CURCULATED STOPPED
 MRT .F                55:   MAXIMUM RECORDED TEMPERATURE
 LUN .               7711:   LOGGING UNIT NUMBER
 LUL .               CSPR:   LOGGING UNIT LOCATION
 ENGI.                FIX:   RECORDING ENGINEER
 WITN.           VOORHEES:   WITNESSED BY
 CLNT.            A2DTECH:   CLIENT CODE
 ORIG.           5" PRINT:   ORIGIN OF DATA
 UWI .       490251027900:   UNIQUE WELL ID
 DICO. A2D Technologies, Inc.:   DIGITIZING COMPANY
~OTHER INFORMATION
~A   DEPT      SPR        ILD        ILM        LL8       CALD       CORR       RHOB       DPHI        GRD   
# ...
  437.5000   -43.8152    31.3961    20.4640    22.3247     8.2693     0.0336     2.3349     0.1886    81.8554
  438.0000   -44.0994    30.7701    19.9420    21.7312     8.2702     0.0434     2.3372     0.1874    83.2122
  438.5000   -44.3758    29.9600    20.7074    21.2993     8.2711     0.0404     2.3324     0.1961    84.2628
  439.0000   -44.3577    29.3677    22.1576    21.3110     8.2720     0.0262     2.3192     0.2024    84.8584
  439.5000   -44.1749    28.9810    22.7919    21.6178     8.2731     0.0232     2.3195     0.2030    85.1639
  440.0000   -43.8550    28.6043    24.0678    21.4814     8.2589     0.0203     2.3163     0.2042    85.4893
  440.5000   -43.8576    28.4275    25.6188    20.4835     8.2449     0.0173     2.3066     0.2093    85.7750
  441.0000   -44.1649    28.2518    27.0829    20.0765     8.2460     0.0143     2.3043     0.2128    83.8827
  441.5000   -44.7119    27.8893    27.6627    19.8132     8.2469     0.0204     2.3009     0.2098    81.3204
  442.0000   -44.6941    27.7162    27.1126    19.8258     8.2478     0.0347     2.3258     0.1974    82.8181
  442.5000   -44.3783    27.5450    26.7568    19.7008     8.2335     0.0407     2.3326     0.1917    85.2100
  443.0000   -44.0624    27.5644    26.7714    19.4424     8.2196     0.0348     2.3274     0.1986    86.4097
  443.5000   -43.7466    27.7738    26.9709    19.3198     8.1760     0.0348     2.3237     0.2007    86.4171
  444.0000   -43.5798    27.7928    27.1720    19.7331     8.1323     0.0333     2.3320     0.1961    84.4870
  444.5000   -43.5620    27.6203    26.8154    20.1553     8.1778     0.0251     2.3336     0.1919    84.6435
  445.0000   -43.3952    27.2558    26.4599    20.1663     8.2085     0.0214     2.3382     0.1919    84.2861
  445.5000   -43.2285    26.7230    25.5828    19.7655     8.2242     0.0244     2.3397     0.1876    83.9335
  446.0000   -43.0617    26.5578    24.9021    19.5063     8.2398     0.0282     2.3458     0.1837    83.0850
  446.5000   -42.8949    26.7601    23.9084    19.2505     8.1665     0.0313     2.3444     0.1861    80.4337
  447.0000   -42.7281    26.5941    23.7542    18.9981     8.0930     0.0306     2.3415     0.1885    79.4632
  447.5000   -42.7103    26.4297    23.2850    19.1396     8.0490     0.0291     2.3370     0.1906    80.8137
  448.0000   -42.6925    25.9116    22.8219    19.1500     8.0201     0.0321     2.3506     0.1827    84.0998
  448.5000   -42.5257    25.5748    22.5193    18.6409     8.1265     0.0307     2.3394     0.1884    84.7033
  449.0000   -42.5080    25.0692    22.0745    18.6511     8.2200     0.0262     2.3357     0.1905    83.3694
  449.5000   -42.3412    24.5694    21.7818    18.7900     8.2634     0.0360     2.3538     0.1829    82.3318
  450.0000   -42.1744    24.3921    21.5618    18.8003     8.2469     0.0390     2.3576     0.1772    82.8428
  450.5000   -42.1586    24.0846    19.8089    18.4269     8.2327     0.0319     2.3577     0.1775    83.5252
  451.0000   -42.7400    23.7817    20.0956    17.8154     8.2237     0.0234     2.3570     0.1789    84.0060
  451.5000   -43.3213    23.6315    21.0998    17.2848     8.2551     0.0189     2.3555     0.1795    84.0195
  452.0000   -43.7536    23.6448    21.5530    18.8474     8.2274     0.0190     2.3669     0.1714    83.2878
  452.5000   -44.0369    23.3339    20.8371    19.7203     8.2137     0.0220     2.3692     0.1671    84.9406
  453.0000   -44.3202    22.6851    19.0664    18.1094     8.2004     0.0296     2.4121     0.1487    87.1895
  453.5000   -44.4581    22.1108    17.6879    16.8573     8.1429     0.0402     2.4272     0.1340    89.7365
  454.0000   -44.5924    21.8204    17.3346    16.5815     8.0998     0.0485     2.4062     0.1379    90.6441
  454.5000   -44.7266    21.8323    17.7096    16.5917     8.1014     0.0500     2.3845     0.1607    91.4027
  455.0000   -45.0099    21.8443    17.9660    16.7164     8.1031     0.0418     2.3650     0.1685    91.8632
  455.5000   -45.2895    21.8562    18.1011    16.8420     8.1047     0.0306     2.3523     0.1760    92.3238
  456.0000   -45.4274    22.0192    18.1122    16.9686     8.1809     0.0209     2.3463     0.1844    91.2940
  456.5000   -45.5617    21.5810    17.9991    16.9790     8.2719     0.0157     2.3374     0.1913    88.0288
  457.0000   -45.6959    20.7191    17.8839    16.3030     8.2736     0.0135     2.3314     0.1964    88.3403
  457.5000   -45.6775    19.7552    17.6531    15.5467     8.2603     0.0136     2.3285     0.1906    91.0363
  458.0000   -45.6627    19.0973    16.8336    15.1344     8.2466     0.0159     2.3406     0.1858    91.4968
  458.5000   -45.9460    18.4612    16.3866    15.3533     8.2632     0.0167     2.3466     0.1864    91.5103
  459.0000   -46.0805    18.2188    16.2621    15.5753     8.2539     0.0160     2.3497     0.1812    89.7353
  459.5000   -46.0654    17.8562    16.9810    15.1622     8.2456     0.0205     2.3603     0.1764    86.7682
  460.0000   -46.0507    17.5008    16.0817    14.4589     8.2383     0.0273     2.3648     0.1718    87.3777
  460.5000   -46.0358    17.0348    15.2266    13.6937     8.2403     0.0259     2.3829     0.1628    89.3286
  461.0000   -45.8718    16.5812    15.3447    13.7966     8.2419     0.0192     2.3837     0.1600    89.9381
  461.5000   -45.6930    16.2511    15.1442    14.0927     8.2436     0.0230     2.3921     0.1570    89.0574
  462.0000   -45.3949    15.8184    14.8307    14.0047     8.2452     0.0283     2.3960     0.1543    87.7296
  462.5000   -45.2310    15.6085    14.3349    13.6333     8.2469     0.0306     2.3869     0.1603    86.9979
  463.0000   -45.0641    15.5099    13.9701    13.3633     8.2485     0.0382     2.4005     0.1539    86.4152
  463.5000   -45.0493    15.4137    13.7877    13.2799     8.2501     0.0412     2.4006     0.1530    86.4286
  464.0000   -45.0345    15.6363    13.7983    13.1970     8.2518     0.0555     2.3976     0.1524    88.0814
  464.5000   -45.1725    15.6448    13.4320    13.0248     8.2534     0.0653     2.4180     0.1364    89.7342
  465.0000   -45.4521    15.4394    13.0755    12.9435     8.2997     0.0669     2.4308     0.1330    90.7909
  465.5000   -45.8844    15.1321    12.7285    12.7746     8.3163     0.0422     2.4234     0.1363    91.9966
  466.0000   -46.3167    14.8309    12.5604    12.6949     8.3181     0.0250     2.4024     0.1510    92.6061
  466.5000   -46.8981    14.6361    12.3964    12.4874     8.3644     0.0258     2.4167     0.1453    92.6196
  467.0000   -47.3304    14.5436    12.3208    12.3667     8.3660     0.0243     2.4288     0.1329    91.4408
  467.5000   -47.9117    14.5516    12.3284    12.2054     8.4422     0.0221     2.4386     0.1272    90.5567
  468.0000   -48.6421    14.4597    12.4211    12.2551     8.4140     0.0222     2.4439     0.1266    91.0206
  468.5000   -49.0744    14.4678    12.4287    12.3896     8.3854     0.0215     2.4357     0.1280    90.8816
  469.0000   -49.3614    14.3762    12.4364    12.3132     8.3875     0.0223     2.4313     0.1307    90.8984
  469.5000   -49.4956    14.2854    12.3568    12.3207     8.4338     0.0223     2.4283     0.1352    91.8061
  470.0000   -49.6299    14.2951    12.1973    12.1600     8.4355     0.0216     2.4209     0.1376    92.8627
  470.5000   -49.7641    14.3029    12.0381    12.1674     8.3920     0.0239     2.4225     0.1376    93.3233
  471.0000   -49.7457    14.3108    12.0455    12.1749     8.3940     0.0330     2.4240     0.1357    92.5916
  471.5000   -49.7309    14.3186    12.0529    12.3510     8.4553     0.0390     2.4466     0.1234    91.8565
  472.0000   -49.7161    14.4254    12.0603    12.5296     8.4714     0.0383     2.4483     0.1206    92.6185
  472.5000   -49.5523    14.5330    12.1510    12.6238     8.3393     0.0151     2.4295     0.1308    94.5693
  473.0000   -49.2394    14.4392    12.1584    12.6316     8.2809     0.0137     2.4303     0.1338    97.4144
  473.5000   -48.9266    14.2515    12.1659    12.4667     8.2830     0.0190     2.4341     0.1305    99.0672
