~VERSION INFORMATION
 VERS.                2.0:   CWLS LOG ASCII STANDARD - VERSION 2.0
 WRAP.                 NO:   ONE LINE PER DEPTH STEP
~WELL INFORMATION
#MNEM.UNIT      DATA TYPE    INFORMATION
#----------   ------------   ------------------------------
 STRT.F            0.0000:   START DEPTH
 STOP.F          652.0000:   STOP DEPTH
 STEP.F            0.5000:   STEP LENGTH
 NULL.          -999.2500:   NO VALUE
 COMP. US DEPTMNT OF ENRGY:   COMPANY
 WELL. NPR ##3 14-14-SX-11:   WELL
 FLD .   TEAPOT NAVAL RES:   FIELD
 LOC .      S11 T38N R78W:   LOCATION
 CNTY.            NATRONA:   COUNTY
 STAT.            WYOMING:   STATE
 CTRY. UNITED STATES OF AMERICA:   COUNTRY
 SRVC.            Unknown:   SERVICE COMPANY
 DATE.        03-JAN-1985:   LOGDATE
 API .       490251102400:   API NUMBER
~CURVE INFORMATION
#MNEM.UNIT       API CODE    CURVE DESCRIPTION
#----------   ------------   ------------------------------
 DEPT.F                  :   
 CALD.IN     45 280 60 00:   CALIPER
 CORR.G/C3   45 356 01 00:   DENSITY CORRECTION
 PORD.DEC    45 890 12 00:   DENSITY POROSITY SANDSTONE
 CNC .DEC    42 890 03 00:   NEUTRON POROSITY SANDSTONE
 SPR .MV     11 010 01 00:   SPONTANEOUS POTENTIAL FROM RES.
 GRR .GAPI   11 310 01 00:   GAMMA RAY FROM RES.
 RS  .OHMM   11 220 09 00:   RESISTIVITY SHALLOW
 RD  .OHMM   11 220 10 00:   RESISTIVITY DEEP
 DEN .G/C3   45 350 01 00:   COMPENSATED BULK DENSTIY
~PARAMETER INFORMATION
#MNEM.UNIT          VALUE    DESCRIPTION
#----------   ------------   ------------------------------
 PD  .                 GL:   PERMANENT DATUM
 EPD .F            5197.3:   ELEVATION PERMANENT DATUM
 LMF .                 KB:   LOG MEASURED FROM
 DMF .                 KB:   DRILLING MEASURED FROM
 EKB .F            5197.3:   KELLING BUSHING
 EGL .F            5197.3:   GROUND LEVEL
 DATE.         3-JAN-1985:   RUN DATE
 RUN .                  1:   RUN NUMBER
 DD  .F               650:   DEPTH DRILLER
 DL  .F               653:   DEPTH LOGGER
 BLI .F               651:   BOTTOM LOG INTERVAL
 CS  .IN            8.625:   CASING SIZE
 CBD .F                20:   CASING BOTTOM DRILLER
 CBL .F                20:   CASING BOTTOM LOGGER
 BS  .IN             6.25:   BIT SIZE
 BSD .F               650:   BIT SIZE AT DEPTH
 DFT .                KCL:   DRILLING FLUID TYPE
 RMS .OHMM            .12:   RESISTIVITY MUD SAMPLE
 MST .F                70:   MUD SAMPLE TEMPERATURE
 RMF .OHMM            .09:   RESISTIVITY MUD FILTRATE SAMPLE
 MFST.F                70:   MUD FILTRATE SAMPLE TEMPERATURE
 RMC .OHMM            .15:   RESISTIVITY MUD CAKE
 MCST.F                70:   MUD CAKE SAMPLE TEMPERATURE
 MFSS.               CALC:   MUD FILTRATE SAMPLE SOURCE
 MCSS.               CALC:   MUD CAKE SAMPLE SOURCE
 RMB .OHMM             .1:   RESISTIVITY MUD AT BHT
 BHT .F                80:   BOTTOM HOLE TEMPERATURE
 TCS .HRS               3:   TIME CURCULATED STOPPED
 MRT .F                80:   MAXIMUM RECORDED TEMPERATURE
 LUN .               6274:   LOGGING UNIT NUMBER
 LUL .               GLTE:   LOGGING UNIT LOCATION
 ENGI.               MACK:   RECORDING ENGINEER
 WITN.               PAGE:   WITNESSED BY
 CLNT.            A2DTECH:   CLIENT CODE
 ORIG.       2", 5" PRINT:   ORIGIN OF DATA
 UWI .       490251102400:   UNIQUE WELL ID
 DICO. A2D Technologies, Inc.:   DIGITIZING COMPANY
~OTHER INFORMATION
~A    DEPT    CALD       CORR       PORD        CNC        SPR         GRR        RS         RD        DEN   
# ...
  146.0000     6.5269     0.0043     0.1338     0.2871   -58.7902   124.1634     9.0743    19.2382     2.4539
  146.5000     6.5270     0.0045     0.1334     0.2894   -58.9107   130.2777     8.7107    18.4536     2.4550
  147.0000     6.5272     0.0046     0.1327     0.2799   -59.0312   131.6617     8.3617    17.7404     2.4561
  147.5000     6.5273     0.0118     0.1314     0.2791   -59.1518   131.7063     8.1454    17.5547     2.4571
  148.0000     6.5274     0.0284     0.1317     0.2804   -59.2721   129.2139     8.0748    17.4261     2.4563
  148.5000     6.5276     0.0256     0.1318     0.2799   -59.3951   123.6419     8.0047    17.0986     2.4554
  149.0000     6.5277     0.0200     0.1304     0.2838   -59.3758   119.5425     7.9548    17.4736     2.4600
  149.5000     6.5278     0.0144     0.1262     0.2851   -59.2957   118.7031     8.3647    17.9111     2.4646
  150.0000     6.5280     0.0135     0.1216     0.2823   -59.2139   116.4207     8.7619    18.3596     2.4729
  150.5000     6.5281     0.0295     0.1169     0.2745   -59.1321   112.3860     9.1778    18.8193     2.4824
  151.0000     6.5282     0.0450     0.1119     0.2663   -59.0504   108.4281     9.5227    19.2905     2.4906
  151.5000     6.5284     0.0570     0.1128     0.2580   -58.9687   105.4510     9.6708    19.8165     2.4888
  152.0000     6.5285     0.0485     0.1160     0.2576   -58.8881   110.2487     9.8338    19.6498     2.4818
  152.5000     6.5286     0.0309     0.1191     0.2697   -58.8297   116.8889     9.7143    19.4688     2.4759
  153.0000     6.5288     0.0159     0.1202     0.2801   -58.8309   116.2052     9.5502    19.2894     2.4757
  153.5000     6.5289     0.0155     0.1206     0.2883   -58.8307   114.0141     9.3877    19.0990     2.4754
  154.0000     6.5290     0.0148     0.1204     0.2926   -58.8307   111.8392     9.2176    18.7990     2.4750
  154.5000     6.5292     0.0127     0.1185     0.2926   -58.8307   110.8186     9.2192    18.4812     2.4812
  155.0000     6.5293     0.0259     0.1145     0.2926   -58.8308   111.3240     9.2192    18.1688     2.4889
  155.5000     6.5294     0.0469     0.1082     0.2938   -58.8312   112.3265     9.2192    17.9053     2.4964
  156.0000     6.5296     0.0640     0.1055     0.2908   -58.8313   113.3203     9.2192    17.9433     2.5003
  156.5000     6.5297     0.0432     0.1072     0.2887   -58.8011   114.0599     9.2192    17.9763     2.4921
  157.0000     6.5299     0.0308     0.1116     0.2894   -58.5625   114.1707     9.2192    18.0098     2.4842
  157.5000     6.5300     0.0373     0.1176     0.2854   -58.3225   114.2977     9.2193    18.0431     2.4760
  158.0000     6.5301     0.0384     0.1216     0.2796   -58.0819   114.6151     9.2194    18.0825     2.4758
  158.5000     6.5303     0.0322     0.1193     0.2838   -57.8381   116.2012     9.2179    18.1524     2.4815
  159.0000     6.5304     0.0256     0.1169     0.2918   -57.7333   117.7808     9.4206    18.2225     2.4857
  159.5000     6.5305     0.0312     0.1143     0.2910   -57.6340   119.7050     9.5966    18.2928     2.4889
  160.0000     6.5307     0.0401     0.1124     0.2892   -57.5331   117.4571     9.7760    18.3625     2.4921
  160.5000     6.5308     0.0490     0.1103     0.2872   -57.4320   113.4350     9.9586    18.5248     2.4955
  161.0000     6.5309     0.0545     0.1081     0.2851   -57.4269   109.4575    10.1096    18.8329     2.4991
  161.5000     6.5311     0.0434     0.1059     0.2836   -57.4275   106.6361    10.1096    19.2759     2.5008
  162.0000     6.5312     0.0326     0.1077     0.2798   -57.4276   110.1390    10.1096    19.1320     2.4943
  162.5000     6.5313     0.0235     0.1133     0.2666   -57.4277   113.9269    10.1096    18.8920     2.4879
  163.0000     6.5315     0.0202     0.1159     0.2668   -57.4275   115.2481     9.9240    18.6550     2.4826
  163.5000     6.5316     0.0200     0.1117     0.2672   -57.4285   112.6477     9.8338    18.4210     2.4942
  164.0000     6.5318     0.0267     0.1048     0.2627   -57.3097   110.0820     9.8896    18.2385     2.5057
  164.5000     6.5319     0.0332     0.0979     0.2616   -57.0989   108.3700     9.9295    18.4442     2.5160
  165.0000     6.5320     0.0336     0.0968     0.2779   -56.8873   108.4014     9.9695    18.5780     2.5115
  165.5000     6.5321     0.0249     0.1038     0.2936   -56.6693   108.3905    10.0159    18.3424     2.5034
  166.0000     6.5323     0.0246     0.1076     0.2976   -56.6777   109.5989     9.8412    18.1144     2.4982
  166.5000     6.5324     0.0407     0.1070     0.2974   -56.7679   109.6833     9.6344    17.8893     2.4991
  167.0000     6.5326     0.0566     0.1064     0.2846   -56.8597   109.2664     9.4778    17.6669     2.5003
  167.5000     6.5327     0.0727     0.1084     0.2738   -56.9511   110.6153     9.4410    17.4473     2.4976
  168.0000     6.5328     0.0627     0.1107     0.2698   -57.0424   114.3048     9.4056    17.2305     2.4934
  168.5000     6.5330     0.0385     0.1131     0.2681   -57.1337   118.0807     9.3704    17.0154     2.4900
  169.0000     6.5331     0.0261     0.1120     0.2720   -57.2250   119.0804     9.3353    16.8250     2.4909
  169.5000     6.5332     0.0289     0.1108     0.2759   -57.3168   119.4113     9.3003    16.6453     2.4918
  170.0000     6.5334     0.0344     0.1085     0.2793   -57.4131   119.0735     9.2655    16.4795     2.4960
  170.5000     6.5335     0.0385     0.1054     0.2821   -57.2969   116.3371     9.2308    16.4796     2.5006
  171.0000     6.5336     0.0383     0.1022     0.2843   -57.1302   112.9178     9.2192    16.4796     2.5045
  171.5000     6.5338     0.0397     0.1048     0.2839   -56.9621   113.2932     9.3914    16.4815     2.5030
  172.0000     6.5339     0.0437     0.1088     0.2783   -56.7938   116.0362     9.4778    16.4820     2.4971
  172.5000     6.5340     0.0551     0.1103     0.2729   -56.6311   119.3708     9.3140    16.2037     2.4918
  173.0000     6.5342     0.0610     0.1107     0.2688   -56.6247   116.5967     9.1644    15.9911     2.4935
  173.5000     6.5343     0.0634     0.1080     0.2797   -56.6256   113.7278     9.0171    15.7811     2.4957
  174.0000     6.5345     0.0653     0.1015     0.2884   -56.6258   113.9304     8.8854    15.5927     2.5016
  174.5000     6.5346     0.0885     0.0955     0.2950   -56.6258   117.9589     8.9548    15.5490     2.5142
  175.0000     6.5347     0.1031     0.0940     0.2954   -56.6258   119.2980     9.0187    15.5089     2.5221
  175.5000     6.5349     0.0791     0.0971     0.2958   -56.6258   120.3690     9.0508    15.4697     2.5171
  176.0000     6.5350     0.0479     0.1004     0.2953   -56.6254   121.1179     8.9414    15.4257     2.5092
  176.5000     6.5351     0.0381     0.0988     0.2907   -56.6258   120.3765     8.8834    15.3489     2.5104
  177.0000     6.5353     0.0462     0.0998     0.2862   -56.6569   119.6680     9.0486    15.2723     2.5121
  177.5000     6.5354     0.0484     0.1040     0.2815   -56.8284   118.9905     8.9544    15.1961     2.5063
  178.0000     6.5355     0.0302     0.1081     0.2807   -57.0014   116.8128     8.8793    15.1203     2.4996
  178.5000     6.5357     0.0145     0.1120     0.2945   -56.9061   114.4056     8.8083    15.0446     2.4929
  179.0000     6.5358     0.0238     0.1142     0.3086   -56.7579   114.1804     8.8897    14.9689     2.4862
  179.5000     6.5359     0.0427     0.1148     0.3113   -56.6079   117.3891     8.8841    14.8903     2.4851
  180.0000     6.5361     0.0616     0.1124     0.3070   -56.4609   119.8814     8.8854    15.0117     2.4901
  180.5000     6.5362     0.0587     0.1096     0.3027   -56.3178   118.9053     8.8854    15.1426     2.4955
  181.0000     6.5363     0.0536     0.1105     0.2985   -56.4497   115.6693     8.9467    15.2745     2.4956
  181.5000     6.5365     0.0483     0.1119     0.2963   -56.5012   113.9829     9.1259    15.4077     2.4898
  182.0000     6.5366     0.0399     0.1108     0.2946   -56.5564   115.6594     9.3088    15.5420     2.4896
