~VERSION INFORMATION
 VERS.                2.0:   CWLS LOG ASCII STANDARD - VERSION 2.0
 WRAP.                 NO:   ONE LINE PER DEPTH STEP
~WELL INFORMATION
#MNEM.UNIT      DATA TYPE    INFORMATION
#----------   ------------   ------------------------------
 STRT.F           38.0000:   START DEPTH
 STOP.F          846.0000:   STOP DEPTH
 STEP.F            0.5000:   STEP LENGTH
 NULL.          -999.2500:   NO VALUE
 COMP. FENIX & SCISSON INC:   COMPANY
 WELL.    NPR 3 #34-SX-14:   WELL
 FLD .        TEAPOT DOME:   FIELD
 LOC .      S14 T38N R78W:   LOCATION
 CNTY.            NATRONA:   COUNTY
 STAT.            WYOMING:   STATE
 CTRY. UNITED STATES OF AMERICA:   COUNTRY
 SRVC.           BIRDWELL:   SERVICE COMPANY
 DATE.        26-APR-1978:   LOGDATE
 API .       490251063500:   API NUMBER
~CURVE INFORMATION
#MNEM.UNIT       API CODE    CURVE DESCRIPTION
#----------   ------------   ------------------------------
 DEPT.F                  :   
 NEUT.CPS    81 330 30 00:   NEUTRON
 TT  .US/F   81 520 00 00:   TRANSIT TIME
 GRD .GAPI   45 310 01 00:   GAMMA RAY FROM DENSITY LOG
 RHOB.G/C3   45 350 01 00:   BULK DENSITY
 DPOR.DEC    45 890 10 00:   DENSITY POROSITY
 CALD.IN     45 280 60 00:   CALIPER FROM DENSITY LOG
 CORR.G/C3   45 356 01 00:   DENSITY CORRECTION
~PARAMETER INFORMATION
#MNEM.UNIT          VALUE    DESCRIPTION
#----------   ------------   ------------------------------
 PD  .                 GL:   PERMANENT DATUM
 EPD .F              5232:   ELEVATION PERMANENT DATUM
 LMF .                 KB:   LOG MEASURED FROM
 DMF .                 KB:   DRILLING MEASURED FROM
 EKB .F              5236:   KELLING BUSHING
 EGL .F              5232:   GROUND LEVEL
 DATE.          4-26-1978:   RUN DATE
 RUN .                  1:   RUN NUMBER
 DD  .F               855:   DEPTH DRILLER
 DL  .F               853:   DEPTH LOGGER
 BLI .F               846:   BOTTOM LOG INTERVAL
 TLI .F                40:   TOP LOG INTERVAL
 CS  .IN            8.625:   CASING SIZE
 CBD .F                40:   CASING BOTTOM DRILLER
 CBL .F                40:   CASING BOTTOM LOGGER
 BS  .IN            7.875:   BIT SIZE
 BSD .F               855:   BIT SIZE AT DEPTH
 DFT .                KCL:   DRILLING FLUID TYPE
 DFD .                8.5:   DRILLING FLUID DENSITY
 DFV .                 31:   DRILLING FLUID VISCOSITY
 DFPH.                 10:   DRILLING FLUID PH
 DFL .               10.4:   DRILLING FLUID LOSS
 MSS .          FLUID PIT:   MUD SAMPLE SOURCE
 RMS .OHMM            .36:   RESISTIVITY MUD SAMPLE
 MST .F                68:   MUD SAMPLE TEMPERATURE
 RMF .OHMM            .28:   RESISTIVITY MUD FILTRATE SAMPLE
 MFST.F                74:   MUD FILTRATE SAMPLE TEMPERATURE
 RMC .OHMM            .48:   RESISTIVITY MUD CAKE
 MCST.F                79:   MUD CAKE SAMPLE TEMPERATURE
 MFSS.               MEAS:   MUD FILTRATE SAMPLE SOURCE
 RMB .OHMM            .33:   RESISTIVITY MUD AT BHT
 BHT .F                75:   BOTTOM HOLE TEMPERATURE
 TCS .HRS               1:   TIME CURCULATED STOPPED
 MRT .F                75:   MAXIMUM RECORDED TEMPERATURE
 LUN .               3006:   LOGGING UNIT NUMBER
 LUL .              CASP.:   LOGGING UNIT LOCATION
 ENGI.             MILLER:   RECORDING ENGINEER
 WITN.           MCGINLEY:   WITNESSED BY
 CLNT.            A2DTECH:   CLIENT CODE
 ORIG.      2" , 5" PRINT:   ORIGIN OF DATA
 UWI .       490251063500:   UNIQUE WELL ID
 DICO. A2D Technologies, Inc.:   DIGITIZING COMPANY
~OTHER INFORMATION
~A   DEPT     NEUT         TT         GRD      RHOB       DPOR       CALD       CORR   
   38.0000  -999.2500  -999.2500    78.5000  -999.2500  -999.2500  -999.2500  -999.2500
   38.5000  -999.2500  -999.2500    78.5000  -999.2500  -999.2500  -999.2500  -999.2500
   39.0000  -999.2500  -999.2500    78.0462  -999.2500  -999.2500  -999.2500  -999.2500
   39.5000  -999.2500  -999.2500    77.7530  -999.2500  -999.2500     7.9024  -999.2500
   40.0000  -999.2500  -999.2500    77.3827  -999.2500  -999.2500     7.8842  -999.2500
   40.5000  -999.2500  -999.2500    77.0135  -999.2500  -999.2500     7.8842  -999.2500
   41.0000  -999.2500  -999.2500    76.6447  -999.2500  -999.2500     7.8863  -999.2500
   41.5000  -999.2500  -999.2500    76.2759  -999.2500  -999.2500     7.8125  -999.2500
   42.0000  -999.2500  -999.2500    75.9071  -999.2500  -999.2500     7.7338  -999.2500
   42.5000  -999.2500  -999.2500    75.5385  -999.2500  -999.2500     7.7474  -999.2500
   43.0000  -999.2500  -999.2500    75.1681  -999.2500  -999.2500     7.9056  -999.2500
   43.5000  -999.2500  -999.2500    74.7958  -999.2500  -999.2500     8.0507    -0.1977
   44.0000  -999.2500  -999.2500    74.3514  -999.2500  -999.2500     8.0700    -0.2000
   44.5000  -999.2500  -999.2500    74.1041  -999.2500  -999.2500     8.0857    -0.2000
   45.0000  -999.2500  -999.2500    74.0970  -999.2500  -999.2500     8.0158    -0.1989
   45.5000  -999.2500  -999.2500    74.0797  -999.2500  -999.2500     7.9330    -0.1336
   46.0000  -999.2500  -999.2500    74.0988     2.1130     0.2372     7.9405    -0.0106
   46.5000  -999.2500  -999.2500    76.3809     2.2340     0.2174     7.9731     0.0636
   47.0000  -999.2500  -999.2500    84.9051     2.2541     0.2146     8.0056     0.0592
   47.5000  -999.2500  -999.2500    76.1139     2.2511     0.2090     8.0381     0.0505
   48.0000  -999.2500  -999.2500    77.4103     2.2636     0.2041     8.0709     0.0603
   48.5000  -999.2500  -999.2500    78.7275     2.2724     0.2010     8.1011     0.0718
   49.0000  -999.2500  -999.2500    78.4957     2.2755     0.1980     8.0166     0.0833
   49.5000  -999.2500  -999.2500    78.1552     2.2939     0.1950     8.0536     0.0947
   50.0000  -999.2500  -999.2500    78.4935     2.3068     0.1920     8.1608     0.0954
   50.5000  -999.2500  -999.2500    79.2253     2.3020     0.1897     8.2702     0.0701
   51.0000  -999.2500  -999.2500    79.7017     2.3031     0.1889     8.3830     0.0539
   51.5000  -999.2500  -999.2500    79.8204     2.3061     0.1881     8.4542     0.0556
   52.0000  -999.2500  -999.2500    77.6183     2.3092     0.1817     8.5172     0.0580
   52.5000  -999.2500  -999.2500    77.8020     2.3133     0.1740     8.4982     0.0604
   53.0000  -999.2500  -999.2500    78.4838     2.3240     0.1662     8.3451     0.0629
   53.5000  -999.2500  -999.2500    79.1724     2.3370     0.1540     8.1929     0.0625
   54.0000  -999.2500  -999.2500    79.4668     2.3524     0.1397     8.0451     0.0593
   54.5000  -999.2500  -999.2500    79.3869     2.3798     0.1255     8.0303     0.0560
   55.0000  -999.2500  -999.2500    79.3006     2.4075     0.1245     8.2391     0.0508
   55.5000  -999.2500  -999.2500    79.2139     2.4330     0.1258     8.5363     0.0426
   56.0000  -999.2500  -999.2500    79.1217     2.4325     0.1338     8.7059     0.0345
   56.5000  -999.2500  -999.2500    79.0884     2.4057     0.1418     8.5948     0.0366
   57.0000  -999.2500  -999.2500    79.7248     2.3873     0.1475     8.6439     0.0523
   57.5000  -999.2500  -999.2500    81.2009     2.3916     0.1464     8.7133     0.0679
   58.0000  -999.2500  -999.2500    82.6558     2.3915     0.1453     8.7538     0.0833
   58.5000  -999.2500  -999.2500    84.1123     2.3880     0.1461     8.6927     0.0937
   59.0000  -999.2500  -999.2500    85.4816     2.3845     0.1522     8.6342     0.0902
   59.5000  -999.2500  -999.2500    84.9568     2.3810     0.1583     8.5590     0.0815
   60.0000  -999.2500  -999.2500    84.1220     2.3603     0.1617     8.4533     0.0764
   60.5000  -999.2500  -999.2500    83.2825     2.3555     0.1575     8.3502     0.0957
   61.0000  -999.2500  -999.2500    82.4451     2.3905     0.1532     8.2474     0.1136
   61.5000  -999.2500  -999.2500    81.6078     2.3997     0.1495     8.1450     0.1019
   62.0000  -999.2500  -999.2500    80.7618     2.3769     0.1555     8.0424     0.0550
   62.5000  -999.2500  -999.2500    79.9326     2.3652     0.1561     7.9889     0.0439
   63.0000  -999.2500  -999.2500    79.8788     2.3748     0.1540     7.9614     0.0333
   63.5000  -999.2500  -999.2500    80.0951     2.3824     0.1527     7.9493     0.0296
   64.0000  -999.2500  -999.2500    80.4867     2.3788     0.1530     7.9084     0.0256
   64.5000  -999.2500  -999.2500    80.8702     2.3751     0.1534     7.8585     0.0252
   65.0000  -999.2500  -999.2500    81.2486     2.3714     0.1537     7.7981     0.0269
   65.5000  -999.2500  -999.2500    81.6206     2.3718     0.1534     7.7372     0.0287
   66.0000  -999.2500  -999.2500    81.7609     2.3741     0.1524     7.6757     0.0304
   66.5000  -999.2500  -999.2500    81.0691     2.3765     0.1514     7.6235     0.0322
   67.0000  -999.2500  -999.2500    80.4141     2.3788     0.1503     7.6382     0.0340
   67.5000  -999.2500  -999.2500    79.9101     2.3834     0.1493     7.6844     0.0357
   68.0000  -999.2500  -999.2500    80.8794     2.3901     0.1482     7.8137     0.0394
   68.5000  -999.2500  -999.2500    81.9014     2.3969     0.1461     7.9981     0.0435
   69.0000  -999.2500  -999.2500    82.7837     2.4000     0.1441     8.2788     0.0476
   69.5000  -999.2500  -999.2500    81.6078     2.3970     0.1427     8.5579     0.0517
   70.0000  -999.2500  -999.2500    79.5928     2.3985     0.1429     8.8384     0.0557
   70.5000  -999.2500  -999.2500    79.4896     2.4041     0.1432     8.9192     0.0598
   71.0000  -999.2500  -999.2500    80.2219     2.4000     0.1435     8.9225     0.0613
   71.5000  -999.2500  -999.2500    80.7073     2.3899     0.1473     8.9005     0.0594
   72.0000  -999.2500  -999.2500    80.3856     2.3798     0.1511     8.8893     0.0559
   72.5000  -999.2500  -999.2500    79.8735     2.3694     0.1548     8.7822     0.0478
   73.0000  -999.2500  -999.2500    79.3840     2.3666     0.1575     8.6571     0.0466
   73.5000  -999.2500  -999.2500    78.9558     2.3649     0.1575     8.5308     0.0472
   74.0000  -999.2500  -999.2500    79.5292     2.3633     0.1582     8.4048     0.0479
   74.5000  -999.2500  -999.2500    80.0687     2.3598     0.1600     8.2789     0.0461
   75.0000  -999.2500  -999.2500    79.5728     2.3542     0.1617     8.1517     0.0432
   75.5000  -999.2500  -999.2500    79.0178     2.3488     0.1634     7.9948     0.0407
   76.0000  -999.2500  -999.2500    78.5157     2.3464     0.1651     7.7796     0.0427
   76.5000  -999.2500  -999.2500    78.2435     2.3553     0.1615     7.5652     0.0436
   77.0000  -999.2500  -999.2500    80.2668     2.3640     0.1562     7.3487     0.0428
   77.5000  -999.2500  -999.2500    82.4865     2.3721     0.1532     7.1335     0.0394
   78.0000  -999.2500  -999.2500    84.3124     2.3735     0.1523     7.1429     0.0361
   78.5000  -999.2500  -999.2500    82.7992     2.3740     0.1523     7.3055     0.0328
   79.0000  -999.2500  -999.2500    81.9252     2.3744     0.1525     7.4698     0.0300
   79.5000  -999.2500  -999.2500    82.7397     2.3748     0.1526     7.6335     0.0300
   80.0000  -999.2500  -999.2500    83.5585     2.3754     0.1523     7.7972     0.0301
   80.5000  -999.2500  -999.2500    84.3650     2.3805     0.1502     7.9648     0.0315
   81.0000  -999.2500  -999.2500    84.8859     2.3857     0.1481     8.1595     0.0391
   81.5000  -999.2500  -999.2500    85.2827     2.3912     0.1461     8.4076     0.0466
   82.0000  -999.2500  -999.2500    84.4968     2.3933     0.1447     8.6130     0.0509
   82.5000  -999.2500  -999.2500    83.6791     2.3895     0.1464     8.6426     0.0525
   83.0000  -999.2500  -999.2500    82.8659     2.3850     0.1487     8.6616     0.0540
