~VERSION INFORMATION
 VERS.                2.0:   CWLS LOG ASCII STANDARD - VERSION 2.0
 WRAP.                 NO:   ONE LINE PER DEPTH STEP
~WELL INFORMATION
#MNEM.UNIT      DATA TYPE    INFORMATION
#----------   ------------   ------------------------------
 STRT.F            8.0000:   START DEPTH
 STOP.F         3200.0000:   STOP DEPTH
 STEP.F            0.5000:   STEP LENGTH
 NULL.          -999.2500:   NO VALUE
 COMP. BROWN JOHN E&C INC:   COMPANY
 WELL.  62 x 15-17 #62-15:   WELL
 FLD .        N.P.R NO. 3:   FIELD
 LOC .      S15 T38N R78W:   LOCATION
 CNTY.            NATRONA:   COUNTY
 STAT.            WYOMING:   STATE
 CTRY. UNITED STATES OF AMERICA:   COUNTRY
 SRVC.      Western Atlas:   SERVICE COMPANY
 DATE.        17-JUN-1986:   LOGDATE
 API .       490251104300:   API NUMBER
~CURVE INFORMATION
#MNEM.UNIT       API CODE    CURVE DESCRIPTION
#----------   ------------   ------------------------------
 DEPT.F                  :   
 GRR .GAPI   07 310 01 00:   GAMMA RAY
 CALR.IN     07 280 01 00:   CALIPER FROM RESISTIVITY
 SPR .MV     07 010 01 00:   SPONTANEOUS POTENTIAL
 RILD.OHMM   07 120 46 00:   INDUCTION LOG DEEP RESISTIVITY
 RILM.OHMM   07 120 44 00:   INDUCTION LOG MEDIUM RESISTIVITY
 RFOC.OHMM   07 220 04 00:   RESISTIVITY FOCUSED LOG
 PORD.DEC    45 890 12 00:   POROSITY DENSITY SANDSTONE
 CNC .DEC    42 890 03 00:   NEUTRON POROSITY SANDSTONE
 CORR.G/C3   45 356 01 00:   DENSITY CORRECTION
 DEN .G/C3   45 350 01 00:   COMPENSATED BULK DENSTIY
~PARAMETER INFORMATION
#MNEM.UNIT          VALUE    DESCRIPTION
#----------   ------------   ------------------------------
 PD  .                 GL:   PERMANENT DATUM
 EPD .F              5242:   ELEVATION PERMANENT DATUM
 LMF .                 KB:   LOG MEASURED FROM
 DAPD.F                11:   FEET ABOVE PERMANENT DATUM
 DMF .                 KB:   DRILLING MEASURED FROM
 EKB .F              5253:   KELLING BUSHING
 EGL .F              5242:   GROUND LEVEL
 DATE.            6-17-86:   RUN DATE
 RUN .                  1:   RUN NUMBER
 DD  .F              3200:   DEPTH DRILLER
 DL  .F              3202:   DEPTH LOGGER
 BLI .F              3200:   BOTTOM LOG INTERVAL
 CS  .IN            8.625:   CASING SIZE
 CBD .F               573:   CASING BOTTOM DRILLER
 CBL .F               573:   CASING BOTTOM LOGGER
 BS  .IN            7.875:   BIT SIZE
 BSD .F              3200:   BIT SIZE AT DEPTH
 DFT .            KCL/GEL:   DRILLING FLUID TYPE
 DFD .                8.9:   DRILLING FLUID DENSITY
 DFV .                 37:   DRILLING FLUID VISCOSITY
 DFPH.                8.5:   DRILLING FLUID PH
 DFL .               10.2:   DRILLING FLUID LOSS
 MSS .           MUD TANK:   MUD SAMPLE SOURCE
 RMS .OHMM            .39:   RESISTIVITY MUD SAMPLE
 MST .F                80:   MUD SAMPLE TEMPERATURE
 RMF .OHMM            .29:   RESISTIVITY MUD FILTRATE SAMPLE
 MFST.F                80:   MUD FILTRATE SAMPLE TEMPERATURE
 RMC .OHMM            .49:   RESISTIVITY MUD CAKE
 MCST.F                80:   MUD CAKE SAMPLE TEMPERATURE
 MFSS.               CALC:   MUD FILTRATE SAMPLE SOURCE
 MCSS.               CALC:   MUD CAKE SAMPLE SOURCE
 RMB .OHMM            .24:   RESISTIVITY MUD AT BHT
 BHT .F               130:   BOTTOM HOLE TEMPERATURE
 TCS .HRS               5:   TIME CURCULATED STOPPED
 MRT .F               130:   MAXIMUM RECORDED TEMPERATURE
 LUN .            HL 6264:   LOGGING UNIT NUMBER
 LUL .           GILLETTE:   LOGGING UNIT LOCATION
 ENGI.      P.H. FAHLSING:   RECORDING ENGINEER
 WITN.             STRONG:   WITNESSED BY
 CLNT.            A2DTECH:   CLIENT CODE
 UWI .       490251104300:   UNIQUE WELL ID
 DICO. A2D Technologies, Inc.:   DIGITIZING COMPANY
~OTHER INFORMATION
~A    DEPT     GRR       CALR        SPR       RILD       RILM       RFOC       PORD        CNC       CORR        DEN   
# ...
 2654.5000    72.5357     9.1763   -34.2697    37.2886    32.9492    34.9103     0.0586     0.1177     0.0492     2.5365
 2655.0000    69.2494     9.1922   -34.1102    39.6855    35.5595    42.7649     0.0392     0.1069     0.0399     2.5714
 2655.5000    65.0665     9.2082   -33.8019    42.2364    36.0578    72.1947     0.0392     0.1037     0.0352     2.5861
 2656.0000    60.5790     9.2391   -33.1923    43.1245    35.5647   121.3110     0.0588     0.1234     0.0257     2.5652
 2656.5000    58.4897     9.2550   -32.8840    43.1280    34.1195   147.2473     0.0832     0.1433     0.0341     2.5164
 2657.0000    60.3128     9.3009   -32.1221    41.6651    31.4008   119.0219     0.1210     0.1665     0.0618     2.4761
 2657.5000    62.8022     9.3470   -31.6632    38.6161    26.1085    45.7255     0.1426     0.1910     0.0649     2.4335
 2658.0000    64.8556     9.3929   -31.0536    35.5435    21.3100    28.9609     0.1524     0.2015     0.0603     2.4001
 2658.5000    62.7706     9.4388   -30.4441    30.8109    19.7483    21.6566     0.1534     0.2061     0.0572     2.3939
 2659.0000    61.5864     9.4697   -29.9638    27.1461    19.3432    21.5073     0.1513     0.2034     0.0557     2.3970
 2659.5000    61.0028     9.4864   -29.5245    25.5099    19.3448    21.9584     0.1456     0.1954     0.0572     2.4040
 2660.0000    64.0271     9.5167   -29.5173    26.0463    19.7525    22.4190     0.1366     0.1878     0.0541     2.4149
 2660.5000    67.0472     9.5476   -29.5102    27.5505    20.5918    23.5317     0.1330     0.1795     0.0650     2.4265
 2661.0000    70.3675     9.5484   -29.3524    29.0976    22.0698    26.1055     0.1295     0.1735     0.0666     2.4343
 2661.5000    71.2983     9.5493   -29.3436    30.1232    24.1925    28.3658     0.1199     0.1681     0.0588     2.4475
 2662.0000    67.4029     9.5651   -29.4889    31.1849    25.8842    31.6869     0.1067     0.1675     0.0263     2.4707
 2662.5000    65.0175     9.5510   -29.6324    32.2840    25.3536    38.4616     0.1007     0.1738     0.0093     2.4816
 2663.0000    65.6351     9.5520   -29.9247    32.0642    23.8233    42.0819     0.1223     0.1786     0.0295     2.4566
 2663.5000    69.2558     9.5529   -29.7652    31.1915    22.1928    39.3121     0.1400     0.1783     0.0527     2.4292
 2664.0000    71.6757     9.5538   -29.1556    30.3426    20.1783    25.2177     0.1532     0.1774     0.0543     2.3983
 2664.5000    67.7926     9.5548   -28.3955    29.0890    18.9603    20.7759     0.1550     0.1786     0.0341     2.3963
 2665.0000    64.8024     9.5707   -27.9366    26.7955    17.9396    20.6137     0.1478     0.1864     0.0419     2.4075
 2665.5000    67.2261     9.5716   -27.4774    24.4935    17.2106    21.2117     0.1436     0.1951     0.0528     2.4111
 2666.0000    71.1633     9.6024   -27.3181    23.3377    17.0930    21.0654     0.1466     0.1969     0.0807     2.3966
 2666.5000    72.0650     9.6184   -27.3110    22.6980    17.0943    20.7759     0.1580     0.1936     0.0874     2.3848
 2667.0000    67.2815     9.6344   -27.3039    22.3922    17.2143    20.3490     0.1637     0.1906     0.0575     2.3801
 2667.5000    65.7927     9.6352   -27.2967    22.8634    17.5768    20.0599     0.1640     0.1972     0.0296     2.3786
 2668.0000    66.1143     9.6361   -27.2879    23.5062    18.0719    19.7935     0.1589     0.1891     0.0141     2.3848
 2668.5000    67.9374     9.6520   -27.2808    24.3354    18.5807    20.4903     0.1481     0.1829     0.0126     2.4042
 2669.0000    69.4560     9.6529   -27.1230    25.3676    19.3703    22.4190     0.1343     0.1766     0.0204     2.4282
 2669.5000    71.2748     9.6689   -26.9653    26.2616    20.2173    24.5478     0.1151     0.1730     0.0376     2.4615
 2670.0000    72.4931     9.6698   -26.6552    27.1872    21.1981    31.6869     0.1093     0.1703     0.0563     2.4561
 2670.5000    73.1107     9.6856   -26.3469    27.5676    21.3465    38.4616     0.1262     0.1751     0.0702     2.4352
 2671.0000    70.1290     9.6865   -26.0386    27.9538    20.1977    35.3968     0.1391     0.1802     0.0793     2.4189
 2671.5000    68.6403     9.6876   -26.0314    27.7625    19.5004    27.7830     0.1457     0.1859     0.0729     2.4081
 2672.0000    68.0567     9.7034   -25.8735    27.5730    18.9798    21.0654     0.1496     0.1880     0.0651     2.4019
 2672.5000    69.5845     9.7043   -25.5636    26.8230    18.5907    20.2087     0.1511     0.1847     0.0514     2.3996
 2673.0000    71.4026     9.7202   -25.4059    25.5577    18.0843    20.0693     0.1523     0.1823     0.0360     2.3988
 2673.5000    70.8148     9.7210   -25.2482    24.8621    17.7035    20.3490     0.1508     0.1883     0.0267     2.3988
 2674.0000    70.5315     9.7371   -25.0904    24.3533    17.2311    20.4903     0.1487     0.1988     0.0174     2.4035
 2674.5000    74.1564     9.7530   -25.0815    23.6905    17.1130    20.7759     0.1472     0.2162     0.0143     2.4066
 2675.0000    78.9825     9.7538   -24.9238    23.2056    16.8787    20.6326     0.1476     0.2222     0.0159     2.4058
 2675.5000    80.2008     9.7697   -24.7661    23.0472    16.8801    19.9309     0.1529     0.2146     0.0174     2.4019
 2676.0000    79.0166     9.7706   -24.6084    23.2090    16.9988    19.5214     0.1586     0.2044     0.0283     2.3927
 2676.5000    76.0306     9.7564   -24.4489    23.2105    17.1180    19.9309     0.1658     0.1967     0.0423     2.3803
 2677.0000    69.6636     9.7575   -24.2911    23.2121    17.2381    21.2117     0.1694     0.1942     0.0531     2.3710
 2677.5000    66.4594     9.7583   -24.2840    23.2140    17.1203    21.9584     0.1670     0.1928     0.0609     2.3717
 2678.0000    64.6746     9.7592   -24.2769    23.5387    17.0035    21.5073     0.1580     0.1984     0.0671     2.3842
 2678.5000    64.0868     9.7602   -24.1190    24.3684    17.0046    20.9201     0.1541     0.1997     0.0702     2.3958
 2679.0000    67.1185     9.7611   -24.1103    25.0733    17.3627    20.6326     0.1535     0.1977     0.0516     2.3942
 2679.5000    72.8381     9.7620   -24.1031    25.5806    17.8619    21.3590     0.1607     0.1947     0.0269     2.3834
 2680.0000    75.5578     9.7628   -24.0960    25.7598    18.4820    22.2644     0.1649     0.1977     0.0346     2.3772
 2680.5000    76.1712     9.7637   -23.9383    25.5840    18.8712    22.5747     0.1682     0.2031     0.0377     2.3741
 2681.0000    75.8919     9.7647   -23.7788    25.3941    18.7422    22.5747     0.1683     0.2076     0.0486     2.3726
 2681.5000    76.5141     9.7655   -23.7717    24.8893    18.4856    22.8893     0.1677     0.2085     0.0734     2.3742
 2682.0000    78.3329     9.7664   -23.7646    24.3803    18.2325    22.5622     0.1653     0.2109     0.0533     2.3804
 2682.5000    79.2509     9.7673   -24.2092    24.0466    18.1079    20.7759     0.1620     0.2121     0.0394     2.3834
 2683.0000    80.1688     9.7832   -24.8028    23.8829    17.9841    20.6326     0.1617     0.2088     0.0347     2.3835
 2683.5000    78.2466     9.7840   -25.2492    24.2174    18.2472    20.6326     0.1593     0.2004     0.0394     2.3851
 2684.0000    73.8966     9.7647   -25.6921    24.5563    19.0116    20.9201     0.1560     0.1887     0.0564     2.3916
 2684.5000    72.1161     9.7466   -26.1368    24.8998    19.6827    21.6566     0.1518     0.1822     0.0598     2.4035
 2685.0000    69.1301     9.7267   -26.4309    25.4234    20.0972    22.5747     0.1443     0.1750     0.0580     2.4199
 2685.5000    67.0451     9.7276   -26.5744    26.1385    20.2382    24.5293     0.1359     0.1684     0.0580     2.4424
 2686.0000    64.6597     9.7287   -26.8667    26.8733    19.6869    29.9804     0.1185     0.1657     0.0673     2.4742
 2686.5000    66.4828     9.7295   -27.0119    27.4384    19.0182    33.2596     0.0987     0.1669     0.0723     2.4928
 2687.0000    68.9022     9.7304   -27.1537    26.6894    18.3721    28.1702     0.0984     0.1774     0.0581     2.4665
 2687.5000    71.0214     9.7312   -27.2971    25.4325    17.6154    21.2117     0.1206     0.1918     0.0473     2.4401
