~VERSION INFORMATION
 VERS.                2.0:   CWLS LOG ASCII STANDARD - VERSION 2.0
 WRAP.                 NO:   ONE LINE PER DEPTH STEP
~WELL INFORMATION
#MNEM.UNIT      DATA TYPE    INFORMATION
#----------   ------------   ------------------------------
 STRT.F           24.0000:   START DEPTH
 STOP.F          487.5000:   STOP DEPTH
 STEP.F            0.5000:   STEP LENGTH
 NULL.          -999.2500:   NO VALUE
 COMP. FENIX & SCISSON INC:   COMPANY
 WELL.       NPR #35-SX-3:   WELL
 FLD .        TEAPOT DOME:   FIELD
 LOC .       S3 T38N R78W:   LOCATION
 CNTY.            NATRONA:   COUNTY
 STAT.            WYOMING:   STATE
 CTRY. UNITED STATES OF AMERICA:   COUNTRY
 SRVC.       Schlumberger:   SERVICE COMPANY
 DATE.        26-MAR-1977:   LOGDATE
 API .       490251030700:   API NUMBER
~CURVE INFORMATION
#MNEM.UNIT       API CODE    CURVE DESCRIPTION
#----------   ------------   ------------------------------
 DEPT.F                  :   
 SPR .MV     07 010 01 00:   SPONTANEOUS POTENTIAL
 LL8 .OHMM   07 220 08 00:   LATEROLOG-8 RES.
 ILD .OHMM   07 120 46 00:   INDUCTION LOG DEEP
 ILM .OHMM   07 120 44 00:   INDUCTION LOG MEDIUM
 CALD.IN     45 280 60 00:   CALIPER FROM DENSITY LOG
 RHOB.G/C3   45 350 01 00:   BULK DENSITY
 DPOR.DEC    45 890 12 00:   DENSITY POROSITY SANDSTONE
 CORR.G/C3   45 356 01 00:   DENSITY CORRECTION
 GRD .GAPI   45 310 01 00:   GAMMA RAY FROM DENSITY LOG
~PARAMETER INFORMATION
#MNEM.UNIT          VALUE    DESCRIPTION
#----------   ------------   ------------------------------
 PD  .                 GL:   PERMANENT DATUM
 EPD .F          EST 5200:   ELEVATION PERMANENT DATUM
 LMF .                 GL:   LOG MEASURED FROM
 DMF .                 KB:   DRILLING MEASURED FROM
 EKB .F              5205:   KELLING BUSHING
 EGL .F          EST 5200:   GROUND LEVEL
 DATE.            3-26-77:   RUN DATE
 RUN .                  1:   RUN NUMBER
 DD  .F               524:   DEPTH DRILLER
 DL  .F               489:   DEPTH LOGGER
 BLI .F               483:   BOTTOM LOG INTERVAL
 TLI .F                39:   TOP LOG INTERVAL
 CS  .IN            8.625:   CASING SIZE
 CBD .F                40:   CASING BOTTOM DRILLER
 CBL .F                39:   CASING BOTTOM LOGGER
 BS  .IN            7.875:   BIT SIZE
 BSD .F               524:   BIT SIZE AT DEPTH
 DFT .                KCL:   DRILLING FLUID TYPE
 DFD .                8.8:   DRILLING FLUID DENSITY
 DFV .                 31:   DRILLING FLUID VISCOSITY
 DFPH.                  8:   DRILLING FLUID PH
 DFL .                9.1:   DRILLING FLUID LOSS
 MSS .          FLOW LINE:   MUD SAMPLE SOURCE
 RMS .OHMM            .18:   RESISTIVITY MUD SAMPLE
 MST .F                76:   MUD SAMPLE TEMPERATURE
 RMF .OHMM            .15:   RESISTIVITY MUD FILTRATE SAMPLE
 MFST.F                76:   MUD FILTRATE SAMPLE TEMPERATURE
 RMC .OHMM             .1:   RESISTIVITY MUD CAKE
 MCST.F                76:   MUD CAKE SAMPLE TEMPERATURE
 MFSS.                  M:   MUD FILTRATE SAMPLE SOURCE
 MCSS.                  C:   MUD CAKE SAMPLE SOURCE
 RMB .OHMM            .25:   RESISTIVITY MUD AT BHT
 BHT .F                55:   BOTTOM HOLE TEMPERATURE
 TCS .HRS               6:   TIME CURCULATED STOPPED
 MRT .F            EST 55:   MAXIMUM RECORDED TEMPERATURE
 LUN .               5642:   LOGGING UNIT NUMBER
 LUL .               CSPR:   LOGGING UNIT LOCATION
 ENGI.     LOHBECK/MARTIN:   RECORDING ENGINEER
 WITN.         STUEBINGER:   WITNESSED BY
 CLNT.            A2DTECH:   CLIENT CODE
 ORIG.       2", 5" PRINT:   ORIGIN OF DATA
 UWI .       490251030700:   UNIQUE WELL ID
 DICO. A2D Technologies, Inc.:   DIGITIZING COMPANY
~OTHER INFORMATION
~A   DEPT      SPR        LL8        ILD        ILM       CALD       RHOB       DPOR       CORR        GRD   
# ...
  389.0000   -44.4873    18.3225    14.3546    16.0425     8.0772     2.4460     0.1159     0.0452    93.1292
  389.5000   -44.9035    17.4534    14.4070    15.5224     8.0875     2.4296     0.1384     0.0300    92.8129
  390.0000   -45.3080    16.3489    14.1561    14.9498     8.0978     2.4480     0.1290     0.0344    93.3646
  390.5000   -45.7096    15.6350    13.9400    14.6549     8.1082     2.4517     0.1234     0.0392    94.6262
  391.0000   -46.0076    15.5686    13.7273    14.3475     8.1185     2.4542     0.1214     0.0409    95.7317
  391.5000   -46.0262    15.4314    13.5191    14.0465     8.1289     2.4785     0.1139     0.0517    96.6812
  392.0000   -46.0244    14.8340    13.2994    13.7519     8.1284     2.4787     0.1101     0.0584    96.2457
  392.5000   -46.0308    14.5385    13.0556    13.4634     8.1213     2.5000     0.1038     0.0579    96.2383
  393.0000   -46.0356    14.5408    12.8159    13.1812     8.1140     2.4571     0.1120     0.0529    97.0329
  393.5000   -45.5983    14.5408    12.5815    12.9050     8.1066     2.4438     0.1198     0.0387    96.3035
  394.0000   -45.4253    14.5408    12.3514    12.7727     8.0993     2.4411     0.1154     0.0543    94.2966
  394.5000   -45.0278    14.5408    12.1980    12.8074     8.0920     2.4408     0.1194     0.0631    90.2060
  395.0000   -44.6525    14.5422    12.4930    12.8653     8.0847     2.4325     0.1288     0.0401    88.0134
  395.5000   -44.2754    14.5370    12.7619    13.2137     8.0773     2.4194     0.1374     0.0459    86.6710
  396.0000   -43.4895    15.1813    13.1789    13.8526     8.0635     2.3815     0.1608     0.0531    83.1935
  396.5000   -42.8243    16.1278    13.7483    14.5223     8.0412     2.3259     0.1821     0.0519    78.0058
  397.0000   -42.2360    16.9940    14.3969    15.2244     8.0193     2.3192     0.2021     0.0780    76.9275
  397.5000   -41.5490    16.7991    15.5357    15.9605     7.9984     2.2811     0.2286     0.0760    77.4533
  398.0000   -40.8601    16.6064    16.7648    16.7321     7.9387     2.2876     0.2239     0.0841    77.9976
  398.5000   -40.1727    16.3982    18.0901    17.5411     7.8741     2.2967     0.2168     0.0822    78.3598
  399.0000   -39.4875    17.2837    19.4586    18.3892     7.8588     2.3071     0.2098     0.0637    78.7151
  399.5000   -38.8573    16.8118    20.3771    19.3678     7.9271     2.3422     0.1922     0.0565    79.6431
  400.0000   -38.5119    16.3982    21.3426    20.0866     7.9942     2.3516     0.1790     0.0602    81.3521
  400.5000   -38.1875    19.1014    22.3540    20.8662     8.0553     2.3319     0.1974     0.0276    83.2785
  401.0000   -37.8638    21.9431    23.4116    21.5584     8.0537     2.3661     0.1773     0.0748    83.0825
  401.5000   -37.5402    24.8604    24.4049    22.2736     8.0535     2.3641     0.1718     0.0658    81.9136
  402.0000   -37.2164    21.4514    24.4049    23.0877     8.0614     2.3509     0.1842     0.0477    81.9930
  402.5000   -36.8924    19.0129    24.4049    23.0877     8.1242     2.3368     0.1888     0.0481    82.4136
  403.0000   -36.5696    19.9049    24.4049    22.1392     8.1523     2.3200     0.2066     0.0214    81.4403
  403.5000   -36.2467    21.2523    24.4049    21.4326     8.1528     2.3085     0.2007     0.0088    80.8612
  404.0000   -36.0941    22.2494    24.4049    20.7487     8.1493     2.3338     0.1910     0.0354    81.4538
  404.5000   -36.1116    21.1461    24.3485    20.2034     8.1430     2.3258     0.1996     0.0216    81.3810
  405.0000   -36.1291    20.2843    24.1616    19.9389     8.1368     2.3430     0.1904     0.0387    78.9681
  405.5000   -36.1478    22.0446    23.9577    19.6773     8.1305     2.3318     0.1939     0.0308    77.7973
  406.0000   -36.1663    21.2441    23.6745    19.2395     8.1243     2.3317     0.1963     0.0213    77.9084
  406.5000   -36.1847    20.6199    23.4764    18.6376     8.1180     2.3306     0.1920     0.0120    79.6090
  407.0000   -36.2032    20.4782    23.3923    18.0545     8.1118     2.3325     0.1937     0.0189    80.6230
  407.5000   -36.2216    20.8835    23.3078    17.6572     8.1055     2.3317     0.1940     0.0268    79.4012
  408.0000   -36.2402    21.4352    23.2240    18.0403     8.0992     2.3300     0.1994     0.0313    78.6101
  408.5000   -36.2591    20.5866    23.1405    18.4927     8.0934     2.3499     0.1841     0.0465    78.4812
  409.0000   -36.2762    19.9126    23.0573    18.4622     8.0948     2.3708     0.1682     0.0485    78.3487
  409.5000   -36.2228    21.0077    22.9743    18.4014     8.0964     2.3762     0.1722     0.0336    78.3653
  410.0000   -35.9950    22.0553    22.8917    18.3225     8.0979     2.3896     0.1574     0.0524    78.6093
  410.5000   -35.7743    23.1711    22.8094    19.0481     8.0995     2.3714     0.1687     0.0451    78.8973
  411.0000   -35.5464    23.9398    22.7274    19.7658     8.1010     2.3621     0.1786     0.0369    78.4644
  411.5000   -35.4812    21.2546    22.6457    20.5106     8.1025     2.3780     0.1703     0.0476    77.2533
  412.0000   -35.7806    19.6450    22.5642    21.2834     8.1041     2.3987     0.1597     0.0400    76.4996
  412.5000   -36.1978    23.4519    22.4831    22.0854     8.1056     2.4092     0.1450     0.0379    76.2044
  413.0000   -36.6214    28.4174    22.4022    22.9176     8.1072     2.4031     0.1540     0.0551    76.0999
  413.5000   -37.0593    32.5063    22.3216    23.5187     8.1087     2.3708     0.1762     0.0380    77.4475
  414.0000   -37.0960    23.5913    22.2494    22.8312     8.1102     2.3741     0.1666     0.0321    80.3308
  414.5000   -37.1089    20.7700    22.1506    21.8838     8.1117     2.3722     0.1689     0.0223    83.3546
  415.0000   -37.1240    20.5675    22.0612    21.2441     8.1132     2.3693     0.1726     0.0191    84.5799
  415.5000   -37.1401    20.3637    21.9721    21.1287     8.1169     2.3635     0.1741     0.0339    83.6125
  416.0000   -37.1561    20.1706    21.8834    21.0243     8.1210     2.3579     0.1792     0.0378    82.0994
  416.5000   -37.1721    19.9804    21.7950    20.9202     8.1250     2.3609     0.1834     0.0278    82.5677
  417.0000   -37.1882    19.7911    21.7071    20.8171     8.1291     2.3758     0.1618     0.0349    85.1687
  417.5000   -37.2042    19.5477    21.6194    20.7145     8.1331     2.3834     0.1671     0.0395    87.1117
  418.0000   -37.2198    19.5984    21.5321    20.6632     8.1372     2.3538     0.1755     0.0262    88.3807
  418.5000   -37.2356    19.6710    21.4452    20.6625     8.1412     2.3611     0.1818     0.0233    89.4240
  419.0000   -37.2561    19.7439    21.3586    20.6637     8.1453     2.3562     0.1754     0.0387    89.4822
  419.5000   -37.2767    19.8171    21.2724    20.6656     8.1493     2.3659     0.1810     0.0352    85.2510
  420.0000   -37.6653    19.9126    21.1865    20.6671     8.1534     2.3785     0.1690     0.0602    81.3408
  420.5000   -37.5196    19.4666    21.1012    20.5072     8.1574     2.3735     0.1695     0.0503    83.8981
  421.0000   -37.3646    18.8466    21.0147    19.9965     8.1615     2.3986     0.1590     0.0485    87.1272
  421.5000   -37.2175    18.6645    20.9265    19.5477     8.1656     2.4019     0.1513     0.0615    89.7114
  422.0000   -37.0670    18.6645    20.8485    19.6001     8.1696     2.3762     0.1605     0.0461    89.1656
  422.5000   -36.9183    18.1997    19.8641    19.6479     8.1724     2.3456     0.1776     0.0250    86.0881
  423.0000   -36.6589    17.3045    19.0129    19.6957     8.1712     2.3554     0.1862     0.0270    85.7202
  423.5000   -36.6215    16.7042    18.1980    19.7293     8.1700     2.3598     0.1792     0.0211    87.7199
  424.0000   -36.4085    19.5477    17.3381    19.4813     8.1689     2.3565     0.1766     0.0210    88.7942
  424.5000   -36.1971    19.6437    17.2437    19.2925     8.1678     2.3538     0.1798     0.0260    87.0750
  425.0000   -35.9906    19.7508    17.1741    19.1057     8.1666     2.3597     0.1776     0.0236    85.6878
