~VERSION INFORMATION
 VERS.                2.0:   CWLS LOG ASCII STANDARD - VERSION 2.0
 WRAP.                 NO:   ONE LINE PER DEPTH STEP
~WELL INFORMATION
#MNEM.UNIT      DATA TYPE    INFORMATION
#----------   ------------   ------------------------------
 STRT.F           66.0000:   START DEPTH
 STOP.F          814.0000:   STOP DEPTH
 STEP.F            0.5000:   STEP LENGTH
 NULL.          -999.2500:   NO VALUE
 COMP.   FLUOR DANIEL INC:   COMPANY
 WELL. NAVAL PETROLEUM RESERVE 3 SX-2 #32-11-2:   WELL
 FLD .        N.P.R NO. 3:   FIELD
 LOC .       S2 T38N R78W:   LOCATION
 CNTY.            NATRONA:   COUNTY
 STAT.            WYOMING:   STATE
 CTRY. UNITED STATES OF AMERICA:   COUNTRY
 SRVC.      Dresser Atlas:   SERVICE COMPANY
 DATE.        15-AUG-1985:   LOGDATE
 API .       490251104000:   API NUMBER
~CURVE INFORMATION
#MNEM.UNIT       API CODE    CURVE DESCRIPTION
#----------   ------------   ------------------------------
 DEPT.F                  :   
 SPR .MV     07 010 01 00:   SPONTANEOUS POTENTIAL
 RILD.OHMM   07 120 46 00:   INDUCTION LOG DEEP RESISTIVITY
 RILM.OHMM   07 120 44 00:   INDUCTION LOG MEDIUM RESISTIVITY
 RFOC.OHMM   07 220 04 00:   RESISTIVITY FOCUSED LOG
 PORD.DEC    45 890 12 00:   POROSITY DENSITY SANDSTONE
 CNC .DEC    42 890 03 00:   NEUTRON POROSITY SANDSTONE
 GRD .GAPI   45 310 01 00:   GAMMA RAY FROM DENSITY LOG
 CALD.IN     45 280 60 00:   CALIPER FROM DENSITY LOG
 CORR.G/C3   45 356 01 00:   DENSITY CORRECTION
 DEN .G/C3   45 350 01 00:   COMPENSATED BULK DENSTIY
~PARAMETER INFORMATION
#MNEM.UNIT          VALUE    DESCRIPTION
#----------   ------------   ------------------------------
 PD  .                 GL:   PERMANENT DATUM
 EPD .F              5113:   ELEVATION PERMANENT DATUM
 LMF .                 GL:   LOG MEASURED FROM
 DMF .                 GL:   DRILLING MEASURED FROM
 EGL .F              5113:   GROUND LEVEL
 DATE.            8-15-85:   RUN DATE
 RUN .                  1:   RUN NUMBER
 DD  .F               817:   DEPTH DRILLER
 DL  .F               817:   DEPTH LOGGER
 BLI .F               814:   BOTTOM LOG INTERVAL
 CS  .IN            8.625:   CASING SIZE
 CBD .F                79:   CASING BOTTOM DRILLER
 CBL .F                79:   CASING BOTTOM LOGGER
 BS  .IN            7.875:   BIT SIZE
 BSD .F               817:   BIT SIZE AT DEPTH
 DFT .          KCL WATER:   DRILLING FLUID TYPE
 MSS .               TANK:   MUD SAMPLE SOURCE
 RMS .OHMM            .25:   RESISTIVITY MUD SAMPLE
 MST .F                70:   MUD SAMPLE TEMPERATURE
 BHT .F               100:   BOTTOM HOLE TEMPERATURE
 TCS .HRS               2:   TIME CURCULATED STOPPED
 MRT .F               100:   MAXIMUM RECORDED TEMPERATURE
 LUN .            HL-6274:   LOGGING UNIT NUMBER
 LUL .           GILLETTE:   LOGGING UNIT LOCATION
 ENGI.             RAUTIO:   RECORDING ENGINEER
 WITN.           JENNINGS:   WITNESSED BY
 CLNT.            A2DTECH:   CLIENT CODE
 ORIG.       2", 5" PRINT:   ORIGIN OF DATA
 UWI .       490251104000:   UNIQUE WELL ID
 DICO. A2D Technologies, Inc.:   DIGITIZING COMPANY
~OTHER INFORMATION
~A   DEPT      SPR       RILD       RILM       RFOC       PORD        CNC        GRD       CALD       CORR        DEN   
# ...
  736.0000   -27.0212    10.3683    10.3281    10.8318     0.1488     0.2716    77.4107     8.0650     0.0156     2.4354
  736.5000   -27.0283    10.2951    10.3281    10.8311     0.1500     0.2570    76.4942     8.0645     0.0275     2.4444
  737.0000   -27.0355    10.2937    10.3281    10.9061     0.1486     0.2530    77.9836     8.0638     0.0274     2.4497
  737.5000   -26.8896    10.2920    10.2565    10.9812     0.1388     0.2521    82.1799     8.0632     0.0244     2.4467
  738.0000   -26.8986    10.2907    10.2565    10.9805     0.1357     0.2515    84.5955     8.0626     0.0214     2.4429
  738.5000   -26.9075    10.2893    10.1854    10.9796     0.1360     0.2472    86.0575     8.0620     0.0214     2.4406
  739.0000   -26.9147    10.2879    10.1854    10.9789     0.1378     0.2530    86.6447     8.0614     0.0213     2.4391
  739.5000   -26.9218    10.2862    10.2565    11.1318     0.1402     0.2572    84.2243     8.0607     0.0213     2.4383
  740.0000   -26.7776    10.2849    10.2565    11.1311     0.1414     0.2511    83.6085     8.0602     0.0168     2.4398
  740.5000   -26.7852    10.2835    10.2565    10.8951     0.1426     0.2460    84.5183     8.0445     0.0092     2.4428
  741.0000   -26.7939    10.3539    10.2565    10.6748     0.1425     0.2481    85.6852     8.0440    -0.0028     2.4443
  741.5000   -26.6480    10.2808    10.2565    10.6002     0.1412     0.2548    86.5732     8.0585    -0.0104     2.4439
  742.0000   -26.5038    10.2079    10.2546    10.5261     0.1395     0.2569    86.8596     8.0577    -0.0119     2.4434
  742.5000   -26.3615    10.0655    10.1854    10.5988     0.1392     0.2484    86.8418     8.0572    -0.0074     2.4429
  743.0000   -26.2174     9.9944    10.1854    10.6720     0.1421     0.2423    86.8271     8.0566     0.0031     2.4382
  743.5000   -26.2264     9.9931    10.1148    10.7457     0.1440     0.2389    85.9073     8.0560     0.0241     2.4375
  744.0000   -26.2335     9.9917    10.0447    10.7448     0.1403     0.2435    84.9908     8.0553     0.0360     2.4487
  744.5000   -26.0893     9.9209     9.9059    10.5958     0.1354     0.2578    84.9765     8.0547     0.0345     2.4540
  745.0000   -26.0968     9.9195     9.9059    10.4488     0.1327     0.2616    86.1652     8.0542     0.0240     2.4479
  745.5000   -25.8030     9.9875     9.9751    10.2938     0.1366     0.2631    89.2422     8.0536     0.0131     2.4449
  746.0000   -25.5076     9.9861     9.9059    10.1608     0.1399     0.2580    89.7456     8.0681     0.0044     2.4464
  746.5000   -25.2122     9.8465     9.9059    10.1601     0.1374     0.2607    90.3292     8.0674     0.0074     2.4479
  747.0000   -24.9148     9.7092     9.7627    10.2303     0.1359     0.2640    91.5179     8.0668     0.0103     2.4501
  747.5000   -24.6214     9.7079     9.7013    10.2296     0.1359     0.2591    89.6991     8.0662     0.0118     2.4479
  748.0000   -24.4773     9.7744     9.7013    10.2288     0.1374     0.2476    86.0722     8.0656     0.0083     2.4448
  748.5000   -24.4862     9.7731     9.7013    10.2281     0.1398     0.2385    86.6594     8.0651     0.0027     2.4441
  749.0000   -24.4934     9.9084     9.8372    10.2989     0.1401     0.2343    91.1564     8.0644     0.0087     2.4441
  749.5000   -24.6520     9.9766     9.9059    10.3701     0.1364     0.2315    94.7511     8.0638     0.0117     2.4489
  750.0000   -24.8222     9.9749     9.9058    10.5144     0.1303     0.2327    94.1353     8.0648     0.0101     2.4597
  750.5000   -24.9734    10.0433     9.9052    10.7913     0.1264     0.2585    88.1024     8.0739     0.0117     2.4688
  751.0000   -25.1246    10.0222     9.9045    10.9638     0.1249     0.2597    86.5879     8.0620     0.0134     2.4689
  751.5000   -25.2784     9.9940     9.9038    11.0410     0.1276     0.2548    92.5851     8.0463     0.0146     2.4635
  752.0000   -25.5855     9.9059     9.9031    10.8139     0.1312     0.2494    95.5900     8.0457     0.0221     2.4582
  752.5000   -25.4236     9.8372     9.8338    10.4452     0.1324     0.2527    90.7662     8.0451     0.0343     2.4589
  753.0000   -25.1405     9.8372     9.7648    10.1595     0.1312     0.2524    90.4537     8.0446     0.0431     2.4604
  753.5000   -24.6922     9.6341     9.6293     9.9505     0.1305     0.2494    90.1412     8.0440     0.0311     2.4611
  754.0000   -24.3941     9.3697     9.4956     9.9512     0.1299     0.2466    86.8048     8.0434     0.0175     2.4611
  754.5000   -24.0959     9.3047     9.3637    10.0213     0.1296     0.2451    85.0045     8.0428     0.0145     2.4625
  755.0000   -24.1004     9.2402     9.2982    10.0920     0.1292     0.2442    86.4939     8.0421     0.0205     2.4640
  755.5000   -23.6510     9.1762     9.2331    10.0927     0.1256     0.2515    88.5874     8.0415     0.0355     2.4670
  756.0000   -23.5030     9.1126     9.1685    10.0934     0.1187     0.2672    88.8793     8.0561     0.0505     2.4745
  756.5000   -23.3562     9.0494     9.1678    10.0941     0.1129     0.2666    88.5638     8.0553     0.0565     2.4865
  757.0000   -23.2103     8.9867     9.1037     9.9554     0.1123     0.2669    88.8558     8.0548     0.0370     2.4902
  757.5000   -23.0635     8.9867     9.1030     9.8186     0.1144     0.2687    89.1447     8.0542     0.0219     2.4879
  758.0000   -22.9167     8.8625     8.9144     9.6167     0.1132     0.2709    89.7345     8.0536     0.0189     2.4879
  758.5000   -22.9001     8.8011     8.9138     9.4188     0.1132     0.2627    90.6220     8.0530     0.0234     2.4848
  759.0000   -22.7743     8.6795     8.7899     9.3542     0.1186     0.2575    91.5125     8.0524     0.0264     2.4780
  759.5000   -22.6275     8.6193     8.6078     9.2257     0.1225     0.2542    91.5007     8.0518     0.0279     2.4728
  760.0000   -22.6330     8.4413     8.3710     9.0990     0.1246     0.2524    91.1880     8.0512     0.0294     2.4705
  760.5000   -22.6375     8.2669     8.2548     9.0365     0.1231     0.2530    90.5284     8.0506     0.0294     2.4719
  761.0000   -22.6419     8.0962     8.0838     8.9124     0.1170     0.2539    90.2594     8.0499     0.0278     2.4802
  761.5000   -22.6464     7.8740     7.8069     8.7292     0.1140     0.2572    90.8492     8.0493     0.0308     2.4847
  762.0000   -22.4984     7.6537     7.5921     8.5496     0.1149     0.2663    92.0404     8.0639     0.0218     2.4801
  762.5000   -22.2012     7.1766     7.2308     8.3738     0.1193     0.2699    93.2316     8.0632     0.0173     2.4703
  763.0000   -21.9032     6.5712     6.6512     8.3162     0.1260     0.2748    95.6259     8.0778     0.0203     2.4673
  763.5000   -21.6041     5.7576     5.7463     8.1452     0.1263     0.2829   102.5314     8.0923     0.0203     2.4664
  764.0000   -21.1557     5.0448     5.1998     7.9777     0.1278     0.3051   108.5346     8.0915    -0.0038     2.4642
  764.5000   -20.8576     4.8723     4.7173     7.6523     0.1381     0.3287   113.9364     8.1060    -0.0143     2.4522
  765.0000   -20.4093     4.7058     4.4417     6.4321     0.1525     0.3348   119.0374     8.1205    -0.0068     2.4228
  765.5000   -20.2613     4.6086     4.3497     4.7981     0.1619     0.3260   121.4316     8.1199     0.0053     2.4085
  766.0000   -19.9632     4.6086     4.4411     4.2328     0.1571     0.3075   118.2522     8.1193     0.0097     2.4431
  766.5000   -19.6662     4.6732     4.8274     4.9058     0.1329     0.2838   101.8563     8.1186    -0.0039     2.4716
  767.0000   -19.5182     4.8723     5.2473     6.3451     0.1184     0.2720    96.7317     8.1180    -0.0129     2.4776
  767.5000   -19.3714     5.1191     5.7837     8.4381     0.1159     0.2602    96.7199     8.1174    -0.0084     2.4798
  768.0000   -19.2257     5.6138     6.3307     8.6165     0.1174     0.2602    97.0119     8.1017     0.0036     2.4813
  768.5000   -19.0788     6.5257     7.0265     8.6170     0.1175     0.2620    96.6993     8.1011     0.0231     2.4820
  769.0000   -19.0833     7.0446     7.4800     8.6777     0.1165     0.2644    97.5869     8.1005     0.0426     2.4827
