~VERSION INFORMATION
 VERS.                2.0:   CWLS LOG ASCII STANDARD - VERSION 2.0
 WRAP.                 NO:   ONE LINE PER DEPTH STEP
~WELL INFORMATION
#MNEM.UNIT      DATA TYPE    INFORMATION
#----------   ------------   ------------------------------
 STRT.F           32.0000:   START DEPTH
 STOP.F          757.0000:   STOP DEPTH
 STEP.F            0.5000:   STEP LENGTH
 NULL.          -999.2500:   NO VALUE
 COMP. FENIX & SCISSON INC:   COMPANY
 WELL.     88 S 34 #88-34:   WELL
 FLD .             NPR #3:   FIELD
 LOC .      S34 T39N R78W:   LOCATION
 CNTY.            NATRONA:   COUNTY
 STAT.            WYOMING:   STATE
 CTRY. UNITED STATES OF AMERICA:   COUNTRY
 SRVC.              Welex:   SERVICE COMPANY
 DATE.        10-MAY-1977:   LOGDATE
 API .       490251035800:   API NUMBER
~CURVE INFORMATION
#MNEM.UNIT       API CODE    CURVE DESCRIPTION
#----------   ------------   ------------------------------
 DEPT.F                  :   
 GURD.OHMM   07 220 05 00:   SHALLOW GUARD RESISTIVITY
 ILD .OHMM   07 120 46 00:   INDUCTION LOG DEEP
 ILM .OHMM   07 120 44 00:   INDUCTION LOG MEDIUM
 SPR .MV     07 010 01 00:   SPONTANEOUS POTENTIAL FROM RES.
 CALD.IN     45 280 60 00:   CALIPER FROM DENSITY LOG
 CORR.G/C3   45 356 01 00:   DENSITY CORRECTION
 DPHI.DEC    45 890 12 00:   DENSITY POROSITY SANDSTONE
 GRD .GAPI   45 310 01 00:   GAMMA RAY FROM DENSITY LOG
 RHOB.G/C3   45 350 01 00:   BULK DENSITY
~PARAMETER INFORMATION
#MNEM.UNIT          VALUE    DESCRIPTION
#----------   ------------   ------------------------------
 PD  .                 GL:   PERMANENT DATUM
 EPD .F              5094:   ELEVATION PERMANENT DATUM
 LMF .                 GL:   LOG MEASURED FROM
 DMF .                 GL:   DRILLING MEASURED FROM
 EGL .F              5094:   GROUND LEVEL
 DATE.        10-MAY-1977:   RUN DATE
 RUN .                  1:   RUN NUMBER
 DD  .F               760:   DEPTH DRILLER
 DL  .F               759:   DEPTH LOGGER
 BLI .F               757:   BOTTOM LOG INTERVAL
 TLI .F                30:   TOP LOG INTERVAL
 CS  .IN            8.625:   CASING SIZE
 CBD .F                40:   CASING BOTTOM DRILLER
 CBL .F                45:   CASING BOTTOM LOGGER
 BS  .IN            7.875:   BIT SIZE
 BSD .F               760:   BIT SIZE AT DEPTH
 DFT .            KCL MUD:   DRILLING FLUID TYPE
 DFD .                9.0:   DRILLING FLUID DENSITY
 DFV .                 33:   DRILLING FLUID VISCOSITY
 DFPH.                7.5:   DRILLING FLUID PH
 DFL .                7.4:   DRILLING FLUID LOSS
 MSS .           FLOWLINE:   MUD SAMPLE SOURCE
 RMS .OHMM           0.33:   RESISTIVITY MUD SAMPLE
 MST .F                70:   MUD SAMPLE TEMPERATURE
 RMF .OHMM           0.28:   RESISTIVITY MUD FILTRATE SAMPLE
 MFST.F                70:   MUD FILTRATE SAMPLE TEMPERATURE
 RMC .OHMM           0.40:   RESISTIVITY MUD CAKE
 MCST.F                70:   MUD CAKE SAMPLE TEMPERATURE
 MFSS.           FANN KIT:   MUD FILTRATE SAMPLE SOURCE
 MCSS.           FANN KIT:   MUD CAKE SAMPLE SOURCE
 RMB .OHMM           0.26:   RESISTIVITY MUD AT BHT
 BHT .F                86:   BOTTOM HOLE TEMPERATURE
 TCS .HRS             1.5:   TIME CURCULATED STOPPED
 MRT .F                86:   MAXIMUM RECORDED TEMPERATURE
 LUN .               8611:   LOGGING UNIT NUMBER
 LUL .             CASPER:   LOGGING UNIT LOCATION
 ENGI.            C. DOAK:   RECORDING ENGINEER
 WITN.         D. RHOADES:   WITNESSED BY
 CLNT.            A2DTECH:   CLIENT CODE
 ORIG.           5" PRINT:   ORIGIN OF DATA
 UWI .       490251035800:   UNIQUE WELL ID
 DICO. A2D Technologies, Inc.:   DIGITIZING COMPANY
~OTHER INFORMATION
~A   DEPT     GURD        ILD        ILM        SPR         CALD      CORR      DPHI         GRD        RHOB 
# ...
   68.5000     5.9377     4.0618     4.3321    -3.5216     7.7785     0.0094     0.1793   103.0030     2.3779
   69.0000     5.8570     4.0344     4.3331    -3.6900     7.7784     0.0094     0.1751   102.7027     2.3817
   69.5000     5.5814     3.9801     4.3339    -4.1149     7.7783     0.0064     0.1718   103.7538     2.3870
   70.0000     5.2456     3.8993     4.2751    -4.4112     7.7931     0.0064     0.1699   105.8559     2.3929
   70.5000     4.9986     3.8465     4.2762    -4.5591     7.8079     0.0065     0.1681   105.5556     2.3960
   71.0000     4.8294     3.7427     4.2183    -4.5574     7.8228     0.0095     0.1657   104.3544     2.4005
   71.5000     4.6935     3.6415     4.1328    -4.5559     7.8226     0.0200     0.1623   104.2042     2.4080
   72.0000     4.5084     3.5430     3.9932    -4.4051     7.8225     0.0321     0.1558   105.8559     2.4155
   72.5000     4.3558     3.3695     3.8852    -4.1056     7.8374     0.0411     0.1513   107.0746     2.4215
   73.0000     4.2670     3.1088     3.7800    -3.8062     7.8222     0.0471     0.1489   105.7057     2.4283
   73.5000     4.1513     2.8820     3.5486    -3.3576     7.8370     0.0531     0.1486   101.6516     2.4298
   74.0000     4.0006     2.7089     3.3164    -2.4461     7.8369     0.0577     0.1492    99.8499     2.4283
   74.5000     3.5669     2.5638     3.1171    -1.7151     7.8517     0.0532     0.1559    99.8499     2.4043
   75.0000     3.0856     2.4946     2.9096    -0.2233     7.8216     0.0472     0.1729   100.6006     2.3803
   75.5000     2.4568     2.4778     2.8702  -999.2500     7.8064     0.0443     0.1897   101.6516     2.3622
   76.0000     2.1252     2.5129     2.9129  -999.2500     7.7913     0.0413     0.1969   102.1021     2.3468
   76.5000     2.1536     2.5837     3.1413  -999.2500     7.7762     0.0398     0.2068    99.2493     2.3330
   77.0000     5.4030     2.7499     3.6076  -999.2500     7.7760     0.0369     0.2149    96.6967     2.3112
   77.5000     5.9524     3.0507     4.1430  -999.2500     7.7909     0.0308     0.2242    93.3934     2.2925
   78.0000     5.2571     3.3843     4.3793  -999.2500     7.7907     0.0204     0.2284    90.2402     2.3082
   78.5000     5.3310     3.6521     4.4726  -999.2500     7.7905     0.0070     0.1963    90.3904     2.3713
   79.0000     5.4859     3.8602     4.5667  -999.2500     7.7754    -0.0125     0.1615    96.8468     2.3998
   79.5000     5.5583     4.0802     4.5993  -999.2500     7.7753    -0.0020     0.1528   106.1727     2.4246
   80.0000     5.1167     4.3429     4.6642  -999.2500     7.7751     0.0071     0.1573   109.6096     2.4104
   80.5000     5.7155     4.4347     4.6652  -999.2500     7.7749     0.0101     0.1561   110.5105     2.4171
   81.0000     5.8814     4.4355     4.6984  -999.2500     7.7748     0.0116     0.1585   111.1111     2.4156
   81.5000     5.6275     4.3753     4.6670  -999.2500     7.7897     0.0131     0.1639   111.2613     2.4066
   82.0000     5.4478     4.2863     4.6360  -999.2500     7.8045     0.0132     0.1612   110.9610     2.4075
   82.5000     5.4110     4.2256     4.5733  -999.2500     7.8043     0.0132     0.1594   110.6607     2.4104
   83.0000     5.4119     4.0863     4.4189  -999.2500     7.8142     0.0132     0.1654   110.6607     2.4052
   83.5000     5.0863     3.9757     4.2403  -999.2500     7.8340     0.0087     0.1762   110.6607     2.3871
   84.0000     4.5234     3.8682     4.0050  -999.2500     7.8339     0.0013     0.1840   111.8619     2.3691
   84.5000     3.9674     3.6596     3.7202  -999.2500     7.8337    -0.0032     0.1926   113.6637     2.3549
   85.0000     3.5039     3.3708     3.4726  -999.2500     7.8336    -0.0047     0.2014   115.1652     2.3425
   85.5000     3.1160     3.1903     3.4254  -999.2500     7.8334    -0.0046     0.2062   115.7658     2.3309
   86.0000     2.8096     3.0614     3.4980  -999.2500     7.8333    -0.0016     0.2095   116.0661     2.3241
   86.5000     3.0529     3.0587     3.7034  -999.2500     7.8331    -0.0001     0.2137   116.6667     2.3196
   87.0000     5.1266     3.1505     3.9630  -999.2500     7.8030     0.0000     0.2149   117.5676     2.3174
   87.5000     5.2710     3.3280     4.1603  -999.2500     7.8028    -0.0030     0.2139   118.6186     2.3174
   88.0000     5.2717     3.5177     4.3073  -999.2500     7.7877    -0.0075     0.2097   118.0180     2.3228
   88.5000     5.0583     3.6420     4.4906  -999.2500     7.7875    -0.0074     0.2013   109.1592     2.3362
   89.0000     4.8536     3.7968     4.6173  -999.2500     7.7874    -0.0044     0.1824   102.8529     2.3602
   89.5000     4.9903     3.9344     4.7479  -999.2500     7.7873    -0.0044     0.1755   102.2523     2.3797
   90.0000     5.1664     4.0982     4.8149     0.1194     7.8021    -0.0028     0.1773   103.6637     2.3835
   90.5000     5.3858     4.2138     4.8829    -0.4753     7.7869    -0.0028     0.1803   106.3063     2.3775
   91.0000     5.5759     4.2438     4.8838    -0.7723     7.7718    -0.0013     0.1797   107.9580     2.3760
   91.5000     5.6154     4.2740     4.8178    -1.2176     7.7417    -0.0013     0.1749   109.4595     2.3850
   92.0000     5.5773     4.2749     4.7528    -1.8119     7.7565     0.0003     0.1719   109.7598     2.3925
   92.5000     5.5015     4.2759     4.6562    -2.2576     7.7714     0.0018     0.1728   108.4084     2.3895
   93.0000     5.3156     4.2473     4.5614    -2.5546     7.7733     0.0048     0.1719   107.2062     2.3888
   93.5000     5.5806     4.2190     4.4381    -3.1490     7.8160     0.0079     0.1707   107.9580     2.3903
   94.0000     5.5422     4.1619     4.3475    -3.5946     7.8459     0.0109     0.1695   108.8589     2.3933
   94.5000     5.2812     4.1314     4.2013    -4.3380     7.8457     0.0109     0.1683   110.3604     2.3978
   95.0000     4.5371     4.0225     4.0876    -5.0817     7.8456     0.0124     0.1707   111.4114     2.3903
   95.5000     4.7625     3.8867     3.9224    -5.8255     7.8454     0.0110     0.1815   110.0601     2.3783
   96.0000     4.9992     3.7298     3.7639    -6.4205     7.8603     0.0110     0.1872   108.2583     2.3633
   96.5000     4.7639     3.5791     3.5869    -7.0149     7.8601     0.0140     0.1884   107.9580     2.3611
   97.0000     4.2955     3.4319     3.4420    -7.6324     7.8749     0.0171     0.1887   108.1502     2.3596
   97.5000     3.6648     3.2508     3.3953    -8.3530     7.8748     0.0171     0.1890   109.7598     2.3588
   98.0000     3.1267     3.1411     3.4197    -8.9477     7.8747     0.0201     0.1953   112.3123     2.3543
   98.5000     2.8783     3.0772     3.4441    -9.2443     7.8745     0.0203     0.2034   114.8649     2.3348
   99.0000     3.9016     3.0567     3.4687    -9.5410     7.8744     0.0170     0.2112   114.8649     2.3213
   99.5000     4.4495     3.0309     3.4694    -9.6886     7.8742     0.0112     0.2100   114.1141     2.3228
  100.0000     4.5119     2.9842     3.4430   -10.1628     7.8736     0.0082     0.2061   112.0120     2.3318
  100.5000     4.2659     2.9497     3.4036   -10.5228     7.8672     0.0083     0.2022   106.3029     2.3361
  101.0000     4.0404     2.9149     3.3307   -10.8828     7.8609     0.0113     0.2031   106.6004     2.3332
  101.5000     3.9034     2.8516     3.2405   -11.3218     7.8546     0.0128     0.2058   109.9008     2.3277
  102.0000     3.6431     2.7406     3.1528   -12.3636     7.8482     0.0143     0.2163   115.9039     2.3100
  102.5000     3.0866     2.6664     3.0675   -12.8266     7.8441     0.0188     0.2244   112.5970     2.3003
  103.0000     3.0026     2.5765     2.9435   -13.2546     7.8441     0.0218     0.2249   110.3419     2.2980
  103.5000     3.2626     2.4724     2.8427   -13.5512     7.8291     0.0248     0.2249   109.4381     2.2973
  104.0000     3.2853     2.3890     2.7863   -13.6988     7.8441     0.0249     0.2255   110.0358     2.2974
  104.5000     2.6521     2.3730     2.7870   -13.8468     7.8291     0.0219     0.2276   111.8347     2.2951
