~VERSION INFORMATION
 VERS.                2.0:   CWLS LOG ASCII STANDARD - VERSION 2.0
 WRAP.                 NO:   ONE LINE PER DEPTH STEP
~WELL INFORMATION
#MNEM.UNIT      DATA TYPE    INFORMATION
#----------   ------------   ------------------------------
 STRT.F            0.0000:   START DEPTH
 STOP.F          675.0000:   STOP DEPTH
 STEP.F            0.5000:   STEP LENGTH
 NULL.          -999.2500:   NO VALUE
 COMP.       F D SERV INC:   COMPANY
 WELL. NAVEL PETROLEUM RESERVE 3 SX-2 #18-1-2:   WELL
 FLD .             TEAPOT:   FIELD
 LOC .       S2 T38N R78W:   LOCATION
 CNTY.            NATRONA:   COUNTY
 STAT.            WYOMING:   STATE
 CTRY. UNITED STATES OF AMERICA:   COUNTRY
 SRVC.     Atlas Wireline:   SERVICE COMPANY
 DATE.        23-DEC-1991:   LOGDATE
 API .       490252247200:   API NUMBER
~CURVE INFORMATION
#MNEM.UNIT       API CODE    CURVE DESCRIPTION
#----------   ------------   ------------------------------
 DEPT.F                  :   
 GRR .GAPI   07 310 01 00:   GAMMA RAY FROM RES. LOG.
 SPR .MV     07 010 01 00:   SPONTANEOUS POTENTIAL
 SFL .OHMM   07 220 01 00:   SHALLOW FOCUSED LOG RESISTIVITY
 ILD .OHMM   07 120 46 00:   INDUCTION LOG DEEP
 ILM .OHMM   07 120 44 00:   INDUCTION LOG MEDIUM
~PARAMETER INFORMATION
#MNEM.UNIT          VALUE    DESCRIPTION
#----------   ------------   ------------------------------
 PD  .                 GL:   PERMANENT DATUM
 EPD .F              5148:   ELEVATION PERMANENT DATUM
 LMF .                 KB:   LOG MEASURED FROM
 DAPD.F                10:   FEET ABOVE PERMANENT DATUM
 DMF .                 KB:   DRILLING MEASURED FROM
 EKB .F              5158:   KELLING BUSHING
 EGL .F              5148:   GROUND LEVEL
 DATE.        23-DEC-1991:   RUN DATE
 RUN .                  1:   RUN NUMBER
 DD  .F               630:   DEPTH DRILLER
 DL  .F               678:   DEPTH LOGGER
 BLI .F               675:   BOTTOM LOG INTERVAL
 CS  .IN            9.625:   CASING SIZE
 CBD .F                44:   CASING BOTTOM DRILLER
 CBL .F                48:   CASING BOTTOM LOGGER
 BS  .IN             8.75:   BIT SIZE
 BSD .F               680:   BIT SIZE AT DEPTH
 DFT .           CHEM GEL:   DRILLING FLUID TYPE
 DFD .                9.7:   DRILLING FLUID DENSITY
 DFV .                 79:   DRILLING FLUID VISCOSITY
 DFPH.                  9:   DRILLING FLUID PH
 DFL .                 10:   DRILLING FLUID LOSS
 MSS .           MUD TANK:   MUD SAMPLE SOURCE
 RMS .OHMM            .82:   RESISTIVITY MUD SAMPLE
 MST .F                54:   MUD SAMPLE TEMPERATURE
 RMF .OHMM           1.02:   RESISTIVITY MUD FILTRATE SAMPLE
 MFST.F                54:   MUD FILTRATE SAMPLE TEMPERATURE
 RMC .OHMM            .51:   RESISTIVITY MUD CAKE
 MCST.F                54:   MUD CAKE SAMPLE TEMPERATURE
 MFSS.               CALC:   MUD FILTRATE SAMPLE SOURCE
 MCSS.               CALC:   MUD CAKE SAMPLE SOURCE
 RMB .OHMM            .43:   RESISTIVITY MUD AT BHT
 BHT .F               102:   BOTTOM HOLE TEMPERATURE
 TCS .HRS               2:   TIME CURCULATED STOPPED
 MRT .F               102:   MAXIMUM RECORDED TEMPERATURE
 LUN .            HL-6307:   LOGGING UNIT NUMBER
 LUL .             CASPER:   LOGGING UNIT LOCATION
 ENGI.            WADDELL:   RECORDING ENGINEER
 WITN.              FJVAS:   WITNESSED BY
 CLNT.            A2DTECH:   CLIENT CODE
 ORIG.      2" & 5" PRINT:   ORIGIN OF DATA
 UWI .       490252247200:   UNIQUE WELL ID
 DICO. A2D Technologies, Inc.:   DIGITIZING COMPANY
~OTHER INFORMATION
~A    DEPT      GRR       SPR        SFL        ILD        ILM   
# ...
  122.0000   104.2676   -10.7242     6.6194     5.4710     5.8253
  122.5000   103.1480   -10.7705     6.5489     5.4541     5.7948
  123.0000   103.1363   -10.7198     6.4790     5.4405     5.7413
  123.5000   105.7437   -10.6672     6.4092     5.5002     5.6985
  124.0000   108.9220   -10.6148     6.3689     5.5610     5.8586
  124.5000   110.1614   -10.5625     6.4726     5.6224     5.9961
  125.0000   107.9267   -10.5103     6.5482     5.6846     6.1369
  125.5000   105.9149   -10.4580     6.8196     5.7474     6.1850
  126.0000   106.5294   -10.4058     6.9952     5.8110     6.2327
  126.5000   106.5172   -10.3535     7.0520     5.8751     6.2811
  127.0000   105.8080   -10.3012     7.0197     5.9488     6.3299
  127.5000   107.1529   -10.2489     6.9649     6.0357     6.3790
  128.0000   109.2670   -10.2022     6.9223     6.1237     6.4279
  128.5000   108.9035   -10.2017     6.9417     6.1938     6.4617
  129.0000   104.2656   -10.2002     6.9607     6.1662     6.4951
  129.5000    99.9073   -10.2908     6.9870     6.1434     6.5293
  130.0000    99.8920   -10.4165     6.9696     6.1206     6.5479
  130.5000   101.0691   -10.5426     6.9415     6.0979     6.4412
  131.0000   100.2919   -10.6679     6.9135     6.0623     6.3669
  131.5000    99.1842   -10.7981     6.8857     5.9825     6.2934
  132.0000    99.6795   -11.2134     6.8587     5.9037     6.2208
  132.5000   101.7706   -11.5932     6.8345     5.8258     6.1490
  133.0000   103.0736   -11.3944     6.8110     5.7489     6.0781
  133.5000   103.5974   -11.1131     6.7878     5.6733     6.0079
  134.0000   104.8186   -11.1236     6.7649     5.6459     5.9687
  134.5000   106.6982   -11.2486     6.7403     5.6713     6.0985
  135.0000   106.3962   -11.3778     6.5969     5.7792     6.2570
  135.5000   105.4345   -11.4138     6.3867     5.8893     6.5331
  136.0000   102.9946   -11.4145     6.1873     6.0014     6.8242
  136.5000    97.9827   -11.4152     6.6555     6.1156     7.0587
  137.0000    93.0313   -11.4131     7.5996     6.2321     7.0861
  137.5000    88.8327   -11.2126     8.9058     6.3507     7.1177
  138.0000    87.3626   -10.9873    10.0284     6.4814     7.0874
  138.5000    90.0698   -10.7646     8.2044     6.6165     7.0402
  139.0000    92.6948   -10.6753     7.0520     6.7544     6.9936
  139.5000    93.6047   -10.9340     7.3264     6.8587     6.9474
  140.0000    95.7012   -11.1867     7.5780     6.6848     6.9015
  140.5000    98.4666   -11.4394     7.6653     6.5496     6.8587
  141.0000   100.7907   -11.6919     7.4097     6.4172     6.7140
  141.5000   101.0337   -11.9445     7.2397     6.2874     6.5806
  142.0000   100.5692   -12.1972     7.0736     6.1612     6.4498
  142.5000   101.3070   -12.4491     6.9113     6.0395     6.3216
  143.0000   103.1968   -12.6587     6.7527     5.9207     6.1960
  143.5000   104.9701   -12.7577     6.6091     5.8040     6.0729
  144.0000   104.3530   -12.8586     6.5545     5.6985     5.9136
  144.5000   102.5349   -12.9597     6.5039     5.6985     5.9603
  145.0000   101.8958   -13.0609     6.4878     5.6985     6.0298
  145.5000   101.2697   -13.1612     6.6242     5.7450     6.1002
  146.0000   100.6281   -13.2199     6.7180     5.8140     6.1714
  146.5000   101.2037   -13.1699     6.8132     5.8838     6.2435
  147.0000   103.2188   -13.1215     6.9097     5.9544     6.3164
  147.5000   105.4205   -13.0724     7.0076     6.0259     6.3901
  148.0000   107.6061   -13.0315     7.1069     6.0983     6.4649
  148.5000   108.5302   -13.2376     7.1177     6.1715     6.5395
  149.0000   107.0163   -13.4697     7.1177     6.2270     6.6108
  149.5000   105.4616   -13.7016     7.1175     6.2920     6.6814
  150.0000   105.4478   -13.9331     7.1175     6.3586     6.7529
  150.5000   106.4400   -14.1644     7.1655     6.4258     6.8251
  151.0000   107.0830   -14.3961     7.2616     6.4936     6.8981
  151.5000   106.7668   -14.6389     7.3589     6.5622     6.9718
  152.0000   106.8658   -15.0396     7.4576     6.6190     7.0520
  152.5000   108.0839   -15.4677     7.5246     6.6516     7.0797
  153.0000   110.3214   -15.8956     7.5201     6.6836     7.1098
  153.5000   111.0622   -16.3030     7.5908     6.7158     7.1399
  154.0000   107.4427   -16.5154     7.6625     6.7483     7.1839
  154.5000   103.9859   -16.7357     7.7363     6.7954     7.1227
  155.0000   106.3154   -16.9562     7.6032     6.7388     7.0131
  155.5000   110.5602   -17.1785     7.4658     6.6382     6.9049
  156.0000   111.6418   -17.2712     7.3309     6.5392     6.7984
  156.5000   108.1019   -17.2728     7.1984     6.4416     6.6936
  157.0000   106.0041   -17.2730     7.1177     6.3455     6.5904
  157.5000   107.2420   -17.2717     7.1177     6.2508     6.4878
  158.0000   107.6279   -17.3662     7.1177     6.0803     6.5044
  158.5000   103.6546   -17.5216     7.1177     6.1112     6.5213
  159.0000   103.8673   -17.6778     7.1176     6.1371     6.5382
  159.5000   107.6567   -17.8333     7.1179     6.1632     6.5552
  160.0000   111.4136   -17.9902     7.0996     6.1894     6.5722
  160.5000   110.7571   -18.1711     7.0777     6.2157     6.5892
  161.0000   108.7262   -18.6328     7.0515     6.2420     6.6063
  161.5000   107.7450   -19.0856     7.0880     6.2685     6.6234
  162.0000   106.8212   -19.5373     7.1460     6.2952     6.6406
  162.5000   105.2656   -19.9906     7.2043     6.3219     6.6579
  163.0000   104.3760   -20.4422     7.2628     6.3487     6.6797
  163.5000   103.7424   -20.5738     7.3183     6.3743     6.7154
  164.0000   103.4854   -20.6745     7.2694     6.3961     6.7512
  164.5000   104.9075   -20.7756     7.2132     6.4180     6.7873
  165.0000   106.4370   -20.8778     7.1574     6.4399     6.8236
  165.5000   106.4334   -20.8766     7.1177     6.4619     6.8600
  166.0000   106.2934   -20.7391     7.3142     6.4839     6.8966
  166.5000   104.9487   -20.6064     7.5001     6.5061     6.9303
  167.0000   102.0446   -20.4737     7.5946     6.5283     6.9565
  167.5000   101.6484   -20.3356     7.4125     6.5512     6.9829
  168.0000   103.5039   -20.3033     7.3183     6.5790     7.0093
  168.5000   110.0263   -20.3026     7.5790     6.6070     7.0359
  169.0000   109.3284   -20.3030     7.8814     6.6350     7.0625
  169.5000   105.2410   -20.3026     7.8259     6.6632     7.0892
  170.0000   101.2834   -20.3009     7.7224     6.7507     7.1177
  170.5000   100.1682   -20.3092     7.5946     6.8610     7.2594
  171.0000   100.2692   -20.6710     7.7119     6.9731     7.4133
  171.5000   100.6437   -21.0631     7.8717     7.0871     7.5704
  172.0000   102.0068   -21.4545     8.0349     7.1898     7.7367
  172.5000   105.7839   -21.8461     8.2012     7.2193     7.7803
  173.0000   105.0881   -22.2455     8.4088     7.2501     7.8257
  173.5000   103.1487   -22.3590     8.3628     7.2808     7.8819
  174.0000   103.2316   -22.4063     8.3031     7.3118     7.8810
  174.5000   106.7560   -22.4517     8.2437     7.3428     7.8814
  175.0000   108.1479   -22.4971     8.1848     7.3740     7.8814
  175.5000   107.5857   -22.5054     8.1036     7.3864     7.8812
  176.0000   106.8425   -22.4539     8.1496     7.3864     7.8824
  176.5000   108.3151   -22.4032     8.2260     7.4319     7.8799
  177.0000   112.3024   -22.3521     8.3037     7.5065     8.0644
  177.5000   113.5461   -22.2934     8.4819     7.5818     8.1961
  178.0000   112.8890   -22.2231     8.7303     7.7024     8.3301
  178.5000   107.8218   -22.1531     8.9731     7.8340     8.4662
  179.0000   105.7152   -22.0828     9.0277     7.9679     8.5676
  179.5000   107.0856   -22.0129     9.0805     8.1041     8.6632
  180.0000   108.3192   -21.9437     9.1335     8.2107     8.7599
  180.5000   107.4721   -22.0131     9.1869     8.3347     8.8576
  181.0000   106.4381   -22.2169     9.2406     8.4605     8.9293
  181.5000   105.3742   -22.4196     9.2945     8.5882     9.0127
  182.0000   104.4021   -22.6231     9.3119     8.7178     9.0973
  182.5000   104.2605   -22.8263     9.3119     8.8494     9.1825
