~VERSION INFORMATION
 VERS.                2.0:   CWLS LOG ASCII STANDARD - VERSION 2.0
 WRAP.                 NO:   ONE LINE PER DEPTH STEP
~WELL INFORMATION
#MNEM.UNIT      DATA TYPE    INFORMATION
#----------   ------------   ------------------------------
 STRT.F           29.0000:   START DEPTH
 STOP.F          642.0000:   STOP DEPTH
 STEP.F            0.5000:   STEP LENGTH
 NULL.          -999.2500:   NO VALUE
 COMP. FENIX & SCISSON INC:   COMPANY
 WELL.    NPR-3 SX #21-10:   WELL
 FLD .  TEAPOT DOME NPR 3:   FIELD
 LOC .      S10 T38N R78W:   LOCATION
 CNTY.            NATRONA:   COUNTY
 STAT.            WYOMING:   STATE
 CTRY. UNITED STATES OF AMERICA:   COUNTRY
 SRVC.            Unknown:   SERVICE COMPANY
 DATE.        03-JUL-1978:   LOGDATE
 API .       490251065400:   API NUMBER
~CURVE INFORMATION
#MNEM.UNIT       API CODE    CURVE DESCRIPTION
#----------   ------------   ------------------------------
 DEPT.F                  :   
 SPR .MV     05 010 01 00:   SPONTANEOUS POTENTIAL FROM RES.
 SN  .OHMM   05 040 16 00:   SHORT NORMAL 16"
 ILD .OHMM   05 120 46 00:   INDUCTION LOG DEEP
 CALD.IN     45 280 60 00:   CALIPER FROM DENSITY
 GRD .GAPI   45 310 01 00:   GAMMA RAY FROM DENSITY LOG
 CORR.G/C3   45 356 01 00:   DENSITY CORRECTION
 DPHI.DEC    45 890 12 00:   DENSITY POROSITY SANDSTONE
 DEN .G/C3   45 350 01 00:   COMPENSATED BULK DENSTIY
~PARAMETER INFORMATION
#MNEM.UNIT          VALUE    DESCRIPTION
#----------   ------------   ------------------------------
 PD  .                 GL:   PERMANENT DATUM
 EPD .F              5253:   ELEVATION PERMANENT DATUM
 LMF .                 KB:   LOG MEASURED FROM
 DAPD.F                 4:   FEET ABOVE PERMANENT DATUM
 DMF .                 KB:   DRILLING MEASURED FROM
 EKB .F              5257:   KELLING BUSHING
 EGL .F              5253:   GROUND LEVEL
 DATE.           7-3-1978:   RUN DATE
 RUN .                  1:   RUN NUMBER
 DD  .F               650:   DEPTH DRILLER
 DL  .F               648:   DEPTH LOGGER
 BLI .F               642:   BOTTOM LOG INTERVAL
 TLI .F                40:   TOP LOG INTERVAL
 CS  .IN            8.625:   CASING SIZE
 CBD .F                40:   CASING BOTTOM DRILLER
 CBL .F                40:   CASING BOTTOM LOGGER
 BS  .IN            7.875:   BIT SIZE
 BSD .F               650:   BIT SIZE AT DEPTH
 DFT .                KCL:   DRILLING FLUID TYPE
 DFD .                8.6:   DRILLING FLUID DENSITY
 DFV .                 32:   DRILLING FLUID VISCOSITY
 DFPH.                  9:   DRILLING FLUID PH
 MSS .           FLOWLINE:   MUD SAMPLE SOURCE
 RMS .OHMM            .24:   RESISTIVITY MUD SAMPLE
 MST .F                88:   MUD SAMPLE TEMPERATURE
 RMF .OHMM            .24:   RESISTIVITY MUD FILTRATE SAMPLE
 MFST.F                94:   MUD FILTRATE SAMPLE TEMPERATURE
 RMC .OHMM            .46:   RESISTIVITY MUD CAKE
 MCST.F                96:   MUD CAKE SAMPLE TEMPERATURE
 MFSS.               MEAS:   MUD FILTRATE SAMPLE SOURCE
 MCSS.               MEAS:   MUD CAKE SAMPLE SOURCE
 TCS .HRS               2:   TIME CURCULATED STOPPED
 LUN .               2958:   LOGGING UNIT NUMBER
 LUL .               CASP:   LOGGING UNIT LOCATION
 CLNT.            A2DTECH:   CLIENT CODE
 ORIG.           5" PRINT:   ORIGIN OF DATA
 UWI .       490251065400:   UNIQUE WELL ID
 DICO. A2D Technologies, Inc.:   DIGITIZING COMPANY
~OTHER INFORMATION
~A   DEPT      SPR         SN        ILD       CALD        GRD       CORR       DPHI        DEN   
# ...
  434.0000   -23.5753     5.5136     5.0765     7.9994   129.5989     0.0316     0.1627     2.4256
  434.5000   -23.7055     5.4792     5.0806     8.0147   134.6151     0.0301     0.1603     2.4191
  435.0000   -23.6746     5.4847     5.0847     8.0300   135.5015     0.0270     0.1349     2.4260
  435.5000   -23.6498     5.6423     5.0893     8.0602   135.5030     0.0270     0.1088     2.4788
  436.0000   -23.6250     6.2177     5.2522     8.0755   135.5044     0.0255     0.1022     2.5058
  436.5000   -23.5997     6.6658     5.9781     8.1207   128.8688     0.0240     0.1022     2.5215
  437.0000   -23.5744     6.9046     6.3584     8.1809   124.7404     0.0165     0.1102     2.5080
  437.5000   -23.5445     7.1030     6.5411     8.1662   124.5944    -0.0030     0.1273     2.5058
  438.0000   -23.3709     7.2611     6.8222     8.1365   129.3314    -0.0045     0.1340     2.4833
  438.5000   -23.1973     7.4657     7.0667     8.0770   130.3495     0.0044     0.1303     2.4669
  439.0000   -23.1725     7.6288     7.3199     8.0323   127.8730     0.0074     0.1136     2.4706
  439.5000   -22.9989     7.6877     7.4785     8.0326   121.2768     0.0074     0.1104     2.4983
  440.0000   -22.8253     7.8543     7.6406     8.0479   118.9970     0.0028     0.1169     2.5065
  440.5000   -22.5029     7.8607     7.7527     8.0482   119.7832     0.0013     0.1220     2.5005
  441.0000   -22.3293     7.9213     7.9208     8.0635   121.5899    -0.0002     0.1197     2.4908
  441.5000   -22.3045     7.9277     7.9819     8.0638   123.7215    -0.0002     0.1167     2.4833
  442.0000   -22.1310     7.9342     7.9885     8.0790   124.3126    -0.0003     0.1182     2.4968
  442.5000   -21.8080     7.9406     7.9951     8.0943   121.6596     0.0012     0.1206     2.4997
  443.0000   -22.0814     8.0019     8.0029     8.0947   121.8085     0.0012     0.1209     2.4937
  443.5000   -22.1992     8.0636     8.0094     8.0950   122.5474     0.0011     0.1227     2.4922
  444.0000   -22.1744     8.1259     8.0712     8.0953   122.6960     0.0011     0.1347     2.4848
  444.5000   -22.0009     8.1326     8.1335     8.0357   121.0755     0.0011     0.1329     2.4788
  445.0000   -21.9761     8.1407     8.1963     8.0360   119.7495     0.0070     0.1302     2.4690
  445.5000   -21.8025     8.1473     8.2029     8.0512   120.3409     0.0369     0.1305     2.4780
  446.0000   -21.6289     8.1538     8.2096     8.0815   121.3748     0.0338     0.1173     2.5177
  446.5000   -21.6041     8.1604     8.2162     8.1117   121.6713     0.0323     0.1038     2.5259
  447.0000   -21.5793     8.1671     8.2229     8.1420   119.9028     0.0325     0.1077     2.5204
  447.5000   -21.7039     8.1737     8.2295     8.1571   119.0190     0.0353     0.1101     2.5106
  448.0000   -21.9762     8.2367     8.2931     8.0976   118.8729     0.0367     0.1111     2.5016
  448.5000   -21.9509     8.1853     8.2999     8.0380   119.1698     0.0337     0.1096     2.5026
  449.0000   -21.9256     8.2501     8.4319     8.0233   119.4662     0.0307     0.1063     2.5086
  449.5000   -21.8957     8.2568     8.5468     8.0386   120.6476     0.0292     0.1060     2.5153
  450.0000   -22.0259     8.2635     8.7303     8.0688   121.0913     0.0306     0.1129     2.5120
  450.5000   -21.8840     8.2124     8.5546     8.1439   117.5501     0.0336     0.1222     2.4974
  451.0000   -22.2728     8.2767     8.2768     8.1889   117.9971     0.0351     0.1198     2.4906
  451.5000   -22.2495     8.2245     7.8416     8.2190   118.1416     0.0425     0.1204     2.4913
  452.0000   -21.9286     8.1196     7.2718     8.2192   118.2950     0.0365     0.1237     2.4913
  452.5000   -21.5947     7.9596     6.4687     8.2193   118.8791     0.0290     0.1273     2.4890
  453.0000   -21.1121     7.6434     6.2635     8.2045   119.0266     0.0125     0.1509     2.4823
  453.5000   -20.5135     7.1324     6.4892     8.2047   117.0472     0.0170     0.1770     2.4591
  454.0000   -20.0437     6.6638     6.4945     8.2048   114.7493     0.0349     0.2036     2.3708
  454.5000   -19.4252     6.4501     6.4551     8.2199   117.5782     0.0902     0.1836     2.3558
  455.0000   -19.1042     6.4561     6.5050     8.2350   121.2682     0.0782     0.1566     2.3755
  455.5000   -18.6345     7.0652     6.6459     8.7741   130.2684     0.0303     0.1342     2.4597
  456.0000   -18.3194     8.1692     8.0640     8.0108   129.5399     0.0288     0.1034     2.5021
  456.5000   -18.5937     8.8177     9.0717     8.0259   125.0429     0.0288     0.1058     2.5103
  457.0000   -18.7143     9.3234     9.6588     8.0261   118.2301     0.0287     0.1057     2.5173
  457.5000   -18.9881     9.8581    10.4264     7.9962   116.3717     0.0287     0.1055     2.5172
  458.0000   -19.1131    10.4235    10.3596     7.9814   116.3953     0.0272     0.1079     2.5163
  458.5000   -18.9405    10.2825    10.1599     7.9816   116.6917     0.0256     0.1153     2.5052
  459.0000   -18.4702    10.1556    10.2403     7.9818   116.9882     0.0256     0.1182     2.5045
  459.5000   -17.6980    10.0953    10.4623     7.9819   117.4041     0.0286     0.1225     2.5020
  460.0000   -17.3771    10.1725    10.5430     7.9821   117.4041     0.0330     0.1268     2.4871
  460.5000   -17.8060    10.1800    10.7715     7.9822   117.1091     0.0330     0.1274     2.4864
  461.0000   -17.9257    10.3999    11.0810     7.9824   114.1593     0.0300     0.1283     2.4782
  461.5000   -17.9023    10.7717    11.5443     7.9825   112.9793     0.0285     0.1289     2.4797
  462.0000   -17.7302    11.3114    12.3963     7.9676   114.4543     0.0299     0.1334     2.4811
  462.5000   -17.2604    11.6355    13.0264     7.9678   115.7817     0.0359     0.1489     2.4572
  463.0000   -16.6419    11.8055    13.6665     7.9830   114.7493     0.0403     0.1618     2.4362
  463.5000   -16.1721    11.9778    14.2539     7.9831   109.7345     0.0403     0.1603     2.4212
  464.0000   -15.4048    11.8228    14.6634     7.9833   103.2448     0.0358     0.1635     2.4212
  464.5000   -14.7857    11.7505    14.6752     7.9834    94.5428     0.0298     0.1793     2.4197
  465.0000   -14.2907    11.7613    14.4864     7.9836    88.0531     0.0268     0.1822     2.3883
  465.5000   -13.6921    11.7700    14.2020     7.9837    87.1681     0.0297     0.1822     2.3873
  466.0000   -13.3711    11.7787    13.7330     8.0138    88.0531     0.0327     0.1973     2.3906
  466.5000   -13.3478    11.7066    13.1884     8.0439    91.1504     0.0341     0.2116     2.3568
  467.0000   -13.3245    11.7152    13.1084     8.0440    92.1829     0.0311     0.2194     2.3478
  467.5000   -13.3011    11.7238    13.1192     8.0442    91.5929     0.0236     0.2086     2.3298
  468.0000   -13.2778    11.6521    13.2207     8.0443    90.4130     0.0236     0.2092     2.3343
  468.5000   -13.2545    11.7415    13.5096     8.0445    90.4130     0.0280     0.2119     2.3502
  469.0000   -13.2312    11.8331    13.6139     8.0446    90.4130     0.0385     0.2146     2.3372
  469.5000   -13.3571    12.0887    13.7189     8.0448    90.4130     0.0429     0.2143     2.3282
  470.0000   -13.6310    12.3499    14.0163     8.0449    90.2655     0.0414     0.2053     2.3327
  470.5000   -13.9052    12.7914    14.4189     8.0451    89.2330     0.0369     0.1787     2.3551
  471.0000   -14.3522    13.2488    14.9355     8.0602    86.2832     0.0354     0.1724     2.3850
  471.5000   -14.9003    13.6284    15.5774     8.0753    85.8407     0.0294     0.1598     2.4097
  472.0000   -15.3234    14.0190    15.9151     8.0755    88.2006     0.0233     0.1470     2.4403
  472.5000   -15.4489    14.0293    16.1486     8.0756    89.6755     0.0069     0.1422     2.4537
  473.0000   -15.4197    14.0399    16.1616     8.0458    89.8230     0.0053     0.1467     2.4522
  473.5000   -15.3964    13.8606    16.1749     7.9861    86.4307     0.0068     0.1536     2.4425
  474.0000   -15.2242    13.6788    16.1883     7.9712    85.8407     0.0098     0.1650     2.4327
