~VERSION INFORMATION
 VERS.                2.0:   CWLS LOG ASCII STANDARD - VERSION 2.0
 WRAP.                 NO:   ONE LINE PER DEPTH STEP
~WELL INFORMATION
#MNEM.UNIT      DATA TYPE    INFORMATION
#----------   ------------   ------------------------------
 STRT.F           20.0000:   START DEPTH
 STOP.F          478.0000:   STOP DEPTH
 STEP.F            0.5000:   STEP LENGTH
 NULL.          -999.2500:   NO VALUE
 COMP. FENIX & SCISSON INC:   COMPANY
 WELL.   56 31 SX #56-3FP:   WELL
 FLD .             TEAPOT:   FIELD
 LOC .       S3 T38N R78W:   LOCATION
 CNTY.            NATRONA:   COUNTY
 STAT.            WYOMING:   STATE
 CTRY. UNITED STATES OF AMERICA:   COUNTRY
 SRVC.              Welex:   SERVICE COMPANY
 DATE.        06-JUN-1980:   LOGDATE
 API .       490251082300:   API NUMBER
~CURVE INFORMATION
#MNEM.UNIT       API CODE    CURVE DESCRIPTION
#----------   ------------   ------------------------------
 DEPT.F                  :   
 RHOB.G/C3   45 350 01 00:   BULK DENSITY
 CORR.G/C3   45 356 01 00:   DENSITY CORRECTION
 GRD .GAPI   45 310 01 00:   GAMMA RAY FROM DENSITY LOG
 CALD.IN     45 280 60 00:   CALIPER
 DPHI.DEC    45 890 12 00:   DENSITY POROSITY SANDSTONE
 NPHI.DEC    42 890 03 00:   NEUTRON POROSITY SANDSTONE
 SPR .MV     07 010 01 00:   SPONTANEOUS POTENTIAL
 ILD .OHMM   07 120 46 00:   INDUCTION LOG DEEP
 ILM .OHMM   07 120 44 00:   INDUCTION LOG MEDIUM
 SGRD.OHMM   07 220 05 00:   SHALLOW GUARD RESISTIVITY
~PARAMETER INFORMATION
#MNEM.UNIT          VALUE    DESCRIPTION
#----------   ------------   ------------------------------
 PD  .                 GL:   PERMANENT DATUM
 EPD .F              5173:   ELEVATION PERMANENT DATUM
 LMF .                 KB:   LOG MEASURED FROM
 DAPD.F                 5:   FEET ABOVE PERMANENT DATUM
 DMF .                 KB:   DRILLING MEASURED FROM
 EKB .F              5178:   KELLING BUSHING
 EGL .F              5173:   GROUND LEVEL
 DATE.             6-6-80:   RUN DATE
 RUN .                  1:   RUN NUMBER
 DD  .F               450:   DEPTH DRILLER
 DL  .F               476:   DEPTH LOGGER
 BLI .F               474:   BOTTOM LOG INTERVAL
 TLI .F                30:   TOP LOG INTERVAL
 BS  .IN            9.875:   BIT SIZE
 BSD .F               450:   BIT SIZE AT DEPTH
 DFT .            KCL MUD:   DRILLING FLUID TYPE
 DFD .                9.5:   DRILLING FLUID DENSITY
 DFV .                 48:   DRILLING FLUID VISCOSITY
 DFPH.                7.5:   DRILLING FLUID PH
 DFL .                  7:   DRILLING FLUID LOSS
 MSS .           FLOWLINE:   MUD SAMPLE SOURCE
 RMS .OHMM           1.56:   RESISTIVITY MUD SAMPLE
 MST .F                62:   MUD SAMPLE TEMPERATURE
 RMF .OHMM           1.24:   RESISTIVITY MUD FILTRATE SAMPLE
 MFST.F                62:   MUD FILTRATE SAMPLE TEMPERATURE
 RMC .OHMM           1.87:   RESISTIVITY MUD CAKE
 MCST.F                62:   MUD CAKE SAMPLE TEMPERATURE
 MFSS.           MEASURED:   MUD FILTRATE SAMPLE SOURCE
 MCSS.           MEASURED:   MUD CAKE SAMPLE SOURCE
 RMB .OHMM           1.32:   RESISTIVITY MUD AT BHT
 BHT .F                73:   BOTTOM HOLE TEMPERATURE
 TCS .HRS               6:   TIME CURCULATED STOPPED
 MRT .F                73:   MAXIMUM RECORDED TEMPERATURE
 LUN .               1892:   LOGGING UNIT NUMBER
 LUL .             CASPER:   LOGGING UNIT LOCATION
 ENGI.               REIN:   RECORDING ENGINEER
 WITN.              AMEND:   WITNESSED BY
 CLNT.            A2DTECH:   CLIENT CODE
 ORIG.        2" 5" PRINT:   ORIGIN OF DATA
 UWI .       490251082300:   UNIQUE WELL ID
 DICO. A2D Technologies, Inc.:   DIGITIZING COMPANY
~OTHER INFORMATION
~A   DEPT     RHOB       CORR        GRD       CALD       DPHI       NPHI        SPR          ILD        ILM     SGRD   
# ...
  455.5000     2.4380     0.0405    81.3549     9.6593     0.1416  -999.2500    -8.6241     4.7807     6.7032     7.2495
  456.0000     2.4458     0.0355    80.7287     9.6583     0.1407  -999.2500    -8.6277     4.7862     6.6064     7.1728
  456.5000     2.4532     0.0417    79.0433     9.6573     0.1467  -999.2500    -8.7435     4.7888     6.5110     7.0965
  457.0000     2.4488     0.0336  -999.2500     9.6563     0.1546  -999.2500    -8.8606     4.7274     6.4170     7.0210
  457.5000     2.4403     0.0228  -999.2500     9.6553     0.1541  -999.2500    -8.9780     4.6832     6.3243     6.9464
  458.0000     2.4245     0.0188  -999.2500     9.6543     0.1520  -999.2500    -9.0952     4.6395     6.2460     6.8726
  458.5000     2.4228     0.0305  -999.2500     9.6532     0.1467  -999.2500    -9.2123     4.5962     6.2166     6.7996
  459.0000     2.4378     0.0438  -999.2500     9.6521     0.1490  -999.2500    -9.3295     4.5533     6.1873     6.7274
  459.5000     2.4442     0.0481  -999.2500     9.6510     0.1471  -999.2500    -9.4467     4.5108     6.1581     6.6559
  460.0000     2.4402     0.0415  -999.2500     9.6500     0.1409  -999.2500    -9.5639     4.4687     6.1291     6.5852
  460.5000     2.4407     0.0467  -999.2500     9.6489     0.1347  -999.2500    -9.6812     4.4270     6.1002     6.5151
  461.0000     2.4562     0.0644  -999.2500     9.6478     0.1284  -999.2500    -9.7987     4.3857     6.0715     6.4459
  461.5000     2.4713     0.0817  -999.2500     9.6467     0.1235  -999.2500    -9.9197     4.3448     6.0429     6.3683
  462.0000     2.4858     0.0896  -999.2500     9.6456     0.1356  -999.2500    -9.8894     4.3042     6.0144     6.3781
  462.5000     2.4706     0.0745  -999.2500     9.6445     0.1459  -999.2500    -9.8240     4.2641     5.9861     6.3895
  463.0000     2.4506     0.0605  -999.2500     9.6434     0.1457  -999.2500    -9.7577     4.2243     5.9408     6.4009
  463.5000     2.4460     0.0641  -999.2500     9.6423     0.1455  -999.2500    -9.6918     4.1850     5.8775     6.4123
  464.0000     2.4515     0.0757  -999.2500     9.6412     0.1423  -999.2500    -9.6260     4.1454     5.8097     6.4272
  464.5000     2.4518     0.0872  -999.2500     9.6401  -999.2500  -999.2500    -9.5601     4.1162     5.7400     6.1386
  465.0000     2.4566     0.0987  -999.2500     9.6390  -999.2500  -999.2500    -9.4942     4.0901     5.6450     5.3216
  465.5000     2.4698     0.1101  -999.2500     9.6379  -999.2500  -999.2500    -9.4280     4.0643     5.5481     4.4090
  466.0000     2.4834     0.1150  -999.2500     9.6369  -999.2500  -999.2500    -9.3594     4.0385     5.6888     6.0713
  466.5000     2.4776     0.1123  -999.2500     9.6358  -999.2500  -999.2500    -9.4281     4.0223     5.8173     6.4329
  467.0000     2.4748     0.1112  -999.2500     9.6347  -999.2500  -999.2500    -9.5235     4.0288     5.9488     6.6340
  467.5000     2.4731     0.1171  -999.2500     9.6332  -999.2500  -999.2500    -9.6194     4.0342     6.0832     6.7010
  468.0000     2.4705     0.1217  -999.2500     9.6227  -999.2500  -999.2500    -9.7148     4.0396     6.2214     6.9316
  468.5000     2.4764     0.1240  -999.2500     9.6124  -999.2500  -999.2500    -9.8108     4.0449     6.3398     7.1766
  469.0000     2.4871     0.1424  -999.2500     9.6021  -999.2500  -999.2500    -9.8966     4.0503     6.4252     7.2392
  469.5000     2.5025     0.1604  -999.2500     9.5919  -999.2500  -999.2500   -10.2893     4.0557     6.5102     7.3046
  470.0000     2.5084     0.1682  -999.2500     9.5817  -999.2500  -999.2500   -11.1522     4.0590     6.5514     7.3707
  470.5000     2.4938     0.1644  -999.2500     9.5715  -999.2500  -999.2500   -13.7908     3.9311     6.5646     7.4373
  471.0000     2.4906     0.1606  -999.2500     9.5613  -999.2500  -999.2500   -22.5041     3.8412     6.5779     7.5046
  471.5000     2.4783     0.1567  -999.2500     9.5511  -999.2500  -999.2500   -35.1395     3.7533     6.5911     7.5724
  472.0000     2.4694     0.1560  -999.2500     9.5405  -999.2500  -999.2500   -34.9754     3.6686     6.6064     7.6409
  472.5000     2.4775     0.1560  -999.2500     9.5134  -999.2500  -999.2500   -34.5669     3.7101     6.5201     7.6536
  473.0000     2.4685     0.1560  -999.2500     9.4588  -999.2500  -999.2500   -34.3113     3.7524     6.4153     7.4356
  473.5000     2.4460     0.1565  -999.2500     9.4048  -999.2500  -999.2500   -34.2307     3.7948     6.3122     7.0993
  474.0000     2.4412     0.1580  -999.2500     9.3550  -999.2500  -999.2500   -34.1625     3.8377     6.2108     6.8542
  474.5000  -999.2500  -999.2500  -999.2500  -999.2500  -999.2500  -999.2500   -33.8630     3.8810     5.8115     8.3904
  475.0000  -999.2500  -999.2500  -999.2500  -999.2500  -999.2500  -999.2500   -33.7619     3.9248     5.3875     8.1607
  475.5000  -999.2500  -999.2500  -999.2500  -999.2500  -999.2500  -999.2500   -33.7594     3.9486     5.2492     8.0875
  476.0000  -999.2500  -999.2500  -999.2500  -999.2500  -999.2500  -999.2500   -33.7597     3.9486     5.2501     8.0873
  476.5000  -999.2500  -999.2500  -999.2500  -999.2500  -999.2500  -999.2500   -33.7598     3.9486     5.2503     8.0875
  477.0000  -999.2500  -999.2500  -999.2500  -999.2500  -999.2500  -999.2500   -33.7598     3.9486     5.2504     8.0875
  477.5000  -999.2500  -999.2500  -999.2500  -999.2500  -999.2500  -999.2500   -33.7598     3.9486     5.2504     8.0875
  478.0000  -999.2500  -999.2500  -999.2500  -999.2500  -999.2500  -999.2500   -33.7598     3.9486     5.2504     8.0875
