~VERSION INFORMATION
 VERS.                2.0:   CWLS LOG ASCII STANDARD - VERSION 2.0
 WRAP.                 NO:   ONE LINE PER DEPTH STEP
~WELL INFORMATION
#MNEM.UNIT      DATA TYPE    INFORMATION
#----------   ------------   ------------------------------
 STRT.F           27.0000:   START DEPTH
 STOP.F          670.0000:   STOP DEPTH
 STEP.F            0.5000:   STEP LENGTH
 NULL.          -999.2500:   NO VALUE
 COMP. LAWRENCE/ALLISON INC:   COMPANY
 WELL. SX 11 WP 26 #26-11:   WELL
 FLD .           N.P.R #3:   FIELD
 LOC .      S11 T38N R78W:   LOCATION
 CNTY.            NATRONA:   COUNTY
 STAT.            WYOMING:   STATE
 CTRY. UNITED STATES OF AMERICA:   COUNTRY
 SRVC.            Unknown:   SERVICE COMPANY
 DATE.        11-SEP-1984:   LOGDATE
 API .       490251097700:   API NUMBER
~CURVE INFORMATION
#MNEM.UNIT       API CODE    CURVE DESCRIPTION
#----------   ------------   ------------------------------
 DEPT.F                  :   
 CNC .DEC    42 890 03 00:   NEUTRON POROSITY SANDSTONE
 AC  .US/F   60 520 00 00:   ACCOUSTIC SONIC
 SPR .MV     07 010 01 00:   SPONTANEOUS POTENTIAL
 RILD.OHMM   07 120 46 00:   INDUCTION LOG DEEP RESISTIVITY
 RILM.OHMM   07 120 44 00:   INDUCTION LOG MEDIUM RESISTIVITY
 RFOC.OHMM   07 220 04 00:   RESISTIVITY FOCUSED LOG
 GRD .GAPI   45 310 01 00:   GAMMA RAY FROM DENSITY LOG
 CALD.IN     45 280 60 00:   CALIPER FROM DENSITY LOG
 DEN .G/C3   45 350 01 00:   COMPENSATED BULK DENSTIY
 CORR.G/C3   45 356 01 00:   DENSITY CORRECTION
 PORD.DEC    45 890 12 00:   POROSITY DENSITY SANDSTONE
~PARAMETER INFORMATION
#MNEM.UNIT          VALUE    DESCRIPTION
#----------   ------------   ------------------------------
 PD  .                 GL:   PERMANENT DATUM
 EPD .F              5186:   ELEVATION PERMANENT DATUM
 LMF .                 GL:   LOG MEASURED FROM
 DMF .                 GL:   DRILLING MEASURED FROM
 EGL .F              5186:   GROUND LEVEL
 DATE.            9-11-84:   RUN DATE
 RUN .                  1:   RUN NUMBER
 DD  .F               672:   DEPTH DRILLER
 DL  .F               668:   DEPTH LOGGER
 BLI .F               668:   BOTTOM LOG INTERVAL
 TLI .F                45:   TOP LOG INTERVAL
 CS  .IN            8.625:   CASING SIZE
 CBD .F                42:   CASING BOTTOM DRILLER
 CBL .F                45:   CASING BOTTOM LOGGER
 BS  .IN            7.875:   BIT SIZE
 BSD .F               672:   BIT SIZE AT DEPTH
 DFT .          KCL WATER:   DRILLING FLUID TYPE
 MSS .               TANK:   MUD SAMPLE SOURCE
 RMS .OHMM            .36:   RESISTIVITY MUD SAMPLE
 MST .F                82:   MUD SAMPLE TEMPERATURE
 MFSS.                  C:   MUD FILTRATE SAMPLE SOURCE
 MCSS.                  C:   MUD CAKE SAMPLE SOURCE
 TCS .HRS               3:   TIME CURCULATED STOPPED
 MRT .F               100:   MAXIMUM RECORDED TEMPERATURE
 LUN .            HL 6307:   LOGGING UNIT NUMBER
 LUL .           GILLETTE:   LOGGING UNIT LOCATION
 ENGI.      FAHLSING/MACK:   RECORDING ENGINEER
 WITN.            JOHNSON:   WITNESSED BY
 CLNT.            A2DTECH:   CLIENT CODE
 ORIG.       2", 5" PRINT:   ORIGIN OF DATA
 UWI .       490251097700:   UNIQUE WELL ID
 DICO. A2D Technologies, Inc.:   DIGITIZING COMPANY
~OTHER INFORMATION
~A   DEPT      CNC          AC       SPR       RILD       RILM       RFOC        GRD       CALD        DEN       CORR       PORD   
# ...
  484.5000     0.2737    92.4750   -29.6830    10.3230    11.3150    13.2360    84.1430     7.7990     2.4260     0.0070     0.1520
  485.0000     0.2665    92.5170   -29.7270    10.3380    11.3630    13.1660    84.0380     7.7990     2.4180    -0.0100     0.1580
  485.5000     0.2640    92.4300   -29.7730    10.3520    11.4110    13.1530    86.1420     7.7990     2.4030    -0.0260     0.1650
  486.0000     0.2744    92.1800   -29.7020    10.4270    11.4590    13.1530    88.7460     7.7990     2.3880    -0.0390     0.1710
  486.5000     0.2791    91.9420   -29.6020    10.5010    11.5070    13.1530    88.4080     7.7990     2.3890    -0.0300     0.1720
  487.0000     0.2753    92.1050   -29.5010    10.5740    11.5550    13.4640    87.0200     7.7990     2.3900    -0.0200     0.1710
  487.5000     0.2734    92.2610   -29.4000    10.6480    11.6030    13.7730    87.0020     7.7990     2.3910    -0.0090     0.1720
  488.0000     0.2758    92.4170   -29.2980    10.7210    11.6510    13.6330    87.7350     7.7990     2.3880     0.0010     0.1740
  488.5000     0.2783    91.9200   -29.1970    10.7950    11.6990    13.3980    86.6970     7.7990     2.3850     0.0050     0.1760
  489.0000     0.2788    91.3110   -29.0960    10.8400    11.7470    13.3980    85.5050     7.7990     2.3880     0.0040     0.1730
  489.5000     0.2752    90.7010   -28.9940    10.6860    11.7770    13.7970    85.3070     7.7990     2.3950     0.0020     0.1680
  490.0000     0.2589    90.2490   -28.8920    10.4910    11.6830    14.2900    85.1160     7.7990     2.4010     0.0000     0.1640
  490.5000     0.2635    90.6000   -28.7910    10.2960    11.4380    13.9790    80.3980     7.7990     2.4080     0.0020     0.1610
  491.0000     0.2709    91.0090   -28.8440    10.1010    11.1930    13.5800    76.4640     7.7990     2.4110     0.0180     0.1600
  491.5000     0.2814    91.5320   -28.9080     9.9820    10.9480    13.1800    78.3310     7.7990     2.4120     0.0220     0.1590
  492.0000     0.2708    91.7760   -28.9710    10.0260    10.7030    12.7810    82.6200     7.7990     2.4130     0.0260     0.1580
  492.5000     0.2550    91.6330   -29.2070    10.0610    10.4480    12.4460    83.9560     7.7990     2.4130     0.0290     0.1550
  493.0000     0.2606    91.4910   -29.6200    10.0700    10.4480    12.3890    83.4300     7.7990     2.4220     0.0180     0.1510
  493.5000     0.2698    91.6120   -30.0310    10.0700    10.4480    12.3290    82.9320     7.7990     2.4320     0.0040     0.1470
  494.0000     0.2688    91.8620   -30.4440    10.0620    10.4480    12.2700    83.1040     7.7990     2.4310    -0.0100     0.1470
  494.5000     0.2688    92.0370   -30.8690    10.0040    10.4310    12.2190    85.7780     7.7990     2.4260    -0.0190     0.1500
  495.0000     0.2687    92.0210   -30.7740     9.9470    10.3990    12.2500    88.3910     7.7990     2.4250    -0.0070     0.1500
  495.5000     0.2742    92.0040   -30.4060     9.8860    10.3670    12.2830    91.0050     7.7990     2.4280     0.0050     0.1480
  496.0000     0.2807    91.9870   -30.0340     9.9280    10.3520    12.3160    91.8760     7.7990     2.4350     0.0170     0.1440
  496.5000     0.2803    91.9710   -29.6980     9.9780    10.2570    12.5670    87.9600     7.7990     2.4430     0.0290     0.1390
  497.0000     0.2806    91.9540   -29.4200    10.0850    10.9140    13.0100    84.9400     7.7990     2.4510     0.0360     0.1340
  497.5000     0.2827    91.9420   -29.0050    10.4550    11.8180    13.4530    81.9140     7.7990     2.4560     0.0400     0.1300
  498.0000     0.2883    93.8930   -27.5290    11.3620    12.7220    13.8960    79.4400     7.7990     2.4620     0.0430     0.1270
  498.5000     0.2898    95.9720   -26.0380    12.2700    13.6260    14.5560    81.3620     7.7990     2.4520     0.0460     0.1430
  499.0000     0.2860    98.0510   -24.5520    13.1770    14.5300    14.3330    83.6850     7.7990     2.4120     0.0550     0.1660
  499.5000     0.2863    99.7880   -23.1710    14.0850    15.4330    14.0290    82.6620     7.7990     2.3720     0.0670     0.1890
  500.0000     0.2865   100.8070   -22.1130    14.9930    16.3370    15.4030    78.1870     7.7990     2.3330     0.0800     0.2140
  500.5000     0.2929   100.6180   -21.1120    15.9000    17.2410    16.9230    73.5940     7.7990     2.3130     0.0740     0.2150
  501.0000     0.2964   100.4080   -20.1090    16.8080    18.1450    19.1880    73.5560     7.7990     2.3210     0.0580     0.2120
  501.5000     0.2976   100.1990   -19.0820    17.7150    19.0490    18.6740    73.7590     7.7990     2.3220     0.0410     0.2140
  502.0000     0.2923   100.0100   -18.7080    18.5350    19.9530    17.6660    71.6090     7.7990     2.3190     0.0280     0.2160
  502.5000     0.2774    99.1140   -18.6060    19.2700    20.8570    17.0230    69.4890     7.7990     2.3170     0.0150     0.2120
  503.0000     0.2513    93.9340   -19.2710    20.0060    21.8290    18.1560    69.7590     7.7990     2.3260     0.0200     0.2040
  503.5000     0.2247    88.6750   -19.9100    20.7420    22.2360    24.6030    68.3430     7.7990     2.3550     0.0340     0.1930
  504.0000     0.2099    83.8940   -20.5480    21.2340    22.7970    31.5780    65.3560     7.7990     2.4130     0.0440     0.1600
  504.5000     0.2070    79.7910   -21.1850    20.6700    23.2830    39.3580    64.0070     7.7990     2.4920     0.0360     0.1240
  505.0000     0.2259    82.4880   -21.8240    20.1660    22.9320    34.7440    67.5940     7.7990     2.4890     0.0300     0.1150
  505.5000     0.2509    87.7220   -22.4540    19.6620    22.2790    28.4850    71.1050     7.7990     2.4490     0.0230     0.1400
  506.0000     0.2663    92.5770   -23.0240    19.1580    21.6270    20.6550    74.7110     7.7990     2.4010     0.0260     0.1660
  506.5000     0.2883    97.9180   -22.9850    18.6530    20.9750    20.7940    76.4030     7.7990     2.3580     0.0350     0.1920
  507.0000     0.2901    98.2170   -22.9030    18.1490    20.3220    20.9790    76.3580     7.7990     2.3440     0.0440     0.2000
  507.5000     0.2862    97.9070   -22.8290    17.6450    19.6700    21.1650    75.6950     7.7990     2.3480     0.0520     0.1960
  508.0000     0.2720    97.5620   -22.6420    17.0230    19.0180    21.4300    74.5110     7.7990     2.3530     0.0450     0.1930
  508.5000     0.2689    97.3210   -22.4260    17.0600    18.3660    21.2400    72.9880     7.7990     2.3580     0.0360     0.1910
  509.0000     0.2757    98.0250   -22.2080    17.1260    17.8250    20.9020    71.6130     7.7990     2.3510     0.0280     0.1950
  509.5000     0.2794    98.4580   -21.9910    17.1800    18.0200    20.5650    70.1520     7.7990     2.3430     0.0200     0.2000
  510.0000     0.2679    98.8030   -21.7740    16.7910    18.1560    20.2280    72.4560     7.7990     2.3360     0.0170     0.2040
  510.5000     0.2657    99.1480   -21.5560    16.4600    17.7370    19.8910    76.0750     7.7990     2.3390     0.0210     0.1990
  511.0000     0.2635    99.4930   -21.3390    16.2590    17.3810    19.5540    76.0510     7.7990     2.3440     0.0250     0.2010
  511.5000     0.2635    99.8380   -21.1220    16.2820    17.0230    19.0120    75.8990     7.7990     2.3380     0.0290     0.2040
  512.0000     0.2709    99.9280   -20.9040    16.3010    17.3670    19.1300    76.5360     7.7990     2.3300     0.0330     0.2080
  512.5000     0.2734    99.6570   -20.6870    16.3190    17.8010    19.4300    80.1050     7.7990     2.3330     0.0270     0.2040
  513.0000     0.2770    99.4120   -20.4700    16.3370    18.2350    19.7300    81.5410     7.7990     2.3400     0.0190     0.2000
  513.5000     0.2782    98.8150   -20.2530    16.3560    18.6700    19.9080    79.0440     7.7990     2.3460     0.0150     0.1990
  514.0000     0.2803    98.6880   -20.0340    16.3740    19.0120    19.5430    76.6270     7.7990     2.3410     0.0240     0.2010
  514.5000     0.2840    98.5070   -19.8210    16.3940    18.2200    19.1880    74.0990     7.7990     2.3380     0.0330     0.2030
