~VERSION INFORMATION
 VERS.                2.0:   CWLS LOG ASCII STANDARD - VERSION 2.0
 WRAP.                 NO:   ONE LINE PER DEPTH STEP
~WELL INFORMATION
#MNEM.UNIT      DATA TYPE    INFORMATION
#----------   ------------   ------------------------------
 STRT.F           36.0000:   START DEPTH
 STOP.F          442.0000:   STOP DEPTH
 STEP.F            0.5000:   STEP LENGTH
 NULL.          -999.2500:   NO VALUE
 COMP.    FENIX & SCISSON:   COMPANY
 WELL.      NPR #66-SX-10:   WELL
 FLD .             TEAPOT:   FIELD
 LOC .      S10 T38N R78W:   LOCATION
 CNTY.            NATRONA:   COUNTY
 STAT.            WYOMING:   STATE
 CTRY. UNITED STATES OF AMERICA:   COUNTRY
 SRVC.              Welex:   SERVICE COMPANY
 DATE.        19-APR-1977:   LOGDATE
 API .       490251036100:   API NUMBER
~CURVE INFORMATION
#MNEM.UNIT       API CODE    CURVE DESCRIPTION
#----------   ------------   ------------------------------
 DEPT.F                  :   
 CALD.IN     45 280 60 00:   CALIPER FROM DENSITY LOG
 DPHI.DEC    45 890 12 00:   DENSITY POROSITY SANDSTONE
 DRHO.G/C3   45 356 01 00:   DENSITY CORRECTION
 GRD .GAPI   45 310 01 00:   GAMMA RAY FROM DENSITY LOG
 RHOB.G/C3   45 350 01 00:   BULK DENSITY
 ILD .OHMM   07 120 46 00:   INDUCTION LOG DEEP
 ILM .OHMM   07 120 44 00:   INDUCTION LOG MEDIUM
 SGRD.OHMM   07 221 05 00:   SHALLOW SHORT GUARD RESISTIVITY
 SPR .MV     07 010 01 00:   SPONTANEOUS POTENTIAL
~PARAMETER INFORMATION
#MNEM.UNIT          VALUE    DESCRIPTION
#----------   ------------   ------------------------------
 PD  .                 GL:   PERMANENT DATUM
 EPD .F              5200:   ELEVATION PERMANENT DATUM
 LMF .                 GL:   LOG MEASURED FROM
 DMF .                 GL:   DRILLING MEASURED FROM
 EGL .F              5200:   GROUND LEVEL
 DATE.        19-APR-1977:   RUN DATE
 RUN .                  1:   RUN NUMBER
 DD  .F               476:   DEPTH DRILLER
 DL  .F               447:   DEPTH LOGGER
 BLI .F               445:   BOTTOM LOG INTERVAL
 TLI .F                35:   TOP LOG INTERVAL
 CS  .IN            8.625:   CASING SIZE
 CBD .F                42:   CASING BOTTOM DRILLER
 CBL .F                42:   CASING BOTTOM LOGGER
 BS  .IN            7.875:   BIT SIZE
 BSD .F               476:   BIT SIZE AT DEPTH
 DFT .            KCL MUD:   DRILLING FLUID TYPE
 DFD .                8.8:   DRILLING FLUID DENSITY
 DFV .                 37:   DRILLING FLUID VISCOSITY
 MSS .           FLOWLINE:   MUD SAMPLE SOURCE
 RMS .OHMM           1.06:   RESISTIVITY MUD SAMPLE
 MST .F                48:   MUD SAMPLE TEMPERATURE
 RMF .OHMM           1.03:   RESISTIVITY MUD FILTRATE SAMPLE
 MFST.F                48:   MUD FILTRATE SAMPLE TEMPERATURE
 RMC .OHMM           1.18:   RESISTIVITY MUD CAKE
 MCST.F                48:   MUD CAKE SAMPLE TEMPERATURE
 MFSS.               MEAS:   MUD FILTRATE SAMPLE SOURCE
 MCSS.               MEAS:   MUD CAKE SAMPLE SOURCE
 RMB .OHMM           0.86:   RESISTIVITY MUD AT BHT
 BHT .F                59:   BOTTOM HOLE TEMPERATURE
 TCS .HRS               5:   TIME CURCULATED STOPPED
 MRT .F                59:   MAXIMUM RECORDED TEMPERATURE
 LUN .               8611:   LOGGING UNIT NUMBER
 LUL .             CASPER:   LOGGING UNIT LOCATION
 ENGI.               DOAK:   RECORDING ENGINEER
 WITN.        MR. R. LYON:   WITNESSED BY
 CLNT.            A2DTECH:   CLIENT CODE
 ORIG.      2.5" 5" PRINT:   ORIGIN OF DATA
 UWI .       490251036100:   UNIQUE WELL ID
 DICO. A2D Technologies, Inc.:   DIGITIZING COMPANY
~OTHER INFORMATION
~A   DEPT     CALD       DPHI       DRHO         GRD      RHOB        ILD        ILM       SGRD        SPR   
# ...
  218.5000     7.8659     0.1204    -0.0008   113.3409     2.4407     6.1407     7.3513     7.4257   -44.8997
  219.0000     7.8965     0.1219    -0.0067   109.8013     2.4408     6.1370     7.6529     7.4228   -44.6037
  219.5000     7.9161     0.1195    -0.0141   105.9657     2.4520     6.1332     7.8593     7.5217   -44.3546
  220.0000     7.9281     0.1093    -0.0110   102.8669     2.4641     6.1296     8.2947     7.8328   -44.3658
  220.5000     7.9293     0.1072    -0.0109   113.9852     2.4663     6.2271     8.6355     9.6305   -44.3761
  221.0000     7.9303     0.1081    -0.0123   118.1430     2.4612     6.4892     8.9935    10.7315   -44.3864
  221.5000     7.9313     0.1096    -0.0152   119.4882     2.4560     6.8551     9.3663    11.3235   -44.3968
  222.0000     7.9176     0.1107    -0.0120   120.6855     2.4695     7.1436     9.4819    11.6164   -44.4071
  222.5000     7.9036     0.0991    -0.0089   122.0308     2.4882     7.4194     9.6057    11.4026   -44.4174
  223.0000     7.8851     0.0913    -0.0073   123.3760     2.4912     7.5951     9.5988    10.8411   -44.4277
  223.5000     7.8760     0.0933    -0.0071   124.5844     2.4860     7.5898     9.7247    10.6903   -44.4381
  224.0000     7.8772     0.0957    -0.0055   125.1789     2.4846     7.7014     9.7174    11.2140   -44.4484
  224.5000     7.8635     0.0972    -0.0054   122.6783     2.4877     7.7682     9.8451    11.6401   -44.4185
  225.0000     7.8645     0.0984    -0.0053   121.0630     2.4810     7.7851     9.9737    11.9627   -44.2785
  225.5000     7.8508     0.1001    -0.0067   116.6353     2.4773     7.8871     9.9658    12.0677   -44.1844
  226.0000     7.8518     0.1010    -0.0111   117.2404     2.4788     7.8823     9.9032    11.8339   -44.1964
  226.5000     7.8445     0.1016    -0.0155   118.7337     2.4796     7.8774     9.8173    11.7324   -44.2065
  227.0000     7.8391     0.1031    -0.0169   119.1908     2.4782     7.8726     9.7450    11.7276   -44.2167
  227.5000     7.8403     0.1042    -0.0107   118.9078     2.4708     7.9316     9.6711    11.6433   -44.5218
  228.0000     7.8413     0.1054    -0.0046   118.0327     2.4686     7.9708     9.6645    11.7180   -44.5319
  228.5000     7.8275     0.0896     0.0016   116.8615     2.4836     7.9651     9.6566    11.7132   -44.5420
  229.0000     7.8285     0.0874     0.0063   116.8786     2.5053     8.0695     9.6502    11.7074   -44.5522
  229.5000     7.8444     0.0826     0.0139   118.9298     2.5158     8.0647     9.5130    11.5441   -44.5623
  230.0000     7.8453     0.0770     0.0050   118.3842     2.5188     8.0598     9.5067    11.2288   -44.5724
  230.5000     7.8464     0.0751     0.0006   119.1374     2.5189     8.0550     9.5003    11.3785   -44.5826
  231.0000     7.8622     0.0727     0.0022   120.3346     2.5267     8.1605     9.4940    11.5302   -44.2977
  231.5000     7.8484     0.0688     0.0038   118.5713     2.5369     8.1556     9.4876    11.8444   -44.3083
  232.0000     7.8644     0.0712     0.0040   117.2489     2.5213     8.1507     9.4813    11.8396   -44.3186
  232.5000     7.8653     0.0795     0.0041   119.3375     2.5116     8.1458     9.6051    11.8349   -44.3756
  233.0000     7.8665     0.0849     0.0042   122.3111     2.5049     8.1409     9.5987    11.5116   -44.6342
  233.5000     7.8821     0.0822     0.0028   123.2123     2.5080     8.0259     9.5922    11.5070   -44.6445
  234.0000     7.8832     0.0791     0.0029   121.8931     2.5170     7.9074     9.5857    11.3465   -44.6549
  234.5000     7.8843     0.0789    -0.0015   118.2055     2.5133     7.5825     9.5670    11.3419   -44.6652
  235.0000     7.8853     0.0848    -0.0059   119.2846     2.4992     7.2595     9.4429    11.3373   -44.8746
  235.5000     7.8863     0.1048    -0.0088   122.0462     2.4746     6.8638     9.4143    11.4937   -44.9808
  236.0000     7.8725     0.1101    -0.0102   127.5735     2.4634     6.5059     9.2488    11.6521   -44.9911
  236.5000     7.8883     0.1113    -0.0055   130.1030     2.4589     6.3241     8.8622    11.6054   -45.0015
  237.0000     7.8814     0.1116    -0.0039   129.5240     2.4621     6.1474     8.4097    10.6295   -45.3068
  237.5000     7.8756     0.1068    -0.0098   128.9416     2.4786     6.0816     8.3232     8.6123   -45.3171
  238.0000     7.8785     0.0921    -0.0142   128.2178     2.4913     5.9956     8.3602     8.8709   -45.6224
  238.5000     7.8926     0.0930    -0.0065   127.0466     2.4928     5.9109     8.4260     9.2720   -45.6347
  239.0000     7.8936     0.0969    -0.0004   125.4314     2.4683     5.9072     8.4203     9.7609   -45.9398
  239.5000     7.8945     0.1034    -0.0018   121.7438     2.4668     5.9036     8.2450    10.1693   -45.9499
  240.0000     7.8957     0.1061    -0.0047   119.5164     2.4669     5.9000     7.9557    10.3095   -45.6637
  240.5000     7.8967     0.1092    -0.0061   122.9718     2.4654     5.9370     7.3608    10.4000   -45.6752
  241.0000     7.8827     0.1120    -0.0014   125.8273     2.4603     5.9736     7.4259    10.2541   -45.3894
  241.5000     7.8839     0.1129     0.0048   128.1643     2.4558     5.9700     7.7311    10.1110   -45.1047
  242.0000     7.8849     0.0991     0.0094   128.7695     2.4693     5.9656     7.9396    10.1068   -44.8206
  242.5000     7.8860     0.0836     0.0125   126.1180     2.5074     6.0444     8.1538    10.3118   -44.5358
  243.0000     7.8722     0.0812     0.0142   120.9501     2.5127     6.1230     8.3738    10.5591   -44.5459
  243.5000     7.8733     0.0800     0.0188   118.4467     2.5031     6.2884     8.5997    10.6607   -44.2611
  244.0000     7.8742     0.0740     0.0204   115.0552     2.5255     6.7276     8.8317    10.6555   -44.2712
  244.5000     7.8605     0.0710     0.0206   114.1768     2.5293     7.1976     9.0700    10.7975   -43.9867
  245.0000     7.8616     0.0748     0.0192   123.5187     2.5107     7.3923     9.1887    10.7932   -43.9971
  245.5000     7.8627     0.0832     0.0148   124.6347     2.5018     7.4888     9.3085    10.9370   -43.7116
  246.0000     7.8489     0.0934     0.0088   122.7967     2.4884     7.2831     9.3022    10.9326   -44.0177
  246.5000     7.8349     0.1029     0.0028   127.4065     2.4765     6.6166     9.4237    11.0784   -44.0280
  247.0000     7.8362     0.1136    -0.0015   124.3944     2.4612     6.1771     9.4052    11.0739   -44.4130
  247.5000     7.8372     0.1162     0.0017   119.2944     2.4497     5.7669     9.2664    10.9194   -44.9336
  248.0000     7.8382     0.1120     0.0063   121.5279     2.4655     5.5305     9.0466    10.0570   -45.3412
  248.5000     7.8393     0.1126     0.0095   124.3534     2.4700     5.3760     6.9407     9.6498   -45.9528
  249.0000     7.8403     0.1150     0.0111   124.9586     2.4514     5.3044     6.9566     9.7785   -46.1445
  249.5000     7.8415     0.1167     0.0112   124.5275     2.4470     5.3741     7.2016    10.0449   -46.0187
  250.0000     7.8275     0.0985     0.0128   117.8794     2.5015     5.3829     7.5056    10.1788   -45.8702
  250.5000     7.8288     0.0788     0.0160   115.2247     2.5172     5.5159     7.9299    10.1746   -45.4268
  251.0000     7.8147     0.0803     0.0176   115.2641     2.5128     5.6060     8.2835    10.3103   -45.3009
  251.5000     7.8159     0.0808     0.0192   111.5534     2.5068     5.7601     8.4439    10.4619   -45.0162
  252.0000     7.8170     0.0805     0.0209   103.4230     2.5159     5.9184     8.6471    10.7519   -44.7316
  252.5000     7.8180     0.0732     0.0256   108.1308     2.5221     6.0810     8.7303    11.0754   -44.4485
  253.0000     7.8042     0.0614     0.0317   111.5957     2.5429     6.4342     8.9139    11.5441   -44.4586
  253.5000     7.8054     0.0554     0.0288   112.3489     2.5511     7.0064     9.0827    11.7939   -44.1726
  254.0000     7.8063     0.0598     0.0229   110.5856     2.5459     7.5029     9.2012    11.9511   -44.1839
  254.5000     7.7924     0.0670     0.0169   108.8224     2.5400     7.8735     9.3203    11.9948   -44.1940
