~VERSION INFORMATION
 VERS.                2.0:   CWLS LOG ASCII STANDARD - VERSION 2.0
 WRAP.                 NO:   ONE LINE PER DEPTH STEP
~WELL INFORMATION
#MNEM.UNIT      DATA TYPE    INFORMATION
#----------   ------------   ------------------------------
 STRT.F          100.0000:   START DEPTH
 STOP.F         1196.0000:   STOP DEPTH
 STEP.F            0.5000:   STEP LENGTH
 NULL.          -999.2500:   NO VALUE
 COMP. DEPARTMENT OF ENERGY:   COMPANY
 WELL.     NRP ##3 77S-11:   WELL
 FLD .             TEAPOT:   FIELD
 LOC .      S11 T38N R78W:   LOCATION
 CNTY.            NATRONA:   COUNTY
 STAT.            WYOMING:   STATE
 CTRY. UNITED STATES OF AMERICA:   COUNTRY
 SRVC.       Schlumberger:   SERVICE COMPANY
 DATE.        18-AUG-1959:   LOGDATE
 API .       490250632900:   API NUMBER
~CURVE INFORMATION
#MNEM.UNIT       API CODE    CURVE DESCRIPTION
#----------   ------------   ------------------------------
 DEPT.F                  :   
 SPR .MV     05 010 01 00:   SPONTANEOUS POTENTIAL FROM RES.
 ASN .OHMM   05 041 16 00:   AMPLIFIED SHORT NORMAL 16"
 ILD .OHMM   05 120 46 00:   INDUCTION LOG DEEP
 CILD.MMHO   05 110 46 00:   CONDUCTIVITY INDUCTION LOG DEEP
~PARAMETER INFORMATION
#MNEM.UNIT          VALUE    DESCRIPTION
#----------   ------------   ------------------------------
 PD  .                 GL:   PERMANENT DATUM
 EPD .F              5258:   ELEVATION PERMANENT DATUM
 LMF .                 KB:   LOG MEASURED FROM
 DAPD.F                 4:   FEET ABOVE PERMANENT DATUM
 DMF .                 KB:   DRILLING MEASURED FROM
 EKB .F              5262:   KELLING BUSHING
 EGL .F              5258:   GROUND LEVEL
 DATE.            8-18-59:   RUN DATE
 RUN .                  1:   RUN NUMBER
 DD  .F              1200:   DEPTH DRILLER
 DL  .F              1201:   DEPTH LOGGER
 BLI .F              1196:   BOTTOM LOG INTERVAL
 TLI .F               100:   TOP LOG INTERVAL
 CBD .F                17:   CASING BOTTOM DRILLER
 BS  .IN             6.75:   BIT SIZE
 BSD .F              1200:   BIT SIZE AT DEPTH
 DFT . GEL-OIL-PHDS-CAUSTIC:   DRILLING FLUID TYPE
 DFD .               10.8:   DRILLING FLUID DENSITY
 DFV .                 60:   DRILLING FLUID VISCOSITY
 DFPH.                  9:   DRILLING FLUID PH
 DFL .                  4:   DRILLING FLUID LOSS
 RMS .OHMM            1.8:   RESISTIVITY MUD SAMPLE
 MST .F                90:   MUD SAMPLE TEMPERATURE
 RMF .OHMM            1.5:   RESISTIVITY MUD FILTRATE SAMPLE
 MFST.F                90:   MUD FILTRATE SAMPLE TEMPERATURE
 RMC .OHMM              2:   RESISTIVITY MUD CAKE
 MCST.F                90:   MUD CAKE SAMPLE TEMPERATURE
 TCS .HRS               1:   TIME CURCULATED STOPPED
 LUN .               2523:   LOGGING UNIT NUMBER
 LUL .               CSPR:   LOGGING UNIT LOCATION
 ENGI.             KNOBEL:   RECORDING ENGINEER
 WITN.             MARTIN:   WITNESSED BY
 CLNT.            A2DTECH:   CLIENT CODE
 ORIG.     1", 2.5" PRINT:   ORIGIN OF DATA
 UWI .       490250632900:   UNIQUE WELL ID
 DICO. A2D Technologies, Inc.:   DIGITIZING COMPANY
~OTHER INFORMATION
~A   DEPT      SPR          ASN        ILD      CILD  
# ...
  392.0000   -34.4361     6.8029     5.9124   164.3853
  392.5000   -34.7005     6.8964     5.9503   165.7801
  393.0000   -34.9638     6.9692     5.9962   163.5674
  393.5000   -35.1956     7.0384     6.0439   160.7872
  394.0000   -35.4543     7.1099     6.0846   158.0071
  394.5000   -35.7480     7.1597     6.1232   155.2269
  395.0000   -35.9864     7.1692     6.1706   151.5957
  395.5000   -36.1141     7.1521     6.2234   151.5957
  396.0000   -36.1940     7.1272     6.2620   151.5957
  396.5000   -36.2918     7.0776     6.2746   152.7305
  397.0000   -36.3549     6.9617     6.2745   154.4681
  397.5000   -36.2887     6.7845     6.2760   156.2057
  398.0000   -36.0987     6.6416     6.2668   158.6879
  398.5000   -35.8740     6.6361     6.2218   160.5198
  399.0000   -35.6729     6.7314     6.1400   163.7255
  399.5000   -35.4906     6.7530     6.0470   166.9312
  400.0000   -35.3055     6.5975     5.9591   170.1369
  400.5000   -35.1004     6.3791     5.8725   173.3426
  401.0000   -34.8784     6.2882     5.7840   176.5484
  401.5000   -34.6975     6.3546     5.6992   178.1915
  402.0000   -34.6422     6.4502     5.6198   176.0922
  402.5000   -34.7276     6.4928     5.5560   174.6808
  403.0000   -34.8736     6.5245     5.5450   173.2695
  403.5000   -34.9981     6.5875     5.6112   171.8582
  404.0000   -35.0939     6.6456     5.7067   171.0993
  404.5000   -35.1936     6.6742     5.7508   168.0036
  405.0000   -35.3105     6.7246     5.7375   165.8865
  405.5000   -35.4311     6.8287     5.7391   163.7695
  406.0000   -35.5386     6.9111     5.7885   161.6525
  406.5000   -35.6340     6.8835     5.8298   160.4610
  407.0000   -35.7427     6.7843     5.8072   161.7287
  407.5000   -35.8787     6.7449     5.7450   162.6108
  408.0000   -35.9903     6.8256     5.7098   163.4929
  408.5000   -35.9866     6.9579     5.7340   164.0071
  409.0000   -35.8445     7.0472     5.7989   162.1321
  409.5000   -35.6441     7.0656     5.8687   160.8089
  410.0000   -35.4699     7.0373     5.9198   159.4858
  410.5000   -35.3221     6.9882     5.9426   158.6879
  411.0000   -35.1616     6.9380     5.9275   161.1525
  411.5000   -34.9912     6.9034     5.8684   162.9167
  412.0000   -34.8345     6.8769     5.7881   164.6808
  412.5000   -34.6773     6.8236     5.7342   166.4450
  413.0000   -34.4968     6.7283     5.7291   168.2092
  413.5000   -34.3355     6.6347     5.7450   169.9734
  414.0000   -34.2769     6.6078     5.7476   171.7376
  414.5000   -34.3433     6.6647     5.7394   172.8723
  415.0000   -34.4661     6.7589     5.7380   172.8723
  415.5000   -34.5728     6.8328     5.7427   171.5475
  416.0000   -34.6568     6.8690     5.7423   170.5674
  416.5000   -34.7471     6.8867     5.7391   169.5873
  417.0000   -34.8483     6.9088     5.7416   168.6072
  417.5000   -34.9450     6.9313     5.7448   167.6271
  418.0000   -35.0369     6.9374     5.7387   166.6470
  418.5000   -35.1339     6.9381     5.7340   165.6669
  419.0000   -35.2317     6.9641     5.7609   164.6868
  419.5000   -35.3212     7.0197     5.8346   164.0071
  420.0000   -35.4136     7.1076     5.9417   162.2340
  420.5000   -35.5217     7.3139     6.0774   155.1418
  421.0000   -35.6194     7.7737     6.2610   147.5177
  421.5000   -35.6496     8.4834     6.4989   141.6371
  422.0000   -35.5868     9.1954     6.7711   135.7565
  422.5000   -35.4721     9.5771     7.0742   129.8759
  423.0000   -35.3705     9.4805     7.4089   123.9953
  423.5000   -35.2993     9.0411     7.6906   119.6808
  424.0000   -35.2194     8.5372     7.7676   124.4282
  424.5000   -35.1055     8.1732     7.5895   128.1771
  425.0000   -35.0060     7.9920     7.2795   131.7725
  425.5000   -35.0048     7.8651     6.9820   135.7551
  426.0000   -35.1269     7.7393     6.7235   139.3635
  426.5000   -35.3123     7.6558     6.4834   143.2005
  427.0000   -35.4883     7.5850     6.3016   146.9296
  427.5000   -35.6368     7.5224     6.2363   149.8352
  428.0000   -35.7828     7.5287     6.2748   148.5429
  428.5000   -35.9469     7.6011     6.3506   147.5040
  429.0000   -36.1211     7.6811     6.4100   146.3852
  429.5000   -36.2742     7.7822     6.4474   145.4379
  430.0000   -36.3727     7.9530     6.5142   144.4321
  430.5000   -36.4090     8.1602     6.6817   139.5395
  431.0000   -36.4039     8.3385     6.9560   135.0791
  431.5000   -36.3870     8.5027     7.2549   131.0574
  432.0000   -36.3837     8.6922     7.5055   126.6175
  432.5000   -36.4044     8.8785     7.7079   123.2605
  433.0000   -36.4183     9.0440     7.8750   121.1525
  433.5000   -36.3550     9.2441     7.9899   119.3883
  434.0000   -36.1807     9.4078     8.0704   117.6241
  434.5000   -35.9514     9.4302     8.1797   116.1348
  435.0000   -35.7442     9.2749     8.3095   115.1152
  435.5000   -35.5550     9.0232     8.3427   114.3617
  436.0000   -35.3354     8.7781     8.2026   116.1348
  436.5000   -35.1156     8.5686     7.9645   123.2270
  437.0000   -35.0084     8.3664     7.7469   125.0000
  437.5000   -35.0741     8.1451     7.5640   129.4880
  438.0000   -35.2429     7.9076     7.3631   133.4574
  438.5000   -35.4000     7.7060     7.1502   137.4269
  439.0000   -35.5107     7.6381     6.9969   140.9574
  439.5000   -35.6273     7.7516     6.9384   140.9574
  440.0000   -35.7890     7.9386     6.9328   140.9574
  440.5000   -35.9434     8.0054     6.9201   140.9574
  441.0000   -35.9886     7.8856     6.8865   140.9574
  441.5000   -35.8860     7.7154     6.8580   139.0337
  442.0000   -35.7016     7.6467     6.8489   137.4113
  442.5000   -35.5242     7.6500     6.8351   141.2234
  443.0000   -35.3726     7.5817     6.7778   144.7518
  443.5000   -35.2150     7.4009     6.6649   148.2801
  444.0000   -35.0452     7.2096     6.5168   151.8085
  444.5000   -34.8853     7.0898     6.3614   155.3369
  445.0000   -34.7309     7.0127     6.2203   158.8652
  445.5000   -34.5565     6.9387     6.1144   162.2340
  446.0000   -34.3818     6.9019     6.0580   163.1560
  446.5000   -34.2766     6.9428     6.0398   164.0071
  447.0000   -34.2791     7.0354     6.0258   163.3983
  447.5000   -34.3484     7.1335     5.9948   162.8103
  448.0000   -34.4187     7.2262     5.9601   162.2222
  448.5000   -34.4677     7.2999     5.9437   161.6342
  449.0000   -34.5134     7.2989     5.9351   161.0461
  449.5000   -34.5701     7.1776     5.8997   160.4610
  450.0000   -34.6334     6.9650     5.8291   162.2340
  450.5000   -34.6901     6.7486     5.7599   163.9982
  451.0000   -34.7357     6.6068     5.7306   165.7624
  451.5000   -34.7848     6.5623     5.7371   167.5532
  452.0000   -34.8552     6.5855     5.7478   169.2908
  452.5000   -34.9244     6.6342     5.7457   171.0993
  453.0000   -34.9265     6.6873     5.7384   170.2394
  453.5000   -34.8209     6.7337     5.7380   169.3573
  454.0000   -34.6461     6.7520     5.7459   168.4752
  454.5000   -34.4714     6.7329     5.7495   167.5532
  455.0000   -34.3169     6.6996     5.7291   167.5532
  455.5000   -34.1571     6.6612     5.6739   169.3262
  456.0000   -33.9873     6.5716     5.5936   172.8723
  456.5000   -33.8294     6.3931     5.5084   176.4184
  457.0000   -33.6772     6.1724     5.4302   178.1915
  457.5000   -33.4998     5.9875     5.3572   183.6584
  458.0000   -33.3161     5.8562     5.2810   189.5390
  458.5000   -33.2102     5.7659     5.1965   195.9220
  459.0000   -33.2368     5.7472     5.1118   198.6111
  459.5000   -33.3524     5.8232     5.0493   201.5514
  460.0000   -33.4735     5.9171     5.0261   204.7872
  460.5000   -33.5694     5.9200     5.0333   203.3224
  461.0000   -33.6623     5.8397     5.0412   201.6939
  461.5000   -33.7665     5.7898     5.0339   200.0655
  462.0000   -33.8730     5.8355     5.0268   198.4370
  462.5000   -33.9755     5.9340     5.0374   196.8085
  463.0000   -34.0769     6.0277     5.0472   195.1800
  463.5000   -34.1761     6.1105     5.0283   193.5515
  464.0000   -34.2753     6.1878     5.0101   191.9231
  464.5000   -34.3839     6.2406     5.0679   190.2946
