~VERSION INFORMATION
 VERS.                2.0:   CWLS LOG ASCII STANDARD - VERSION 2.0
 WRAP.                 NO:   ONE LINE PER DEPTH STEP
~WELL INFORMATION
#MNEM.UNIT      DATA TYPE    INFORMATION
#----------   ------------   ------------------------------
 STRT.F            1.0000:   START DEPTH
 STOP.F          600.0000:   STOP DEPTH
 STEP.F            0.5000:   STEP LENGTH
 NULL.          -999.2500:   NO VALUE
 COMP.       F D SERV INC:   COMPANY
 WELL.    62-1 SX-3 #62-3:   WELL
 FLD .             TEAPOT:   FIELD
 LOC .       S3 T38N R78W:   LOCATION
 CNTY.            NATRONA:   COUNTY
 STAT.            WYOMING:   STATE
 CTRY. UNITED STATES OF AMERICA:   COUNTRY
 SRVC.     Atlas Wireline:   SERVICE COMPANY
 DATE.        05-MAY-1992:   LOGDATE
 API .       490252250800:   API NUMBER
~CURVE INFORMATION
#MNEM.UNIT       API CODE    CURVE DESCRIPTION
#----------   ------------   ------------------------------
 DEPT.F                  :   
 GRR .GAPI   07 310 01 00:   GAMMA RAY
 RILD.OHMM   07 120 46 00:   INDUCTION LOG DEEP RESISTIVITY
 RILM.OHMM   07 120 44 00:   INDUCTION LOG MEDIUM RESISTIVITY
~PARAMETER INFORMATION
#MNEM.UNIT          VALUE    DESCRIPTION
#----------   ------------   ------------------------------
 PD  .                 GL:   PERMANENT DATUM
 EPD .F              5159:   ELEVATION PERMANENT DATUM
 LMF .                 KB:   LOG MEASURED FROM
 DAPD.F                 5:   FEET ABOVE PERMANENT DATUM
 DMF .                 KB:   DRILLING MEASURED FROM
 EKB .F              5164:   KELLING BUSHING
 EGL .F              5159:   GROUND LEVEL
 DATE.        06-MAY-1992:   RUN DATE
 RUN .                  1:   RUN NUMBER
 DD  .F               605:   DEPTH DRILLER
 DL  .F               609:   DEPTH LOGGER
 BLI .F               607:   BOTTOM LOG INTERVAL
 CS  .IN            8.625:   CASING SIZE
 CBD .F                51:   CASING BOTTOM DRILLER
 CBL .F                51:   CASING BOTTOM LOGGER
 BS  .IN            7.875:   BIT SIZE
 BSD .F               605:   BIT SIZE AT DEPTH
 DFT .                AIR:   DRILLING FLUID TYPE
 TCS .HRS               3:   TIME CURCULATED STOPPED
 LUN .            HL-6272:   LOGGING UNIT NUMBER
 LUL .             CASPER:   LOGGING UNIT LOCATION
 ENGI.             ZIEGER:   RECORDING ENGINEER
 WITN.             STRONG:   WITNESSED BY
 CLNT.            A2DTECH:   CLIENT CODE
 ORIG.           5" PRINT:   ORIGIN OF DATA
 UWI .       490252250800:   UNIQUE WELL ID
 DICO. A2D Technologies, Inc.:   DIGITIZING COMPANY
~OTHER INFORMATION
~A    DEPT      GRR      RILD       RILM   
# ...
  365.0000   130.2552     7.6523     7.7483
  365.5000   132.3583     7.6497     7.6384
  366.0000   136.2768     7.6471     7.8495
  366.5000   139.8928     7.7027     8.0114
  367.0000   143.5087     7.8576     8.0638
  367.5000   144.7079     7.9091     8.0597
  368.0000   141.0584     8.0180     8.2260
  368.5000   134.6894     8.0712     8.2795
  369.0000   128.9257     8.0677     8.0466
  369.5000   126.1817     8.0650     7.5954
  370.0000   125.2648     7.2124     6.8662
  370.5000   128.3520     5.9330     5.7480
  371.0000   131.0399     5.4178     4.8635
  371.5000   135.2014     5.3040     4.7945
  372.0000   144.5663     5.2654     5.3941
  372.5000   148.4848     5.2636     5.5826
  373.0000   146.9570     5.4482     5.8181
  373.5000   141.7984     5.6001     6.2349
  374.0000   130.5883     5.8843     6.8704
  374.5000   126.9463     6.5511     7.5707
  375.0000   128.4442     7.4254     8.3423
  375.5000   128.4256     8.4912     8.8778
  376.0000   122.6618     9.1003     9.1892
  376.5000   118.1084     9.1615     9.1199
  377.0000   122.9346     8.9683     8.9894
  377.5000   131.9968     8.9652     8.9851
  378.0000   133.1922     9.1513     9.1068
  378.5000   131.0590     9.6721     9.5653
  379.0000   128.5789    10.2225    10.5590
  379.5000   124.0666    10.8798    12.1887
  380.0000   115.2771    11.8237    14.5957
  380.5000   100.7388    13.2123    16.0834
  381.0000    82.2670    14.5599    17.8465
  381.5000    70.4518    16.3836    20.0808
  382.0000    71.0458    18.4634    22.2822
  382.5000    70.4220    20.4744    23.2222
  383.0000    69.1968    21.8279    23.8670
  383.5000    68.8830    23.0124    24.7012
  384.0000    70.3773    24.1512    24.8649
  384.5000    70.9712    24.8247    24.8499
  385.0000    67.6243    24.9896    24.8380
  385.5000    64.8863    24.9810    25.1774
  386.0000    66.3842    25.1491    25.5153
  386.5000    70.9647    25.4907    25.5030
  387.0000    73.6479    25.4820    26.0291
  387.5000    75.5673    26.0109    26.1985
  388.0000    78.7263    26.9230    26.9259
  388.5000    79.9254    27.6738    27.4814
  389.0000    75.9734    28.2481    27.8842
  389.5000    68.9993    28.6344    28.4282
  390.0000    67.4715    28.6244    28.8132
  390.5000    64.1283    28.6145    29.0007
  391.0000    68.9546    28.6025    28.7820
  391.5000    72.5705    28.5927    27.9775
  392.0000    74.9762    27.7980    26.6330
  392.5000    77.3819    27.0253    25.3531
  393.0000    79.1824    26.8286    24.9903
  393.5000    80.6804    26.2651    24.6326
  394.0000    81.8757    26.2561    25.1408
  394.5000    82.1634    26.2471    25.8388
  395.0000    79.7277    26.7919    26.5562
  395.5000    78.8048    26.9721    26.7295
  396.0000    78.0151    26.9606    27.4715
  396.5000    76.0486    27.1396    27.4579
  397.0000    72.4029    26.9421    27.2517
  397.5000    71.1777    26.3730    26.6651
  398.0000    75.7013    25.4509    25.9099
  398.5000    84.1585    24.5609    24.9418
  399.0000    88.9847    24.4045    23.6609
  399.5000    91.3904    24.9111    24.1490
  400.0000    89.8703    25.2538    24.4790
  400.5000    86.2084    24.8811    24.3991
  401.0000    82.8623    24.5366    24.3253
  401.5000    81.6400    24.1846    24.1234
  402.0000    81.3192    23.5090    23.4556
  402.5000    81.6638    22.6938    22.3345
  403.0000    85.8579    21.3747    20.9727
  403.5000    90.4474    19.7526    19.6940
  404.0000    95.8429    18.9393    18.7527
  404.5000    96.9626    18.1595    17.8563
  405.0000    94.1601    17.6559    17.3620
  405.5000    92.3873    17.5286    17.1182
  406.0000    94.9354    17.1615    16.8778
  406.5000    97.8366    17.0378    16.8743
  407.0000    98.3849    16.7975    16.6374
  407.5000    94.7352    16.7929    16.5184
  408.0000    93.7609    16.7882    16.5150
  408.5000    94.1453    16.7836    16.5116
  409.0000    95.9455    16.8974    16.7398
  409.5000    94.5476    17.0107    16.8533
  410.0000    91.0100    17.1248    16.8498
  410.5000    89.7816    17.4802    17.3224
  411.0000    90.9738    17.5986    17.5618
  411.5000    90.9557    17.8392    17.8046
  412.0000    91.2401    17.9601    18.0573
  412.5000    92.1343    18.0806    18.1836
  413.0000    93.3219    18.2006    18.2963
  413.5000    93.9090    18.3229    18.2924
  414.0000    90.8651    18.3176    18.2885
  414.5000    88.4264    18.4405    18.2840
  415.0000    89.6186    18.4354    18.2802
  415.5000    93.2314    18.3025    18.2764
  416.0000    94.7261    18.1705    18.2726
  416.5000    94.4054    18.0394    18.1420
  417.0000    93.1770    18.0344    18.0123
  417.5000    93.1589    18.0231    17.7594
  418.0000    94.0485    17.6420    17.6324
  418.5000    94.9381    17.5245    17.3848
  419.0000    95.5297    17.2439    17.1407
  419.5000    96.4193    16.9156    16.7827
  420.0000    94.5812    16.5604    16.4321
  420.5000    93.0503    16.4410    16.3147
  421.0000    93.0322    16.2092    16.1980
  421.5000    91.5012    16.0923    16.0822
  422.0000    87.2471    15.9762    15.9673
  422.5000    86.0232    15.7510    15.8531
  423.0000    92.6572    15.7466    15.8498
  423.5000    95.3622    15.6330    15.8466
  424.0000    97.4621    15.6287    15.8433
  424.5000    98.6543    15.7346    15.8400
  425.0000    96.5182    15.7292    15.8367
  425.5000    94.0795    15.7249    15.8334
  426.0000    92.8556    15.7205    15.8301
  426.5000    97.6741    15.7162    15.8268
  427.0000   100.6817    15.6028    15.8236
  427.5000   102.4836    15.5985    15.8203
  428.0000   102.1584    15.7031    15.8170
  428.5000   100.6274    15.9189    15.9340
  429.0000    99.0964    16.3639    16.2572
  429.5000    98.4732    16.8213    16.7495
  430.0000    96.3371    17.5340    18.2177
  430.5000    93.8984    18.4045    20.2569
  431.0000    89.3417    19.1843    21.7023
  431.5000    81.7593    19.8583    23.0070
  432.0000    73.2692    19.8640    22.0605
  432.5000    72.0453    19.3023    21.1529
  433.0000    79.2844    18.3791    19.7253
  433.5000    86.2254    17.3775    18.6521
  434.0000    91.3511    16.7703    17.1526
  434.5000    93.1484    15.9614    15.7736
  435.0000    91.0123    15.0968    14.5055
  435.5000    92.5070    14.2720    13.7163
  436.0000    95.5146    13.7770    13.3365
  436.5000    98.8248    13.4857    13.3338
  437.0000   102.1350    13.3124    13.3310
  437.5000   103.6343    13.3087    13.3282
  438.0000   101.7962    13.2128    13.3255
  438.5000    97.8446    13.3023    13.3227
  439.0000    95.7131    13.2055    13.3199
  439.5000    97.2078    13.2949    13.3172
  440.0000    95.0672    13.1982    13.3144
  440.5000    95.6542    13.1945    13.3117
  441.0000    97.1498    13.0993    13.2165
  441.5000    99.2489    13.0957    13.0309
  442.0000    99.2799    12.9111    12.8479
  442.5000    98.3049    12.7290    12.5796
  443.0000    99.1945    12.5496    12.4896
  443.5000   100.3867    12.3726    12.2288
  444.0000   100.6717    12.2834    12.1413
  444.5000    99.1402    12.0262    11.9706
  445.0000    98.7896    12.0229    11.8853
  445.5000    99.4065    11.8534    11.8003
  446.0000   100.2962    11.6862    11.6345
  446.5000   100.5809    11.6019    11.5513
  447.0000   101.4705    11.5987    11.5490
  447.5000   102.3598    11.5151    11.5466
  448.0000   103.2494    11.4320    11.5437
  448.5000   104.1392    11.3496    11.5413
  449.0000   105.0287    11.3465    11.4588
  449.5000   106.5234    11.3433    11.4564
  450.0000   106.5053    11.3402    11.4546
  450.5000   103.5408    11.4350    11.4788
  451.0000   100.5764    11.5298    11.5012
  451.5000    97.5221    11.6441    11.5226
  452.0000    95.2213    11.8827    11.7619
  452.5000    97.9288    11.9614    11.8401
  453.0000    99.4155    12.0392    11.9188
  453.5000   100.3075    12.2021    12.0808
  454.0000   100.8918    12.2814    12.0767
  454.5000   101.1735    12.1889    12.0725
  455.0000   101.4499    12.0985    12.0684
  455.5000   101.4290    11.9255    11.8973
