~VERSION INFORMATION
 VERS.                2.0:   CWLS LOG ASCII STANDARD - VERSION 2.0
 WRAP.                 NO:   ONE LINE PER DEPTH STEP
~WELL INFORMATION
#MNEM.UNIT      DATA TYPE    INFORMATION
#----------   ------------   ------------------------------
 STRT.F           78.5000:   START DEPTH
 STOP.F         1021.0000:   STOP DEPTH
 STEP.F            0.5000:   STEP LENGTH
 NULL.          -999.2500:   NO VALUE
 COMP. U S NAVY/INTEX OIL CO:   COMPANY
 WELL.     NRR 3 ##65S-11:   WELL
 FLD .             TEAPOT:   FIELD
 LOC .      S11 T38N R78W:   LOCATION
 CNTY.            NATRONA:   COUNTY
 STAT.            WYOMING:   STATE
 CTRY. UNITED STATES OF AMERICA:   COUNTRY
 SRVC.       Schlumberger:   SERVICE COMPANY
 DATE.        09-MAR-1960:   LOGDATE
 API .       490250634100:   API NUMBER
~CURVE INFORMATION
#MNEM.UNIT       API CODE    CURVE DESCRIPTION
#----------   ------------   ------------------------------
 DEPT.F                  :   
 SPR .MV     05 010 01 00:   SPONTANEOUS POTENTIAL FROM RES.
 ILD .OHMM   05 120 46 00:   INDUCTION LOG DEEP
 CILD.MMHO   05 110 00 00:   CONDUCTIVITY INDUCTION LOG
 ASN .OHMM   05 041 16 00:   AMPLIFIED SHORT NORMAL 16"
~PARAMETER INFORMATION
#MNEM.UNIT          VALUE    DESCRIPTION
#----------   ------------   ------------------------------
 PD  .                 GL:   PERMANENT DATUM
 EPD .F              5227:   ELEVATION PERMANENT DATUM
 LMF .                 KB:   LOG MEASURED FROM
 DAPD.F                 5:   FEET ABOVE PERMANENT DATUM
 DMF .                 KB:   DRILLING MEASURED FROM
 EKB .F              5232:   KELLING BUSHING
 EGL .F              5227:   GROUND LEVEL
 DATE.             3-9-60:   RUN DATE
 RUN .                  1:   RUN NUMBER
 DD  .F              1025:   DEPTH DRILLER
 DL  .F              1026:   DEPTH LOGGER
 BLI .F              1021:   BOTTOM LOG INTERVAL
 TLI .F                80:   TOP LOG INTERVAL
 CBD .F                12:   CASING BOTTOM DRILLER
 BS  .IN            7.875:   BIT SIZE
 BSD .F              1025:   BIT SIZE AT DEPTH
 DFT .          OIL EMULS:   DRILLING FLUID TYPE
 DFD .               10.2:   DRILLING FLUID DENSITY
 DFV .                 36:   DRILLING FLUID VISCOSITY
 DFPH.                7.5:   DRILLING FLUID PH
 DFL .                  4:   DRILLING FLUID LOSS
 MSS .          FLOW LINE:   MUD SAMPLE SOURCE
 RMS .OHMM           2.18:   RESISTIVITY MUD SAMPLE
 MST .F                64:   MUD SAMPLE TEMPERATURE
 RMF .OHMM           1.17:   RESISTIVITY MUD FILTRATE SAMPLE
 MFST.F                63:   MUD FILTRATE SAMPLE TEMPERATURE
 RMC .OHMM           2.02:   RESISTIVITY MUD CAKE
 MCST.F                64:   MUD CAKE SAMPLE TEMPERATURE
 MFSS.                  M:   MUD FILTRATE SAMPLE SOURCE
 MCSS.                  M:   MUD CAKE SAMPLE SOURCE
 TCS .HRS             .75:   TIME CURCULATED STOPPED
 LUN .               2795:   LOGGING UNIT NUMBER
 LUL .               CSPR:   LOGGING UNIT LOCATION
 ENGI.              SCOTT:   RECORDING ENGINEER
 WITN.          JORGENSEN:   WITNESSED BY
 CLNT.            A2DTECH:   CLIENT CODE
 ORIG.           2" PRINT:   ORIGIN OF DATA
 UWI .       490250634100:   UNIQUE WELL ID
 DICO. A2D Technologies, Inc.:   DIGITIZING COMPANY
~OTHER INFORMATION
~A   DEPT      SPR        ILD       CILD        ASN   
# ...
  224.5000   -62.1234     7.4443   131.2224     9.7000
  225.0000   -62.0107     7.3246   132.7655     9.4620
  225.5000   -61.9073     7.2069   134.8864     9.2001
  226.0000   -61.7791     7.0796   136.5898     9.1570
  226.5000   -61.7394     7.0871   137.8643     9.1501
  227.0000   -61.8476     7.1266   138.1563     9.1968
  227.5000   -61.9399     7.1588   138.4483     9.2592
  228.0000   -62.0419     7.1942   138.7403     9.3272
  228.5000   -62.1385     7.2291   139.0323     9.3489
  229.0000   -62.2381     7.2528   139.3244     9.2956
  229.5000   -62.3360     7.1156   139.6164     9.2214
  230.0000   -62.4353     6.9421   141.3057     9.0077
  230.5000   -62.5325     6.7757   144.7649     8.7675
  231.0000   -62.6342     6.6049   148.2241     8.5225
  231.5000   -62.7109     6.4388   151.6834     8.3375
  232.0000   -62.5996     6.2658   155.1426     8.2365
  232.5000   -62.4663     6.1042   158.6018     8.2043
  233.0000   -62.3366     5.9226   161.8237     8.1976
  233.5000   -62.2059     5.8942   162.1357     8.1383
  234.0000   -62.0749     5.9907   162.4277     8.0467
  234.5000   -61.9456     6.0628   162.7197     7.9564
  235.0000   -61.8126     6.1468   161.8022     7.9006
  235.5000   -61.6863     6.2245   160.1961     8.0155
  236.0000   -61.5506     6.3051   158.5900     8.1029
  236.5000   -61.5429     6.3850   156.9840     8.0841
  237.0000   -61.6108     6.4642   155.3779     8.1449
  237.5000   -61.6605     6.5527   153.7718     8.2531
  238.0000   -61.7185     6.5701   151.8036     8.3524
  238.5000   -61.7721     6.5733   151.9355     8.3802
  239.0000   -61.8280     6.5804   152.1059     8.3848
  239.5000   -61.8828     6.5858   152.2762     8.4042
  240.0000   -61.9382     6.5920   152.4466     8.3829
  240.5000   -61.9933     6.5978   152.6169     8.3172
  241.0000   -62.0485     6.6038   152.8056     8.2406
  241.5000   -62.1035     6.6097   153.2615     8.2319
  242.0000   -62.1589     6.6158   153.8076     8.3278
  242.5000   -62.2133     6.6218   153.1413     8.3769
  243.0000   -62.2707     6.6278   152.4259     8.3954
  243.5000   -62.3107     6.6338   151.7104     8.4158
  244.0000   -62.2040     6.6398   150.9950     8.4376
  244.5000   -62.0775     6.6458   150.2796     8.4558
  245.0000   -61.9545     6.6518   149.5641     8.4806
  245.5000   -61.8302     6.6576   148.8487     8.4919
  246.0000   -61.7061     6.6647   148.1333     8.6030
  246.5000   -61.5823     6.6804   147.4178     8.8257
  247.0000   -61.4577     6.6968   146.7936     8.9050
  247.5000   -61.3349     6.7116   147.3057     8.9769
  248.0000   -61.2083     6.7293   147.7600     8.7869
  248.5000   -61.1111     6.7417   148.2142     8.5472
  249.0000   -61.1230     6.7638   148.6685     8.6716
  249.5000   -61.2341     6.7193   150.1386     8.7903
  250.0000   -61.3370     6.6358   152.0124     8.6793
  250.5000   -61.4411     6.5665   153.8861     8.3893
  251.0000   -61.5438     6.4913   155.7599     8.1624
  251.5000   -61.6484     6.4189   157.6336     7.8903
  252.0000   -61.7498     6.3451   159.8196     7.8803
  252.5000   -61.8570     6.2736   159.8196     7.9925
  253.0000   -61.9533     6.3256   159.8196     8.1223
  253.5000   -62.0721     6.4097   159.0381     8.2553
  254.0000   -62.0887     6.4851   156.9940     8.3149
  254.5000   -61.9741     6.5681   154.9499     8.3671
  255.0000   -61.8771     6.6409   152.9058     8.4207
  255.5000   -61.7704     6.7318   150.8617     8.4758
  256.0000   -61.6690     6.7259   150.1678     8.5170
  256.5000   -61.5644     6.6186   150.9344     8.4387
  257.0000   -61.4618     6.5275   151.7009     8.3455
  257.5000   -61.3573     6.4280   152.4674     8.2515
  258.0000   -61.2559     6.3329   154.0517     8.1567
  258.5000   -61.1495     6.2359   156.2816     8.0654
  259.0000   -61.0518     6.1391   158.5116     8.0021
  259.5000   -60.9390     6.0430   160.7415     7.9859
  260.0000   -60.9552     5.9601   162.9714     7.8776
  260.5000   -61.0622     6.0083   164.8297     7.7389
  261.0000   -61.1477     6.1013   165.8317     7.6852
  261.5000   -61.2430     6.1811   165.8317     7.6901
  262.0000   -61.3333     6.2664   165.8317     7.7089
  262.5000   -61.4257     6.3489   163.3266     7.8099
  263.0000   -61.5180     6.4328   161.2826     7.9625
  263.5000   -61.6094     6.5164   159.2385     8.0905
  264.0000   -61.7043     6.5997   157.1944     8.2286
  264.5000   -61.6553     6.6839   155.1503     8.3617
  265.0000   -61.5671     6.7657   153.1062     8.4973
  265.5000   -61.4868     6.8521   151.0621     8.6342
  266.0000   -61.4028     6.9301   149.0180     8.6455
  266.5000   -61.3206     7.0256   146.7936     8.5553
  267.0000   -61.2377     7.0380   147.3681     8.4446
  267.5000   -61.1546     6.9489   148.7308     8.3375
  268.0000   -61.0728     6.8741   150.0935     8.3253
  268.5000   -60.9875     6.7915   151.4563     8.3290
  269.0000   -60.9219     6.7132   152.8190     8.3156
  269.5000   -61.0041     6.6323   154.1817     8.1941
  270.0000   -61.1039     6.5533   155.5444     8.0602
  270.5000   -61.2001     6.4723   156.9072     7.9272
  271.0000   -61.2986     6.3949   158.2699     7.7983
  271.5000   -61.3941     6.3512   158.8176     7.7270
  272.0000   -61.4945     6.4345   158.8176     7.8029
  272.5000   -61.5865     6.5788   155.2167     7.9463
  273.0000   -61.6925     6.7065   152.0228     8.2813
  273.5000   -61.6678     6.8429   148.8071     8.7699
  274.0000   -61.5605     6.9717   145.6025     9.1876
  274.5000   -61.4753     7.1099   142.3809     9.6541
  275.0000   -61.3800     7.2333   139.1491     9.9393
  275.5000   -61.2901     7.3882   135.9226     9.8470
  276.0000   -61.1974     7.4427   133.6236     9.6729
  276.5000   -61.1058     7.3217   134.6435     9.4999
  277.0000   -61.0140     7.2198   137.0340     9.3326
  277.5000   -60.9215     7.1053   140.0217     9.1488
  278.0000   -60.8313     6.9999   142.9175     8.9949
  278.5000   -60.7367     6.8859   145.8133     8.8792
  279.0000   -60.6503     6.7835   148.7091     8.7947
  279.5000   -60.5469     6.6498   151.8036     8.7258
  280.0000   -60.5277     6.5482   152.1743     8.6397
  280.5000   -60.6063     6.6143   150.7435     8.6185
  281.0000   -60.6701     6.7288   149.3126     8.6752
  281.5000   -60.7417     6.8438   147.8818     8.8188
  282.0000   -60.8091     6.9584   146.4509     8.9715
  282.5000   -60.8789     7.0730   144.1383     9.1564
  283.0000   -60.9475     7.1881   141.0721     9.3781
  283.5000   -61.0171     7.3028   138.0060     9.5897
  284.0000   -61.0851     7.4183   134.9399     9.8048
  284.5000   -61.1555     7.5320   131.8737     9.9989
  285.0000   -61.2216     7.6487   128.8076    10.1192
  285.5000   -61.2953     7.7596   126.4128    10.2955
  286.0000   -61.3005     7.8831   124.3687    10.5144
  286.5000   -61.1576     7.9450   124.0321    10.7148
  287.0000   -61.0285     7.7814   124.4409    10.5977
  287.5000   -60.8956     7.6309   124.7495    10.1614
  288.0000   -60.7648     7.4728   128.9913    10.0687
  288.5000   -60.6333     7.3254   132.3981     9.7924
  289.0000   -60.5007     7.1569   135.8647     9.5456
  289.5000   -60.3714     7.0227   139.2767     9.2897
  290.0000   -60.2356     6.9295   142.6879     9.0452
  290.5000   -60.1124     6.8269   145.2768     8.7600
  291.0000   -59.9625     6.7167   146.4223     8.6590
  291.5000   -59.9319     6.6614   147.5634     8.8204
  292.0000   -60.0542     6.7253   148.7905     8.9345
  292.5000   -60.1558     6.7950   147.6417     9.0899
  293.0000   -60.2687     6.8585   146.4279     9.1018
  293.5000   -60.3756     6.9397   145.2246     8.9407
  294.0000   -60.4851     6.9035   144.0187     8.9141
  294.5000   -60.5944     6.7476   142.8357     8.9483
  295.0000   -60.7017     6.6132   147.2346     8.7439
  295.5000   -60.8150     6.4666   151.4964     8.5184
  296.0000   -60.8946     6.3288   155.7573     8.3025
  296.5000   -60.8050     6.1809   160.0261     8.0697
  297.0000   -60.7058     6.0732   164.2813     7.9027
