~VERSION INFORMATION
 VERS.                2.0:   CWLS LOG ASCII STANDARD - VERSION 2.0
 WRAP.                 NO:   ONE LINE PER DEPTH STEP
~WELL INFORMATION
#MNEM.UNIT      DATA TYPE    INFORMATION
#----------   ------------   ------------------------------
 STRT.F           90.0000:   START DEPTH
 STOP.F         1032.5000:   STOP DEPTH
 STEP.F            0.5000:   STEP LENGTH
 NULL.          -999.2500:   NO VALUE
 COMP. U S NAVY/INTEX OIL CO:   COMPANY
 WELL. NAVAL PETROLEUM RESERVE 3  #62-S-14:   WELL
 FLD .        TEAPOT DOME:   FIELD
 LOC .      S14 T38N R78W:   LOCATION
 CNTY.            NATRONA:   COUNTY
 STAT.            WYOMING:   STATE
 CTRY. UNITED STATES OF AMERICA:   COUNTRY
 SRVC.       Schlumberger:   SERVICE COMPANY
 DATE.        04-JUL-1962:   LOGDATE
 API .       490250631700:   API NUMBER
~CURVE INFORMATION
#MNEM.UNIT       API CODE    CURVE DESCRIPTION
#----------   ------------   ------------------------------
 DEPT.F                  :   
 GR  .GAPI   30 310 01 00:   GAMMA RAY
 CALM.IN     15 280 01 00:   CALIPER FROM MICRO LOG
 SPR .MV     06 010 01 00:   SPONTANEOUS POTENTIAL FROM RES.
 ASN .OHMM   06 041 16 00:   AMPLIFIED SHORT NORMAL 16"
 ILD .OHMM   06 120 46 00:   INDUCTION LOG DEEP
 CILD.MMHO   06 110 46 00:   CONDUCTIVITY INDUCTION LOG DEEP
~PARAMETER INFORMATION
#MNEM.UNIT          VALUE    DESCRIPTION
#----------   ------------   ------------------------------
 PD  .                 GL:   PERMANENT DATUM
 EPD .F              5246:   ELEVATION PERMANENT DATUM
 LMF .                 KB:   LOG MEASURED FROM
 DAPD.F                 5:   FEET ABOVE PERMANENT DATUM
 DMF .                 KB:   DRILLING MEASURED FROM
 EKB .F              5251:   KELLING BUSHING
 EGL .F              5246:   GROUND LEVEL
 DATE.             7-4-62:   RUN DATE
 RUN .                  1:   RUN NUMBER
 DD  .F              1036:   DEPTH DRILLER
 DL  .F              1033:   DEPTH LOGGER
 BLI .F              1032:   BOTTOM LOG INTERVAL
 TLI .F                90:   TOP LOG INTERVAL
 CBD .F                10:   CASING BOTTOM DRILLER
 BS  .IN             6.75:   BIT SIZE
 BSD .F              1036:   BIT SIZE AT DEPTH
 DFT .                GEL:   DRILLING FLUID TYPE
 DFD .               10.2:   DRILLING FLUID DENSITY
 DFV .                 48:   DRILLING FLUID VISCOSITY
 DFL .                4.8:   DRILLING FLUID LOSS
 MSS .          FLOW LINE:   MUD SAMPLE SOURCE
 RMS .OHMM            5.6:   RESISTIVITY MUD SAMPLE
 MST .F                70:   MUD SAMPLE TEMPERATURE
 RMF .OHMM           5.57:   RESISTIVITY MUD FILTRATE SAMPLE
 MFST.F                70:   MUD FILTRATE SAMPLE TEMPERATURE
 RMC .OHMM           5.32:   RESISTIVITY MUD CAKE
 MCST.F                70:   MUD CAKE SAMPLE TEMPERATURE
 MFSS.                  M:   MUD FILTRATE SAMPLE SOURCE
 MCSS.                  M:   MUD CAKE SAMPLE SOURCE
 RMB .OHMM            4.3:   RESISTIVITY MUD AT BHT
 BHT .F                90:   BOTTOM HOLE TEMPERATURE
 TCS .HRS               1:   TIME CURCULATED STOPPED
 MRT .F                90:   MAXIMUM RECORDED TEMPERATURE
 LUN .               2503:   LOGGING UNIT NUMBER
 LUL .               CSPR:   LOGGING UNIT LOCATION
 ENGI.             KNOBEL:   RECORDING ENGINEER
 WITN.          JORGENSEN:   WITNESSED BY
 CLNT.            A2DTECH:   CLIENT CODE
 ORIG.   1", 2", 5" PRINT:   ORIGIN OF DATA
 UWI .       490250631700:   UNIQUE WELL ID
 DICO. A2D Technologies, Inc.:   DIGITIZING COMPANY
~OTHER INFORMATION
~A   DEPT       GR       CALM        SPR          ASN        ILD      CILD  
# ...
  506.0000  -999.2500  -999.2500   -57.3112    16.7429    14.5679    60.3937
  506.5000  -999.2500  -999.2500   -59.0219    16.4138    14.4343    61.5165
  507.0000  -999.2500  -999.2500   -60.3839    16.5627    14.3005    62.6386
  507.5000  -999.2500  -999.2500   -59.9048    16.2884    14.1668    63.7609
  508.0000  -999.2500  -999.2500   -59.4556    15.9290    14.0329    64.6293
  508.5000  -999.2500  -999.2500   -59.0299    15.5854    13.8989    64.6293
  509.0000  -999.2500  -999.2500   -59.1227    15.4875    13.8475    64.6293
  509.5000  -999.2500  -999.2500   -59.1883    15.3991    13.8112    64.6293
  510.0000  -999.2500  -999.2500   -58.2541    15.3120    13.7745    64.6293
  510.5000  -999.2500  -999.2500   -57.2906    15.1402    13.8475    64.6293
  511.0000  -999.2500  -999.2500   -56.3321    14.9325    13.6355    64.6293
  511.5000  -999.2500  -999.2500   -55.4039    14.6818    12.7168    72.7756
  512.0000  -999.2500  -999.2500   -54.7145    14.2350    11.8111    80.3507
  512.5000  -999.2500  -999.2500   -54.0414    13.1766    10.9108    88.6774
  513.0000  -999.2500  -999.2500   -53.3528    12.1497    10.0116    97.2651
  513.5000  -999.2500  -999.2500   -51.9688    10.6698     9.1110   109.4916
  514.0000  -999.2500  -999.2500   -49.6906     9.8379     8.1815   121.7182
  514.5000  -999.2500  -999.2500   -47.4319     8.9047     7.7760   134.7695
  515.0000  -999.2500  -999.2500   -45.5436     7.9756     7.5090   141.6952
  515.5000  -999.2500  -999.2500   -44.6442     7.5024     7.2466   149.1218
  516.0000  -999.2500  -999.2500   -44.1873     7.3622     6.9838   156.5484
  516.5000  -999.2500  -999.2500   -44.2444     7.3277     6.7575   159.1774
  517.0000  -999.2500  -999.2500   -44.4784     7.3310     6.7627   158.0297
  517.5000  -999.2500  -999.2500   -44.5233     7.3353     6.7635   156.8819
  518.0000  -999.2500  -999.2500   -44.3993     7.3392     6.7635   155.7372
  518.5000  -999.2500  -999.2500   -44.2735     7.3438     6.7635   155.0040
  519.0000  -999.2500  -999.2500   -44.1470     7.3000     6.7635   156.1034
  519.5000  -999.2500  -999.2500   -44.0145     7.1818     6.7635   157.1844
  520.0000  -999.2500  -999.2500   -44.0933     7.0542     6.7635   157.8156
  520.5000  -999.2500  -999.2500   -44.2110     6.9258     6.7635   157.8156
  521.0000  -999.2500  -999.2500   -44.2754     6.8073     6.7635   157.8156
  521.5000  -999.2500  -999.2500   -44.3408     6.8355     6.7635   157.8156
  522.0000  -999.2500  -999.2500   -44.4058     6.9289     6.7635   157.0153
  522.5000  -999.2500  -999.2500   -44.4709     7.0306     6.7635   156.0684
  523.0000  -999.2500  -999.2500   -44.5359     7.0893     6.7635   155.1215
  523.5000  -999.2500  -999.2500   -44.6009     7.1245     6.7636   154.1746
  524.0000  -999.2500  -999.2500   -44.6660     7.1364     6.7641   153.2277
  524.5000  -999.2500  -999.2500   -44.7310     7.1414     6.7453   152.2808
  525.0000  -999.2500  -999.2500   -44.7961     7.1286     6.7247   151.8036
  525.5000  -999.2500  -999.2500   -44.8616     7.0679     6.7041   156.4295
  526.0000  -999.2500  -999.2500   -44.9284     6.9882     6.6835   160.6379
  526.5000  -999.2500  -999.2500   -44.9787     6.9082     6.6628   160.6186
  527.0000  -999.2500  -999.2500   -44.6996     6.8278     6.6422   162.1647
  527.5000  -999.2500  -999.2500   -44.4035     6.7463     6.6216   163.6973
  528.0000  -999.2500  -999.2500   -44.0314     6.6952     6.6008   165.2435
  528.5000  -999.2500  -999.2500   -44.0769     6.6450     6.5803   166.8258
  529.0000  -999.2500  -999.2500   -44.2226     6.6440     6.5726   165.1683
  529.5000  -999.2500  -999.2500   -44.3678     6.6953     6.6391   163.4268
  530.0000  -999.2500  -999.2500   -44.5119     6.7503     6.7049   161.6854
  530.5000  -999.2500  -999.2500   -44.6559     6.8245     6.7705   159.9440
  531.0000  -999.2500  -999.2500   -44.8002     6.9324     6.8361   158.2026
  531.5000  -999.2500  -999.2500   -44.9467     7.0395     6.9017   156.3756
  532.0000  -999.2500  -999.2500   -44.9828     7.1311     6.9673   154.2113
  532.5000  -999.2500  -999.2500   -44.8489     7.1535     7.0329   152.0470
  533.0000  -999.2500  -999.2500   -44.7160     7.1748     7.0985   149.8826
  533.5000  -999.2500  -999.2500   -44.5844     7.1964     7.1641   147.7183
  534.0000  -999.2500  -999.2500   -44.4542     7.2488     7.2297   145.5540
  534.5000  -999.2500  -999.2500   -44.4964     7.3602     7.2952   143.3896
  535.0000  -999.2500  -999.2500   -44.8558     7.4698     7.3608   141.2253
  535.5000  -999.2500  -999.2500   -45.2140     7.5792     7.4265   139.0610
  536.0000  -999.2500  -999.2500   -45.5749     7.6887     7.4924   136.8967
  536.5000  -999.2500  -999.2500   -45.5405     7.7559     7.5582   135.5818
  537.0000  -999.2500  -999.2500   -45.4393     7.7770     7.5430   134.9085
  537.5000  -999.2500  -999.2500   -45.3393     7.7983     7.5177   134.2351
  538.0000  -999.2500  -999.2500   -45.2399     7.8204     7.4923   134.6837
  538.5000  -999.2500  -999.2500   -45.1405     7.8257     7.4670   137.6822
  539.0000  -999.2500  -999.2500   -45.0411     7.7942     7.4418   140.6807
  539.5000  -999.2500  -999.2500   -44.9417     7.7337     7.4165   143.6792
  540.0000  -999.2500  -999.2500   -44.8424     7.6474     7.3911   146.6777
  540.5000  -999.2500  -999.2500   -44.7430     7.5378     7.3657   149.6762
  541.0000  -999.2500  -999.2500   -44.6436     7.4280     7.3565   152.7903
  541.5000  -999.2500  -999.2500   -44.5442     7.3754     7.3480   149.5255
  542.0000  -999.2500  -999.2500   -44.4444     7.3362     7.3395   146.0432
  542.5000  -999.2500  -999.2500   -44.3451     7.4220     7.3309   142.5794
  543.0000  -999.2500  -999.2500   -44.2504     7.6012     7.3224   139.7679
  543.5000  -999.2500  -999.2500   -44.4226     8.3574     7.3138   144.7785
  544.0000  -999.2500  -999.2500   -44.9959     9.1417     7.3053   147.3833
  544.5000  -999.2500  -999.2500   -45.5619     9.7028     7.2967   145.3667
  545.0000  -999.2500  -999.2500   -45.9871     9.7502     7.2882   143.3467
  545.5000  -999.2500  -999.2500   -45.6022     9.0883     7.2797   141.3266
  546.0000  -999.2500  -999.2500   -45.2183     8.2291     7.2709   140.4719
  546.5000  -999.2500  -999.2500   -44.8558     7.6089     7.2491   143.6402
  547.0000  -999.2500  -999.2500   -44.6757     7.2871     7.1750   146.7659
  547.5000  -999.2500  -999.2500   -44.9108     7.2537     7.1025   149.8903
  548.0000  -999.2500  -999.2500   -45.1290     7.3075     7.0296   152.8056
  548.5000  -999.2500  -999.2500   -45.3506     7.3580     6.9697   151.0824
  549.0000  -999.2500  -999.2500   -45.5528     7.3608     7.0712   149.4681
  549.5000  -999.2500  -999.2500   -45.7776     7.3100     7.1668   147.8538
  550.0000  -999.2500  -999.2500   -45.6461     7.2593     7.2328   146.2395
  550.5000  -999.2500  -999.2500   -45.5354     7.2071     7.2957   144.7328
  551.0000  -999.2500  -999.2500   -45.4240     7.2029     7.3585   144.1750
  551.5000  -999.2500  -999.2500   -45.3123     7.2547     7.4213   143.6172
  552.0000  -999.2500  -999.2500   -45.1998     7.3439     7.4841   143.0594
  552.5000  -999.2500  -999.2500   -45.0879     7.4735     7.5474   142.9359
  553.0000  -999.2500  -999.2500   -45.0250     7.5970     7.6103   143.2312
  553.5000  -999.2500  -999.2500   -45.3605     7.6715     7.6490   143.5265
  554.0000  -999.2500  -999.2500   -45.7101     7.7218     7.4927   143.7876
  554.5000  -999.2500  -999.2500   -45.7908     7.6292     7.3361   146.2149
  555.0000  -999.2500  -999.2500   -45.7921     7.4197     7.1801   148.8644
  555.5000  -999.2500  -999.2500   -45.8996     7.1955     7.0243   151.5139
  556.0000  -999.2500  -999.2500   -46.1060     6.9700     6.8701   154.1633
  556.5000  -999.2500  -999.2500   -46.3126     6.8290     6.7411   156.8138
  557.0000  -999.2500  -999.2500   -46.5194     6.7571     6.6770   159.4576
  557.5000  -999.2500  -999.2500   -46.7261     6.6861     6.6113   162.1385
