~VERSION INFORMATION
 VERS.                2.0:   CWLS LOG ASCII STANDARD - VERSION 2.0
 WRAP.                 NO:   ONE LINE PER DEPTH STEP
~WELL INFORMATION
#MNEM.UNIT      DATA TYPE    INFORMATION
#----------   ------------   ------------------------------
 STRT.F           38.0000:   START DEPTH
 STOP.F          818.0000:   STOP DEPTH
 STEP.F            0.5000:   STEP LENGTH
 NULL.          -999.2500:   NO VALUE
 COMP. FENIX & SCISSON INC:   COMPANY
 WELL. NAVAL PETROLEUM RESERVE 3 SX-1 #32-14:   WELL
 FLD .             TEAPOT:   FIELD
 LOC .      S14 T38N R78W:   LOCATION
 CNTY.            NATRONA:   COUNTY
 STAT.            WYOMING:   STATE
 CTRY. UNITED STATES OF AMERICA:   COUNTRY
 SRVC.            Unknown:   SERVICE COMPANY
 DATE.        03-MAY-1978:   LOGDATE
 API .       490251061900:   API NUMBER
~CURVE INFORMATION
#MNEM.UNIT       API CODE    CURVE DESCRIPTION
#----------   ------------   ------------------------------
 DEPT.F                  :   
 SPR .MV     05 010 01 00:   SPONTANEOUS POTENTIAL FROM RES.
 ILD .OHMM   05 120 46 00:   INDUCTION LOG DEEP
 SN  .OHMM   05 040 16 00:   SHORT NORMAL 16"
 CALD.IN     45 280 60 00:   CALIPER
 GRD .GAPI   45 310 01 00:   GAMMA RAY FROM DENSITY LOG
 RHOB.G/C3   45 350 01 00:   BULK DENSITY
 DPHI.DEC    45 890 12 00:   DENSITY POROSITY SANDSTONE
 CORR.G/C3   45 356 01 00:   DENSITY CORRECTION
~PARAMETER INFORMATION
#MNEM.UNIT          VALUE    DESCRIPTION
#----------   ------------   ------------------------------
 PD  .                 GL:   PERMANENT DATUM
 EPD .F              5209:   ELEVATION PERMANENT DATUM
 LMF .                 KB:   LOG MEASURED FROM
 DAPD.F                 4:   FEET ABOVE PERMANENT DATUM
 DMF .                 KB:   DRILLING MEASURED FROM
 EKB .F              5213:   KELLING BUSHING
 EGL .F              5209:   GROUND LEVEL
 DATE.           5-3-1978:   RUN DATE
 RUN .                  1:   RUN NUMBER
 DD  .F               806:   DEPTH DRILLER
 DL  .F               824:   DEPTH LOGGER
 BLI .F               818:   BOTTOM LOG INTERVAL
 TLI .F                50:   TOP LOG INTERVAL
 CS  .IN            8.625:   CASING SIZE
 CBD .F                40:   CASING BOTTOM DRILLER
 BS  .IN            7.875:   BIT SIZE
 BSD .F               806:   BIT SIZE AT DEPTH
 DFT .                KCL:   DRILLING FLUID TYPE
 DFD .                8.6:   DRILLING FLUID DENSITY
 DFV .                 34:   DRILLING FLUID VISCOSITY
 DFPH.                  9:   DRILLING FLUID PH
 DFL .               16.4:   DRILLING FLUID LOSS
 MSS .           FLOWLINE:   MUD SAMPLE SOURCE
 RMS .OHMM            .75:   RESISTIVITY MUD SAMPLE
 MST .F                52:   MUD SAMPLE TEMPERATURE
 RMF .OHMM            .65:   RESISTIVITY MUD FILTRATE SAMPLE
 MFST.F                60:   MUD FILTRATE SAMPLE TEMPERATURE
 RMC .OHMM            1.2:   RESISTIVITY MUD CAKE
 MCST.F                62:   MUD CAKE SAMPLE TEMPERATURE
 MFSS.               MEAS:   MUD FILTRATE SAMPLE SOURCE
 RMB .OHMM            .54:   RESISTIVITY MUD AT BHT
 BHT .F                72:   BOTTOM HOLE TEMPERATURE
 TCS .HRS               1:   TIME CURCULATED STOPPED
 MRT .F                72:   MAXIMUM RECORDED TEMPERATURE
 LUN .               2958:   LOGGING UNIT NUMBER
 LUL .               CASP:   LOGGING UNIT LOCATION
 ENGI.             MILLER:   RECORDING ENGINEER
 WITN.           MCGINLEY:   WITNESSED BY
 CLNT.            A2DTECH:   CLIENT CODE
 ORIG.           5" PRINT:   ORIGIN OF DATA
 UWI .       490251061900:   UNIQUE WELL ID
 DICO. A2D Technologies, Inc.:   DIGITIZING COMPANY
~OTHER INFORMATION
~A   DEPT      SPR        ILD         SN         CALD      GRD       RHOB       DPHI       CORR   
# ...
  686.0000   -32.8469    15.1031    12.4460     8.1260    60.2138     2.3770     0.1916     0.0269
  686.5000   -33.0622    14.9562    12.4460     8.1543    63.9843     2.3742     0.1929     0.0279
  687.0000   -33.2772    14.8158    12.4460     8.1826    65.9764     2.3722     0.1903     0.0284
  687.5000   -33.4950    14.6768    12.4460     8.2109    64.9653     2.3787     0.1866     0.0271
  688.0000   -33.5477    14.5390    12.4454     8.2392    61.1022     2.3859     0.1816     0.0258
  688.5000   -33.5233    14.3829    12.4468     8.2675    59.4934     2.3937     0.1762     0.0246
  689.0000   -33.4971    14.1141    12.2556     8.2959    59.4035     2.4019     0.1738     0.0234
  689.5000   -33.4711    13.8504    12.0915     8.3088    59.3857     2.4062     0.1746     0.0221
  690.0000   -33.4452    13.5916    11.9958     8.3185    60.4382     2.4037     0.1782     0.0209
  690.5000   -33.4193    13.3376    11.9905     8.3281    61.3202     2.4012     0.1806     0.0209
  691.0000   -33.3935    13.1111    12.0026     8.3378    62.8396     2.3993     0.1763     0.0216
  691.5000   -33.3676    12.9518    11.6663     8.3475    64.5692     2.4017     0.1734     0.0223
  692.0000   -33.3417    12.7944    11.4584     8.3572    68.8660     2.4068     0.1721     0.0230
  692.5000   -33.3158    12.6388    11.2468     8.3669    75.4622     2.4122     0.1672     0.0237
  693.0000   -33.2900    12.4847    11.2468     8.3768    76.0241     2.4257     0.1618     0.0245
  693.5000   -33.2641    12.3307    11.2393     8.3701    74.0646     2.4261     0.1620     0.0252
  694.0000   -33.2382    12.3323    11.2295     8.3534    73.3032     2.4253     0.1614     0.0259
  694.5000   -33.2125    12.3319    11.2197     8.3364    78.4915     2.4285     0.1576     0.0262
  695.0000   -33.1875    12.3576    11.2099     8.3194    83.0035     2.4351     0.1558     0.0250
  695.5000   -33.1618    12.3883    11.2001     8.3024    83.9431     2.4402     0.1574     0.0238
  696.0000   -33.0428    12.4191    11.1903     8.2852    83.6988     2.4330     0.1666     0.0226
  696.5000   -32.9240    12.4500    11.1805     8.2623    81.3099     2.4185     0.1733     0.0214
  697.0000   -32.8058    12.4809    11.1708     8.2351    77.1720     2.4040     0.1810     0.0204
  697.5000   -32.6868    12.5120    11.1613     8.2001    73.0420     2.3897     0.1833     0.0202
  698.0000   -32.5688    12.5439    11.1514     8.1648    70.5411     2.3863     0.1818     0.0194
  698.5000   -32.7323    12.5608    11.1218     8.1295    71.4604     2.3929     0.1788     0.0187
  699.0000   -32.9372    12.4185    11.0239     8.0942    72.7415     2.4000     0.1777     0.0179
  699.5000   -33.1440    12.3183    10.9269     8.0628    72.7618     2.4023     0.1763     0.0171
  700.0000   -33.3559    12.2192    10.8400     8.0385    73.2614     2.3980     0.1758     0.0169
  700.5000   -33.3684    12.1209    10.8017     8.0122    73.8287     2.3921     0.1751     0.0201
  701.0000   -33.3671    12.0234    10.7594     7.9858    73.4356     2.3932     0.1729     0.0236
  701.5000   -33.3659    11.9267    10.7355     7.9594    71.8304     2.4042     0.1680     0.0270
  702.0000   -33.3203    11.8850    10.7040     7.9330    70.2343     2.4158     0.1640     0.0303
  702.5000   -33.1922    11.8859    10.6725     7.9065    68.6331     2.4274     0.1616     0.0304
  703.0000   -33.0653    11.8854    10.6412     7.9085    68.3613     2.4293     0.1598     0.0291
  703.5000   -32.9382    11.8871    10.6099     7.9225    69.8206     2.4286     0.1594     0.0279
  704.0000   -32.8098    11.7188    10.5788     7.9365    71.9495     2.4279     0.1617     0.0267
  704.5000   -32.7693    11.5622    10.5477     7.9505    73.1608     2.4272     0.1619     0.0254
  705.0000   -32.7687    11.4519    10.5167     7.9629    73.1799     2.4291     0.1610     0.0242
  705.5000   -32.7688    11.4074    10.4858     7.9440    71.9096     2.4280     0.1616     0.0229
  706.0000   -32.7691    11.3648    10.4550     7.9207    69.8521     2.4262     0.1630     0.0231
  706.5000   -32.7687    11.3222    10.4243     7.9010    69.5759     2.4205     0.1698     0.0242
  707.0000   -32.7692    11.2797    10.3937     7.9643    69.5697     2.4155     0.1616     0.0252
  707.5000   -32.6409    11.2469    10.3632     8.0583    69.5075     2.4216     0.1576     0.0263
  708.0000   -32.6043    11.2129    10.3327     8.1594    72.0553     2.4350     0.1541     0.0252
  708.5000   -33.3888    11.1724    10.3024     8.2009    74.8343     2.4404     0.1558     0.0239
  709.0000   -33.9756    11.1320    10.2721     8.2433    75.1338     2.4353     0.1556     0.0226
  709.5000   -33.9878    11.0918    10.2538     8.2416    75.3868     2.4396     0.1522     0.0212
  710.0000   -34.0129    11.0517    10.2463     8.2568    75.6645     2.4413     0.1541     0.0212
  710.5000   -34.0387    10.8400    10.2392     8.3392    75.5304     2.4392     0.1550     0.0231
  711.0000   -34.0648    10.8323    10.2320     8.3379    75.0604     2.4418     0.1513     0.0249
  711.5000   -34.0908    10.8120    10.2248     8.3346    72.6102     2.4482     0.1489     0.0268
  712.0000   -34.1170    10.7916    10.2176     8.3315    70.2038     2.4501     0.1474     0.0284
  712.5000   -34.1432    10.7713    10.2105     8.3284    67.6836     2.4544     0.1438     0.0272
  713.0000   -34.1628    10.7438    10.2033     8.3254    65.7886     2.4586     0.1431     0.0259
  713.5000   -34.1291    10.7324    10.1961     8.3229    64.5233     2.4608     0.1432     0.0247
  714.0000   -34.0950    10.8341    10.1890     8.3418    64.6374     2.4612     0.1442     0.0234
  714.5000   -34.0611    10.8388    10.1818     8.3930    65.2272     2.4589     0.1447     0.0224
  715.0000   -34.0272    10.8400    10.1747     8.4133    66.3343     2.4585     0.1442     0.0226
  715.5000   -33.9934    10.8400    10.1675     8.3977    70.3543     2.4599     0.1432     0.0253
  716.0000   -33.9558    10.8396    10.1604     8.3826    74.7491     2.4612     0.1407     0.0280
  716.5000   -33.9000    10.8246    10.1532     8.3669    76.3626     2.4621     0.1409     0.0306
  717.0000   -33.8435    10.8091    10.1461     8.3802    75.8095     2.4621     0.1408     0.0333
  717.5000   -33.7868    10.7937    10.1390     8.4140    71.8925     2.4657     0.1390     0.0344
  718.0000   -33.7643    10.7783    10.1319     8.4484    62.8693     2.4715     0.1346     0.0344
  718.5000   -33.8340    10.7629    10.1247     8.4611    59.8599     2.4770     0.1319     0.0344
  719.0000   -33.9418    10.7476    10.1176     8.4630    60.8963     2.4772     0.1359     0.0344
  719.5000   -34.0509    10.7323    10.1105     8.4647    64.4397     2.4710     0.1369     0.0344
  720.0000   -34.1600    10.7170    10.1034     8.4664    64.4477     2.4728     0.1363     0.0344
  720.5000   -34.2683    10.7017    10.0963     8.4681    64.6621     2.4741     0.1382     0.0344
  721.0000   -34.3670    10.6865    10.0892     8.4698    64.9499     2.4679     0.1387     0.0344
  721.5000   -34.4815    10.6712    10.0821     8.4715    65.8910     2.4654     0.1355     0.0344
  722.0000   -34.6087    10.6560    10.0751     8.4732    67.5941     2.4718     0.1319     0.0344
  722.5000   -34.7410    10.6408    10.0649     8.4749    69.1726     2.4779     0.1307     0.0344
  723.0000   -34.9120    10.6257    10.0436     8.4766    70.5259     2.4792     0.1315     0.0344
  723.5000   -35.2830    10.6105    10.0231     8.4783    72.0987     2.4787     0.1315     0.0344
  724.0000   -35.5644    10.5954    10.0026     8.4799    74.8502     2.4783     0.1307     0.0344
  724.5000   -35.5613    10.5803     9.9821     8.4755    73.7429     2.4778     0.1303     0.0342
  725.0000   -35.5408    10.5653     9.9617     8.4627    70.9689     2.4773     0.1328     0.0338
  725.5000   -35.1875    10.5453     9.9414     8.4499    68.5141     2.4769     0.1335     0.0333
  726.0000   -34.8288    10.5552     9.9210     8.4371    67.3439     2.4764     0.1350     0.0329
