~VERSION INFORMATION
 VERS.                2.0:   CWLS LOG ASCII STANDARD - VERSION 2.0
 WRAP.                 NO:   ONE LINE PER DEPTH STEP
~WELL INFORMATION
#MNEM.UNIT      DATA TYPE    INFORMATION
#----------   ------------   ------------------------------
 STRT.F           71.5000:   START DEPTH
 STOP.F          820.0000:   STOP DEPTH
 STEP.F            0.5000:   STEP LENGTH
 NULL.          -999.2500:   NO VALUE
 COMP. U S NAVY/INTEX OIL CO:   COMPANY
 WELL. RES 3 TEAPOT DOME #72-S-34:   WELL
 FLD .             TEAPOT:   FIELD
 LOC .      S34 T39N R78W:   LOCATION
 CNTY.            NATRONA:   COUNTY
 STAT.            WYOMING:   STATE
 CTRY. UNITED STATES OF AMERICA:   COUNTRY
 SRVC.       Schlumberger:   SERVICE COMPANY
 DATE.        20-FEB-1961:   LOGDATE
 API .       490250655700:   API NUMBER
~CURVE INFORMATION
#MNEM.UNIT       API CODE    CURVE DESCRIPTION
#----------   ------------   ------------------------------
 DEPT.F                  :   
 GR  .GAPI   30 310 01 00:   GAMMA RAY
 SPR .MV     05 010 01 00:   SPONTANEOUS POTENTIAL FROM RES.
 ILD .OHMM   05 120 46 00:   INDUCTION LOG DEEP
 ASN .OHMM   05 041 16 00:   AMPLIFIED SHORT NORMAL 16"
 CILD.MMHO   05 110 46 00:   CONDUCTIVITY INDUCTION LOG DEEP
~PARAMETER INFORMATION
#MNEM.UNIT          VALUE    DESCRIPTION
#----------   ------------   ------------------------------
 LMF .                 KB:   LOG MEASURED FROM
 DMF .                 KB:   DRILLING MEASURED FROM
 EKB .F              5071:   KELLING BUSHING
 EGL .F              5057:   GROUND LEVEL
 DATE.          2-20-1961:   RUN DATE
 RUN .                  1:   RUN NUMBER
 DD  .F               820:   DEPTH DRILLER
 DL  .F               820:   DEPTH LOGGER
 BLI .F               819:   BOTTOM LOG INTERVAL
 TLI .F                80:   TOP LOG INTERVAL
 CBD .F                12:   CASING BOTTOM DRILLER
 BS  .IN            7.875:   BIT SIZE
 BSD .F               820:   BIT SIZE AT DEPTH
 DFT .       GEL-OIL EMUL:   DRILLING FLUID TYPE
 DFD .                9.3:   DRILLING FLUID DENSITY
 DFV .                 48:   DRILLING FLUID VISCOSITY
 DFPH.                8.5:   DRILLING FLUID PH
 DFL .                 16:   DRILLING FLUID LOSS
 MSS .           FLOWLINE:   MUD SAMPLE SOURCE
 RMS .OHMM            .82:   RESISTIVITY MUD SAMPLE
 MST .F                70:   MUD SAMPLE TEMPERATURE
 RMF .OHMM            .45:   RESISTIVITY MUD FILTRATE SAMPLE
 MFST.F                72:   MUD FILTRATE SAMPLE TEMPERATURE
 RMC .OHMM            1.4:   RESISTIVITY MUD CAKE
 MCST.F                78:   MUD CAKE SAMPLE TEMPERATURE
 RMB .OHMM            .73:   RESISTIVITY MUD AT BHT
 BHT .F                78:   BOTTOM HOLE TEMPERATURE
 TCS .HRS               1:   TIME CURCULATED STOPPED
 MRT .F                78:   MAXIMUM RECORDED TEMPERATURE
 LUN .               2523:   LOGGING UNIT NUMBER
 LUL .              CSPR.:   LOGGING UNIT LOCATION
 ENGI.             KNOBEL:   RECORDING ENGINEER
 WITN.          JORGENSEN:   WITNESSED BY
 CLNT.            A2DTECH:   CLIENT CODE
 ORIG.      2" & 5" PRINT:   ORIGIN OF DATA
 UWI .       490250655700:   UNIQUE WELL ID
 DICO. A2D Technologies, Inc.:   DIGITIZING COMPANY
~OTHER INFORMATION
~A   DEPT       GR        SPR          ILD      ASN       CILD   
   71.5000  -999.2500  -999.2500     0.4473  -999.2500  -999.2500
   72.0000  -999.2500  -999.2500     0.4473  -999.2500  -999.2500
   72.5000  -999.2500  -999.2500     0.4473  -999.2500  -999.2500
   73.0000  -999.2500  -999.2500     0.4473  -999.2500  -999.2500
   73.5000  -999.2500  -999.2500     0.4473  -999.2500  -999.2500
   74.0000  -999.2500  -999.2500     0.4473  -999.2500  -999.2500
   74.5000  -999.2500  -999.2500     0.4473  -999.2500  -999.2500
   75.0000  -999.2500  -999.2500     0.4473  -999.2500  -999.2500
   75.5000  -999.2500  -999.2500     0.4366  -999.2500  -999.2500
   76.0000  -999.2500  -999.2500     0.4260  -999.2500  -999.2500
   76.5000  -999.2500  -999.2500     0.4154  -999.2500  -999.2500
   77.0000  -999.2500  -999.2500     0.4047  -999.2500  -999.2500
   77.5000  -999.2500  -999.2500     0.3479  -999.2500  -999.2500
   78.0000  -999.2500  -999.2500     0.2911  -999.2500  -999.2500
   78.5000  -999.2500   -20.6215     0.2931     0.0895  -999.2500
   79.0000  -999.2500   -20.6306     0.2489     0.1690  -999.2500
   79.5000  -999.2500   -20.6397     0.3503     0.4175  -999.2500
   80.0000  -999.2500   -20.6488     0.4475     0.7299   161.7517
   80.5000  -999.2500   -20.6579     0.5689     0.8151   159.5427
   81.0000  -999.2500   -20.6670     0.7259     0.9003   157.3338
   81.5000  -999.2500   -20.6761     0.8470     0.9642   154.5726
   82.0000  -999.2500   -20.6852     1.8744     2.0494   160.6859
   82.5000  -999.2500   -20.6943     2.6990     2.9175   168.8370
   83.0000  -999.2500   -20.7034     3.7269     3.5686   176.9881
   83.5000  -999.2500   -20.7125     4.7212     4.2218   185.1392
   84.0000  -999.2500   -20.7216     4.7207     4.7444   195.3280
   84.5000  -999.2500   -20.7307     4.7209     5.3976   198.0971
   85.0000  -999.2500   -20.7398     4.7210     6.0934   201.7893
   85.5000  -999.2500   -20.7277     4.7205     6.0899   205.4814
   86.0000  -999.2500   -20.7489     4.7211     6.1534   208.2505
   86.5000  -999.2500   -20.7580     4.7202     6.2114   206.4612
   87.0000  -999.2500   -20.7671     4.7566     6.1233   206.3642
   87.5000  -999.2500   -20.7762     4.7840     6.0326   204.0755
   88.0000  -999.2500   -20.7853     4.8205     6.0636   202.2863
   88.5000  -999.2500   -20.7944     5.0091     6.2415   195.6594
   89.0000  -999.2500   -20.8035     5.2629     6.4411   190.3578
   89.5000  -999.2500   -20.8126     5.5151     6.6391   186.3817
   90.0000  -999.2500   -20.8217     5.7694     6.8386   178.9264
   90.5000  -999.2500   -20.8308     6.0216     6.9872   172.9622
   91.0000  -999.2500   -20.8399     6.2127     7.2585   166.9980
   91.5000  -999.2500   -20.8490     6.2740     7.4745   161.0338
   92.0000  -999.2500   -20.8581     6.3121     7.6916   155.0696
   92.5000  -999.2500   -20.8672     6.3110     7.9618   150.0994
   93.0000  -999.2500   -20.8762     6.1328     7.9523   149.6024
   93.5000  -999.2500   -20.8853     5.9880     7.9221   157.0576
   94.0000  -999.2500   -20.8944     5.8457     7.6354   163.0219
   94.5000  -999.2500   -20.9035     5.7010     7.4053   168.9861
   95.0000  -999.2500   -20.9126     5.5585     7.1758   174.9503
   95.5000  -999.2500   -20.9217     5.4140     6.8884   180.9145
   96.0000  -999.2500   -20.9308     5.2714     6.7396   186.8787
   96.5000  -999.2500   -20.9399     5.1271     6.5804   191.8489
   97.0000  -999.2500   -20.9489     5.0202     6.5507   192.3459
   97.5000  -999.2500   -20.9581     5.4061     6.5308   192.3459
   98.0000  -999.2500   -20.9671     5.7156     6.8111   183.3996
   98.5000  -999.2500   -20.9763     6.0246     7.1849   177.6484
   99.0000  -999.2500   -20.9853     6.4110     7.4649   169.9801
   99.5000  -999.2500   -20.9944     6.2915     8.1305   162.3118
  100.0000  -999.2500   -21.0057     6.1318     8.6622   156.5606
  100.5000  -999.2500   -20.9904     5.9726     8.7971   156.5606
  101.0000  -999.2500   -20.9697     5.8127     8.5602   160.4308
  101.5000  -999.2500   -20.9492     5.6535     8.3707   164.5129
  102.0000  -999.2500   -20.9285     5.4937     8.2196   172.3857
  102.5000  -999.2500   -20.9080     5.3344     7.5928   178.8270
  103.0000  -999.2500   -20.8874     5.1747     7.0733   185.2684
  103.5000  -999.2500   -20.8668     5.0151     6.6508   191.7097
  104.0000  -999.2500   -20.8462     4.8557     6.5284   198.1511
  104.5000  -999.2500   -20.8257     4.7216     6.4276   201.1730
  105.0000  -999.2500   -20.8050     4.6226     6.4340   202.4851
  105.5000  -999.2500   -20.7845     4.6978     6.5010   203.7972
  106.0000  -999.2500   -20.7639     4.7638     6.5652   203.9853
  106.5000  -999.2500   -20.7433     4.8291     6.5363   203.5311
  107.0000  -999.2500   -20.7227     4.8951     6.4477   203.0769
  107.5000  -999.2500   -20.7022     4.9602     6.3615   202.6227
  108.0000  -999.2500   -20.6815     5.0260     6.2731   202.1685
  108.5000  -999.2500   -20.6610     5.0913     6.1937   201.7143
  109.0000  -999.2500   -20.6403     5.1192     6.2450   201.2923
  109.5000  -999.2500   -20.6198     5.1192     6.2944   198.8337
  110.0000  -999.2500   -20.6224     5.1190     6.3418   196.5374
  110.5000  -999.2500   -20.6402     5.0602     6.3910   194.3359
  111.0000  -999.2500   -20.6579     5.0036     6.4385   194.3348
  111.5000  -999.2500   -20.6757     4.9478     6.4878   196.9430
  112.0000  -999.2500   -20.6935     4.8463     6.5104   199.4726
  112.5000  -999.2500   -20.7113     4.7039     6.3403   202.0030
  113.0000  -999.2500   -20.7291     4.5602     6.1703   206.3977
  113.5000  -999.2500   -20.7469     4.4179     6.0019   212.6945
  114.0000  -999.2500   -20.7646     4.2742     5.8319   219.1834
  114.5000  -999.2500   -20.7824     4.1261     5.6567   223.3167
  115.0000  -999.2500   -20.8002     4.1255     5.6343   227.5817
  115.5000  -999.2500   -20.8180     4.1261     5.6126   232.1020
  116.0000  -999.2500   -20.8358     4.1399     5.5894   233.0979
  116.5000  -999.2500   -20.8536     4.1732     5.5999   233.0954
  117.0000  -999.2500   -20.8714     4.2056     5.6526   231.1078
  117.5000  -999.2500   -20.8891     4.2386     5.7071   228.9402
  118.0000  -999.2500   -20.9069     4.2712     5.7594   226.7782
  118.5000  -999.2500   -20.9247     4.3040     5.8138   224.6163
  119.0000  -999.2500   -20.9425     4.3671     5.8662   222.1670
  119.5000  -999.2500   -20.9603     4.4808     5.9206   218.7475
  120.0000  -999.2500   -20.9781     4.5949     5.9282   214.8111
  120.5000  -999.2500   -20.9958     4.7084     5.8561   210.8748
  121.0000  -999.2500   -21.0136     4.8225     5.7821   206.9384
  121.5000  -999.2500   -21.0314     4.9359     5.6964   203.0020
  122.0000  -999.2500   -21.0492     5.0501     5.8536   199.0656
  122.5000  -999.2500   -21.0669     5.1635     6.0472   195.1292
  123.0000  -999.2500   -21.0847     5.2776     6.2399   190.3578
  123.5000  -999.2500   -21.1024     5.4165     6.4332   188.3641
  124.0000  -999.2500   -21.1203     5.4167     6.6261   185.8336
  124.5000  -999.2500   -21.1380     5.3864     6.7884   183.3030
  125.0000  -999.2500   -21.1558     5.3471     6.7886   181.4115
  125.5000  -999.2500   -21.1736     5.3079     6.7407   181.4115
  126.0000  -999.2500   -21.1914     5.2684     6.6777   181.4234
  126.5000  -999.2500   -21.1806     5.2294     6.6135   184.9910
  127.0000  -999.2500   -21.1180     5.1898     6.5508   189.2148
  127.5000  -999.2500   -21.0554     5.1509     6.4865   193.1392
  128.0000  -999.2500   -20.9928     5.1189     6.4240   197.0846
  128.5000  -999.2500   -20.9303     4.8668     6.3710   201.0092
  129.0000  -999.2500   -20.8675     4.6548     6.1645   204.2785
  129.5000  -999.2500   -20.8051     4.4433     5.9878   214.6441
  130.0000  -999.2500   -20.7423     4.2314     5.8132   223.5094
  130.5000  -999.2500   -20.6799     4.0197     5.6366   232.3548
  131.0000  -999.2500   -20.6171     3.8081     5.4619   241.2196
  131.5000  -999.2500   -20.5548     3.7288     5.2853   250.0661
  132.0000  -999.2500   -20.4918     3.6297     5.1105   258.9304
