~VERSION INFORMATION
 VERS.                2.0:   CWLS LOG ASCII STANDARD - VERSION 2.0
 WRAP.                 NO:   ONE LINE PER DEPTH STEP
~WELL INFORMATION
#MNEM.UNIT      DATA TYPE    INFORMATION
#----------   ------------   ------------------------------
 STRT.F           90.0000:   START DEPTH
 STOP.F          784.0000:   STOP DEPTH
 STEP.F            0.5000:   STEP LENGTH
 NULL.          -999.2500:   NO VALUE
 COMP.               NAVY:   COMPANY
 WELL. RES 3 TEAPOT DOM #41S-11:   WELL
 FLD .             TEAPOT:   FIELD
 LOC .      S11 T38N R78W:   LOCATION
 CNTY.            NATRONA:   COUNTY
 STAT.            WYOMING:   STATE
 CTRY. UNITED STATES OF AMERICA:   COUNTRY
 SRVC.       Schlumberger:   SERVICE COMPANY
 DATE.        14-JUL-1962:   LOGDATE
 API .       490250638000:   API NUMBER
~CURVE INFORMATION
#MNEM.UNIT       API CODE    CURVE DESCRIPTION
#----------   ------------   ------------------------------
 DEPT.F                  :   
 GR  .GAPI   30 310 01 00:   GAMMA RAY
 SPR .MV     05 010 01 00:   SPONTANEOUS POTENTIAL FROM RES.
 ASN .OHMM   05 041 16 00:   AMPLIFIED SHORT NORMAL 16"
 ILD .OHMM   05 120 46 00:   INDUCTION LOG DEEP
 CILD.MMHO   05 110 46 00:   CONDUCTIVITY INDUCTION LOG DEEP
~PARAMETER INFORMATION
#MNEM.UNIT          VALUE    DESCRIPTION
#----------   ------------   ------------------------------
 LMF .                 KB:   LOG MEASURED FROM
 DMF .                 KB:   DRILLING MEASURED FROM
 EKB .F              5162:   KELLING BUSHING
 EGL .F              5157:   GROUND LEVEL
 DATE.        14-JUL-1962:   RUN DATE
 RUN .                  1:   RUN NUMBER
 DD  .F               785:   DEPTH DRILLER
 DL  .F               785:   DEPTH LOGGER
 BLI .F               784:   BOTTOM LOG INTERVAL
 TLI .F               100:   TOP LOG INTERVAL
 CBD .F                10:   CASING BOTTOM DRILLER
 BS  .IN             6.75:   BIT SIZE
 BSD .F               785:   BIT SIZE AT DEPTH
 DFT .           OIL EMUL:   DRILLING FLUID TYPE
 DFD .               10.2:   DRILLING FLUID DENSITY
 DFV .                 43:   DRILLING FLUID VISCOSITY
 DFL .                4.6:   DRILLING FLUID LOSS
 RMS .OHMM            5.2:   RESISTIVITY MUD SAMPLE
 MST .F                78:   MUD SAMPLE TEMPERATURE
 RMF .OHMM            5.2:   RESISTIVITY MUD FILTRATE SAMPLE
 MFST.F                78:   MUD FILTRATE SAMPLE TEMPERATURE
 RMC .OHMM              6:   RESISTIVITY MUD CAKE
 MCST.F                78:   MUD CAKE SAMPLE TEMPERATURE
 TCS .HRS              .5:   TIME CURCULATED STOPPED
 LUN .               2503:   LOGGING UNIT NUMBER
 LUL .               CSPR:   LOGGING UNIT LOCATION
 ENGI.           ELLERMAN:   RECORDING ENGINEER
 WITN.          JORGENSON:   WITNESSED BY
 CLNT.            A2DTECH:   CLIENT CODE
 ORIG.           5" PRINT:   ORIGIN OF DATA
 UWI .       490250638000:   UNIQUE WELL ID
 DICO. A2D Technologies, Inc.:   DIGITIZING COMPANY
~OTHER INFORMATION
~A   DEPT       GR        SPR          ASN        ILD       CILD 
# ...
  273.0000  -999.2500   -39.8792     6.6817     6.7221   150.2903
  273.5000  -999.2500   -40.3323     6.7574     6.8731   148.7970
  274.0000  -999.2500   -40.4834     6.8331     6.9486   147.3038
  274.5000  -999.2500   -40.4834     6.8937     7.0242   145.8105
  275.0000  -999.2500   -40.4834     6.9543     7.0997   145.0748
  275.5000  -999.2500   -40.1813     6.9847     7.1108   144.3392
  276.0000  -999.2500   -39.7281     6.9225     7.0997   145.8817
  276.5000  -999.2500   -39.4260     6.8341     7.0242   146.6612
  277.0000  -999.2500   -39.5770     6.7587     6.9486   148.1982
  277.5000  -999.2500   -39.4260     6.6834     6.8731   149.7353
  278.0000  -999.2500   -38.9728     6.6080     6.7976   152.0303
  278.5000  -999.2500   -38.5196     6.5780     6.7221   153.5725
  279.0000  -999.2500   -38.3686     6.5933     6.6465   155.1095
  279.5000  -999.2500   -38.5196     6.6086     6.5710   155.1314
  280.0000  -999.2500   -38.8420     6.6390     6.4955   155.1533
  280.5000  -999.2500   -39.2749     6.6073     6.4955   153.6546
  281.0000  -999.2500   -39.8792     6.5487     6.5710   152.1666
  281.5000  -999.2500   -40.6344     6.6245     6.7221   149.9160
  282.0000  -999.2500   -41.0876     6.7908     6.7976   147.6707
  282.5000  -999.2500   -41.5408     7.0025     6.8731   145.4199
  283.0000  -999.2500   -41.3897     7.0933     6.9486   143.1691
  283.5000  -999.2500   -40.9124     7.1388     7.0242   140.9127
  284.0000  -999.2500   -40.1813     7.1390     7.0997   137.9098
  284.5000  -999.2500   -39.5770     7.1543     7.1752   135.6590
  285.0000  -999.2500   -39.1239     7.2640     7.1752   135.6818
  285.5000  -999.2500   -38.9728     7.4568     7.2508   134.1931
  286.0000  -999.2500   -39.5770     7.5929     7.3263   131.9423
  286.5000  -999.2500   -40.0362     7.6535     7.4018   128.9339
  287.0000  -999.2500   -40.4834     7.6688     7.4773   126.6831
  287.5000  -999.2500   -40.3323     7.6539     7.5529   125.1898
  288.0000  -999.2500   -39.5770     7.6389     7.6284   124.4542
  288.5000  -999.2500   -38.9728     7.6392     7.7039   124.4816
  289.0000  -999.2500   -38.3686     7.6847     7.8550   124.5035
  289.5000  -999.2500   -38.0665     7.7462     7.8550   125.2830
  290.0000  -999.2500   -38.5296     7.7757     7.8550   126.0624
  290.5000  -999.2500   -39.5770     7.7004     7.7795   127.5995
  291.0000  -999.2500   -40.3323     7.5948     7.7795   129.1366
  291.5000  -999.2500   -40.7855     7.4893     7.7039   131.4318
  292.0000  -999.2500   -40.3323     7.4139     7.6284   133.7313
  292.5000  -999.2500   -40.0302     7.3084     7.5428   135.2683
  293.0000  -999.2500   -39.8792     7.2028     7.4018   136.8054
  293.5000  -999.2500   -40.1953     7.1124     7.3263   137.5849
  294.0000  -999.2500   -40.3323     7.0370     7.3263   137.6068
  294.5000  -999.2500   -40.1813     7.0393     7.2508   138.3864
  295.0000  -999.2500   -40.0302     7.0827     7.2508   138.4091
  295.5000  -999.2500   -40.0302     7.1131     7.1752   138.4356
  296.0000  -999.2500   -40.1813     7.0831     7.2508   137.6944
  296.5000  -999.2500   -40.3323     7.0984     7.3263   136.9587
  297.0000  -999.2500   -40.4834     7.1439     7.4018   136.2231
  297.5000  -999.2500   -40.3323     7.2347     7.4773   135.4924
  298.0000  -999.2500   -40.4834     7.2817     7.4773   134.7572
  298.5000  -999.2500   -40.7855     7.1898     7.4773   134.7846
  299.0000  -999.2500   -41.2387     7.2859     7.4773   134.8065
  299.5000  -999.2500   -41.8429     7.4470     7.5529   134.8284
  300.0000  -999.2500   -41.8429     7.4321     7.4773   134.7767
  300.5000  -999.2500   -41.3454     7.3567     7.5529   134.3530
  301.0000  -999.2500   -40.6344     7.3046     7.4018   134.1048
  301.5000  -999.2500   -40.1057     7.2534     7.3263   134.1138
  302.0000  -999.2500   -39.4137     7.2356     7.3263   133.3634
  302.5000  -999.2500   -39.4108     7.3112     7.4018   132.6131
  303.0000  -999.2500   -39.7101     7.4048     7.4864   131.1052
  303.5000  -999.2500   -40.3107     7.5831     7.6284   129.5972
  304.0000  -999.2500   -40.9120     7.6888     7.7795   128.0911
  304.5000  -999.2500   -41.5134     7.7341     7.7795   128.0985
  305.0000  -999.2500   -42.1148     7.7492     7.7039   128.8650
  305.5000  -999.2500   -42.2708     7.6430     7.5529   131.1449
  306.0000  -999.2500   -42.4110     7.4018     7.4018   133.4249
  306.5000  -999.2500   -42.5585     7.0997     7.2508   137.2200
  307.0000  -999.2500   -42.5556     6.8731     7.0997   140.2880
  307.5000  -999.2500   -43.0059     6.7523     6.9486   144.0544
  308.0000  -999.2500   -43.3051     6.6767     6.8731   147.0919
  308.5000  -999.2500   -42.9994     6.6314     6.8731   149.3719
  309.0000  -999.2500   -42.3923     6.6465     6.8731   150.8943
  309.5000  -999.2500   -41.6341     6.7069     6.8731   151.6591
  310.0000  -999.2500   -41.0270     6.7674     6.9486   153.1833
  310.5000  -999.2500   -40.4199     6.8127     7.0242   154.7056
  311.0000  -999.2500   -39.9477     6.8127     7.0242   155.4704
  311.5000  -999.2500   -39.5070     6.7825     6.9486   156.9928
  312.0000  -999.2500   -39.3531     6.7221     6.8731   157.7576
  312.5000  -999.2500   -39.5020     6.6616     6.7976   157.7667
  313.0000  -999.2500   -39.4984     6.6012     6.7976   156.2587
  313.5000  -999.2500   -39.4955     6.5559     6.7976   153.9932
  314.0000  -999.2500   -39.3408     6.5730     6.7976   150.9702
  314.5000  -999.2500   -39.1869     6.6767     6.9486   147.1895
  315.0000  -999.2500   -39.0329     6.9335     7.0997   144.1664
  315.5000  -999.2500   -38.8797     7.3263     7.3263   143.4161
  316.0000  -999.2500   -39.4803     7.6586     7.4773   140.3948
  316.5000  -999.2500   -39.6285     7.6737     7.6284   135.8566
  317.0000  -999.2500   -39.6249     7.4924     7.7795   132.0759
  317.5000  -999.2500   -39.4710     7.7341     7.7795   128.2198
  318.0000  -999.2500   -39.6191     7.7492     7.7795   126.0298
  318.5000  -999.2500   -40.6736     7.5982     7.7795   126.7964
  319.0000  -999.2500   -41.7564     7.5977     7.7795   127.5612
  319.5000  -999.2500   -41.5735     7.6609     7.7795   128.3260
  320.0000  -999.2500   -40.8153     7.7341     7.7795   131.4138
  320.5000  -999.2500   -40.9642     7.7492     7.7795   134.4029
  321.0000  -999.2500   -41.1118     7.6737     7.6284   136.6828
  321.5000  -999.2500   -40.8026     7.4924     7.4753   138.2052
  322.0000  -999.2500   -40.1988     7.1842     7.2508   140.4851
  322.5000  -999.2500   -39.5917     6.9486     7.0997   143.5482
  323.0000  -999.2500   -39.1357     6.9637     7.0242   146.5620
  323.5000  -999.2500   -38.6796     6.9940     6.9486   148.8419
  324.0000  -999.2500   -38.3746     6.9335     6.9486   150.3643
  324.5000  -999.2500   -38.3937     6.8429     7.0242   150.3716
  325.0000  -999.2500   -38.6709     6.7976     7.0242   148.8636
  325.5000  -999.2500   -39.2716     6.8429     7.0997   143.5696
  326.0000  -999.2500   -40.0240     6.9637     7.1752   139.0314
  326.5000  -999.2500   -40.7764     7.0846     7.3263   133.7356
  327.0000  -999.2500   -40.7613     7.3112     7.4834   129.9550
  327.5000  -999.2500   -40.0146     7.5113     7.7039   126.1743
  328.0000  -999.2500   -39.7096     7.7039     7.9305   123.9088
  328.5000  -999.2500   -39.4046     7.8399     8.0816   121.6451
  329.0000  -999.2500   -39.2506     7.9607     8.1571   120.1372
  329.5000  -999.2500   -39.2477     8.0211     8.1581   120.1444
  330.0000  -999.2500   -39.2441     8.0514     8.2326   121.6668
  330.5000  -999.2500   -39.3930     7.9909     8.1571   124.0429
  331.0000  -999.2500   -39.5412     7.8550     8.0816   126.9861
  331.5000  -999.2500   -39.6894     7.6737     7.8550   130.7812
  332.0000  -999.2500   -39.5347     7.4622     7.7039   134.5763
  332.5000  -999.2500   -39.3807     7.3112     7.5428   138.3714
  333.0000  -999.2500   -39.2261     7.1420     7.3263   143.0655
  333.5000  -999.2500   -39.0722     6.9335     7.1752   147.4786
