~VERSION INFORMATION
 VERS.                2.0:   CWLS LOG ASCII STANDARD - VERSION 2.0
 WRAP.                 NO:   ONE LINE PER DEPTH STEP
~WELL INFORMATION
#MNEM.UNIT      DATA TYPE    INFORMATION
#----------   ------------   ------------------------------
 STRT.F            0.0000:   START DEPTH
 STOP.F          614.0000:   STOP DEPTH
 STEP.F            0.5000:   STEP LENGTH
 NULL.          -999.2500:   NO VALUE
 COMP. BROWN JOHN E&C INC:   COMPANY
 WELL. NAVAL PET  RESERVE 3 SHX-2 #12-15-2:   WELL
 FLD .                NPR:   FIELD
 LOC .       S2 T38N R78W:   LOCATION
 CNTY.            NATRONA:   COUNTY
 STAT.            WYOMING:   STATE
 CTRY. UNITED STATES OF AMERICA:   COUNTRY
 SRVC.           Gearhart:   SERVICE COMPANY
 DATE.        17-AUG-1988:   LOGDATE
 API .       490251124000:   API NUMBER
~CURVE INFORMATION
#MNEM.UNIT       API CODE    CURVE DESCRIPTION
#----------   ------------   ------------------------------
 DEPT.F                  :   
 GRR .GAPI   07 310 01 00:   GAMMA RAY
 RILD.OHMM   07 120 46 00:   INDUCTION LOG DEEP RESISTIVITY
 RILM.OHMM   07 120 44 00:   INDUCTION LOG MEDIUM RESISTIVITY
~PARAMETER INFORMATION
#MNEM.UNIT          VALUE    DESCRIPTION
#----------   ------------   ------------------------------
 PD  .                 GL:   PERMANENT DATUM
 EPD .F              5093:   ELEVATION PERMANENT DATUM
 LMF .                 KB:   LOG MEASURED FROM
 DAPD.F                10:   FEET ABOVE PERMANENT DATUM
 DMF .                 KB:   DRILLING MEASURED FROM
 EKB .F              5103:   KELLING BUSHING
 EDF .F              5101:   DRILLING FLOOR
 EGL .F              5093:   GROUND LEVEL
 DATE.        17-AUG-1988:   RUN DATE
 RUN .                  1:   RUN NUMBER
 DD  .F               620:   DEPTH DRILLER
 DL  .F               623:   DEPTH LOGGER
 BLI .F               614:   BOTTOM LOG INTERVAL
 TLI .F                50:   TOP LOG INTERVAL
 CS  .IN            9.625:   CASING SIZE
 CBD .F                50:   CASING BOTTOM DRILLER
 CBL .F                50:   CASING BOTTOM LOGGER
 BS  .IN             8.75:   BIT SIZE
 BSD .F               620:   BIT SIZE AT DEPTH
 DFT .                AIR:   DRILLING FLUID TYPE
 TCS .HRS            0500:   TIME CURCULATED STOPPED
 TLAB.HRS            0625:   TIME LOGGER AT BOTTOM
 MRT .F                70:   MAXIMUM RECORDED TEMPERATURE
 LUN .               7597:   LOGGING UNIT NUMBER
 LUL .           GILLETTE:   LOGGING UNIT LOCATION
 ENGI.           JOHNSTON:   RECORDING ENGINEER
 WITN.             STRONG:   WITNESSED BY
 CLNT.            A2DTECH:   CLIENT CODE
 ORIG.           5" PRINT:   ORIGIN OF DATA
 UWI .       490251124000:   UNIQUE WELL ID
 DICO. A2D Technologies, Inc.:   DIGITIZING COMPANY
~OTHER INFORMATION
~A    DEPT      GRR      RILD       RILM   
# ...
  273.0000   111.4846    12.1692    12.2085
  273.5000   110.2749    12.0010    11.9568
  274.0000   109.3698    11.9182    11.8750
  274.5000   108.7692    11.9193    11.7118
  275.0000   108.4729    11.8368    11.6318
  275.5000   107.6191    11.8379    11.7151
  276.0000   106.4106    11.8387    11.8818
  276.5000   107.0828    11.8395    11.8835
  277.0000   107.7017    11.8404    11.8851
  277.5000   108.6250    11.9243    11.9702
  278.0000   108.8824    11.8420    11.9719
  278.5000   105.1812    11.8428    11.9736
  279.0000   102.7540    11.8437    11.8917
  279.5000   101.6038    11.7618    11.8106
  280.0000   102.5285    11.6806    11.7298
  280.5000   104.0597    11.4391    11.6494
  281.0000   105.2864    11.1243    11.4095
  281.5000   105.6000    10.8939    11.2522
  282.0000   105.0003    10.6685    10.9437
  282.5000   102.2674    10.5212    10.7176
  283.0000   105.3229    10.3756    10.4238
  283.5000   109.5939    10.0903    10.3523
  284.0000   112.6471    10.0205    10.2103
  284.5000   111.1342    10.0214    10.1402
  285.0000   106.5771    10.0221    10.1419
  285.5000   104.7597    10.0228    10.0727
  286.0000   105.0733    10.0235    10.0741
  286.5000   105.6912    10.0242     9.9355
  287.0000   101.7430    10.0249     9.9369
  287.5000   100.2300    10.0256     9.8687
  288.0000    99.6280     9.8869     9.7334
  288.5000   101.7703     9.8187     9.6665
  289.0000   104.2148     9.5486     9.6682
  289.5000   106.6592     9.4826     9.5353
  290.0000   106.9728     9.2864     9.2735
  290.5000   107.5907     9.0944     9.1457
  291.0000   108.8175     9.0314     9.0832
  291.5000   109.1310     8.9693     9.0212
  292.0000   107.9225     8.9699     9.0228
  292.5000   105.8007     8.9080     8.9611
  293.0000   105.1987     8.9087     8.9624
  293.5000   107.0366     8.9716     8.9636
  294.0000   109.1767     8.9097     8.9021
  294.5000   108.8814     8.8484     8.9037
  295.0000   109.1949     8.7872     8.8425
  295.5000   110.4217     8.7266     8.6605
  296.0000   113.1705     8.4275     8.4227
  296.5000   116.2238     8.2529     8.1915
  297.0000   116.5373     8.0823     8.1353
  297.5000   114.1112     8.0829     8.1367
  298.0000   112.2938     8.0269     8.0809
  298.5000   111.6918     7.9162     8.0260
  299.0000   112.3120     7.8614     7.9156
  299.5000   110.4947     7.8072     7.8613
  300.0000   109.2839     7.6945     7.7804
  300.5000   111.1176     7.6470     7.6461
  301.0000   112.3413     7.4376     7.4880
  301.5000   112.6517     7.2343     7.3330
  302.0000   111.7443     7.0855     7.0815
  302.5000   110.4973     6.8435     6.8867
  303.0000   114.1919     6.6561     6.6972
  303.5000   117.2421     6.5650     6.5586
  304.0000   117.8569     6.6619     6.6514
  304.5000   117.2370     6.8548     6.8419
  305.0000   116.9557     7.0450     7.0845
  305.5000   118.2668     7.1961     7.2915
  306.0000   120.0122     7.4018     7.4932
  306.5000   120.3238     7.5076     7.6626
  307.0000   116.6769     7.6684     7.8155
  307.5000   114.5520     7.7780     7.9261
  308.0000   113.0360     7.8342     7.9267
  308.5000   114.2597     7.8358     7.8720
  309.0000   118.2231     7.7824     7.7632
  309.5000   120.9688     7.6763     7.7095
  310.0000   119.7572     7.6244     7.6563
  310.5000   113.0661     7.5201     7.5505
  311.0000   111.2456     7.4688     7.4984
  311.5000   111.5561     7.4186     7.3949
  312.0000   113.6930     7.3171     7.3437
  312.5000   114.3063     7.2677     7.2422
  313.0000   112.4874     7.1183     7.0430
  313.5000   110.9713     6.8256     6.7541
  314.0000   110.3683     6.4061     6.3425
  314.5000   110.0701     6.0497     5.9978
  315.0000   109.4673     5.6429     5.4699
  315.5000   109.1689     5.3123     5.0365
  316.0000   109.4957     5.0951     4.5670
  316.5000   112.5887     5.0251     4.5355
  317.0000   114.4474     5.0617     4.5997
  317.5000   115.6418     5.1701     4.7972
  318.0000   116.5065     5.3178     5.2175
  318.5000   115.5993     5.5082     5.5181
  319.0000   114.6921     5.8264     5.7954
  319.5000   114.3922     6.2936     6.3032
  320.0000   113.7909     6.6107     6.6663
  320.5000   113.1880     6.8954     6.9040
  321.0000   112.5852     7.1924     7.1010
  321.5000   113.5045     7.2952     7.3023
  322.0000   116.8591     7.5037     7.4625
  322.5000   117.1680     7.6644     7.6163
  323.0000   112.9137     7.7740     7.7241
  323.5000   110.4845     7.8851     7.9439
  324.0000   109.8802     7.8867     7.9444
  324.5000   113.5407     7.9438     7.9450
  325.0000   116.5908     7.9455     8.0013
  325.5000   116.9012     8.0032     8.0019
  326.0000   115.0808     8.0611     8.1151
  326.5000   114.4779     8.1193     8.1727
  327.0000   114.7884     8.1780     8.1732
  327.5000   115.7230     8.2371     8.2311
  328.0000   117.5687     8.2966     8.2895
  328.5000   118.1552     8.2983     8.2901
  329.0000   116.7797     8.3583     8.3487
  329.5000   113.9068     8.3600     8.2911
  330.0000   112.6937     8.3618     8.2340
  330.5000   113.0056     8.3635     8.1772
  331.0000   114.5337     8.3065     8.1777
  331.5000   116.6706     8.2507     8.1213
  332.0000   117.8943     8.1948     8.1219
  332.5000   116.6827     8.1395     8.0658
  333.0000   113.3401     8.0281     8.0664
  333.5000   111.5197     7.9729     7.9549
  334.0000   111.2198     7.8611     7.9000
  334.5000   111.8361     7.7508     7.8455
  335.0000   114.5819     7.6421     7.7299
  335.5000   118.8497     7.4418     7.5678
  336.0000   121.5955     7.2888     7.4722
  336.5000   120.0794     6.8936     7.0663
  337.0000   117.0413     6.5199     6.7291
  337.5000   114.9164     5.9963     6.4984
  338.0000   113.4003     5.6712     6.1883
  338.5000   115.8437     5.1075     5.7707
  339.0000   116.7610     4.3192     4.7781
  339.5000   115.8537     3.8628     4.0120
  340.0000   116.7732     3.3593     3.5625
  340.5000   117.4421     3.0254     3.2760
  341.0000   118.3086     2.8613     2.8486
  341.5000   117.4014     2.7636     2.6378
  342.0000   114.6677     2.7449     2.4945
  342.5000   109.1943     2.7455     2.4428
  343.0000   104.6341     2.8239     2.5300
  343.5000   105.2489     3.0094     2.6945
  344.0000   109.8212     3.4170     3.0349
  344.5000   114.6978     3.8565     3.3473
  345.0000   118.9656     4.3811     3.8500
  345.5000   122.0158     4.8439     4.6831
  346.0000   122.9336     5.2323     5.3495
  346.5000   119.8970     5.6915     5.6199
  347.0000   118.6838     6.0625     5.8219
  347.5000   121.4311     6.2358     6.0312
  348.0000   126.6121     6.3693     6.1537
  348.5000   127.8753     6.3707     6.0687
  349.0000   121.1447     6.3720     5.9848
  349.5000   119.0198     6.2845     5.8609
  350.0000   120.2435     6.1473     5.7202
  350.5000   126.6469     5.8210     5.5425
  351.0000   133.9620     5.5822     5.3520
  351.5000   134.8844     5.2788     5.1321
  352.0000   134.2847     5.1335     4.9212
  352.5000   133.0762     4.9575     4.7854
  353.0000   130.0412     4.8549     4.7190
  353.5000   128.2239     4.8894     4.7190
  354.0000   125.4933     4.9586     4.6861
  354.5000   121.8495     4.9937     4.7521
  355.0000   120.0299     5.2227     4.9557
  355.5000   124.9120     5.5226     5.2409
  356.0000   130.0962     5.9147     5.5814
  356.5000   129.1921     6.2113     5.8205
  357.0000   127.6186     6.4321     6.0277
  357.5000   127.0772     6.7139     6.3301
  358.0000   128.7670     6.9949     6.6477
  358.5000   131.0529     7.1878     6.9326
  359.0000   128.7916     7.3407     7.1292
  359.5000   124.2003     7.4446     7.3829
  360.0000   120.0812     7.5500     7.4869
  360.5000   120.7773     7.4979     7.4869
  361.0000   122.0355     7.4462     7.4347
  361.5000   125.7227     7.3948     7.3315
  362.0000   129.3475     7.3431     7.2296
  362.5000   130.2129     7.1918     7.0795
  363.0000   128.3288     6.9939     6.8842
  363.5000   125.3223     6.8015     6.7413
