~VERSION INFORMATION
 VERS.                2.0:   CWLS LOG ASCII STANDARD - VERSION 2.0
 WRAP.                 NO:   ONE LINE PER DEPTH STEP
~WELL INFORMATION
#MNEM.UNIT      DATA TYPE    INFORMATION
#----------   ------------   ------------------------------
 STRT.F           34.0000:   START DEPTH
 STOP.F          514.0000:   STOP DEPTH
 STEP.F            0.5000:   STEP LENGTH
 NULL.          -999.2500:   NO VALUE
 COMP. FENIX & SCISSON INC:   COMPANY
 WELL. NPR 3 #41 SX 10-10:   WELL
 FLD .             TEAPOT:   FIELD
 LOC .      S10 T38N R78W:   LOCATION
 CNTY.            NATRONA:   COUNTY
 STAT.            WYOMING:   STATE
 CTRY. UNITED STATES OF AMERICA:   COUNTRY
 SRVC.           BIRDWELL:   SERVICE COMPANY
 DATE.        25-JUN-1978:   LOGDATE
 API .       490251065200:   API NUMBER
~CURVE INFORMATION
#MNEM.UNIT       API CODE    CURVE DESCRIPTION
#----------   ------------   ------------------------------
 DEPT.F                  :   
 SPR .MV     07 010 01 00:   SPONTANEOUS POTENTIAL
 ILD .OHMM   07 120 46 00:   INDUCTION LOG DEEP
 SN  .OHMM   07 040 16 00:   SHORT NORMAL 16"
 CALD.IN     45 280 60 00:   CALIPER FROM DENSITY LOG
 GRD .GAPI   45 310 01 00:   GAMMA RAY FROM DENSITY LOG
 CORR.G/C3   45 356 01 00:   DENSITY CORRECTION
 DPHI.DEC    45 890 12 00:   DENSITY POROSITY SANDSTONE
 DEN .G/C3   45 350 01 00:   COMPENSATED BULK DENSTIY
 GRN .GAPI   35 310 01 00:   GAMMA RAY
 NEUT.NAPI   35 330 01 00:   NEUTRON
~PARAMETER INFORMATION
#MNEM.UNIT          VALUE    DESCRIPTION
#----------   ------------   ------------------------------
 PD  .                 GL:   PERMANENT DATUM
 EPD .F              5235:   ELEVATION PERMANENT DATUM
 LMF .                 KB:   LOG MEASURED FROM
 DAPD.F                 4:   FEET ABOVE PERMANENT DATUM
 DMF .                 KB:   DRILLING MEASURED FROM
 EKB .F              5239:   KELLING BUSHING
 EGL .F              5235:   GROUND LEVEL
 DATE.        25-JUN-1978:   RUN DATE
 RUN .                  1:   RUN NUMBER
 DD  .F               510:   DEPTH DRILLER
 DL  .F               514:   DEPTH LOGGER
 BLI .F               514:   BOTTOM LOG INTERVAL
 TLI .F                30:   TOP LOG INTERVAL
 CS  .IN            8.625:   CASING SIZE
 CBD .F                40:   CASING BOTTOM DRILLER
 CBL .F                40:   CASING BOTTOM LOGGER
 BS  .IN            7.875:   BIT SIZE
 BSD .F               510:   BIT SIZE AT DEPTH
 DFT .                KCL:   DRILLING FLUID TYPE
 DFD .                8.6:   DRILLING FLUID DENSITY
 DFV .                 31:   DRILLING FLUID VISCOSITY
 DFPH.                9.5:   DRILLING FLUID PH
 DFL .                 17:   DRILLING FLUID LOSS
 MSS .           FLOWLINE:   MUD SAMPLE SOURCE
 RMS .OHMM             .5:   RESISTIVITY MUD SAMPLE
 MST .F                74:   MUD SAMPLE TEMPERATURE
 RMF .OHMM            .54:   RESISTIVITY MUD FILTRATE SAMPLE
 MFST.F                72:   MUD FILTRATE SAMPLE TEMPERATURE
 RMC .OHMM            1.0:   RESISTIVITY MUD CAKE
 MCST.F                66:   MUD CAKE SAMPLE TEMPERATURE
 MFSS.               MEAS:   MUD FILTRATE SAMPLE SOURCE
 MCSS.               MEAS:   MUD CAKE SAMPLE SOURCE
 BHT .F                74:   BOTTOM HOLE TEMPERATURE
 TCS .HRS            0100:   TIME CURCULATED STOPPED
 MRT .F                74:   MAXIMUM RECORDED TEMPERATURE
 LUN .               2958:   LOGGING UNIT NUMBER
 LUL .               CASP:   LOGGING UNIT LOCATION
 ENGI.           REYNOLDS:   RECORDING ENGINEER
 CLNT.            A2DTECH:   CLIENT CODE
 ORIG.           5" PRINT:   ORIGIN OF DATA
 UWI .       490251065200:   UNIQUE WELL ID
 DICO. A2D Technologies, Inc.:   DIGITIZING COMPANY
~OTHER INFORMATION
~A   DEPT      SPR        ILD         SN       CALD        GRD       CORR       DPHI        DEN        GRN       NEUT   
# ...
  402.5000   -56.5611    17.3180    13.3049     8.8044    71.5311     0.0678     0.2331     2.3052    42.4907  1545.9459
  403.0000   -56.2594    18.8100    13.7678     8.8492    74.5491     0.0977     0.2370     2.3036    43.1942  1505.5179
  403.5000   -56.2594    20.2896    14.3400     8.9251    75.9081     0.1380     0.2400     2.2983    41.7425  1440.5405
  404.0000   -56.2594    21.5847    14.7347     9.0899    73.6471     0.1634     0.2286     2.2968    41.9699  1355.4054
  404.5000   -56.2594    22.6682    15.1402     9.2557    67.0121     0.1828     0.2205     2.3066    43.7074  1266.2162
  405.0000   -56.2594    23.2710    15.4496     9.5120    66.7119     0.1994     0.2193     2.3186    43.5025  1145.9459
  405.5000   -56.2594    23.2617    15.7653     9.7835    66.8642     0.2134     0.2331     2.3201    39.7203  1171.6216
  406.0000   -56.2594    23.2524    15.7569     9.9190    66.2623     0.2365     0.2361     2.3131    38.9698  1286.4865
  406.5000   -56.4103    23.2432    15.8579     9.9639    66.4150     0.2589     0.2392     2.3020    39.5736  1393.2433
  407.0000   -56.4103    23.2339    15.8474    10.0549    66.4165     0.2678     0.2401     2.2997    39.1995  1441.8918
  407.5000   -56.4103    23.0642    15.8390    10.2046    66.4179     0.2588     0.2179     2.2929    35.7427  1406.7567
  408.0000   -56.4103    22.8940    15.7214    10.4156    66.4194     0.2242     0.2089     2.3072    34.3159  1378.3784
  408.5000   -56.4103    22.7271    15.7130    10.5058    66.8734     0.1746     0.2185     2.3432    34.0166  1372.9730
  409.0000   -56.4103    22.5613    15.7046    10.5206    67.0286     0.1271     0.2662     2.3357    37.3271  1341.8918
  409.5000   -56.4103    22.5523    15.5861    10.3841    66.0950     0.1475     0.3263     2.2797    38.9831  1287.8379
  410.0000   -56.4103    21.9279    15.4704    10.3686    64.1632     0.2463     0.3747     2.1762    39.7368  1224.3243
  410.5000   -56.4103    21.4686    15.3555    10.3832    62.2039     0.3332     0.3786     2.0649    41.2613  1117.5676
  411.0000   -56.4103    21.4581    15.2415    10.3676    61.6017     0.3676     0.3026     2.0484    41.9461  1007.5451
  411.5000   -56.4103    21.6006    15.1284    10.4276    61.1506     0.3720     0.2395     2.0950    42.4496   370.2703
  412.0000   -56.4103    21.7420    15.1202    10.5933    60.8508     0.3224     0.1486     2.2393    42.7522   194.5946
  412.5000   -56.4103    22.0340    15.1103    10.3210    60.2490     0.2086     0.1279     2.3566    41.8518   198.6487
  413.0000   -56.4103    22.4872    15.0707    10.2299    61.6079     0.1363     0.1606     2.4945    38.7709   201.3513
  413.5000   -56.4103    22.9618    14.9902    10.2143    64.0226     0.0178     0.2075     2.4926    36.2164   205.4054
  414.0000   -56.4103    23.5821    14.8789     9.9571    65.7195     0.0102     0.2410     2.4580    35.3159   212.1622
  414.5000   -56.2594    23.5727    14.7685     9.7451    66.8917    -0.0034     0.2937     2.3655    34.1900   216.2162
  415.0000   -56.2828    23.4008    14.7604     9.5936    67.0440    -0.0244     0.3231     2.2452    32.5377   216.1036
  415.5000   -56.2594    22.7529    14.7508     9.6838    67.4980    -0.0485     0.3501     2.1858    31.4117   204.0540
  416.0000   -56.2594    21.3706    14.7430     9.7740    67.6502    -0.0729     0.4162     2.1253    31.0376   195.9460
  416.5000   -56.2594    19.9105    15.0443     9.8491    67.9534    -0.1080     0.4510     2.0669    32.4619   200.0000
  417.0000   -56.2594    18.2098    15.2458     9.9091    67.6532    -0.1417     0.4640     1.9669    34.3998   201.3513
  417.5000   -56.2594    18.3289    15.5574     9.8915    67.5038    -0.0971     0.3646     1.8376    35.7052   205.4054
  418.0000   -56.2594    18.8358    15.7787     9.8478    67.9578     0.3393     0.3751     1.7345    36.8349   208.1081
  418.5000   -56.2594    19.2252    16.0858     9.9076    68.4329     0.2073     0.4328     1.6375    37.7390   210.8108
  419.0000   -56.2594    19.4836    16.1889     9.9827    70.0727     0.0288     0.4589     1.6021    38.2671   220.4955
  419.5000   -56.2668    19.7470    16.2949     9.9823    72.4874     0.0197     0.1082     2.6036    38.4941   235.1351
  420.0000   -56.2707    19.6011    15.3008     9.2870    75.3547     0.0181     0.1793     2.5141    37.8197   254.0592
  420.5000   -56.2752    19.4582    14.6708     8.2439    78.3727     0.0180     0.2096     2.3667    37.5208   279.7662
  421.0000   -56.2797    19.7215    14.7648     8.1659    80.3350     0.0180     0.2151     2.3494    38.9264   309.5272
  421.5000   -56.1341    22.7969    15.3805     8.1224    81.5427     0.0179     0.2193     2.3456    45.1848   329.8365
  422.0000   -56.1392    24.2521    16.2473     8.0012    80.3379     0.0193     0.2205     2.3456    44.2785   329.8677
  422.5000   -56.1429    24.4108    16.8104     7.9232    78.5294     0.0207     0.2154     2.3479    43.4476   331.2503
  423.0000   -55.9999    23.5689    17.0356     8.0166    76.6938     0.0221     0.2172     2.3478    42.8430   333.9921
  423.5000   -56.0146    22.4455    17.1448     7.9998    75.8174     0.0190     0.2290     2.3313    42.2384   338.0774
  424.0000   -56.0292    20.9365    17.2547     7.8634    76.2718     0.0174     0.2187     2.3320    41.8600   343.5140
  424.5000   -56.0439    19.8010    17.3653     7.8327    78.7205     0.0189     0.2140     2.3463    42.0098   357.0666
  425.0000   -56.0585    19.1200    17.4766     7.8776    80.0704     0.0235     0.2128     2.3560    42.8380   359.8006
  425.5000   -56.0732    18.9806    17.4650     7.9678    79.1420     0.0277     0.2305     2.3507    43.1386   359.8318
  426.0000   -56.0878    18.9727    17.4557     7.9069    77.4844     0.0306     0.2320     2.3402    42.5337   358.5195
  426.5000   -56.1025    19.0972    17.5676     7.9065    75.6759     0.0305     0.2161     2.3318    42.2310   354.4967
  427.0000   -56.1171    19.0876    17.5559     7.9212    77.0348     0.0319     0.2110     2.3371    43.1347   349.1225
  427.5000   -56.1318    19.0800    17.5466     7.9055    81.4104     0.0318     0.2074     2.3544    43.2844   341.0535
  428.0000   -56.1464    19.0724    17.5373     7.8900    84.8809     0.0317     0.2034     2.3687    42.5288   334.3280
  428.5000   -56.1611    19.0648    17.5280     7.8744    85.6365     0.0301     0.2014     2.3724    38.7567   330.3052
  429.0000   -56.1757    18.9255    17.5187     7.8891    81.9759     0.0300     0.2029     2.3739    37.3225   327.6415
  429.5000   -56.1903    18.7859    17.3886     7.8736    79.1302     0.0284     0.1966     2.3739    37.0952   327.6728
  430.0000   -56.2050    18.3926    17.3771     7.7805    78.5519     0.0253     0.1927     2.3738    44.2583   327.7040
  430.5000   -56.3655    18.0075    17.3679     7.7517    79.1571     0.0207     0.1900     2.3851    43.6537   327.7431
  431.0000   -56.3702    17.6305    17.3586     7.7664    79.9127     0.0132     0.1888     2.3911    43.1999   327.7743
  431.5000   -56.3753    17.2614    17.3494     7.8113    80.2158     0.0100     0.1920     2.3911    42.4447   327.8056
  432.0000   -56.3796    16.8858    17.2206     7.8562    78.4073     0.0176     0.2060     2.3873    37.9185   329.1908
  432.5000   -56.3843    16.3172    16.9690     7.8860    78.2576     0.0234     0.2150     2.3782    37.0876   330.5786
  433.0000   -56.4263    15.9755    16.3868     7.8700    79.0136     0.0278     0.2198     2.3536    36.8601   330.6124
  433.5000   -56.5339    15.6411    15.9310     7.7745    79.9311     0.0367     0.2216     2.3446    34.9734   331.9933
  434.0000   -56.5266    15.3136    15.5954     7.6730    80.3741     0.0561     0.2234     2.3431    33.3134   333.3828
  434.5000   -56.5193    15.0971    15.2668     7.6726    79.6217     0.0950     0.2231     2.3431    36.1776   333.4141
  435.0000   -56.5120    14.8835    14.9452     7.6874    79.3211     0.1564     0.2211     2.3438    37.2321   333.4505
  435.5000   -56.5048    14.7737    14.7248     7.7473    79.6246     0.1758     0.2146     2.3445    37.9850   333.4798
