~VERSION INFORMATION
 VERS.                2.0:   CWLS LOG ASCII STANDARD - VERSION 2.0
 WRAP.                 NO:   ONE LINE PER DEPTH STEP
~WELL INFORMATION
#MNEM.UNIT      DATA TYPE    INFORMATION
#----------   ------------   ------------------------------
 STRT.F           17.0000:   START DEPTH
 STOP.F         1345.0000:   STOP DEPTH
 STEP.F            0.5000:   STEP LENGTH
 NULL.          -999.2500:   NO VALUE
 COMP. DEPARTMENT OF ENERGY:   COMPANY
 WELL. RES 3 TEAPOT DOME ##86S-11:   WELL
 FLD .             TEAPOT:   FIELD
 LOC .      S11 T38N R78W:   LOCATION
 CNTY.            NATRONA:   COUNTY
 STAT.            WYOMING:   STATE
 CTRY. UNITED STATES OF AMERICA:   COUNTRY
 SRVC.       Schlumberger:   SERVICE COMPANY
 DATE.        13-AUG-1959:   LOGDATE
 API .       490250633200:   API NUMBER
~CURVE INFORMATION
#MNEM.UNIT       API CODE    CURVE DESCRIPTION
#----------   ------------   ------------------------------
 DEPT.F                  :   
 SPR .MV     05 010 01 00:   SPONTANEOUS POTENTIAL FROM RES.
 CILD.MMHO   05 110 46 00:   CONDUCTIVITY INDUCTION LOG DEEP
 ILD .OHMM   05 120 46 00:   INDUCTION LOG DEEP
 ASN .OHMM   05 041 16 00:   AMPLIFIED SHORT NORMAL 16"
~PARAMETER INFORMATION
#MNEM.UNIT          VALUE    DESCRIPTION
#----------   ------------   ------------------------------
 PD  .                 GL:   PERMANENT DATUM
 EPD .F              5295:   ELEVATION PERMANENT DATUM
 LMF .                 KB:   LOG MEASURED FROM
 DAPD.F                 4:   FEET ABOVE PERMANENT DATUM
 DMF .                 KB:   DRILLING MEASURED FROM
 EKB .F              5299:   KELLING BUSHING
 EGL .F              5295:   GROUND LEVEL
 DATE.            8-13-59:   RUN DATE
 RUN .                  1:   RUN NUMBER
 DD  .F              1350:   DEPTH DRILLER
 DL  .F              1350:   DEPTH LOGGER
 BLI .F              1345:   BOTTOM LOG INTERVAL
 TLI .F                17:   TOP LOG INTERVAL
 CBD .F                17:   CASING BOTTOM DRILLER
 CBL .F                17:   CASING BOTTOM LOGGER
 BS  .IN             6.75:   BIT SIZE
 BSD .F              1350:   BIT SIZE AT DEPTH
 DFT .                GEL:   DRILLING FLUID TYPE
 DFD .                9.8:   DRILLING FLUID DENSITY
 DFV .                 65:   DRILLING FLUID VISCOSITY
 DFPH.                9.5:   DRILLING FLUID PH
 DFL .                5.4:   DRILLING FLUID LOSS
 RMS .OHMM           2.84:   RESISTIVITY MUD SAMPLE
 MST .F                69:   MUD SAMPLE TEMPERATURE
 RMF .OHMM            2.5:   RESISTIVITY MUD FILTRATE SAMPLE
 MFST.F                69:   MUD FILTRATE SAMPLE TEMPERATURE
 RMC .OHMM           2.46:   RESISTIVITY MUD CAKE
 MCST.F                69:   MUD CAKE SAMPLE TEMPERATURE
 MFSS.                  M:   MUD FILTRATE SAMPLE SOURCE
 MCSS.                  M:   MUD CAKE SAMPLE SOURCE
 TCS .HRS               1:   TIME CURCULATED STOPPED
 LUN .               2523:   LOGGING UNIT NUMBER
 LUL .               CSPR:   LOGGING UNIT LOCATION
 ENGI.             KNOBEL:   RECORDING ENGINEER
 WITN.             MARTIN:   WITNESSED BY
 CLNT.            A2DTECH:   CLIENT CODE
 ORIG.         2"5" PRINT:   ORIGIN OF DATA
 UWI .       490250633200:   UNIQUE WELL ID
 DICO. A2D Technologies, Inc.:   DIGITIZING COMPANY
~OTHER INFORMATION
~A   DEPT      SPR        CILD         ILD      ASN   
   17.0000  -999.2500   124.4302     6.0955  -999.2500
   17.5000  -999.2500   124.4302     6.1858  -999.2500
   18.0000  -999.2500   124.4302     6.1858  -999.2500
   18.5000  -999.2500   124.4302     6.5956  -999.2500
   19.0000  -999.2500   124.4302     6.9270  -999.2500
   19.5000  -999.2500   124.4302     7.2584  -999.2500
   20.0000  -999.2500   124.4302     7.5899  -999.2500
   20.5000  -999.2500   124.6333     7.7609  -999.2500
   21.0000  -999.2500   124.4302     8.0997  -999.2500
   21.5000  -999.2500   124.4302     8.3382  -999.2500
   22.0000  -999.2500   124.4302     8.2986  -999.2500
   22.5000  -999.2500   124.4302     8.2465  -999.2500
   23.0000  -999.2500   124.4302     8.2036  -999.2500
   23.5000  -999.2500   125.3324     8.1421  -999.2500
   24.0000  -999.2500   126.2346     8.1203  -999.2500
   24.5000  -999.2500   131.4499     7.8822  -999.2500
   25.0000  -999.2500   135.2187     7.4964  -999.2500
   25.5000  -999.2500   139.0165     7.1642  -999.2500
   26.0000  -999.2500   148.7366     6.8088  -999.2500
   26.5000  -999.2500   161.7393     6.4655  -999.2500
   27.0000  -999.2500   174.7803     6.1160  -999.2500
   27.5000  -999.2500   187.8177     5.7685  -999.2500
   28.0000  -999.2500   200.8330     5.4435  -999.2500
   28.5000  -999.2500   213.7953     5.0842  -999.2500
   29.0000  -999.2500   226.7484     4.7510  -999.2500
   29.5000  -999.2500   239.7014     4.4061  -999.2500
   30.0000  -999.2500   252.6545     4.1247  -999.2500
   30.5000  -999.2500   260.0731     4.1159  -999.2500
   31.0000  -999.2500   263.3666     4.1418  -999.2500
   31.5000  -999.2500   267.8938     4.1615  -999.2500
   32.0000  -999.2500   270.5840     4.1837  -999.2500
   32.5000  -999.2500   271.4629     4.2047  -999.2500
   33.0000  -999.2500   271.4153     4.2261  -999.2500
   33.5000  -999.2500   264.7513     4.2478  -999.2500
   34.0000  -999.2500   260.9159     4.2679  -999.2500
   34.5000  -999.2500   257.0941     4.2953  -999.2500
   35.0000  -999.2500   253.3928     4.3773  -999.2500
   35.5000  -999.2500   249.6881     4.4637  -999.2500
   36.0000  -999.2500   246.1819     4.5489  -999.2500
   36.5000  -999.2500   237.6435     4.6347  -999.2500
   37.0000  -999.2500   229.2796     4.7203  -999.2500
   37.5000  -999.2500   220.9378     4.8061  -999.2500
   38.0000  -999.2500   215.5329     4.8919  -999.2500
   38.5000  -999.2500   210.1327     4.9772  -999.2500
   39.0000  -999.2500   205.2631     5.0635  -999.2500
   39.5000  -999.2500   200.9551     5.1484  -999.2500
   40.0000  -999.2500   196.6049     5.2561  -999.2500
   40.5000  -999.2500   193.8984     5.1736  -999.2500
   41.0000  -999.2500   203.0004     5.0436  -999.2500
   41.5000  -999.2500   212.4163     4.9311  -999.2500
   42.0000  -999.2500   221.8321     4.8011  -999.2500
   42.5000  -999.2500   231.7901     4.7217  -999.2500
   43.0000  -999.2500   235.7340     4.6940  -999.2500
   43.5000  -999.2500   237.7168     4.6574  -999.2500
   44.0000  -999.2500   236.8201     4.6249  -999.2500
   44.5000  -999.2500   235.9233     4.5910  -999.2500
   45.0000  -999.2500   235.0266     4.5567  -999.2500
   45.5000  -999.2500   236.1271     4.5249  -999.2500
   46.0000  -999.2500   240.1127     4.4867  -999.2500
   46.5000  -999.2500   244.0982     4.4777  -999.2500
   47.0000  -999.2500   248.0838     4.5067  -999.2500
   47.5000  -999.2500   252.5404     4.5306  -999.2500
   48.0000  -999.2500   252.5404     4.5573  -999.2500
   48.5000  -999.2500   254.3447     4.5825  -999.2500
   49.0000  -999.2500   254.3447     4.6084  -999.2500
   49.5000  -999.2500   253.4426     4.6340  -999.2500
   50.0000  -999.2500   246.5213     4.6599  -999.2500
   50.5000  -999.2500   238.4505     4.6854  -999.2500
   51.0000  -999.2500   230.3798     4.7115  -999.2500
   51.5000  -999.2500   220.9639     4.7365  -999.2500
   52.0000  -999.2500   220.0617     4.7636  -999.2500
   52.5000  -999.2500   220.0617     4.7867  -999.2500
   53.0000  -999.2500   219.1595     4.8184  -999.2500
   53.5000  -999.2500   220.0617     4.8144  -999.2500
   54.0000  -999.2500   227.2792     4.7520  -999.2500
   54.5000  -999.2500   231.2399     4.6940  -999.2500
   55.0000  -999.2500   236.1720     4.6330  -999.2500
   55.5000  -999.2500   241.1041     4.5737  -999.2500
   56.0000  -999.2500   246.0362     4.5135  -999.2500
   56.5000  -999.2500   250.9683     4.4537  -999.2500
   57.0000  -999.2500   257.0513     4.3937  -999.2500
   57.5000  -999.2500   262.8264     4.3338  -999.2500
   58.0000  -999.2500   270.3590     4.2738  -999.2500
   58.5000  -999.2500   276.7189     4.2141  -999.2500
   59.0000  -999.2500   279.5885     4.1536  -999.2500
   59.5000  -999.2500   282.4581     4.0945  -999.2500
   60.0000  -999.2500   285.3277     4.0343  -999.2500
   60.5000  -999.2500   288.1973     4.0170  -999.2500
   61.0000  -999.2500   290.4321     4.0169  -999.2500
   61.5000  -999.2500   288.2628     4.0206  -999.2500
   62.0000  -999.2500   283.9860     4.0112  -999.2500
   62.5000  -999.2500   279.7091     4.0906  -999.2500
   63.0000  -999.2500   275.4323     4.2271  -999.2500
   63.5000  -999.2500   271.1555     4.3364  -999.2500
   64.0000  -999.2500   266.8788     4.4205  -999.2500
   64.5000  -999.2500   263.3666     4.4805  -999.2500
   65.0000  -999.2500   252.7958     4.5408  -999.2500
   65.5000  -999.2500   243.8283     4.6008  -999.2500
   66.0000  -999.2500   234.8608     4.6603  -999.2500
   66.5000  -999.2500   225.8933     4.7201  -999.2500
   67.0000  -999.2500   218.2574     4.7467  -999.2500
   67.5000  -999.2500   221.8620     4.7744  -999.2500
   68.0000  -999.2500   224.5726     4.8059  -999.2500
   68.5000  -999.2500   220.4965     4.8347  -999.2500
   69.0000  -999.2500   216.9095     4.8655  -999.2500
   69.5000  -999.2500   213.3225     4.8943  -999.2500
   70.0000  -999.2500   209.7355     4.9268  -999.2500
   70.5000  -999.2500   206.1485     4.9878  -999.2500
   71.0000  -999.2500   204.3641     5.0488  -999.2500
   71.5000  -999.2500   203.7663     5.1070  -999.2500
   72.0000  -999.2500   203.1684     5.1698  -999.2500
   72.5000  -999.2500   202.5706     5.1930  -999.2500
   73.0000  -999.2500   201.9727     5.1677  -999.2500
   73.5000  -999.2500   201.3749     5.1466  -999.2500
   74.0000  -999.2500   200.7771     5.1233  -999.2500
   74.5000  -999.2500   200.2137     5.1013  -999.2500
   75.0000  -999.2500   204.3593     5.0785  -999.2500
   75.5000  -999.2500   208.2121     5.0561  -999.2500
   76.0000  -999.2500   212.0718     5.0336  -999.2500
   76.5000  -999.2500   212.6323     5.0111  -999.2500
   77.0000  -999.2500   210.3351     4.9887  -999.2500
   77.5000  -999.2500   208.0219     4.9662  -999.2500
   78.0000  -999.2500   205.7103     4.9438  -999.2500
   78.5000  -999.2500   212.3350     4.9214  -999.2500
   79.0000  -999.2500   218.8534     4.8989  -999.2500
   79.5000  -999.2500   225.4164     4.8765  -999.2500
   80.0000  -999.2500   223.6322     4.8540  -999.2500
   80.5000  -999.2500   221.8858     4.8316  -999.2500
   81.0000  -999.2500   220.1548     4.8090  -999.2500
   81.5000  -999.2500   218.3697     4.7867  -999.2500
   82.0000  -999.2500   224.1484     4.7639  -999.2500
   82.5000  -999.2500   230.0466     4.7432  -999.2500
   83.0000  -999.2500   239.0076     4.7450  -999.2500
   83.5000  -999.2500   236.3758     4.7503  -999.2500
   84.0000  -999.2500   230.5469     4.7548  -999.2500
   84.5000  -999.2500   227.2792     4.7596  -999.2500
   85.0000  -999.2500   228.5745     4.7643  -999.2500
   85.5000  -999.2500   231.5637     4.7691  -999.2500
   86.0000  -999.2500   234.5528     4.7738  -999.2500
   86.5000  -999.2500   236.3010     4.7786  -999.2500
   87.0000  -999.2500   232.6203     4.7833  -999.2500
   87.5000  -999.2500   228.5849     4.7880  -999.2500
   88.0000  -999.2500   224.5495     4.7927  -999.2500
   88.5000  -999.2500   220.0617     4.7975  -999.2500
   89.0000  -999.2500   220.9639     4.8022  -999.2500
   89.5000  -999.2500   222.4137     4.8068  -999.2500
