~VERSION INFORMATION
 VERS.                2.0:   CWLS LOG ASCII STANDARD - VERSION 2.0
 WRAP.                 NO:   ONE LINE PER DEPTH STEP
~WELL INFORMATION
#MNEM.UNIT      DATA TYPE    INFORMATION
#----------   ------------   ------------------------------
 STRT.F           30.0000:   START DEPTH
 STOP.F          677.0000:   STOP DEPTH
 STEP.F            0.5000:   STEP LENGTH
 NULL.          -999.2500:   NO VALUE
 COMP. FENIX & SCISSON INC:   COMPANY
 WELL. TEAPOT DOME #27 SX -2:   WELL
 FLD .             TEAPOT:   FIELD
 LOC .       S2 T38N R78W:   LOCATION
 CNTY.            NATRONA:   COUNTY
 STAT.            WYOMING:   STATE
 CTRY. UNITED STATES OF AMERICA:   COUNTRY
 SRVC.            Unknown:   SERVICE COMPANY
 DATE.        28-JAN-1978:   LOGDATE
 API .       490251056500:   API NUMBER
~CURVE INFORMATION
#MNEM.UNIT       API CODE    CURVE DESCRIPTION
#----------   ------------   ------------------------------
 DEPT.F                  :   
 ILD .OHMM   05 120 46 00:   INDUCTION LOG DEEP
 SN  .OHMM   05 040 16 00:   SHORT NORMAL 16"
 SPR .MV     05 010 01 00:   SPONTANEOUS POTENSIAL
 CALD.IN     45 280 60 00:   CALIPER FROM DENSITY LOG
 CORR.G/C3   45 356 01 00:   DENSITY CORRECTION
 DPHI.DEC    45 890 12 00:   DENSITY POROSITY SANDSTONE
 GRD .GAPI   45 310 01 00:   GAMMA RAY FROM DENSITY LOG
 RHOB.G/C3   45 350 01 00:   BULK DENSITY
~PARAMETER INFORMATION
#MNEM.UNIT          VALUE    DESCRIPTION
#----------   ------------   ------------------------------
 PD  .                 GL:   PERMANENT DATUM
 EPD .F              5147:   ELEVATION PERMANENT DATUM
 LMF .                 KB:   LOG MEASURED FROM
 DAPD.F                 4:   FEET ABOVE PERMANENT DATUM
 DMF .                 KB:   DRILLING MEASURED FROM
 EKB .F              5151:   KELLING BUSHING
 EGL .F              5147:   GROUND LEVEL
 DATE.        28-JAN-1978:   RUN DATE
 RUN .                  1:   RUN NUMBER
 DD  .F               675:   DEPTH DRILLER
 DL  .F               678:   DEPTH LOGGER
 BLI .F               677:   BOTTOM LOG INTERVAL
 TLI .F                40:   TOP LOG INTERVAL
 CS  .IN            8.625:   CASING SIZE
 CBD .F                40:   CASING BOTTOM DRILLER
 CBL .F                40:   CASING BOTTOM LOGGER
 BS  .IN            7.875:   BIT SIZE
 BSD .F               675:   BIT SIZE AT DEPTH
 DFT .                KCL:   DRILLING FLUID TYPE
 DFD .                8.6:   DRILLING FLUID DENSITY
 DFV .                .34:   DRILLING FLUID VISCOSITY
 DFPH.                9.5:   DRILLING FLUID PH
 MSS .           FLOWLINE:   MUD SAMPLE SOURCE
 RMS .OHMM           0.38:   RESISTIVITY MUD SAMPLE
 MST .F                60:   MUD SAMPLE TEMPERATURE
 RMF .OHMM           0.36:   RESISTIVITY MUD FILTRATE SAMPLE
 MFST.F                62:   MUD FILTRATE SAMPLE TEMPERATURE
 RMC .OHMM            0.7:   RESISTIVITY MUD CAKE
 MCST.F                63:   MUD CAKE SAMPLE TEMPERATURE
 MFSS.               MEAS:   MUD FILTRATE SAMPLE SOURCE
 MCSS.               MEAS:   MUD CAKE SAMPLE SOURCE
 RMB .OHMM           0.31:   RESISTIVITY MUD AT BHT
 BHT .F                76:   BOTTOM HOLE TEMPERATURE
 TCS .HRS               3:   TIME CURCULATED STOPPED
 MRT .F                76:   MAXIMUM RECORDED TEMPERATURE
 LUN .               2958:   LOGGING UNIT NUMBER
 LUL .             CASPER:   LOGGING UNIT LOCATION
 ENGI.           REYNOLDS:   RECORDING ENGINEER
 WITN.     MR. HARRINGTON:   WITNESSED BY
 CLNT.            A2DTECH:   CLIENT CODE
 ORIG.           5" PRINT:   ORIGIN OF DATA
 UWI .       490251056500:   UNIQUE WELL ID
 DICO. A2D Technologies, Inc.:   DIGITIZING COMPANY
~OTHER INFORMATION
~A   DEPT      ILD         SN        SPR       CALD       CORR       DPHI        GRD       RHOB   
   30.0000  -999.2500  -999.2500  -999.2500  -999.2500  -999.2500  -999.2500   157.6373  -999.2500
   30.5000  -999.2500  -999.2500  -999.2500  -999.2500  -999.2500  -999.2500   157.6600  -999.2500
   31.0000  -999.2500  -999.2500  -999.2500  -999.2500  -999.2500  -999.2500   157.6826  -999.2500
   31.5000  -999.2500  -999.2500  -999.2500  -999.2500  -999.2500  -999.2500   157.7053  -999.2500
   32.0000  -999.2500  -999.2500  -999.2500  -999.2500  -999.2500  -999.2500   157.5799  -999.2500
   32.5000  -999.2500  -999.2500  -999.2500  -999.2500  -999.2500  -999.2500   131.9527  -999.2500
   33.0000  -999.2500  -999.2500  -999.2500  -999.2500  -999.2500  -999.2500   118.5721  -999.2500
   33.5000  -999.2500  -999.2500  -999.2500  -999.2500  -999.2500  -999.2500   120.3756  -999.2500
   34.0000  -999.2500  -999.2500  -999.2500  -999.2500  -999.2500  -999.2500   124.2444  -999.2500
   34.5000  -999.2500  -999.2500  -999.2500  -999.2500  -999.2500  -999.2500   133.8825  -999.2500
   35.0000  -999.2500  -999.2500  -999.2500  -999.2500  -999.2500  -999.2500   140.6016  -999.2500
   35.5000  -999.2500  -999.2500  -999.2500  -999.2500  -999.2500  -999.2500   151.8329  -999.2500
   36.0000  -999.2500  -999.2500  -999.2500  -999.2500  -999.2500  -999.2500   152.2993  -999.2500
   36.5000  -999.2500  -999.2500  -999.2500  -999.2500  -999.2500  -999.2500   152.4699  -999.2500
   37.0000  -999.2500  -999.2500  -999.2500  -999.2500  -999.2500  -999.2500   152.9364  -999.2500
   37.5000  -999.2500  -999.2500  -999.2500  -999.2500  -999.2500  -999.2500   153.4147  -999.2500
   38.0000  -999.2500  -999.2500  -999.2500  -999.2500  -999.2500  -999.2500   145.1105  -999.2500
   38.5000  -999.2500  -999.2500  -999.2500  -999.2500  -999.2500  -999.2500   137.1817  -999.2500
   39.0000  -999.2500  -999.2500  -999.2500  -999.2500  -999.2500  -999.2500   135.2756  -999.2500
   39.5000  -999.2500  -999.2500  -999.2500  -999.2500  -999.2500  -999.2500   132.1917  -999.2500
   40.0000  -999.2500  -999.2500  -999.2500     8.9705  -999.2500  -999.2500   131.3325  -999.2500
   40.5000  -999.2500  -999.2500  -999.2500     8.9727  -999.2500  -999.2500   123.7626  -999.2500
   41.0000  -999.2500  -999.2500  -999.2500     8.9748  -999.2500  -999.2500   119.4763  -999.2500
   41.5000  -999.2500  -999.2500  -999.2500     8.9923  -999.2500  -999.2500   121.4949  -999.2500
   42.0000  -999.2500  -999.2500  -999.2500     8.9944    -0.5178  -999.2500   129.0620  -999.2500
   42.5000  -999.2500  -999.2500  -999.2500     8.9965    -0.5625  -999.2500   142.1024  -999.2500
   43.0000  -999.2500  -999.2500  -999.2500     8.9986    -0.3748  -999.2500   172.0067  -999.2500
   43.5000  -999.2500  -999.2500  -999.2500     9.0008    -0.2006  -999.2500   180.0175  -999.2500
   44.0000  -999.2500  -999.2500  -999.2500     9.0030     0.1161  -999.2500   170.7263  -999.2500
   44.5000  -999.2500  -999.2500  -999.2500     9.0055     0.0743  -999.2500   153.2934  -999.2500
   45.0000  -999.2500  -999.2500  -999.2500     9.0225     0.1060  -999.2500   138.5232  -999.2500
   45.5000  -999.2500  -999.2500  -999.2500     9.2320     0.1047  -999.2500   130.2618  -999.2500
   46.0000  -999.2500  -999.2500  -999.2500    11.0416     0.1109     0.1715   131.0241     2.3648
   46.5000  -999.2500  -999.2500  -999.2500     9.3881     0.1516     0.1852   133.9438     2.3911
   47.0000     1.8740     4.4649    -3.1267     8.6902     0.1848     0.1851   140.3947     2.3576
   47.5000     5.4843     5.0935    -9.5262     8.6485     0.1940     0.1835   144.7073     2.3547
   48.0000     9.3789     5.7392   -12.4798     8.6056     0.2017     0.1812   151.0749     2.3571
   48.5000    14.9985     6.3620   -14.2412     8.5633     0.2079     0.1850   154.8118     2.3587
   49.0000    11.0905     6.6822   -15.8535     8.5363     0.2096     0.1892   154.8344     2.3408
   49.5000     6.6717     6.9226   -17.8038     8.4940     0.1753     0.1852   154.8580     2.3410
   50.0000     6.4071     7.0736   -18.3331     8.4665     0.1905     0.2124   154.8854     2.3493
   50.5000     6.3670     7.1784   -18.6042     8.4691     0.1832     0.2166   154.9081     2.3060
   51.0000     6.4173     7.2846   -18.7262     8.4559     0.1429     0.2004   154.9308     2.3181
   51.5000     6.5163     7.2916   -18.9905     8.4586     0.1371     0.2156   154.8055     2.3236
   52.0000     6.6537     7.3503   -19.1297     8.4607     0.1298     0.2182   131.9527     2.3004
   52.5000     6.7513     7.4080   -19.6750     8.4634     0.1195     0.2152   106.7796     2.3005
   53.0000     6.7090     7.4148   -19.9460     8.4803     0.0942     0.2067   104.7256     2.3021
   53.5000     6.7620     7.4730   -20.3661     8.5861     0.0719     0.1963   105.7894     2.3097
   54.0000     6.7674     7.5316   -20.7869     8.6920     0.0842     0.2076   106.2559     2.3278
   54.5000     6.7843     7.5651   -21.3554     8.7089     0.1383     0.2195   106.4265     2.3144
   55.0000     6.8252     7.6505   -21.6265     8.7560     0.1925     0.2207   105.6805     2.3008
   55.5000     6.8790     7.7653   -21.7485     8.7729     0.2347     0.2189   104.1106     2.2967
   56.0000     6.9312     7.7725   -21.7148     8.7454     0.2544     0.2182    99.9913     2.3005
   56.5000     7.0336     7.7797   -21.8376     8.6737     0.2756     0.2215   100.0139     2.2969
   57.0000     7.0388     7.7870   -21.9712     8.5869     0.2208     0.1927   100.1845     2.2895
   57.5000     7.0448     7.7942   -22.5212     8.5292     0.1385     0.1807   100.2072     2.3300
   58.0000     7.0504     7.7445   -22.9481     8.5319     0.0722     0.2115   102.0296     2.3556
   58.5000     7.0002     7.7019   -23.6595     8.6395     0.0604     0.2351   102.4771     2.2989
   59.0000     6.8700     7.6037   -24.6757     8.7589     0.0576     0.2634   108.4170     2.2526
   59.5000     5.9111     7.4057   -25.7019     8.8203     0.0563     0.3000   113.1734     2.2280
   60.0000     3.9696     7.0155   -26.4101     8.8817     0.0577     0.3000   113.3439     2.2027
   60.5000     3.1228     6.6916   -27.4196     8.8838     0.1272     0.3000   114.7431     2.1736
   61.0000     2.7049     5.9173   -28.5849     8.8859     0.1529     0.3000   118.7204     2.1408
   61.5000     2.3398     5.2605   -29.6011     8.8886     0.1636     0.3000   119.9265     2.0881
   62.0000     2.0865     4.7247   -30.9230     8.8907     0.1743     0.2997   121.7243     2.0640
   62.5000     2.0175     4.0645   -31.1865     8.8928     0.1837     0.2996   122.3387     2.0701
   63.0000     2.0331     3.6945   -31.0037     8.8796     0.1942     0.2990   121.9176     2.0822
   63.5000     2.1498     3.5484   -30.8277     8.8674     0.2094     0.2972   118.9670     2.0883
   64.0000     2.4351     3.5030   -30.6517     8.8696     0.2006     0.2732   111.0218     2.1019
   64.5000     2.9547     3.5310   -30.3264     8.8569     0.1213     0.2164   108.3818     2.2061
   65.0000     3.6937     3.6958   -29.8458     8.8595     0.1219     0.1786    99.5287     2.3392
   65.5000     4.4111     4.3795   -29.6698     8.8765     0.1352     0.1765    95.7052     2.3685
   66.0000     5.1359     5.1711   -29.4938     9.2193     0.1579     0.1756    89.2190     2.3731
   66.5000     6.2747     5.8184   -29.4668     8.8741     0.1596     0.1738    94.1233     2.3619
   67.0000     7.7722     6.5468   -29.4396     8.7199     0.1568     0.1674    92.8146     2.3718
   67.5000     9.1117     7.2159   -29.4060     8.7225     0.1602     0.1671    94.0264     2.3832
   68.0000    10.3921     7.5307   -29.2300     8.7247     0.1722     0.1736    96.7118     2.3773
   68.5000    11.4818     7.7462   -28.9050     8.7114     0.1874     0.1700   101.4682     2.3751
   69.0000    12.2769     7.8070   -28.8780     8.6993     0.1801     0.1658   105.9497     2.3790
   69.5000    11.0844     7.8682   -28.8510     8.6696     0.1788     0.1654   111.4304     2.3851
   70.0000     9.8014     7.9293   -28.8173     8.6443     0.1760     0.1657   123.2874     2.3882
