~VERSION INFORMATION
 VERS.                2.0:   CWLS LOG ASCII STANDARD - VERSION 2.0
 WRAP.                 NO:   ONE LINE PER DEPTH STEP
~WELL INFORMATION
#MNEM.UNIT      DATA TYPE    INFORMATION
#----------   ------------   ------------------------------
 STRT.F            4.0000:   START DEPTH
 STOP.F          578.0000:   STOP DEPTH
 STEP.F            0.5000:   STEP LENGTH
 NULL.          -999.2500:   NO VALUE
 COMP.              FENIX:   COMPANY
 WELL.   NPR-3 #14SX11-11:   WELL
 FLD .             TEAPOT:   FIELD
 LOC .      S11 T38N R78W:   LOCATION
 CNTY.            NATRONA:   COUNTY
 STAT.            WYOMING:   STATE
 CTRY. UNITED STATES OF AMERICA:   COUNTRY
 SRVC.           BIRDWELL:   SERVICE COMPANY
 DATE.        14-FEB-1978:   LOGDATE
 API .       490251057100:   API NUMBER
~CURVE INFORMATION
#MNEM.UNIT       API CODE    CURVE DESCRIPTION
#----------   ------------   ------------------------------
 DEPT.F                  :   
 ILD .OHMM   05 120 46 00:   INDUCTION LOG DEEP
 SN  .OHMM   05 040 16 00:   SHORT NORMAL 16"
 SPR .MV     05 010 01 00:   SPONTANEOUS POTENTIAL FROM RES.
 CALD.IN     45 280 60 00:   CALIPER FROM DENSITY LOG
 CORR.G/C3   45 356 01 00:   DENSITY CORRECTION
 DPHI.DEC    45 890 12 00:   DENSITY POROSITY SANDSTONE
 GRD .GAPI   45 310 01 00:   GAMMA RAY FROM DENSITY LOG
 RHOB.G/C3   45 350 01 00:   BULK DENSITY
~PARAMETER INFORMATION
#MNEM.UNIT          VALUE    DESCRIPTION
#----------   ------------   ------------------------------
 PD  .                 GL:   PERMANENT DATUM
 EPD .F              5183:   ELEVATION PERMANENT DATUM
 LMF .                 KB:   LOG MEASURED FROM
 DAPD.F                 4:   FEET ABOVE PERMANENT DATUM
 DMF .                 KB:   DRILLING MEASURED FROM
 EKB .F              5187:   KELLING BUSHING
 EGL .F              5183:   GROUND LEVEL
 DATE.        14-FEB-1978:   RUN DATE
 RUN .                  1:   RUN NUMBER
 DD  .F               580:   DEPTH DRILLER
 DL  .F               580:   DEPTH LOGGER
 BLI .F               578:   BOTTOM LOG INTERVAL
 TLI .F                20:   TOP LOG INTERVAL
 CS  .IN            8.625:   CASING SIZE
 CBD .F                15:   CASING BOTTOM DRILLER
 CBL .F                39:   CASING BOTTOM LOGGER
 BS  .IN            7.875:   BIT SIZE
 BSD .F               580:   BIT SIZE AT DEPTH
 DFT .         LIGNO-SULF:   DRILLING FLUID TYPE
 DFD .                8.6:   DRILLING FLUID DENSITY
 DFV .                 33:   DRILLING FLUID VISCOSITY
 DFPH.                 11:   DRILLING FLUID PH
 DFL .                  4:   DRILLING FLUID LOSS
 MSS .           FLOWLINE:   MUD SAMPLE SOURCE
 RMS .OHMM            1.3:   RESISTIVITY MUD SAMPLE
 MST .F                62:   MUD SAMPLE TEMPERATURE
 RMF .OHMM            1.2:   RESISTIVITY MUD FILTRATE SAMPLE
 MFST.F                64:   MUD FILTRATE SAMPLE TEMPERATURE
 RMC .OHMM            1.6:   RESISTIVITY MUD CAKE
 MCST.F                62:   MUD CAKE SAMPLE TEMPERATURE
 MFSS.               MEAS:   MUD FILTRATE SAMPLE SOURCE
 BHT .F                70:   BOTTOM HOLE TEMPERATURE
 TCS .HRS               3:   TIME CURCULATED STOPPED
 MRT .F                70:   MAXIMUM RECORDED TEMPERATURE
 LUN .               2958:   LOGGING UNIT NUMBER
 LUL .               CASP:   LOGGING UNIT LOCATION
 ENGI.            POINTER:   RECORDING ENGINEER
 WITN.           MCGINLEY:   WITNESSED BY
 CLNT.            A2DTECH:   CLIENT CODE
 ORIG.           5" PRINT:   ORIGIN OF DATA
 UWI .       490251057100:   UNIQUE WELL ID
 DICO. A2D Technologies, Inc.:   DIGITIZING COMPANY
~OTHER INFORMATION
~A    DEPT     ILD         SN        SPR       CALD       CORR       DPHI         GRD      RHOB   
# ...
   85.0000     6.7831  -999.2500  -999.2500     7.9254     0.0379     0.1165   105.8803     2.4530
   85.5000     6.9225  -999.2500  -999.2500     7.9552     0.0543     0.1102   106.6328     2.4597
   86.0000     7.0647  -999.2500  -999.2500     7.9849     0.0602     0.1036   105.5617     2.4667
   86.5000     7.1600  -999.2500  -999.2500     7.9994     0.0554     0.1003    98.4115     2.4754
   87.0000     7.2566  -999.2500  -999.2500     7.9984     0.0451     0.1103    93.9968     2.4777
   87.5000     7.3036  -999.2500  -999.2500     8.0129     0.0510     0.1280    94.4959     2.4671
   88.0000     7.2993  -999.2500  -999.2500     7.9970     0.0614     0.1375    98.2357     2.4438
   88.5000     7.2959  -999.2500  -999.2500     7.9505     0.0673     0.1407   102.6356     2.4264
   89.0000     7.2420  -999.2500  -999.2500     7.9193     0.0732     0.1422   103.2380     2.4219
   89.5000     7.1886  -999.2500  -999.2500     7.8578     0.0791     0.1474   102.6209     2.4143
   90.0000     7.0862  -999.2500  -999.2500     7.7963     0.0820     0.1468   108.9966     2.4075
   90.5000     7.0339  -999.2500  -999.2500     7.7803     0.0834     0.1453   112.3327     2.4067
   91.0000     6.9337  -999.2500  -999.2500     7.7796     0.0803     0.1441   114.1885     2.4074
   91.5000     6.8315  -999.2500  -999.2500     7.7483     0.0727     0.1445   115.0536     2.4082
   92.0000     6.7369  -999.2500  -999.2500     7.6543     0.0592     0.1510   112.3089     2.4066
   92.5000     6.6409  -999.2500  -999.2500     7.5645     0.0426     0.1535   109.4140     2.4013
   93.0000     6.6378  -999.2500  -999.2500     7.5029     0.0260     0.1472   107.1270     2.4050
   93.5000     6.6816  -999.2500  -999.2500     7.4718     0.0139     0.1427   105.1440     2.4118
   94.0000     6.7710  -999.2500  -999.2500     7.4561     0.0032     0.1406   103.7689     2.4155
   94.5000     6.7678  -999.2500  -999.2500     7.4856    -0.0013     0.1518   103.4576     2.4124
   95.0000     6.8591  -999.2500  -999.2500     7.5000    -0.0014     0.1632   105.4241     2.4086
   95.5000     6.9516  -999.2500  -999.2500     7.4521    -0.0015     0.1745   107.2405     2.4011
   96.0000     7.0944  -999.2500  -999.2500     7.3920    -0.0015     0.1816   106.6253     2.3702
   96.5000     7.1901  -999.2500  -999.2500     7.4672    -0.0001     0.1756   104.9462     2.3552
   97.0000     7.3369  -999.2500  -999.2500     7.5729     0.0013     0.1693   103.4191     2.3626
   97.5000     7.3854  -999.2500  -999.2500     7.6633     0.0057     0.1609   102.9558     2.3686
   98.0000     7.3810  -999.2500  -999.2500     7.7386     0.0101     0.1544   102.7822     2.3798
   98.5000     7.3265  -999.2500  -999.2500     7.7834     0.0085     0.1360   101.8773     2.4046
   99.0000     7.2725  -999.2500  -999.2500     7.7827     0.0084     0.1303   103.0316     2.4301
   99.5000     7.2188  -999.2500  -999.2500     7.7971     0.0098     0.1276   107.9405     2.4346
  100.0000     7.1160  -999.2500  -999.2500     7.7810     0.0142     0.1259   107.6292     2.4338
  100.5000     7.0091  -999.2500  -999.2500     7.7499     0.0201     0.1252   107.7953     2.4338
  101.0000     6.9139  -999.2500  -999.2500     7.6884     0.0276     0.1214   109.4382     2.4413
  101.5000     6.9107  -999.2500  -999.2500     7.6269     0.0306     0.1151   108.0613     2.4472
  102.0000     6.8597  -999.2500  -999.2500     7.5653     0.0304     0.1094   108.2077     2.4510
  102.5000     6.8564  -999.2500  -999.2500     7.5190     0.0228     0.1040   108.1986     2.4697
  103.0000     6.8532  -999.2500  -999.2500     7.5510     0.0167     0.1016   107.8873     2.4742
  103.5000     6.8984  -999.2500  -999.2500     7.6543     0.0061     0.1089   106.2052     2.4727
  104.0000     6.9424  -999.2500  -999.2500     7.7294     0.0000     0.1166   105.8969     2.4651
  104.5000     7.0370  -999.2500  -999.2500     7.8046    -0.0016     0.1231   106.6495     2.4565
  105.0000     7.0881  -999.2500  -999.2500     7.8193     0.0073     0.1198   102.8409     2.4485
  105.5000     7.1763  -999.2500  -999.2500     7.7728    -0.0017     0.1138    99.7941     2.4500
  106.0000     7.2237  -999.2500  -999.2500     7.7416     0.0206     0.1057    98.2670     2.4567
  106.5000     7.2705  -999.2500  -999.2500     7.7561     0.0236     0.1006    98.2596     2.4694
  107.0000     7.3177  -999.2500  -999.2500     7.7706     0.0235     0.1024    99.3191     2.4829
  107.5000     7.3134  -999.2500  -999.2500     7.7850     0.0249     0.1057   101.3982     2.4806
  108.0000     7.4120  -999.2500  -999.2500     7.8147     0.0248     0.1073   104.3148     2.4776
  108.5000     7.4601  -999.2500  -999.2500     7.8442     0.0247     0.1088   107.6509     2.4745
  109.0000     7.5628  -999.2500  -999.2500     7.8740     0.0246     0.1121   111.5950     2.4730
  109.5000     7.6627  -999.2500  -999.2500     7.8883     0.0230     0.1151   110.9797     2.4692
  110.0000     7.7124  -999.2500  -999.2500     7.8875     0.0199     0.1176   109.3007     2.4662
  110.5000     7.7624  -999.2500  -999.2500     7.8866     0.0258     0.1182   110.9681     2.4639
  111.0000     7.7578  -999.2500  -999.2500     7.8251     0.0377     0.1173   111.5656     2.4668
  111.5000     7.8090  -999.2500  -999.2500     7.7332     0.0496     0.1080   110.4926     2.4743
  112.0000     7.8044  -999.2500  -999.2500     7.4893     0.0571     0.1032   109.8774     2.4819
  112.5000     7.8007  -999.2500  -999.2500     7.4126     0.0525     0.1080   110.3260     2.4848
  113.0000     7.7432  -999.2500  -999.2500     7.4574     0.0462     0.1110   110.7764     2.4757
  113.5000     7.7934  -999.2500  -999.2500     7.6405     0.0358     0.1185   109.0955     2.4682
  114.0000     7.6200  -999.2500  -999.2500     7.7471     0.0267     0.1414   107.0962     2.4613
  114.5000     7.3649  -999.2500  -999.2500     7.7438     0.0266     0.1568   102.8825     2.4297
  115.0000     7.1600  -999.2500  -999.2500     7.7127     0.0370     0.1700    99.9531     2.3974
  115.5000     6.9127  -999.2500  -999.2500     7.7119     0.0893     0.1718   101.1616     2.3823
  116.0000     6.8143  -999.2500  -999.2500     7.6870     0.1058     0.1381   103.4339     2.3777
  116.5000     6.8593  -999.2500  -999.2500     7.5280     0.1162     0.1228   104.6424     2.4078
  117.0000     6.9029  -999.2500  -999.2500     7.6036     0.1626     0.1041   105.0912     2.4243
  117.5000     6.8997  -999.2500  -999.2500     7.7594     0.1596     0.0885   104.9266     2.4430
  118.0000     6.9444  -999.2500  -999.2500     7.8461     0.1065     0.0978   103.8115     2.4910
  118.5000     6.9886  -999.2500  -999.2500     7.8155     0.0381     0.1118   100.8118     2.4984
  119.0000     6.9371  -999.2500  -999.2500     7.8000     0.0185     0.1219   100.1984     2.4570
  119.5000     6.9338  -999.2500  -999.2500     7.7997     0.0155     0.1246   101.4050     2.4480
  120.0000     6.9796  -999.2500  -999.2500     7.7842     0.0199     0.1228   102.0056     2.4457
  120.5000     6.9754  -999.2500  -999.2500     7.7839     0.0259     0.1201   102.9101     2.4479
  121.0000     7.0695  -999.2500  -999.2500     7.7988     0.0273     0.1171   105.8024     2.4524
  121.5000     7.1650  -999.2500  -999.2500     7.7984     0.0288     0.1156   105.6307     2.4577
  122.0000     7.3121  -999.2500  -999.2500     7.7829     0.0303     0.1141   106.5337     2.4607
  122.5000     7.3595  -999.2500  -999.2500     7.7826     0.0347     0.1120   107.4382     2.4591
  123.0000     7.4063  -999.2500  -999.2500     7.7824     0.0362     0.1102   108.0388     2.4599
  123.5000     7.4544  -999.2500  -999.2500     7.7669     0.0316     0.1123   105.9038     2.4651
  124.0000     7.5036  -999.2500  -999.2500     7.7362     0.0256     0.1222   105.2885     2.4673
  124.5000     7.6039  -999.2500  -999.2500     7.7206     0.0225     0.1235   104.0476     2.4560
  125.0000     7.6003  -999.2500  -999.2500     7.7203     0.0210     0.1198    98.5884     2.4515
