~VERSION INFORMATION
 VERS.                2.0:   CWLS LOG ASCII STANDARD - VERSION 2.0
 WRAP.                 NO:   ONE LINE PER DEPTH STEP
~WELL INFORMATION
#MNEM.UNIT      DATA TYPE    INFORMATION
#----------   ------------   ------------------------------
 STRT.F            2.0000:   START DEPTH
 STOP.F          510.5000:   STOP DEPTH
 STEP.F            0.5000:   STEP LENGTH
 NULL.          -999.2500:   NO VALUE
 COMP. LAWRENCE/ALLISON INC:   COMPANY
 WELL.   NPR #3 #58-12 SX:   WELL
 FLD .             TEAPOT:   FIELD
 LOC .       S3 T38N R78W:   LOCATION
 CNTY.            NATRONA:   COUNTY
 STAT.            WYOMING:   STATE
 CTRY. UNITED STATES OF AMERICA:   COUNTRY
 SRVC.           Gearhart:   SERVICE COMPANY
 DATE.        20-JUN-1988:   LOGDATE
 API .       490251123500:   API NUMBER
~CURVE INFORMATION
#MNEM.UNIT       API CODE    CURVE DESCRIPTION
#----------   ------------   ------------------------------
 DEPT.F                  :   
 GRR .GAPI   07 310 01 00:   GAMMA RAY FROM RES. LOG.
 RILD.OHMM   07 120 46 00:   INDUCTION LOG DEEP RESISTIVITY
 RILM.OHMM   07 120 44 00:   INDUCTION LOG MEDIUM RESISTIVITY
~PARAMETER INFORMATION
#MNEM.UNIT          VALUE    DESCRIPTION
#----------   ------------   ------------------------------
 PD  .                 GL:   PERMANENT DATUM
 EPD .F              5195:   ELEVATION PERMANENT DATUM
 LMF .                 KB:   LOG MEASURED FROM
 DAPD.F                10:   FEET ABOVE PERMANENT DATUM
 DMF .                 KB:   DRILLING MEASURED FROM
 EKB .F              5205:   KELLING BUSHING
 EGL .F              5195:   GROUND LEVEL
 DATE.            6-20-88:   RUN DATE
 RUN .                  1:   RUN NUMBER
 DD  .F               515:   DEPTH DRILLER
 DL  .F               519:   DEPTH LOGGER
 BLI .F             510.5:   BOTTOM LOG INTERVAL
 TLI .F                50:   TOP LOG INTERVAL
 CS  .IN            9.625:   CASING SIZE
 CBD .F                50:   CASING BOTTOM DRILLER
 CBL .F                50:   CASING BOTTOM LOGGER
 BS  .IN             8.75:   BIT SIZE
 BSD .F               515:   BIT SIZE AT DEPTH
 DFT .                AIR:   DRILLING FLUID TYPE
 TLAB.HRS            0414:   TIME LOGGER AT BOTTOM
 MRT .F                70:   MAXIMUM RECORDED TEMPERATURE
 LUN .               7597:   LOGGING UNIT NUMBER
 LUL .           GILLETTE:   LOGGING UNIT LOCATION
 ENGI.          HUCKFELDT:   RECORDING ENGINEER
 WITN.             STRONG:   WITNESSED BY
 CLNT.            A2DTECH:   CLIENT CODE
 ORIG.       2", 5" PRINT:   ORIGIN OF DATA
 UWI .       490251123500:   UNIQUE WELL ID
 DICO. A2D Technologies, Inc.:   DIGITIZING COMPANY
~OTHER INFORMATION
~A    DEPT      GRR      RILD       RILM   
# ...
  275.0000   119.3684     7.3993     7.4072
  275.5000   120.9991     7.1897     6.6975
  276.0000   128.0316     7.1645     6.0558
  276.5000   134.9397     7.1340     5.8195
  277.0000   138.4963     7.2037     5.9281
  277.5000   129.9499     7.1904     6.4426
  278.0000   121.3709     7.5301     7.0087
  278.5000   112.7623     8.1706     7.6183
  279.0000   109.3091     8.8655     8.2808
  279.5000   109.9781     9.6195     9.0010
  280.0000   112.4111    10.4207     9.7675
  280.5000   114.8959    10.6233     9.9840
  281.0000   115.0249    10.7958    10.1412
  281.5000   114.1690    10.9712    10.3257
  282.0000   113.0164    11.1494    10.3244
  282.5000   111.8361    11.3331    10.3248
  283.0000   111.9842    11.9752    10.3248
  283.5000   111.4999    12.9175    10.8138
  284.0000   105.9168    13.9240    11.7355
  284.5000    99.7011    15.0015    12.9669
  285.0000    86.5629    16.3992    14.2706
  285.5000    72.4161    18.2073    16.5366
  286.0000    61.6100    20.2289    19.0542
  286.5000    52.6655    22.4733    21.9551
  287.0000    48.1233    24.9600    24.1762
  287.5000    49.0857    27.0295    25.9707
  288.0000    56.2607    27.8086    27.2005
  288.5000    63.3863    28.5963    27.6239
  289.0000    70.4212    29.3560    28.0538
  289.5000    71.5492    29.9040    28.4904
  290.0000    68.9559    30.2065    28.9338
  290.5000    66.8498    30.3021    29.1651
  291.0000    66.1696    30.3980    29.2843
  291.5000    67.7078    30.4941    29.4040
  292.0000    69.5407    30.5906    29.5243
  292.5000    69.7948    30.6874    29.6452
  293.0000    69.4443    30.7845    29.7667
  293.5000    67.7695    30.8819    29.8886
  294.0000    66.2215    30.9796    29.9040
  294.5000    64.6578    31.0308    28.9925
  295.0000    64.4436    29.5243    28.2974
  295.5000    64.7911    28.5461    27.6190
  296.0000    64.6675    27.6003    26.9568
  296.5000    63.9581    26.7631    26.3105
  297.0000    64.3947    26.3812    25.6797
  297.5000    68.1497    25.8194    25.0640
  298.0000    71.9731    25.1751    24.4631
  298.5000    74.4708    24.5469    23.6190
  299.0000    73.8320    23.9344    23.2391
  299.5000    72.1422    23.4772    22.8653
  300.0000    70.6633    23.3566    22.4975
  300.5000    74.4426    23.2967    22.2441
  301.0000    78.6110    23.3274    22.2441
  301.5000    80.5921    23.4290    22.2441
  302.0000    80.9835    23.5310    22.3733
  302.5000    79.7027    23.6334    22.5167
  303.0000    79.5010    23.7363    22.6611
  303.5000    80.4406    23.8396    22.8063
  304.0000    81.5255    23.9521    22.9525
  304.5000    82.0164    23.7065    23.0823
  305.0000    81.0327    23.4394    22.6873
  305.5000    80.0788    23.1757    22.3396
  306.0000    79.1537    22.9153    21.9054
  306.5000    78.5505    22.6578    21.4452
  307.0000    79.5379    22.4031    20.9946
  307.5000    80.4883    22.1515    20.5535
  308.0000    81.4424    21.9026    20.0927
  308.5000    82.9618    21.7773    20.1455
  309.0000    84.9881    21.6967    20.2451
  309.5000    87.1072    21.6164    20.3451
  310.0000    85.7625    21.5365    20.4456
  310.5000    83.3872    21.4568    20.5466
  311.0000    81.9432    21.4363    20.6481
  311.5000    81.2178    21.5522    20.7502
  312.0000    82.1846    21.6757    20.8527
  312.5000    84.6348    21.7999    20.9557
  313.0000    86.2543    21.9247    21.0435
  313.5000    87.9743    22.0503    21.1815
  314.0000    88.0790    22.1766    21.3274
  314.5000    87.0094    22.3037    21.4743
  315.0000    85.3727    22.4314    21.6222
  315.5000    83.9262    22.5599    21.7711
  316.0000    84.3070    22.6891    21.9210
  316.5000    85.7149    22.8191    22.0720
  317.0000    85.9770    22.9498    22.2240
  317.5000    85.4156    23.0813    22.3771
  318.0000    84.8215    23.2135    22.5312
  318.5000    85.0965    23.2967    22.6593
  319.0000    85.7643    23.1326    22.6593
  319.5000    86.4378    23.0139    22.3697
  320.0000    87.1012    22.8957    22.2871
  320.5000    87.3150    22.7781    22.2046
  321.0000    86.7301    22.6593    22.1228
  321.5000    86.1438    22.4626    22.0393
  322.0000    86.6198    22.2640    21.8262
  322.5000    87.7814    22.0673    21.6121
  323.0000    88.6555    21.8724    21.4001
  323.5000    88.0503    21.6792    21.1902
  324.0000    87.4739    21.4878    20.9823
  324.5000    87.1181    21.2978    20.7765
  325.0000    87.1247    21.1094    20.5727
  325.5000    87.1196    20.9239    20.3709
  326.0000    87.7689    20.8484    20.0927
  326.5000    87.3816    20.8243    20.1268
  327.0000    86.7480    20.7989    20.1834
  327.5000    86.8837    20.7736    20.2401
  328.0000    87.0653    20.7483    20.2971
  328.5000    86.4934    20.7230    20.3543
  329.0000    85.4986    20.6978    20.4114
  329.5000    84.7969    20.6729    20.4678
  330.0000    85.3784    20.6576    20.3350
  330.5000    85.8915    20.5497    20.2055
  331.0000    85.6920    20.4442    20.0768
  331.5000    85.6824    20.3392    19.9489
  332.0000    86.5703    20.2348    19.8221
  332.5000    87.4321    20.0927    19.7222
  333.0000    87.8118    20.5114    19.5469
  333.5000    87.5052    21.1933    19.9575
  334.0000    85.5646    21.8979    20.5807
  334.5000    83.1339    22.5126    21.7477
  335.0000    80.6921    22.7749    22.9809
  335.5000    78.2503    23.0402    24.2840
  336.0000    77.4754    23.0823    25.3186
  336.5000    77.7961    22.6385    25.5538
  337.0000    79.5229    21.9669    23.6307
  337.5000    81.4476    21.3153    22.0199
  338.0000    83.3596    20.6829    20.5190
  338.5000    85.2721    20.0694    19.1204
  339.0000    86.3230    19.4739    18.1810
  339.5000    86.1092    18.8958    17.4732
  340.0000    85.1501    18.3358    16.7929
  340.5000    84.2065    17.9823    16.5463
  341.0000    83.8997    17.8160    16.7000
  341.5000    83.8527    17.6249    16.3940
  342.0000    85.6468    17.4363    16.4870
  342.5000    87.6727    17.2494    16.5463
  343.0000    88.9637    17.0645    16.4425
  343.5000    89.9011    16.8816    16.2890
  344.0000    90.8724    16.7007    16.1369
  344.5000    90.1217    16.5210    15.9863
  345.0000    88.6585    16.3595    15.8370
  345.5000    87.1598    16.2324    15.6891
  346.0000    85.6463    16.1080    15.5427
  346.5000    86.8776    15.9841    15.3975
  347.0000    88.4261    15.8611    15.2538
  347.5000    89.6485    15.7391    15.1114
  348.0000    89.9013    15.6181    14.9703
  348.5000    89.2138    15.4978    14.8305
  349.0000    88.5453    15.3785    14.6920
  349.5000    89.4096    15.2604    14.5548
  350.0000    91.5938    15.2250    14.4190
  350.5000    93.7587    15.3630    14.2843
  351.0000    92.9639    15.4557    14.2706
  351.5000    91.9993    15.5491    14.2706
  352.0000    92.6286    15.6430    14.5129
  352.5000    93.2701    15.7374    14.7376
  353.0000    93.9161    15.8324    14.9663
  353.5000    93.2929    15.9280    15.1987
  354.0000    91.8925    16.0242    15.4338
  354.5000    90.4548    16.0936    15.6532
  355.0000    89.1236    16.0936    15.6532
  355.5000    88.5978    15.7463    15.3853
  356.0000    88.7328    15.5148    15.1437
  356.5000    89.5903    15.2873    14.9005
  357.0000    90.4393    15.0632    14.6618
  357.5000    91.2920    14.8424    14.4321
  358.0000    92.1444    14.6248    14.2118
  358.5000    92.9994    14.4104    13.9949
  359.0000    93.8541    14.1990    13.7813
  359.5000    93.8745    13.9901    13.5709
  360.0000    93.7680    13.8802    13.3638
  360.5000    93.6617    13.8802    13.1598
  361.0000    93.5582    14.0091    12.9589
  361.5000    94.0260    14.3159    12.8887
  362.0000    96.7597    14.6903    12.8870
  362.5000    99.6354    15.3132    13.0091
  363.0000    97.3240    16.1343    13.3762
  363.5000    93.2977    17.5586    14.0091
  364.0000    89.2202    19.1087    15.1570
  364.5000    85.1460    20.7956    17.3132
  365.0000    81.0754    22.6314    19.7761
  365.5000    77.0042    24.6293    22.5893
