~VERSION INFORMATION
 VERS.                2.0:   CWLS LOG ASCII STANDARD - VERSION 2.0
 WRAP.                 NO:   ONE LINE PER DEPTH STEP
~WELL INFORMATION
#MNEM.UNIT      DATA TYPE    INFORMATION
#----------   ------------   ------------------------------
 STRT.F           89.0000:   START DEPTH
 STOP.F         2840.5000:   STOP DEPTH
 STEP.F            0.5000:   STEP LENGTH
 NULL.          -999.2500:   NO VALUE
 COMP. U S NAVY/INTEX OIL CO:   COMPANY
 WELL. RES3 TEAPO DOME AX #41-29:   WELL
 FLD .             TEAPOT:   FIELD
 LOC .      S29 T39N R78W:   LOCATION
 CNTY.            NATRONA:   COUNTY
 STAT.            WYOMING:   STATE
 CTRY. UNITED STATES OF AMERICA:   COUNTRY
 SRVC.       Schlumberger:   SERVICE COMPANY
 DATE.        02-JUN-1966:   LOGDATE
 API .       490250945000:   API NUMBER
~CURVE INFORMATION
#MNEM.UNIT       API CODE    CURVE DESCRIPTION
#----------   ------------   ------------------------------
 DEPT.F                  :   
 GRD .GAPI   45 310 01 00:   GAMMA RAY FROM DENSITY LOG
 CALD.IN     45 280 60 00:   CALIPER FROM DENSITY LOG
 DPHI.DEC    45 890 12 00:   DENSITY POROSITY SANDSTONE
 RHOB.G/C3   45 350 01 00:   BULK DENSITY
 CORR.G/C3   45 356 01 00:   DENSITY CORRECTION
 SPR .MV     05 010 01 00:   SPONTANEOUS POTENTIAL FROM RES.
 ASN .OHMM   05 041 16 00:   AMPLIFIED SHORT NORMAL 16"
 ILD .OHMM   05 120 46 00:   INDUCTION LOG DEEP
 CILD.MMHO   05 110 46 00:   CONDUCTIVITY INDUCTION LOG DEEP
~PARAMETER INFORMATION
#MNEM.UNIT          VALUE    DESCRIPTION
#----------   ------------   ------------------------------
 PD  .                 GL:   PERMANENT DATUM
 EPD .F              5007:   ELEVATION PERMANENT DATUM
 LMF .                 KB:   LOG MEASURED FROM
 DAPD.F              10.3:   FEET ABOVE PERMANENT DATUM
 DMF .                 KB:   DRILLING MEASURED FROM
 EKB .F            5017.3:   KELLING BUSHING
 EGL .F              5007:   GROUND LEVEL
 DATE.             6-2-66:   RUN DATE
 RUN .                  1:   RUN NUMBER
 DD  .F              2840:   DEPTH DRILLER
 DL  .F              2838:   DEPTH LOGGER
 BLI .F              2837:   BOTTOM LOG INTERVAL
 TLI .F                88:   TOP LOG INTERVAL
 CS  .IN            10.75:   CASING SIZE
 CBD .F                30:   CASING BOTTOM DRILLER
 BS  .IN            7.875:   BIT SIZE
 BSD .F              2840:   BIT SIZE AT DEPTH
 DFT .  LIGNO-SULFATE LCM:   DRILLING FLUID TYPE
 DFD .                9.9:   DRILLING FLUID DENSITY
 DFV .                 48:   DRILLING FLUID VISCOSITY
 DFPH.                7.6:   DRILLING FLUID PH
 DFL .                8.1:   DRILLING FLUID LOSS
 MSS .         CIRCULATED:   MUD SAMPLE SOURCE
 RMS .OHMM           1.62:   RESISTIVITY MUD SAMPLE
 MST .F                73:   MUD SAMPLE TEMPERATURE
 RMF .OHMM           1.06:   RESISTIVITY MUD FILTRATE SAMPLE
 MFST.F                72:   MUD FILTRATE SAMPLE TEMPERATURE
 MFSS.                 FP:   MUD FILTRATE SAMPLE SOURCE
 RMB .OHMM           1.13:   RESISTIVITY MUD AT BHT
 BHT .F               105:   BOTTOM HOLE TEMPERATURE
 TCS .HRS               2:   TIME CURCULATED STOPPED
 MRT .F               105:   MAXIMUM RECORDED TEMPERATURE
 LUN .               4507:   LOGGING UNIT NUMBER
 LUL .               CSPR:   LOGGING UNIT LOCATION
 ENGI.               HAUG:   RECORDING ENGINEER
 WITN.             TUTTLE:   WITNESSED BY
 CLNT.            A2DTECH:   CLIENT CODE
 ORIG.        2" 5" PRINT:   ORIGIN OF DATA
 UWI .       490250945000:   UNIQUE WELL ID
 DICO. A2D Technologies, Inc.:   DIGITIZING COMPANY
~OTHER INFORMATION
~A   DEPT      GRD       CALD       DPHI       RHOB       CORR        SPR          ASN      ILD        CILD  
# ...
 2790.0000    98.7254     7.8704     0.1556     2.3972     0.0228   -40.2933     8.5318     6.5397   158.2797
 2790.5000   100.2625     7.8767     0.1588     2.3974     0.0184   -38.9394     8.2860     6.3720   162.6259
 2791.0000    99.1109     7.8830     0.1534     2.3945     0.0177   -37.5159     8.1275     6.2024   166.9643
 2791.5000   100.5187     7.8893     0.1553     2.3933     0.0195   -36.0997     7.9301     6.0349   171.3013
 2792.0000   100.1161     7.8956     0.1538     2.4043     0.0170   -34.7531     7.6694     5.8586   176.2345
 2792.5000    98.9339     7.9019     0.1452     2.4162     0.0184   -33.4470     7.3848     5.7840   178.5714
 2793.0000    99.1684     7.9082     0.1407     2.4214     0.0201   -32.0914     7.2701     5.7188   180.4296
 2793.5000    98.9402     7.9128     0.1418     2.4227     0.0104   -30.9939     7.1641     5.6516   182.3177
 2794.0000   100.3616     7.9028     0.1383     2.4270     0.0007   -30.2428     7.0581     5.5846   185.2089
 2794.5000   105.4404     7.8925     0.1340     2.4346    -0.0003   -30.0212     6.9752     5.5178   188.8758
 2795.0000   110.4392     7.8824     0.1297     2.4397     0.0071   -30.1203     6.9224     5.4508   192.5428
 2795.5000   113.7910     7.8722     0.1290     2.4359     0.0014   -30.1640     6.8728     5.3840   195.7667
 2796.0000   113.4415     7.8621     0.1341     2.4328     0.0003   -30.1514     6.7678     5.3170   198.5806
 2796.5000   115.1917     7.8519     0.1362     2.4313     0.0062   -29.0774     6.6152     5.2498   201.3944
 2797.0000   115.5559     7.8418     0.1334     2.4422     0.0120   -27.7579     6.4737     5.1829   204.2083
 2797.5000   114.0038     7.8316     0.1268     2.4557     0.0179   -26.8594     6.3283     5.1157   207.2927
 2798.0000   114.4500     7.8215     0.1204     2.4691     0.0236   -26.2655     6.1808     5.0451   209.9221
 2798.5000   116.1440     7.8113     0.1213     2.4754     0.0248   -25.5425     6.0671     4.9528   212.8312
 2799.0000   115.8935     7.8011     0.1242     2.4560     0.0164   -25.0801     6.0568     4.8554   215.7403
 2799.5000   117.1156     7.7910     0.1250     2.4596     0.0082   -24.8775     6.0494     4.7552   218.6494
 2800.0000   119.0373     7.7808     0.1271     2.4521    -0.0003   -24.8184     6.0401     4.7432   221.2787
 2800.5000   120.6280     7.7707     0.1327     2.4413     0.0002   -24.9400     5.9615     4.7451   220.1787
 2801.0000   119.7651     7.7605     0.1288     2.4493     0.0088   -24.9669     5.8713     4.7447   219.1751
 2801.5000   118.9429     7.7504     0.1240     2.4628     0.0175   -25.0446     5.7735     4.7449   218.1716
 2802.0000   118.1293     7.7411     0.1191     2.4795     0.0263   -24.7234     5.7730     4.7450   217.1680
 2802.5000   117.3056     7.7549     0.1179     2.4715     0.0273   -24.4468     5.8018     4.7451   216.1645
 2803.0000   116.5185     7.7537     0.1220     2.4591     0.0209   -24.7933     5.8290     4.7454   215.2847
 2803.5000   113.2048     7.7534     0.1260     2.4523     0.0144   -25.0797     5.8856     4.7455   216.1947
 2804.0000   108.4941     7.7535     0.1300     2.4527     0.0080   -25.0459     5.9452     4.7457   217.0049
 2804.5000   104.7600     7.7535     0.1340     2.4399     0.0029   -24.5363     5.9698     4.7456   217.8150
 2805.0000   107.9222     7.7535     0.1325     2.4357     0.0079   -24.5720     5.8547     4.7459   218.6251
 2805.5000   110.9426     7.7535     0.1305     2.4499     0.0125   -24.7999     5.7545     4.7465   219.4353
 2806.0000   111.4817     7.7535     0.1289     2.4484     0.0100   -24.6530     5.6467     4.7394   220.2797
 2806.5000   110.6144     7.7535     0.1274     2.4455     0.0039   -24.5837     5.5427     4.6504   222.4864
 2807.0000   113.0921     7.7535     0.1258     2.4548     0.0118   -24.4622     5.4894     4.5481   224.2757
 2807.5000   112.8134     7.7535     0.1242     2.4536     0.0159   -24.2961     5.5163     4.4471   233.4740
 2808.0000   112.0437     7.7535     0.1292     2.4456     0.0038   -23.8979     5.5999     4.3462   241.2124
 2808.5000   116.7987     7.7535     0.1341     2.4375    -0.0064   -23.8752     5.6667     4.2444   248.7163
 2809.0000   122.2013     7.7535     0.1382     2.4296     0.0017   -24.0705     5.6471     4.1441   254.6386
 2809.5000   127.6239     7.7535     0.1303     2.4252     0.0171   -24.1183     5.3935     4.0468   257.8886
 2810.0000   132.2041     7.7535     0.1291     2.4485     0.0320   -23.4651     5.0636     4.0066   261.1461
 2810.5000   125.2843     7.7535     0.1304     2.4569     0.0245   -22.8403     4.7435     3.9567   264.4236
 2811.0000   116.6938     7.7535     0.1244     2.4473     0.0171   -22.6691     4.4697     3.9989   267.2966
 2811.5000   114.2928     7.7535     0.1227     2.4596     0.0217   -22.9687     4.5991     4.1298   260.3203
 2812.0000   112.7177     7.7535     0.1252     2.4537     0.0188   -23.1683     5.0189     4.2447   253.6488
 2812.5000   111.1253     7.7535     0.1276     2.4485     0.0096   -23.4488     5.3850     4.3677   245.2235
 2813.0000   109.6982     7.7535     0.1245     2.4562     0.0089   -23.6258     5.7522     4.4861   236.7982
 2813.5000   112.2455     7.7535     0.1212     2.4709     0.0261   -23.6625     5.9165     4.6068   229.8623
 2814.0000   113.4862     7.7535     0.1194     2.4736     0.0343   -23.7444     5.8849     4.7278   223.5664
 2814.5000   105.5583     7.7535     0.1173     2.4704     0.0273   -23.7932     6.1077     4.8343   217.2827
 2815.0000   102.2798     7.7535     0.1146     2.4743     0.0235   -24.0927     6.3499     4.8060   215.9840
 2815.5000   105.4751     7.7535     0.1182     2.4662     0.0172   -24.0029     6.2548     4.7639   216.7563
 2816.0000   104.4454     7.7535     0.1281     2.4481     0.0107   -23.5835     6.0585     4.7214   220.0237
 2816.5000   103.3799     7.7535     0.1334     2.4318     0.0084   -23.2457     5.8722     4.6824   223.2996
 2817.0000   106.8746     7.7535     0.1302     2.4334     0.0128   -23.4574     5.6925     4.6368   226.5733
 2817.5000   111.5884     7.7535     0.1398     2.4300     0.0169   -23.8587     5.6276     4.6027   229.8415
 2818.0000   114.2390     7.7536     0.1359     2.4265     0.0174   -24.1619     5.5987     4.5476   231.1916
 2818.5000   111.2517     7.7513     0.1320     2.4282     0.0138   -24.0044     5.5476     4.6366   225.6175
 2819.0000   106.6281     7.7481     0.1281     2.4426     0.0209   -23.8446     5.5322     4.8168   216.6418
 2819.5000   100.5266     7.7450     0.1242     2.4569     0.0244   -23.3172     5.4553     4.9641   207.6653
 2820.0000     2.8261     7.7418     0.1203     2.4711     0.0182   -23.0006     5.7898     5.2330   198.6832
 2820.5000  -999.2500     7.7387     0.1166     2.4811     0.0275   -23.4193     6.4322     5.4679   190.2018
 2821.0000  -999.2500     7.7356     0.1232     2.4652     0.0223   -24.1095     6.9885     5.7205   181.9768
 2821.5000  -999.2500     7.7324     0.1293     2.4496     0.0162   -24.6175     7.5938     5.9475   174.2092
 2822.0000  -999.2500     7.7293     0.1378     2.4339     0.0100   -24.5157     7.9348     6.2233   167.0846
 2822.5000  -999.2500     7.7261     0.1347     2.4332     0.0066   -24.3663     7.8215     6.2961   162.3038
 2823.0000  -999.2500     7.7230     0.1298     2.4492     0.0175   -24.4151     7.5780     6.1066   168.9175
 2823.5000  -999.2500     7.7199     0.1248     2.4629     0.0283   -24.3860     7.3482     5.9514   174.4003
 2824.0000  -999.2500     7.7167     0.1218     2.4662     0.0295   -24.3217     7.1189     5.7807   179.8637
 2824.5000  -999.2500     7.7136     0.1323     2.4437     0.0138   -24.2460     6.8873     5.6135   184.3688
 2825.0000  -999.2500     7.7104     0.1373     2.4400     0.0030   -24.0363     6.6864     5.5219   187.3574
 2825.5000  -999.2500     7.7073     0.1354     2.4365    -0.0005   -23.4771     6.6097     5.4993   189.2648
 2826.0000  -999.2500     7.7042     0.1375     2.4315    -0.0037   -23.2914     6.6091     5.4655   190.8625
