~VERSION INFORMATION
 VERS.                2.0:   CWLS LOG ASCII STANDARD - VERSION 2.0
 WRAP.                 NO:   ONE LINE PER DEPTH STEP
~WELL INFORMATION
#MNEM.UNIT      DATA TYPE    INFORMATION
#----------   ------------   ------------------------------
 STRT.F            0.0000:   START DEPTH
 STOP.F          542.0000:   STOP DEPTH
 STEP.F            0.5000:   STEP LENGTH
 NULL.          -999.2500:   NO VALUE
 COMP. LAWRENCE/ALLISON INC:   COMPANY
 WELL.          SX #12-11:   WELL
 FLD .             TEAPOT:   FIELD
 LOC .      S11 T38N R78W:   LOCATION
 CNTY.            NATRONA:   COUNTY
 STAT.            WYOMING:   STATE
 CTRY. UNITED STATES OF AMERICA:   COUNTRY
 SRVC.           Gearhart:   SERVICE COMPANY
 DATE.        16-SEP-1988:   LOGDATE
 API .       490251124300:   API NUMBER
~CURVE INFORMATION
#MNEM.UNIT       API CODE    CURVE DESCRIPTION
#----------   ------------   ------------------------------
 DEPT.F                  :   
 GRR .GAPI   07 310 01 00:   GAMMA RAY FROM RES. LOG.
 RLL .OHMM   07 220 00 00:   LATEROLOG RESISTIVITY
 RILD.OHMM   07 120 46 00:   INDUCTION LOG DEEP RESISTIVITY
 RILM.OHMM   07 120 44 00:   INDUCTION LOG MEDIUM RESISTIVITY
 SPR .MV     07 010 01 00:   SPONTANEOUS POTENTIAL
~PARAMETER INFORMATION
#MNEM.UNIT          VALUE    DESCRIPTION
#----------   ------------   ------------------------------
 PD  .                 GL:   PERMANENT DATUM
 EPD .F              5163:   ELEVATION PERMANENT DATUM
 LMF .                 KB:   LOG MEASURED FROM
 DAPD.F                10:   FEET ABOVE PERMANENT DATUM
 DMF .                 KB:   DRILLING MEASURED FROM
 EKB .F              5173:   KELLING BUSHING
 EDF .F              5172:   DRILLING FLOOR
 EGL .F              5163:   GROUND LEVEL
 DATE.            9-16-88:   RUN DATE
 RUN .                  1:   RUN NUMBER
 DD  .F               550:   DEPTH DRILLER
 DL  .F               545:   DEPTH LOGGER
 BLI .F               542:   BOTTOM LOG INTERVAL
 CS  .IN            9.625:   CASING SIZE
 CBD .F                50:   CASING BOTTOM DRILLER
 CBL .F                50:   CASING BOTTOM LOGGER
 BS  .IN             8.75:   BIT SIZE
 BSD .F               550:   BIT SIZE AT DEPTH
 DFT .                MUD:   DRILLING FLUID TYPE
 MSS .           FLOWLINE:   MUD SAMPLE SOURCE
 RMS .OHMM            .55:   RESISTIVITY MUD SAMPLE
 MST .F                70:   MUD SAMPLE TEMPERATURE
 RMF .OHMM            .42:   RESISTIVITY MUD FILTRATE SAMPLE
 MFST.F                71:   MUD FILTRATE SAMPLE TEMPERATURE
 RMC .OHMM            .71:   RESISTIVITY MUD CAKE
 MCST.F                71:   MUD CAKE SAMPLE TEMPERATURE
 MFSS.                  M:   MUD FILTRATE SAMPLE SOURCE
 MCSS.                  M:   MUD CAKE SAMPLE SOURCE
 RMB .OHMM            .30:   RESISTIVITY MUD AT BHT
 BHT .F                81:   BOTTOM HOLE TEMPERATURE
 TCS .HRS            1430:   TIME CURCULATED STOPPED
 TLAB.HRS            1900:   TIME LOGGER AT BOTTOM
 MRT .F                81:   MAXIMUM RECORDED TEMPERATURE
 LUN .               7597:   LOGGING UNIT NUMBER
 LUL .           GILLETTE:   LOGGING UNIT LOCATION
 ENGI.     BENCK/ROUSSEAU:   RECORDING ENGINEER
 WITN.             STRONG:   WITNESSED BY
 CLNT.            A2DTECH:   CLIENT CODE
 ORIG.        2" 5" PRINT:   ORIGIN OF DATA
 UWI .       490251124300:   UNIQUE WELL ID
 DICO. A2D Technologies, Inc.:   DIGITIZING COMPANY
~OTHER INFORMATION
~A    DEPT      GRR       RLL       RILD       RILM        SPR   
# ...
  183.0000   113.2746    11.5788    10.8973    10.4246   -56.4889
  183.5000   114.2854    11.7813    11.0498    10.4775   -56.0574
  184.0000   111.8576    11.9866    11.1877    10.4298   -55.6079
  184.5000   107.7683    12.1721    11.1888    10.3982   -55.7196
  185.0000   104.8578    12.0812    11.1881    10.3666   -56.0066
  185.5000   104.9194    12.0003    11.1224    10.3351   -56.3130
  186.0000   103.9919    11.9195    11.0324    10.3038   -56.6168
  186.5000   102.2655    11.8350    10.9430    10.2737   -56.4826
  187.0000   100.4925    11.6857    10.8544    10.2022   -56.3161
  187.5000   101.8602    11.5336    10.7662    10.1318   -56.1509
  188.0000   106.1860    11.4058    10.6761    10.0618   -55.9859
  188.5000   108.4971    11.4205    10.6600     9.9923   -55.8214
  189.0000   106.8883    11.3312    10.6444     9.9233   -55.7572
  189.5000   105.2402    11.2425    10.6286     9.8547   -55.6979
  190.0000   106.4921    11.1545    10.6127     9.8120   -55.6357
  190.5000   107.5283    11.0668    10.5968     9.8694   -55.7523
  191.0000   106.0091    10.9803    10.5810     9.9432   -55.9897
  191.5000   104.5293    10.9951    10.5651    10.0175   -56.2114
  192.0000   103.0134    11.0112    10.5493    10.0921   -56.0224
  192.5000   103.6498    11.0270    10.5336    10.1002   -55.8146
  193.0000   105.5666    11.0428    10.5178    10.1200   -55.6078
  193.5000   107.4985    11.0587    10.5021    10.1399   -55.4130
  194.0000   108.9440    11.0748    10.4864    10.1599   -55.4069
  194.5000   108.4300    11.0824    10.4515    10.1798   -55.4079
  195.0000   107.3425    10.9903    10.3916    10.1871   -55.4082
  195.5000   105.3970    10.9257    10.3321    10.0336   -55.4082
  196.0000   103.4741    10.8616    10.2729     9.9282   -55.4080
  196.5000   102.1483    10.7978    10.2140     9.8239   -55.4081
  197.0000   103.9115    10.7344    10.1554     9.7207   -55.4097
  197.5000   108.1284    10.6713    10.0973     9.6185   -55.4979
  198.0000   109.1463    10.6097    10.0392     9.5175   -55.6924
  198.5000   107.7113    10.5101     9.9979     9.4175   -55.8818
  199.0000   107.9570    10.3767     9.9104     9.3186   -55.9391
  199.5000   110.0398    10.2435     9.8123     9.2207   -55.5762
  200.0000   111.7256    10.1123     9.7150     9.1238   -55.2252
  200.5000   109.3539     9.9828     9.6187     9.0279   -55.5429
  201.0000   107.0130     9.8550     9.5234     8.9331   -55.7460
  201.5000   104.5923     9.7208     9.4291     8.8392   -55.4959
  202.0000   105.3944     9.7676     9.3356     8.7455   -55.2517
  202.5000   107.1549     9.8178     9.2759     8.6875   -55.0135
  203.0000   108.8739     9.8683     9.3289     8.7298   -55.1931
  203.5000   111.3235     9.9190     9.3843     8.7620   -55.4013
  204.0000   114.3145     9.9699     9.4401     8.7940   -55.6083
  204.5000   116.8488    10.0212     9.4514     8.8262   -55.8151
  205.0000   115.2497    10.0727     9.3914     8.8514   -56.0166
  205.5000   112.7088    10.0921     9.3322     8.7132   -56.0976
  206.0000   110.2813    10.0269     9.2759     8.6061   -56.1733
  206.5000   109.9271     9.9742     9.2759     8.6689   -56.2497
  207.0000   108.4741     9.9218     9.4635     8.7296   -56.3274
  207.5000   105.3508     9.8697     9.6302     8.7906   -56.4022
  208.0000   102.2801     9.8179     9.4919     8.8521   -56.3016
  208.5000   100.4607     9.6917     9.3374     8.9141   -55.7180
  209.0000   102.7976     9.5215     9.1854     8.9764   -55.2241
  209.5000   105.0212     9.3588     9.0359     9.0188   -55.5174
  210.0000   106.3566     9.1988     8.8888     8.6311   -55.8116
  210.5000   106.8014     9.0416     8.6389     8.4463   -55.9736
  211.0000   107.2978     8.8870     8.3610     8.4463   -55.7937
  211.5000   105.3886     8.7181     8.0921     8.4011   -55.6161
  212.0000   102.7029     8.4885     7.8318     8.1462   -55.8083
  212.5000   100.8054     8.2645     7.5798     7.8990   -56.0774
  213.0000   104.1206     8.1017     7.3389     7.6593   -56.3478
  213.5000   107.3521     8.0182     7.2704     7.4747   -56.6162
  214.0000   109.1550     7.9360     7.2026     7.4610   -56.8266
  214.5000   108.3542     7.8535     7.2026     7.4475   -56.7222
  215.0000   107.6034     7.6908     7.1354     7.4339   -56.6225
  215.5000   106.8165     7.7548     7.2433     7.4203   -56.5221
  216.0000   107.7461     7.8522     7.2908     7.4079   -56.4412
  216.5000   109.6504     7.9508     7.3387     7.5264   -56.7353
  217.0000   111.6091     8.0597     7.3868     7.6375   -57.0405
  217.5000   111.5253     8.1470     7.4353     7.7503   -57.3453
  218.0000   110.4361     8.2442     7.4777     7.8647   -57.3380
  218.5000   110.4990     8.3425     7.6107     7.9808   -57.0957
  219.0000   111.9790     8.4419     7.7568     8.0986   -56.8538
  219.5000   113.4945     8.5426     7.9060     8.2182   -56.6291
  220.0000   112.6530     8.6444     8.0592     8.3396   -56.5202
  220.5000   110.9036     8.7475     8.0787     8.4628   -56.4173
  221.0000   109.0675     8.8519     8.0968     8.5875   -56.3145
  221.5000   107.9241     8.9579     8.1155     8.6871   -56.1972
  222.0000   107.2135     9.0195     8.1342     8.6085   -56.0033
  222.5000   109.4189     9.0187     8.1531     8.5451   -55.8055
  223.0000   111.6053     9.0188     8.1720     8.4779   -55.6041
  223.5000   113.7536     9.0188     8.1910     8.4435   -55.4371
  224.0000   114.6615     9.0188     8.2113     8.6740   -56.2667
  224.5000   113.3057     9.0188     8.1694     8.6423   -55.9735
  225.0000   111.9543     9.0188     8.1214     8.6226   -55.4379
  225.5000   112.8460     9.0188     8.0732     8.6029   -55.7151
  226.0000   115.1175     9.0189     8.0258     8.5833   -56.0197
  226.5000   116.3282     9.0040     7.9848     8.5637   -55.7152
  227.0000   114.1964     8.9763     8.0050     8.5441   -55.3333
  227.5000   111.5833     8.9486     8.0231     8.5246   -55.3756
  228.0000   108.9604     8.9209     8.0413     8.5052   -55.6051
  228.5000   106.6023     8.8934     8.0594     8.4858   -55.5513
  229.0000   108.1138     8.8659     8.0777     8.4664   -55.4913
  229.5000   111.5117     8.8386     8.0959     8.4471   -55.4321
  230.0000   114.9421     8.8113     8.1143     8.4278   -55.3732
  230.5000   113.3003     8.7841     8.1348     8.4085   -55.3142
  231.0000   111.2074     8.7476     8.0954     8.3894   -55.2555
  231.5000   109.3513     8.6993     8.0477     8.3702   -55.2019
  232.0000   109.6061     8.6514     8.0001     8.3128   -55.1537
  232.5000   111.1699     8.6036     7.9528     8.2495   -55.0998
  233.0000   112.7877     8.5562     7.9058     8.1867   -55.0420
  233.5000   112.1113     8.5090     7.8591     8.1243   -54.9344
  234.0000   110.8579     8.4621     7.8127     8.0624   -54.7601
  234.5000   109.7606     8.4154     7.7665     8.0010   -55.7935
  235.0000   112.5736     8.3689     7.7206     7.9400   -55.2438
  235.5000   117.1841     8.3228     7.6750     7.8795   -54.8172
  236.0000   119.3813     8.2769     7.6297     7.8195   -54.9459
  236.5000   118.8837     8.2313     7.5846     7.7600   -55.0686
  237.0000   116.4550     8.1672     7.5149     7.7009   -55.1929
  237.5000   113.3880     8.0902     7.3389     7.6422   -55.3162
  238.0000   112.2787     8.0136     7.1669     7.3557   -55.4102
  238.5000   110.9547     7.9380     6.9990     6.9399   -55.4084
  239.0000   108.8304     7.7141     6.8351     6.5476   -55.4077
  239.5000   106.7715     7.4120     6.6750     6.1775   -55.4058
  240.0000   106.1154     7.1206     6.4972     5.9161   -55.4123
  240.5000   107.7374     6.8475     6.5112     5.8063   -55.9795
  241.0000   109.2857     6.6766     6.5275     5.8063   -56.4423
  241.5000   110.7692     6.6825     6.5438     5.8677   -56.0887
  242.0000   111.4947     6.8951     6.5769     5.9949   -55.6216
  242.5000   112.2300     7.2109     6.7524     6.1248   -55.3470
  243.0000   111.6241     7.5411     6.9326     6.2576   -55.2243
  243.5000   110.7088     7.8443     7.1176     6.3933   -55.1053
