~VERSION INFORMATION
 VERS.                2.0:   CWLS LOG ASCII STANDARD - VERSION 2.0
 WRAP.                 NO:   ONE LINE PER DEPTH STEP
~WELL INFORMATION
#MNEM.UNIT      DATA TYPE    INFORMATION
#----------   ------------   ------------------------------
 STRT.F           90.0000:   START DEPTH
 STOP.F          928.0000:   STOP DEPTH
 STEP.F            0.5000:   STEP LENGTH
 NULL.          -999.2500:   NO VALUE
 COMP.  UNITED STATE NAVY:   COMPANY
 WELL.      NPR 3 #58-S-2:   WELL
 FLD .             TEAPOT:   FIELD
 LOC .       S2 T38N R78W:   LOCATION
 CNTY.            NATRONA:   COUNTY
 STAT.            WYOMING:   STATE
 CTRY. UNITED STATES OF AMERICA:   COUNTRY
 SRVC.       Schlumberger:   SERVICE COMPANY
 DATE.        26-JUN-1962:   LOGDATE
 API .       490250639500:   API NUMBER
~CURVE INFORMATION
#MNEM.UNIT       API CODE    CURVE DESCRIPTION
#----------   ------------   ------------------------------
 DEPT.F                  :   
 ASN .OHMM   05 041 16 00:   AMPLIFIED SHORT NORMAL 16"
 ILD .OHMM   05 120 46 00:   INDUCTION LOG DEEP
 CILD.MMHO   05 110 46 00:   CONDUCTIVITY INDUCTION LOG DEEP
 SPR .MV     05 010 01 00:   SPONTANEOUS POTENTIAL FROM RES.
 GR  .GAPI   30 310 01 00:   GAMMA RAY
~PARAMETER INFORMATION
#MNEM.UNIT          VALUE    DESCRIPTION
#----------   ------------   ------------------------------
 PD  .                 KB:   PERMANENT DATUM
 EKB .F              5189:   KELLING BUSHING
 EGL .F              5184:   GROUND LEVEL
 DATE.        26-JUN-1962:   RUN DATE
 RUN .                  1:   RUN NUMBER
 DD  .F               925:   DEPTH DRILLER
 DL  .F               929:   DEPTH LOGGER
 BLI .F               928:   BOTTOM LOG INTERVAL
 TLI .F                90:   TOP LOG INTERVAL
 BS  .IN             6.75:   BIT SIZE
 BSD .F               925:   BIT SIZE AT DEPTH
 DFT .       OIL EMULSION:   DRILLING FLUID TYPE
 DFD .                 10:   DRILLING FLUID DENSITY
 DFV .                 50:   DRILLING FLUID VISCOSITY
 DFL .                3.7:   DRILLING FLUID LOSS
 RMS .OHMM            4.7:   RESISTIVITY MUD SAMPLE
 MST .F                83:   MUD SAMPLE TEMPERATURE
 RMF .OHMM            3.8:   RESISTIVITY MUD FILTRATE SAMPLE
 MFST.F                83:   MUD FILTRATE SAMPLE TEMPERATURE
 RMC .OHMM            4.4:   RESISTIVITY MUD CAKE
 MCST.F                83:   MUD CAKE SAMPLE TEMPERATURE
 TCS .HRS               1:   TIME CURCULATED STOPPED
 LUN .               2503:   LOGGING UNIT NUMBER
 LUL .               CSPR:   LOGGING UNIT LOCATION
 ENGI.             DANNER:   RECORDING ENGINEER
 WITN.          JORGENSEN:   WITNESSED BY
 CLNT.            A2DTECH:   CLIENT CODE
 ORIG.      2" & 5" PRINT:   ORIGIN OF DATA
 UWI .       490250639500:   UNIQUE WELL ID
 DICO. A2D Technologies, Inc.:   DIGITIZING COMPANY
~OTHER INFORMATION
~A   DEPT        ASN        ILD      CILD       SPR         GR   
# ...
  334.0000     6.4972     7.1006   162.3779   -52.1793  -999.2500
  334.5000     6.4975     7.1036   163.1073   -52.3211  -999.2500
  335.0000     6.4827     7.1066   163.8366   -52.6318  -999.2500
  335.5000     6.4831     7.0346   163.8085   -52.9032  -999.2500
  336.0000     6.4234     6.9627   164.5435   -52.8955  -999.2500
  336.5000     6.4087     6.8156   164.5154   -52.8880  -999.2500
  337.0000     6.4240     6.5938   165.2448   -53.0537  -999.2500
  337.5000     6.4393     6.5218   165.9798   -53.1720  -999.2500
  338.0000     6.4096     6.5249   167.4610   -53.1642  -999.2500
  338.5000     6.3800     6.5279   169.6886   -53.1568  -999.2500
  339.0000     6.3652     6.5308   170.4236   -53.1492  -999.2500
  339.5000     6.4705     6.6088   171.1529   -53.1418  -999.2500
  340.0000     6.4708     6.5367   171.1248   -53.1328  -999.2500
  340.5000     6.4410     6.6148   172.6061   -53.2746  -999.2500
  341.0000     6.4114     6.6178   174.0930   -53.2672  -999.2500
  341.5000     6.3518     6.6208   173.3130   -53.2597  -999.2500
  342.0000     6.2470     6.5487   172.5386   -53.2523  -999.2500
  342.5000     6.2174     6.5518   171.0123   -53.0956  -999.2500
  343.0000     6.2777     6.5548   170.2379   -52.9389  -999.2500
  343.5000     6.4729     6.5578   168.7117   -52.7822  -999.2500
  344.0000     6.6981     6.5608   167.1854   -52.6255  -999.2500
  344.5000     6.7733     6.7137   164.1554   -52.6180  -999.2500
  345.0000     6.7886     6.8666   158.8697   -52.6106  -999.2500
  345.5000     6.8939     7.1695   154.3360   -52.7542  -999.2500
  346.0000     7.0591     7.6222   149.0503   -52.8960  -999.2500
  346.5000     7.1194     8.1500   143.7646   -53.0378  -999.2500
  347.0000     7.1497     8.2279   138.4790   -53.1796  -999.2500
  347.5000     7.1649     8.2309   135.4490   -53.3215  -999.2500
  348.0000     7.1802     8.2339   134.6746   -53.3121  -999.2500
  348.5000     7.1356     8.2369   133.9002   -53.3047  -999.2500
  349.0000     7.0159     8.2399   134.6352   -53.1480  -999.2500
  349.5000     6.8513     8.1679   136.1109   -52.9913  -999.2500
  350.0000     6.7766     8.0210   137.5539   -52.8358  -999.2500
  350.5000     6.6868     7.7978   141.8136   -52.9763  -999.2500
  351.0000     6.6270     7.4244   151.8634   -53.1200  -999.2500
  351.5000     6.3573     6.6013   163.1340   -52.9614  -999.2500
  352.0000     5.9376     5.7782   197.7130   -52.6554  -999.2500
  352.5000     5.5630     4.9552   237.5557   -52.4986  -999.2500
  353.0000     5.1134     4.0571   292.5383   -52.4911  -999.2500
  353.5000     4.2289     3.5339   364.1946   -52.4837  -999.2500
  354.0000     3.7044     3.1606   431.5175   -52.0284  -999.2500
  354.5000     3.4646     2.7872   482.6383   -51.1254  -999.2500
  355.0000     3.3298     2.7134   517.9685   -50.3433  -999.2500
  355.5000     3.1501     2.7902   529.9911   -49.7690  -999.2500
  356.0000     3.0603     2.9417   515.6979   -50.0855  -999.2500
  356.5000     3.1804     3.0181   486.3683   -50.2018  -999.2500
  357.0000     3.3904     3.2445   422.5749   -50.1940  -999.2500
  357.5000     3.5705     3.6958   362.2537   -50.2263  -999.2500
  358.0000     4.2453     4.4469   294.6163   -52.4357  -999.2500
  358.5000     5.3489     5.5729   220.9240   -53.0234  -999.2500
  359.0000     7.0042     7.0736   168.9172   -53.2987  -999.2500
  359.5000     7.8290     9.1741   121.6608   -53.6015  -999.2500
  360.0000     8.7137    10.5249    97.5931   -54.0399  -999.2500
  360.5000     9.2835    11.0511    89.3149   -54.3210  -999.2500
  361.0000     9.5685    11.1272    90.8111   -54.6179  -999.2500
  361.5000     9.4188    10.6044    96.8186   -54.9030  -999.2500
  362.0000     9.1491     9.7813   104.3299   -54.7442  -999.2500
  362.5000     9.1042     8.8832   116.3524   -54.2910  -999.2500
  363.0000     8.7895     8.0601   134.3900   -54.1343  -999.2500
  363.5000     8.3099     7.3120   153.9314   -53.9776  -999.2500
  364.0000     7.3955     6.7888   175.7283   -53.5223  -999.2500
  364.5000     6.4062     6.4155   180.9859   -53.0671  -999.2500
  365.0000     6.1964     6.1171   182.4821   -52.4626  -999.2500
  365.5000     6.0167     5.8937   184.7283   -51.5596  -999.2500
  366.0000     5.8968     6.0451   186.9783   -51.1043  -999.2500
  366.5000     6.7816     6.2715   185.4651   -51.9923  -999.2500
  367.0000     7.3211     6.8727   171.9238   -53.6266  -999.2500
  367.5000     7.9363     7.8487   158.2475   -54.6639  -999.2500
  368.0000     8.8210     8.8997   139.0254   -54.6564  -999.2500
  368.5000     9.1510     9.4260   123.6175   -54.4997  -999.2500
  369.0000     9.3610     9.7273   107.2326   -54.4922  -999.2500
  369.5000     9.4961     9.8038   102.7138   -54.4847  -999.2500
  370.0000     9.8861     9.8802   100.4506   -54.4772  -999.2500
  370.5000    10.0926    10.0317    99.6912   -54.6209  -999.2500
  371.0000    10.4261    10.1831    98.9318   -55.2085  -999.2500
  371.5000    10.8011    10.6344    95.1649   -55.6488  -999.2500
  372.0000    11.1011    11.1606    91.3979   -55.9417  -999.2500
  372.5000    11.3261    11.5369    87.6310   -55.9323  -999.2500
  373.0000    11.5511    11.6134    86.1197   -55.9249  -999.2500
  373.5000    11.7012    11.6149    84.6084   -56.0685  -999.2500
  374.0000    11.8513    11.6913    83.8490   -56.5069  -999.2500
  374.5000    11.9264    11.6928    83.0896   -56.6505  -999.2500
  375.0000    12.0015    11.7693    83.0821   -57.0889  -999.2500
  375.5000    12.0017    11.8458    83.0745   -57.5292  -999.2500
  376.0000    12.1517    11.8473    82.3151   -57.5217  -999.2500
  376.5000    12.3018    11.9237    82.3076   -57.5142  -999.2500
  377.0000    12.3769    12.0002    82.3001   -57.0590  -999.2500
  377.5000    12.5270    12.0767    82.2925   -56.7530  -999.2500
  378.0000    12.6021    12.1531    81.5331   -56.4470  -999.2500
  378.5000    12.6023    12.3045    80.7737   -56.2902  -999.2500
  379.0000    12.7523    12.3810    80.0143   -56.1335  -999.2500
  379.5000    12.8274    12.4575    79.2549   -56.2771  -999.2500
  380.0000    12.9775    12.5339    78.4955   -56.8648  -999.2500
  380.5000    13.2026    12.6854    77.7361   -57.0084  -999.2500
  381.0000    13.3526    12.7618    76.2248   -56.9991  -999.2500
  381.5000    13.4277    12.8383    73.9616   -56.9916  -999.2500
  382.0000    13.6528    12.9897    73.2022   -57.4337  -999.2500
  382.5000    14.0277    13.1411    71.6909   -57.8721  -999.2500
  383.0000    14.2528    13.2926    70.9315   -58.3124  -999.2500
  383.5000    14.4029    13.4440    70.9240   -58.6053  -999.2500
  384.0000    14.6279    13.5954    70.1646   -58.7452  -999.2500
  384.5000    14.8529    13.7439    68.6533   -58.7377  -999.2500
  385.0000    15.0030    13.9732    67.1420   -59.0306  -999.2500
  385.5000    15.0781    14.3495    64.8788   -59.3216  -999.2500
  386.0000    15.6030    14.6509    63.3675   -59.7600  -999.2500
  386.5000    16.2778    14.8773    61.8562   -60.0510  -999.2500
  387.0000    16.7277    15.1037    61.0968   -60.1928  -999.2500
  387.5000    17.1027    15.3301    60.3374   -60.3364  -999.2500
  388.0000    17.2528    15.7064    59.5780   -59.8793  -999.2500
  388.5000    17.4029    15.9328    58.8186   -59.2748  -999.2500
  389.0000    17.4030    16.0842    57.3073   -58.9688  -999.2500
  389.5000    17.3282    16.3106    55.7960   -59.1125  -999.2500
  390.0000    17.8531    16.4620    55.7885   -59.2542  -999.2500
  390.5000    18.6029    16.4635    55.7809   -59.6945  -999.2500
  391.0000    18.5280    16.3897    55.7734   -60.1329  -999.2500
  391.5000    18.1534    16.1666    55.7659   -61.0209  -999.2500
  392.0000    17.7038    16.0928    56.5121   -61.0135  -999.2500
  392.5000    17.4790    16.0197    57.2546   -61.3358  -999.2500
  393.0000    17.7041    16.0212    58.0008   -62.1283  -999.2500
  393.5000    18.0790    15.9478    58.7433   -64.0551  -999.2500
  394.0000    18.2291    15.8743    58.7357   -65.6358  -999.2500
  394.5000    17.7795    15.8005    58.7282   -66.3726  -999.2500
