~VERSION INFORMATION
 VERS.                2.0:   CWLS LOG ASCII STANDARD - VERSION 2.0
 WRAP.                 NO:   ONE LINE PER DEPTH STEP
~WELL INFORMATION
#MNEM.UNIT      DATA TYPE    INFORMATION
#----------   ------------   ------------------------------
 STRT.F          700.0000:   START DEPTH
 STOP.F         2111.0000:   STOP DEPTH
 STEP.F            0.5000:   STEP LENGTH
 NULL.          -999.2500:   NO VALUE
 COMP. FENIX & SCISSON INC:   COMPANY
 WELL.    35 SAX 34 #3-34:   WELL
 FLD .             TEAPOT:   FIELD
 LOC .      S34 T39N R78W:   LOCATION
 CNTY.            NATRONA:   COUNTY
 STAT.            WYOMING:   STATE
 CTRY. UNITED STATES OF AMERICA:   COUNTRY
 SRVC.            Unknown:   SERVICE COMPANY
 DATE.        29-MAY-1978:   LOGDATE
 API .       490251061700:   API NUMBER
~CURVE INFORMATION
#MNEM.UNIT       API CODE    CURVE DESCRIPTION
#----------   ------------   ------------------------------
 DEPT.F                  :   
 CALD.IN     45 280 60 00:   CALIPER FROM DENSITY LOG
 GRD .GAPI   45 310 01 00:   GAMMA RAY FROM DENSITY LOG
 RHOB.G/C3   45 350 01 00:   BULK DENSITY
 DPHI.DEC    45 890 00 00:   DENSITY POROSITY
 CORR.G/C3   45 356 01 00:   DENSITY CORRECTION
~PARAMETER INFORMATION
#MNEM.UNIT          VALUE    DESCRIPTION
#----------   ------------   ------------------------------
 PD  .                 GL:   PERMANENT DATUM
 EPD .F              5105:   ELEVATION PERMANENT DATUM
 LMF .                 KB:   LOG MEASURED FROM
 DAPD.F                10:   FEET ABOVE PERMANENT DATUM
 DMF .                 KB:   DRILLING MEASURED FROM
 EKB .F              5115:   KELLING BUSHING
 EGL .F              5105:   GROUND LEVEL
 DATE.          5-29-1978:   RUN DATE
 RUN .                  1:   RUN NUMBER
 DD  .F              2111:   DEPTH DRILLER
 DL  .F              2118:   DEPTH LOGGER
 BLI .F              2110:   BOTTOM LOG INTERVAL
 TLI .F               720:   TOP LOG INTERVAL
 CS  .IN            9.625:   CASING SIZE
 CBD .F               711:   CASING BOTTOM DRILLER
 CBL .F               721:   CASING BOTTOM LOGGER
 BS  .IN             8.75:   BIT SIZE
 BSD .F              2111:   BIT SIZE AT DEPTH
 DFT .                OIL:   DRILLING FLUID TYPE
 TCS .HRS               1:   TIME CURCULATED STOPPED
 LUN .               2958:   LOGGING UNIT NUMBER
 LUL .               CASP:   LOGGING UNIT LOCATION
 ENGI.             MILLER:   RECORDING ENGINEER
 WITN.           MCGINLEY:   WITNESSED BY
 CLNT.            A2DTECH:   CLIENT CODE
 ORIG.           5" PRINT:   ORIGIN OF DATA
 UWI .       490251061700:   UNIQUE WELL ID
 DICO. A2D Technologies, Inc.:   DIGITIZING COMPANY
~OTHER INFORMATION
~A   DEPT     CALD         GRD      RHOB       DPHI       CORR   
# ...
 1127.0000     9.7048    70.5475     2.3415     0.1292     0.2645
 1127.5000     9.6510    69.7668     2.3371     0.1201     0.2736
 1128.0000     9.5979    68.9860     2.3484     0.1142     0.2892
 1128.5000     9.5978    68.1797     2.3671     0.1054     0.2819
 1129.0000     9.6109    69.2308     2.3740     0.0938     0.2661
 1129.5000     9.5959    72.7544     2.3757     0.0824     0.2639
 1130.0000     9.5655    76.3618     2.3959     0.0726     0.2595
 1130.5000     9.5534    77.2461     2.4221     0.1078     0.2527
 1131.0000     9.5624    76.5852     2.4321     0.1272     0.2267
 1131.5000     9.5713    75.8864     2.3898     0.1366     0.2042
 1132.0000     9.5762    75.7982     2.3593     0.1377     0.2279
 1132.5000     9.5817    75.8510     2.3398     0.1300     0.2591
 1133.0000     9.5870    75.9139     2.3397     0.1257     0.2890
 1133.5000     9.5932    75.9423     2.3402     0.1236     0.2956
 1134.0000     9.6321    75.0647     2.3519     0.1295     0.2916
 1134.5000     9.6716    72.2478     2.3554     0.1333     0.2735
 1135.0000     9.7109    69.4428     2.3493     0.1282     0.2560
 1135.5000     9.7313    66.6463     2.3450     0.1249     0.2428
 1136.0000     9.7198    63.8570     2.3493     0.1305     0.2413
 1136.5000     9.7040    61.2531     2.3524     0.1389     0.2396
 1137.0000     9.6879    60.6438     2.3444     0.1474     0.2395
 1137.5000     9.6722    60.9261     2.3320     0.1517     0.2400
 1138.0000     9.6874    61.2684     2.3194     0.1515     0.2500
 1138.5000     9.7338    61.6043     2.3158     0.1506     0.2652
 1139.0000     9.7712    61.8355     2.3154     0.1510     0.2778
 1139.5000     9.7664    61.8864     2.3150     0.1529     0.2775
 1140.0000     9.7624    61.9394     2.3147     0.1512     0.2775
 1140.5000     9.7586    61.9961     2.3143     0.1512     0.2774
 1141.0000     9.7549    61.8083     2.3139     0.1540     0.2758
 1141.5000     9.7492    61.4928     2.3135     0.1561     0.2676
 1142.0000     9.7079    61.2692     2.3131     0.1540     0.2616
 1142.5000     9.6740    62.3808     2.3129     0.1517     0.2598
 1143.0000     9.7212    63.5303     2.3157     0.1431     0.2604
 1143.5000     9.7685    64.0037     2.3209     0.1352     0.2610
 1144.0000     9.7532    64.0968     2.3284     0.1321     0.2606
 1144.5000     9.7331    62.9416     2.3365     0.1421     0.2539
 1145.0000     9.7132    60.9782     2.3350     0.1424     0.2490
 1145.5000     9.6935    59.0033     2.3300     0.1421     0.2477
 1146.0000     9.6737    56.9679     2.3297     0.1379     0.2500
 1146.5000     9.6539    57.1225     2.3315     0.1336     0.2531
 1147.0000     9.6342    60.6677     2.3381     0.1293     0.2563
 1147.5000     9.6144    64.3393     2.3451     0.1209     0.2568
 1148.0000     9.5945    66.7589     2.3521     0.1162     0.2558
 1148.5000     9.5916    65.9376     2.3589     0.1349     0.2529
 1149.0000     9.5916    64.0041     2.3549     0.1433     0.2384
 1149.5000     9.5916    62.7969     2.3378     0.1457     0.2238
 1150.0000     9.5914    62.4117     2.3256     0.1389     0.2222
 1150.5000     9.5919    62.4752     2.3294     0.1375     0.2258
 1151.0000     9.6253    62.5505     2.3345     0.1380     0.2296
 1151.5000     9.6632    62.4369     2.3368     0.1358     0.2334
 1152.0000     9.6753    61.2156     2.3377     0.1314     0.2335
 1152.5000     9.6808    60.2102     2.3433     0.1270     0.2344
 1153.0000     9.6862    62.9496     2.3492     0.1226     0.2398
 1153.5000     9.6903    66.6842     2.3551     0.1194     0.2451
 1154.0000     9.6658    66.6079     2.3610     0.1174     0.2505
 1154.5000     9.6402    63.6828     2.3669     0.1178     0.2540
 1155.0000     9.6142    60.8099     2.3681     0.1178     0.2550
 1155.5000     9.6352    57.9677     2.3686     0.1165     0.2561
 1156.0000     9.6635    57.8201     2.3690     0.1154     0.2572
 1156.5000     9.6532    58.9374     2.3695     0.1202     0.2545
 1157.0000     9.6290    60.5153     2.3690     0.1256     0.2503
 1157.5000     9.6278    62.3260     2.3624     0.1279     0.2476
 1158.0000     9.6815    64.1476     2.3559     0.1219     0.2544
 1158.5000     9.6556    65.9310     2.3521     0.1200     0.2724
 1159.0000     9.6093    66.0100     2.3652     0.1214     0.2704
 1159.5000     9.5709    66.3283     2.3655     0.1191     0.2623
 1160.0000     9.5720    67.4300     2.3629     0.1133     0.2571
 1160.5000     9.5696    69.6448     2.3682     0.1075     0.2564
 1161.0000     9.5112    70.1371     2.3737     0.1066     0.2558
 1161.5000     9.5219    69.1999     2.3792     0.1222     0.2475
 1162.0000     9.5651    68.2714     2.3808     0.1389     0.2382
 1162.5000     9.6097    68.4282     2.3598     0.1327     0.2309
 1163.0000     9.6164    71.0513     2.3389     0.1301     0.2332
 1163.5000     9.5878    70.5826     2.3418     0.1312     0.2403
 1164.0000     9.5576    67.8291     2.3469     0.1345     0.2423
 1164.5000     9.5725    64.8735     2.3453     0.1328     0.2401
 1165.0000     9.6002    64.2308     2.3447     0.1314     0.2379
 1165.5000     9.6043    63.4432     2.3469     0.1316     0.2357
 1166.0000     9.5926    61.6147     2.3478     0.1309     0.2335
 1166.5000     9.5808    60.4658     2.3478     0.1248     0.2313
 1167.0000     9.5791    64.1394     2.3481     0.1214     0.2291
 1167.5000     9.6165    65.8217     2.3554     0.1286     0.2269
 1168.0000     9.6527    65.2086     2.3558     0.1337     0.2247
 1168.5000     9.6888    64.9582     2.3475     0.1361     0.2234
 1169.0000     9.7250    66.8064     2.3406     0.1310     0.2297
 1169.5000     9.7625    68.6354     2.3437     0.1269     0.2381
 1170.0000     9.7709    67.6245     2.3492     0.1261     0.2457
 1170.5000     9.7711    65.7912     2.3539     0.1249     0.2449
 1171.0000     9.7676    64.8330     2.3538     0.1223     0.2430
 1171.5000     9.7458    64.4987     2.3539     0.1202     0.2412
 1172.0000     9.7242    64.1786     2.3574     0.1207     0.2393
 1172.5000     9.7027    63.8550     2.3587     0.1221     0.2376
 1173.0000     9.6812    63.7927     2.3577     0.1249     0.2382
 1173.5000     9.6596    64.2287     2.3566     0.1247     0.2391
 1174.0000     9.6381    64.7386     2.3555     0.1251     0.2395
 1174.5000     9.6165    64.9489     2.3544     0.1286     0.2395
 1175.0000     9.5948    64.5591     2.3540     0.1325     0.2395
 1175.5000     9.5729    63.1472     2.3503     0.1329     0.2395
 1176.0000     9.5854    61.3954     2.3466     0.1291     0.2403
 1176.5000     9.6008    60.0469     2.3458     0.1218     0.2492
 1177.0000     9.6162    60.0215     2.3594     0.1145     0.2634
 1177.5000     9.6308    60.5863     2.3647     0.1072     0.2720
 1178.0000     9.6219    62.8752     2.3713     0.1052     0.2766
 1178.5000     9.6106    65.2041     2.3804     0.1062     0.2754
 1179.0000     9.5708    65.8254     2.3855     0.1043     0.2651
 1179.5000     9.5301    66.1085     2.3849     0.1039     0.2607
 1180.0000     9.4893    66.0615     2.3843     0.1077     0.2572
 1180.5000     9.4536    65.8618     2.3837     0.1060     0.2512
 1181.0000     9.4754    65.6583     2.3830     0.0998     0.2421
 1181.5000     9.4978    65.4362     2.3832     0.1043     0.2331
 1182.0000     9.5198    66.0026     2.3818     0.1108     0.2237
 1182.5000     9.5419    66.8331     2.3781     0.1172     0.2220
 1183.0000     9.5589    67.4229     2.3744     0.1197     0.2256
 1183.5000     9.5722    67.4870     2.3707     0.1188     0.2292
 1184.0000     9.5855    67.5608     2.3677     0.1179     0.2328
 1184.5000     9.5989    67.6331     2.3697     0.1132     0.2359
 1185.0000     9.6103    67.7110     2.3717     0.1075     0.2388
 1185.5000     9.5822    67.8225     2.3753     0.1038     0.2417
 1186.0000     9.5533    66.0883     2.3813     0.1030     0.2447
 1186.5000     9.5399    64.2250     2.3858     0.1059     0.2476
 1187.0000     9.5786    64.0011     2.3857     0.1102     0.2505
 1187.5000     9.6107    64.2919     2.3812     0.1150     0.2535
