~VERSION INFORMATION
 VERS.                2.0:   CWLS LOG ASCII STANDARD - VERSION 2.0
 WRAP.                 NO:   ONE LINE PER DEPTH STEP
~WELL INFORMATION
#MNEM.UNIT      DATA TYPE    INFORMATION
#----------   ------------   ------------------------------
 STRT.F           46.5000:   START DEPTH
 STOP.F          435.0000:   STOP DEPTH
 STEP.F            0.5000:   STEP LENGTH
 NULL.          -999.2500:   NO VALUE
 COMP. BROWN JOHN E&C INC:   COMPANY
 WELL. NPR 3 64-63 X 10 #64-10:   WELL
 FLD .             TEAPOT:   FIELD
 LOC .      S10 T38N R78W:   LOCATION
 CNTY.            NATRONA:   COUNTY
 STAT.            WYOMING:   STATE
 CTRY. UNITED STATES OF AMERICA:   COUNTRY
 SRVC.       Schlumberger:   SERVICE COMPANY
 DATE.        17-SEP-1980:   LOGDATE
 API .       490251132300:   API NUMBER
~CURVE INFORMATION
#MNEM.UNIT       API CODE    CURVE DESCRIPTION
#----------   ------------   ------------------------------
 DEPT.F                  :   
 GRR .GAPI   07 310 01 00:   GAMMA RAY FROM RES. LOG.
 ILD .OHMM   07 120 46 00:   INDUCTION LOG DEEP
 ILM .OHMM   07 120 44 00:   INDUCTION LOG MEDIUM
~PARAMETER INFORMATION
#MNEM.UNIT          VALUE    DESCRIPTION
#----------   ------------   ------------------------------
 PD  .                 GL:   PERMANENT DATUM
 EPD .F              5184:   ELEVATION PERMANENT DATUM
 LMF .                 KB:   LOG MEASURED FROM
 DAPD.F                10:   FEET ABOVE PERMANENT DATUM
 DMF .                 KB:   DRILLING MEASURED FROM
 EKB .F              5184:   KELLING BUSHING
 EDF .F              5183:   DRILLING FLOOR
 EGL .F              5184:   GROUND LEVEL
 DATE.        11-SEP-1980:   RUN DATE
 RUN .                  1:   RUN NUMBER
 DD  .F               455:   DEPTH DRILLER
 DL  .F               456:   DEPTH LOGGER
 BLI .F               446:   BOTTOM LOG INTERVAL
 TLI .F                48:   TOP LOG INTERVAL
 CS  .IN            8.625:   CASING SIZE
 CBD .F                52:   CASING BOTTOM DRILLER
 CBL .F                48:   CASING BOTTOM LOGGER
 BS  .IN            7.875:   BIT SIZE
 BSD .F               455:   BIT SIZE AT DEPTH
 DFT .           AIR/FOAM:   DRILLING FLUID TYPE
 MSS .           MUD TANK:   MUD SAMPLE SOURCE
 MFSS.               MEAS:   MUD FILTRATE SAMPLE SOURCE
 MCSS.               CALC:   MUD CAKE SAMPLE SOURCE
 TCS .HRS            1300:   TIME CURCULATED STOPPED
 TLAB.HRS            1400:   TIME LOGGER AT BOTTOM
 LUN .               8168:   LOGGING UNIT NUMBER
 LUL .           GILLETTE:   LOGGING UNIT LOCATION
 ENGI.          M. FISHER:   RECORDING ENGINEER
 WITN.        GARY STRONG:   WITNESSED BY
 CLNT.            A2DTECH:   CLIENT CODE
 ORIG.      2" , 5" PRINT:   ORIGIN OF DATA
 UWI .       490251132300:   UNIQUE WELL ID
 DICO. A2D Technologies, Inc.:   DIGITIZING COMPANY
~OTHER INFORMATION
~A   DEPT      GRR        ILD        ILM   
# ...
  228.5000   157.0395     5.8317     6.0982
  229.0000   155.6637     6.2119     6.4859
  229.5000   154.2589     6.6152     6.8978
  230.0000   153.4722     7.0280     7.3360
  230.5000   153.6120     7.4633     7.6107
  231.0000   153.7554     7.7393     7.9410
  231.5000   153.2454     8.0410     8.2243
  232.0000   149.3029     8.1407     8.4388
  232.5000   144.5805     8.2751     8.5948
  233.0000   141.6925     8.4127     8.6689
  233.5000   140.0086     8.5529     8.7437
  234.0000   140.0127     8.6118     8.8191
  234.5000   140.1589     8.6588     8.8951
  235.0000   144.1649     8.7061     8.9422
  235.5000   148.3251     8.7537     8.9826
  236.0000   152.2697     8.8015     9.0231
  236.5000   155.1453     8.8274     9.0770
  237.0000   155.1508     8.8114     9.0680
  237.5000   152.6471     8.8004     9.0546
  238.0000   149.7534     8.7895     9.0413
  238.5000   146.8599     8.7786     9.0280
  239.0000   144.8476     8.7677     9.0146
  239.5000   146.7225     8.7568     9.0019
  240.0000   149.0840     8.7458     8.9930
  240.5000   151.2348     8.9505     9.1536
  241.0000   148.0928     9.1643     9.3035
  241.5000   142.4412     9.3832     9.5778
  242.0000   137.9471     9.5088     9.8602
  242.5000   136.4201     8.9680     9.9611
  243.0000   138.1006     8.3552     9.1714
  243.5000   140.1326     7.5879     8.2147
  244.0000   145.2494     6.8828     7.0066
  244.5000   153.2975     6.1895     5.6470
  245.0000   161.2394     6.1923     4.9103
  245.5000   167.9949     6.1429     5.1302
  246.0000   169.1923     6.2432     5.8107
  246.5000   154.0042     6.5421     6.1722
  247.0000   142.9517     7.0707     6.4357
  247.5000   135.8050     7.7382     7.1569
  248.0000   134.1636     8.6258     7.9671
  248.5000   133.5813     9.6165     9.0523
  249.0000   133.3477    10.7212    10.3383
  249.5000   134.4342    11.3493    10.9312
  250.0000   135.8001    11.2614    10.8769
  250.5000   138.3803    11.1943    10.8301
  251.0000   140.8680    11.1364    10.8920
  251.5000   143.3374    11.5005    10.9782
  252.0000   145.0475    11.8316    11.1483
  252.5000   140.8475    12.2964    11.9310
  253.0000   134.1491    13.5024    13.6065
  253.5000   122.7353    15.0634    15.4485
  254.0000   108.4858    16.8089    17.4911
  254.5000    92.5252    18.7553    19.8037
  255.0000    79.2969    20.9265    23.5368
  255.5000    70.4132    23.3507    27.3095
  256.0000    69.0384    26.0592    29.8488
  256.5000    74.3371    29.2831    30.8801
  257.0000    80.3976    30.2479    31.6628
  257.5000    85.8465    30.9555    32.1245
  258.0000    86.7405    30.7296    31.5432
  258.5000    84.3368    30.3854    30.9519
  259.0000    80.6173    30.7766    31.4969
  259.5000    76.8798    31.2648    32.0225
  260.0000    73.1469    31.7553    34.2836
  260.5000    69.4017    32.8974    36.2539
  261.0000    66.0476    34.0960    37.9784
  261.5000    67.0507    34.9433    37.5275
  262.0000    71.3042    34.5883    36.6503
  262.5000    76.3401    34.1053    35.7001
  263.0000    81.3915    33.6341    34.2585
  263.5000    86.4236    32.8173    33.2300
  264.0000    90.8394    31.4660    32.5163
  264.5000    89.9325    30.9175    31.8304
  265.0000    85.8511    30.8263    31.6090
  265.5000    83.4989    30.7311    31.4002
  266.0000    85.4029    30.6621    31.2479
  266.5000    88.0865    31.3587    32.0722
  267.0000    90.0017    32.0219    32.7386
  267.5000    89.7188    32.6958    33.4190
  268.0000    89.4851    33.3822    34.1135
  268.5000    89.2172    34.1491    35.2052
  269.0000    88.3004    35.2654    36.4628
  269.5000    87.3435    36.4183    37.7653
  270.0000    86.3135    37.6089    39.1143
  270.5000    83.5777    38.8384    40.5115
  271.0000    80.7923    39.7849    41.9587
  271.5000    78.2794    40.8077    42.5803
  272.0000    78.5114    41.6773    42.8436
  272.5000    81.6911    39.9925    41.9086
  273.0000    85.8992    38.4386    40.0697
  273.5000    90.3876    36.4895    38.3140
  274.0000    95.9923    34.9309    36.6325
  274.5000    98.5403    34.2999    36.2539
  275.0000    96.6947    35.0865    36.2539
  275.5000    93.5049    35.9336    36.1622
  276.0000    91.3199    36.8844    35.5863
  276.5000    92.4344    37.9164    36.3429
  277.0000    92.4021    39.3184    37.5452
  277.5000    91.7057    41.7584    38.7017
  278.0000    92.4651    44.4917    40.4023
  278.5000    97.2594    48.4539    42.0644
  279.0000   102.7033    52.8182    45.7341
  279.5000   103.8635    57.5631    51.6499
  280.0000   102.5073    62.7333    58.3310
  280.5000   100.6482    66.8736    63.9850
  281.0000   101.7457    70.7898    68.5809
  281.5000   102.6033    71.9327    70.3735
  282.0000   101.3937    75.0305    72.1179
  282.5000    98.5249    77.6844    70.3471
  283.0000    95.6943    77.6844    70.1349
  283.5000    93.6394    72.8116    64.0006
  284.0000    94.1142    66.4272    59.3352
  284.5000    97.2824    60.5786    55.0099
  285.0000   100.7409    55.0991    50.9985
  285.5000   104.2053    52.4486    47.2776
  286.0000   107.6424    49.8435    43.8385
  286.5000   110.4789    48.2165    41.2918
  287.0000   107.7701    47.8606    41.2918
  287.5000   103.1282    47.5270    41.2918
  288.0000    96.4977    46.5725    41.2918
  288.5000    93.3029    45.5509    39.9652
  289.0000    90.0575    44.5480    38.7604
  289.5000    90.3344    43.7126    37.5919
  290.0000    92.7003    43.0229    36.7327
  290.5000    95.1147    42.4594    35.7247
  291.0000    97.5205    41.7362    34.7442
  291.5000   100.5252    40.5001    33.6845
  292.0000   104.5399    38.5312    32.2232
  292.5000   108.4955    36.6512    30.8254
  293.0000   109.3900    34.8672    29.5499
  293.5000   106.1514    33.3512    28.1217
  294.0000   103.5372    31.9690    26.8224
  294.5000   103.9547    30.6441    25.5830
  295.0000   104.4499    29.2765    24.4010
  295.5000   102.8068    28.8243    23.6420
  296.0000    99.3019    28.3414    23.9577
  296.5000    99.0336    27.9266    24.1975
  297.0000   102.4959    27.8068    24.4397
  297.5000   105.8201    27.6875    24.5374
  298.0000   104.1814    27.5686    24.0897
  298.5000   101.3783    27.4503    23.7755
  299.0000   102.5879    26.9954    23.4654
  299.5000   104.1663    26.4894    23.1593
  300.0000   102.6425    25.9446    22.8573
  300.5000   101.1136    26.3113    22.5559
  301.0000   103.0577    26.4890    22.3556
  301.5000   105.3387    26.6782    23.2214
  302.0000   104.2455    27.3786    24.0185
  302.5000    98.2508    28.1416    24.8407
  303.0000    92.8974    28.6755    25.7046
  303.5000    88.6555    29.2211    26.9320
  304.0000    84.3971    29.5499    26.2627
  304.5000    80.4134    28.9253    25.1861
  305.0000    82.3635    28.1897    24.1547
  305.5000    87.1832    27.0295    23.1674
  306.0000    92.0066    25.9171    22.2204
  306.5000    96.8191    24.8505    21.3121
  307.0000    97.3484    23.8277    20.4409
  307.5000    94.5983    22.8471    19.7176
  308.0000    91.9207    21.9068    19.2735
  308.5000    89.5649    20.9484    19.0459
  309.0000    89.6262    20.9707    18.8080
  309.5000    89.6240    21.0378    18.5679
  310.0000    90.8294    21.0845    18.6103
  310.5000    92.8675    21.1461    18.6580
  311.0000    94.2600    20.9613    18.7040
  311.5000    93.1447    20.6498    18.7403
  312.0000    89.7723    20.3446    18.2346
  312.5000    86.4431    20.0441    17.8301
  313.0000    86.9659    19.7480    17.4346
  313.5000    91.4601    19.4563    17.0756
  314.0000    97.6270    19.1690    16.9046
  314.5000   103.2906    18.8715    16.7460
  315.0000   106.1931    18.4588    16.5890
  315.5000   106.3053    18.0536    16.4117
  316.0000   105.3025    17.6550    16.0967
  316.5000   104.2122    17.2517    15.7874
  317.0000   103.1314    16.8500    15.4812
  317.5000   102.0203    16.7625    15.4175
  318.0000   102.9463    16.7625    15.4175
  318.5000   104.7777    16.7625    15.4162
  319.0000   104.0983    16.9191    15.4152
