~VERSION INFORMATION
 VERS.                2.0:   CWLS LOG ASCII STANDARD - VERSION 2.0
 WRAP.                 NO:   ONE LINE PER DEPTH STEP
~WELL INFORMATION
#MNEM.UNIT      DATA TYPE    INFORMATION
#----------   ------------   ------------------------------
 STRT.F           30.0000:   START DEPTH
 STOP.F          759.0000:   STOP DEPTH
 STEP.F            0.5000:   STEP LENGTH
 NULL.          -999.2500:   NO VALUE
 COMP. FENIX & SCISSON INC:   COMPANY
 WELL.    NPR ##3 15-S-14:   WELL
 FLD .             TEAPOT:   FIELD
 LOC .      S14 T38N R78W:   LOCATION
 CNTY.            NATRONA:   COUNTY
 STAT.            WYOMING:   STATE
 CTRY. UNITED STATES OF AMERICA:   COUNTRY
 SRVC.              Welex:   SERVICE COMPANY
 DATE.        23-FEB-1977:   LOGDATE
 API .       490251027600:   API NUMBER
~CURVE INFORMATION
#MNEM.UNIT       API CODE    CURVE DESCRIPTION
#----------   ------------   ------------------------------
 DEPT.F                  :   
 GURD.OHMM   07 220 05 00:   SHALLOW SHORT GUARD RESISTIVITY
 ILD .OHMM   07 120 46 00:   INDUCTION LOG DEEP
 ILM .OHMM   07 120 44 00:   INDUCTION LOG MEDIUM
 SPR .MV     07 010 01 00:   SPONTANEOUS POTENTIAL
 CALD.IN     45 280 60 00:   CALIPER FROM DENSITY LOG
 CORR.G/C3   45 356 01 00:   DENSITY CORRECTION
 DPHI.DEC    45 890 12 00:   DENSITY POROSITY SANDSTONE
 GRD .GAPI   45 310 01 00:   GAMMA RAY FROM DENSITY LOG
 RHOB.G/C3   45 350 01 00:   BULK DENSITY
~PARAMETER INFORMATION
#MNEM.UNIT          VALUE    DESCRIPTION
#----------   ------------   ------------------------------
 PD  .                 GL:   PERMANENT DATUM
 EPD .F            5229.2:   ELEVATION PERMANENT DATUM
 LMF .                 GL:   LOG MEASURED FROM
 DMF .                 GL:   DRILLING MEASURED FROM
 EGL .F            5229.2:   GROUND LEVEL
 DATE.        23-FEB-1977:   RUN DATE
 RUN .                  1:   RUN NUMBER
 DD  .F               764:   DEPTH DRILLER
 DL  .F               762:   DEPTH LOGGER
 BLI .F               760:   BOTTOM LOG INTERVAL
 TLI .F                40:   TOP LOG INTERVAL
 CS  .IN            8.625:   CASING SIZE
 CBD .F                40:   CASING BOTTOM DRILLER
 CBL .F                40:   CASING BOTTOM LOGGER
 BS  .IN            7.875:   BIT SIZE
 BSD .F               764:   BIT SIZE AT DEPTH
 DFT .           CHEM/GEL:   DRILLING FLUID TYPE
 DFD .                9.4:   DRILLING FLUID DENSITY
 DFV .                 50:   DRILLING FLUID VISCOSITY
 DFPH.               11.0:   DRILLING FLUID PH
 DFL .               12.2:   DRILLING FLUID LOSS
 MSS .           FLOWLINE:   MUD SAMPLE SOURCE
 RMS .OHMM           0.23:   RESISTIVITY MUD SAMPLE
 MST .F                38:   MUD SAMPLE TEMPERATURE
 RMF .OHMM           0.15:   RESISTIVITY MUD FILTRATE SAMPLE
 MFST.F                38:   MUD FILTRATE SAMPLE TEMPERATURE
 RMC .OHMM           0.54:   RESISTIVITY MUD CAKE
 MCST.F                38:   MUD CAKE SAMPLE TEMPERATURE
 MFSS.               MEAS:   MUD FILTRATE SAMPLE SOURCE
 MCSS.               MEAS:   MUD CAKE SAMPLE SOURCE
 RMB .OHMM           .148:   RESISTIVITY MUD AT BHT
 BHT .F                59:   BOTTOM HOLE TEMPERATURE
 TCS .HRS               2:   TIME CURCULATED STOPPED
 MRT .F                59:   MAXIMUM RECORDED TEMPERATURE
 LUN .               8611:   LOGGING UNIT NUMBER
 LUL .           GILLETTE:   LOGGING UNIT LOCATION
 ENGI.             C.DOAK:   RECORDING ENGINEER
 WITN.         STUEBINGER:   WITNESSED BY
 CLNT.            A2DTECH:   CLIENT CODE
 ORIG.           5" PRINT:   ORIGIN OF DATA
 UWI .       490251027600:   UNIQUE WELL ID
 DICO. A2D Technologies, Inc.:   DIGITIZING COMPANY
~OTHER INFORMATION
~A   DEPT     GURD        ILD        ILM        SPR         CALD      CORR      DPHI         GRD        RHOB 
# ...
  139.5000    16.3120    11.4771    10.8508   -31.0164     8.2370     0.1123     0.1174    89.0765     2.4616
  140.0000    15.5136    11.0117    10.5454   -31.8798     8.2369     0.1108     0.1221    87.5780     2.4511
  140.5000    12.1092    10.0671    10.7019   -32.7709     8.2517     0.1093     0.1215    85.1835     2.4458
  141.0000    11.0781     8.5309    11.1549   -33.5128     8.2516     0.1108     0.1206    87.2732     2.4481
  141.5000    10.4824     7.6332    11.0781   -34.4040     8.2664     0.1138     0.1203    89.5131     2.4511
  142.0000     9.5159     6.6789     8.5200   -35.2951     8.2662     0.1183     0.1221    89.3607     2.4501
  142.5000     8.4613     5.7970     6.9729   -35.8877     8.2661     0.1228     0.1269    91.7487     2.4367
  143.0000     7.1190     5.2997     6.4626   -36.0337     8.2810     0.1213     0.1341    96.6785     2.4106
  143.5000     6.6437     5.1200     6.3739   -35.4312     8.2808     0.1183     0.1455   105.6441     2.3761
  144.0000     7.3185     5.0848     7.0213   -34.6805     8.2807     0.1123     0.1697   111.8819     2.3282
  144.5000    11.5470     5.1554     8.2306   -33.9229     8.2784     0.1048     0.1919   118.6422     2.3199
  145.0000    12.8140     5.3733     8.5870   -33.1592     8.2804     0.1018     0.2003   121.9285     2.3229
  145.5000    13.1669     5.9182     8.9521   -32.5448     8.2802     0.1019     0.1961   115.0827     2.3349
  146.0000    13.0763     6.6089     9.9187   -31.8261     8.2801     0.1065     0.1749   106.6753     2.3708
  146.5000    12.8968     7.2291    11.0018   -31.2247     8.2799     0.1123     0.1295    89.1835     2.4308
  147.0000    12.9862     7.8673    11.7889   -30.6233     8.2947     0.1153     0.1173    85.7426     2.4622
  147.5000    13.1669     8.8303    12.3731   -29.8727     8.2946     0.1168     0.1159    83.9460     2.4562
  148.0000    13.5736     9.4610    12.6322   -29.2713     8.3095     0.1168     0.1186    83.7943     2.4442
  148.5000    13.9060    10.0671    12.8968   -28.8191     8.3093     0.1153     0.1206    87.3780     2.4457
  149.0000    14.2385    10.4925    13.1669   -28.3670     8.3091     0.1153     0.1150    89.4678     2.4622
  149.5000    14.6048    10.9360    13.5034   -27.9148     8.3090     0.1153     0.1186    88.8669     2.4569
  150.0000    14.7061    11.3198    13.8323   -27.4627     8.3088     0.1153     0.1232    84.8281     2.4412
  150.5000    14.9107    11.6038    14.1612   -26.9975     8.3237     0.1138     0.1293    83.0314     2.4260
  151.0000    15.2230    11.8981    14.5063   -26.5323     8.3068     0.1132     0.1304    84.1504     2.4225
  151.5000    15.2318    12.1925    14.6079   -26.2082     8.2979     0.1108     0.1280    86.9112     2.4359
  152.0000    15.0141    12.4868    14.8121   -25.9515     8.2889     0.1063     0.1274    88.2536     2.4337
  152.5000    14.9107    12.7812    14.9159   -25.7979     8.2800     0.1033     0.1322    86.0085     2.4269
  153.0000    14.9279    12.9000    15.0203   -25.6443     8.2710     0.1048     0.1403    83.9128     2.4022
  153.5000    15.2230    12.8989    15.0352   -25.6518     8.2823     0.1063     0.1418    83.1625     2.3940
  154.0000    15.4348    12.8981    15.2316   -25.6765     8.2657     0.1075     0.1358    84.9533     2.4209
  154.5000    15.7581    12.8972    15.3383   -25.7013     8.2487     0.1089     0.1325    86.8936     2.4314
  155.0000    15.9774    12.8963    15.3393   -25.7261     8.2321     0.1104     0.1304    88.5914     2.4306
  155.5000    17.2391    12.9847    15.3404   -25.7508     8.2155     0.1119     0.1257    90.8674     2.4336
  156.0000    19.6575    12.8946    15.2355   -25.7756     8.2139     0.1155     0.1203    93.3846     2.4479
  156.5000    18.9900    12.8937    15.2368   -25.8003     8.2124     0.1170     0.1172    94.8823     2.4638
  157.0000    17.3586    12.8928    15.3435   -25.8251     8.2258     0.1185     0.1151    95.6319     2.4687
  157.5000    16.5390    12.8919    15.5581   -25.8433     8.2241     0.1185     0.1137    92.3471     2.4627
  158.0000    16.5390    12.9803    15.8850   -25.6954     8.2376     0.1200     0.1164    88.3141     2.4567
  158.5000    17.1402    13.0779    16.2188   -25.6973     8.2510     0.1215     0.1221    88.6160     2.4499
  159.0000    17.7427    13.2498    16.2199   -25.5491     8.2789     0.1215     0.1263    91.0105     2.4417
  159.5000    18.3451    13.5259    16.1093   -25.5510     8.2923     0.1215     0.1257    92.6577     2.4327
  160.0000    18.2188    13.8079    16.1104   -25.7017     8.2907     0.1186     0.1233    90.8172     2.4289
  160.5000    17.7222    13.9988    16.2307   -26.0016     8.3042     0.1171     0.1215    88.4096     2.4446
  161.0000    17.7222    14.1925    16.4653   -26.3016     8.3026     0.1156     0.1203    86.2397     2.4506
  161.5000    18.3451    14.5884    16.9125   -26.4523     8.3159     0.1126     0.1191    85.1963     2.4521
  162.0000    19.2542    14.9956    17.6296   -26.3045     8.3293     0.1096     0.1179    84.9003     2.4528
  162.5000    20.6316    15.6283    18.5045   -26.1567     8.3423     0.1082     0.1145    85.0527     2.4588
  163.0000    23.0433    16.2877    21.8436   -26.1582     8.3258     0.1067     0.1105    86.2514     2.4696
  163.5000    26.8264    17.0925    23.0866   -26.1597     8.3242     0.1067     0.1017    84.9091     2.4919
  164.0000    34.8811    17.3288    23.8997   -26.1612     8.3076     0.1097     0.0897    82.6698     2.5239
  164.5000    46.1477    17.6900    24.2339   -26.1630     8.3132     0.1142     0.0664    79.6832     2.5471
  165.0000    50.7734    17.8112    24.5728   -26.1645     8.3194     0.1203     0.0550    75.7998     2.5666
  165.5000    49.2751    17.7891    24.2372   -25.8670     8.3174     0.1279     0.0487    72.6487     2.5726
  166.0000    24.1853    17.3238    22.7775   -25.2719     8.3158     0.1352     0.0469    69.7947     2.5711
  166.5000    19.3877    16.8511    20.3950   -24.9748     8.3296     0.1397     0.0526    76.7061     2.5598
  167.0000    17.3586    16.2786    18.2617   -24.9763     8.3276     0.1412     0.0622    79.9975     2.5396
  167.5000    14.8080    15.8344    17.5213   -25.4255     8.3414     0.1412     0.0766    86.5774     2.5126
  168.0000    13.7243    15.6164    17.5306   -25.8747     8.3394     0.1398     0.1080    91.5131     2.4864
  168.5000    17.2391    15.4014    18.1733   -26.6225     8.3378     0.1368     0.1198    94.6550     2.4556
  169.0000    19.9310    15.2944    19.1722   -27.3702     8.3208     0.1353     0.1196    94.3590     2.4481
  169.5000    19.9425    15.2934    19.0415   -27.8194     8.3042     0.1323     0.1176    92.8672     2.4466
  170.0000    17.9688    15.3982    18.0187   -28.4278     8.2876     0.1308     0.1170    90.4785     2.4488
  170.5000    15.8492    15.3972    17.1691   -28.8885     8.2860     0.1279     0.1174    90.7803     2.4533
  171.0000    15.7581    15.5027    16.5869   -29.1674     8.2998     0.1249     0.1192    92.8760     2.4563
  171.5000    17.2391    15.6090    16.7034   -29.7659     8.3129     0.1241     0.1225    95.7459     2.4465
  172.0000    18.2188    15.6079    17.1726   -30.3644     8.2961     0.1204     0.1287    97.4539     2.4345
  172.5000    19.1216    15.4835    17.2929   -30.9629     8.2796     0.1185     0.1347    95.7255     2.4195
  173.0000    19.7938    15.0764    16.9392   -31.4121     8.2777     0.1130     0.1383    92.7389     2.4105
  173.5000    19.1216    14.8688    16.1405   -32.3091     8.2761     0.1070     0.1341    90.7986     2.4188
  174.0000    17.8450    14.4631    15.4861   -33.3553     8.2899     0.1010     0.1306    93.9406     2.4285
  174.5000    16.4251    14.0685    15.2746   -34.5508     8.3033     0.0980     0.1325    95.4383     2.4247
  175.0000    15.6496    13.6846    15.1705   -35.8956     8.3163     0.0951     0.1380    96.0391     2.4165
  175.5000    15.7581    13.0385    14.5488   -37.0911     8.3147     0.0936     0.1414    95.4441     2.4119
