~VERSION INFORMATION
 VERS.                2.0:   CWLS LOG ASCII STANDARD - VERSION 2.0
 WRAP.                 NO:   ONE LINE PER DEPTH STEP
~WELL INFORMATION
#MNEM.UNIT      DATA TYPE    INFORMATION
#----------   ------------   ------------------------------
 STRT.F           67.0000:   START DEPTH
 STOP.F          812.0000:   STOP DEPTH
 STEP.F            0.5000:   STEP LENGTH
 NULL.          -999.2500:   NO VALUE
 COMP. U S NAVY-INTEX OIL:   COMPANY
 WELL.  N.P.R. #3 #48-S-2:   WELL
 FLD .             TEAPOT:   FIELD
 LOC .       S2 T38N R78W:   LOCATION
 CNTY.            NATRONA:   COUNTY
 STAT.            WYOMING:   STATE
 CTRY. UNITED STATES OF AMERICA:   COUNTRY
 SRVC.      NL McCullough:   SERVICE COMPANY
 DATE.        11-AUG-1961:   LOGDATE
 API .       490250639200:   API NUMBER
~CURVE INFORMATION
#MNEM.UNIT       API CODE    CURVE DESCRIPTION
#----------   ------------   ------------------------------
 DEPT.F                  :   
 GRN .MG/TON 35 310 01 00:   GAMMA RAY
 NEUT.CPS    35 330 30 00:   NEUTRON
~PARAMETER INFORMATION
#MNEM.UNIT          VALUE    DESCRIPTION
#----------   ------------   ------------------------------
 PD  .                 GL:   PERMANENT DATUM
 EPD .F              5168:   ELEVATION PERMANENT DATUM
 LMF .                 KB:   LOG MEASURED FROM
 DAPD.F                 6:   FEET ABOVE PERMANENT DATUM
 DMF .                 KB:   DRILLING MEASURED FROM
 EKB .F              5174:   KELLING BUSHING
 EGL .F              5168:   GROUND LEVEL
 DATE.          8-11-1961:   RUN DATE
 RUN .                  1:   RUN NUMBER
 DD  .F               810:   DEPTH DRILLER
 DL  .F            813.75:   DEPTH LOGGER
 BLI .F               812:   BOTTOM LOG INTERVAL
 TLI .F                80:   TOP LOG INTERVAL
 BSD .F               810:   BIT SIZE AT DEPTH
 DFT .       OIL EMULSION:   DRILLING FLUID TYPE
 TCS .HRS               1:   TIME CURCULATED STOPPED
 ENGI.            JACKSON:   RECORDING ENGINEER
 WITN.          JORGENSON:   WITNESSED BY
 CLNT.            A2DTECH:   CLIENT CODE
 ORIG.        2" 5" PRINT:   ORIGIN OF DATA
 UWI .       490250639200:   UNIQUE WELL ID
 DICO. A2D Technologies, Inc.:   DIGITIZING COMPANY
~OTHER INFORMATION
~A   DEPT        GRN     NEUT   
# ...
  431.5000     6.0197   406.3248
  432.0000     5.9325   400.9376
  432.5000     5.9160   395.5627
  433.0000     5.9950   390.1869
  433.5000     6.0741   384.8062
  434.0000     6.1599   379.4426
  434.5000     6.1100   374.0478
  435.0000     6.0543   368.1543
  435.5000     6.0526   368.1265
  436.0000     6.1311   371.7132
  436.5000     6.1509   375.6639
  437.0000     6.0755   379.6761
  437.5000     5.9915   384.1201
  438.0000     6.0334   381.9821
  438.5000     6.1471   379.4673
  439.0000     6.2335   377.0121
  439.5000     6.2732   374.1387
  440.0000     6.3184   369.7946
  440.5000     6.5029   364.6604
  441.0000     6.7198   359.5680
  441.5000     6.9372   357.7380
  442.0000     7.0471   362.4466
  442.5000     6.9420   367.1219
  443.0000     6.8365   371.8279
  443.5000     6.7791   376.5085
  444.0000     6.8240   382.1119
  444.5000     6.8693   395.6048
  445.0000     6.9233   412.3058
  445.5000     7.0811   424.7133
  446.0000     7.1922   426.9896
  446.5000     7.0933   429.2561
  447.0000     6.9949   432.0275
  447.5000     6.8959   427.3851
  448.0000     6.8335   421.4153
  448.5000     6.8657   415.4626
  449.0000     6.8994   408.0483
  449.5000     6.8616   399.4744
  450.0000     6.6224   388.1310
  450.5000     6.3814   376.8331
  451.0000     6.2001   365.4851
  451.5000     6.2808   354.1898
  452.0000     6.3475   351.1485
  452.5000     6.4123   351.1806
  453.0000     6.4789   353.2475
  453.5000     6.5441   354.9766
  454.0000     6.5965   356.6570
  454.5000     6.6344   354.0074
  455.0000     6.6662   349.5190
  455.5000     6.6273   345.0612
  456.0000     6.5584   340.5770
  456.5000     6.4892   339.1916
  457.0000     6.5584   339.1821
  457.5000     6.6916   342.8980
  458.0000     6.6659   348.3471
  458.5000     6.5633   353.8203
  459.0000     6.4605   359.2642
  459.5000     6.3581   360.9120
  460.0000     6.2554   360.5234
  460.5000     6.2095   360.1893
  461.0000     6.2923   359.7873
  461.5000     6.3648   359.4726
  462.0000     6.4371   359.0624
  462.5000     6.5095   358.7558
  463.0000     6.5818   358.3349
  463.5000     6.6541   358.0305
  464.0000     6.7266   357.6086
  464.5000     6.6862   357.3045
  465.0000     6.5737   369.0924
  465.5000     6.4607   369.8775
  466.0000     6.3584   369.3991
  466.5000     6.4115   368.9936
  467.0000     6.5025   368.5290
  467.5000     6.5862   368.1365
  468.0000     6.5241   354.4594
  468.5000     6.5027   341.7441
  469.0000     6.5480   338.8087
  469.5000     6.5930   343.4258
  470.0000     6.6360   348.0893
  470.5000     6.5115   348.7016
  471.0000     6.4754   346.0871
  471.5000     6.5080   343.3986
  472.0000     6.5413   342.2019
  472.5000     6.5736   349.0729
  473.0000     6.6066   355.8246
  473.5000     6.6519   362.4847
  474.0000     6.6983   369.1678
  474.5000     6.7426   370.7278
  475.0000     6.7892   372.3598
  475.5000     6.8334   379.0403
  476.0000     6.6578   390.9932
  476.5000     6.6794   403.0477
  477.0000     6.7038   407.9737
  477.5000     6.7134   413.0339
  478.0000     6.7121   411.3465
  478.5000     6.7085   407.6789
  479.0000     6.7070   404.0585
  479.5000     6.6416   405.9273
  480.0000     6.6024   414.3895
  480.5000     6.6806   419.0551
  481.0000     6.7649   418.6907
  481.5000     6.7272   418.2971
  482.0000     6.6856   418.0797
  482.5000     6.5520   412.5347
  483.0000     6.3980   402.9113
  483.5000     6.4488   388.2522
  484.0000     6.5053   373.6109
  484.5000     6.5659   358.9418
  485.0000     6.5665   352.4183
  485.5000     6.5661   357.9123
  486.0000     6.5253   363.4623
  486.5000     6.4196   368.9499
  487.0000     6.3148   375.1746
  487.5000     6.2222   387.5456
  488.0000     6.1521   401.6963
  488.5000     6.0813   415.7673
  489.0000     6.0013   429.9125
  489.5000     5.9614   446.0458
  490.0000     5.8728   450.0350
  490.5000     5.7048   454.6472
  491.0000     5.6030   460.0379
  491.5000     5.6275   457.4311
  492.0000     5.6524   454.3338
  492.5000     5.6768   451.2453
  493.0000     5.7334   448.1372
  493.5000     5.8565   449.0432
  494.0000     5.9209   458.7226
  494.5000     5.8541   470.6792
  495.0000     5.7876   480.2915
  495.5000     5.7208   484.7059
  496.0000     5.6986   489.9646
  496.5000     5.7840   494.4886
  497.0000     5.8696   500.1395
  497.5000     5.9178   505.8552
  498.0000     5.8683   507.3520
  498.5000     5.8396   497.7537
  499.0000     5.8671   488.1068
  499.5000     5.9016   478.4932
  500.0000     5.7710   468.8593
  500.5000     5.5546   459.2329
  501.0000     5.6111   452.0508
  501.5000     5.6865   452.0407
  502.0000     5.7431   452.7774
  502.5000     5.6164   455.5154
  503.0000     5.4061   458.2966
  503.5000     5.4204   461.0166
  504.0000     5.4409   468.5956
  504.5000     5.4649   489.0697
  505.0000     5.3582   506.0772
  505.5000     5.1771   513.5222
  506.0000     5.1964   517.3252
  506.5000     5.2186   511.2384
  507.0000     5.2382   504.0285
  507.5000     5.4842   501.9380
  508.0000     5.4862   494.8955
  508.5000     5.4320   473.5728
  509.0000     5.3475   448.1096
  509.5000     5.4107   458.8408
  510.0000     5.5002   472.5498
  510.5000     5.5634   481.2685
  511.0000     5.4911   479.0451
  511.5000     5.4445   476.6605
  512.0000     5.5827   474.4221
  512.5000     5.6579   472.0624
  513.0000     5.4065   469.8108
  513.5000     5.3952   467.0394
  514.0000     5.3221   469.5295
  514.5000     5.2765   472.5088
  515.0000     5.3814   475.5146
  515.5000     5.4642   478.5117
  516.0000     5.5479   482.0081
  516.5000     5.6309   479.7302
  517.0000     5.6935   476.9510
  517.5000     5.5262   474.2386
  518.0000     5.4257   471.0079
  518.5000     5.4979   475.4774
  519.0000     5.5550   480.6685
  519.5000     5.6128   485.9973
  520.0000     5.6701   491.1666
  520.5000     5.7134   496.5141
  521.0000     5.7597   501.6620
  521.5000     5.7970   507.0278
  522.0000     5.8342   512.8978
  522.5000     5.8619   499.8152
  523.0000     5.8747   484.3453
  523.5000     5.8817   467.0923
  524.0000     6.0188   466.9759
  524.5000     6.1268   467.6561
  525.0000     6.2099   469.0958
  525.5000     6.2402   470.7255
  526.0000     6.2674   472.1908
  526.5000     6.2974   473.7992
  527.0000     6.0615   475.2906
  527.5000     5.9888   477.0475
  528.0000     5.8732   472.8178
  528.5000     5.9360   468.1083
  529.0000     6.0247   463.3620
  529.5000     6.1091   458.6427
  530.0000     6.1974   453.9017
  530.5000     6.2823   451.0669
  531.0000     6.3485   451.0555
  531.5000     6.3773   451.0534
  532.0000     6.3465   451.0497
  532.5000     6.3208   451.0527
  533.0000     6.2958   456.1120
  533.5000     6.2705   463.5234
  534.0000     6.2389   470.9286
  534.5000     6.2391   478.3397
  535.0000     6.3544   485.7473
  535.5000     6.4474   488.6729
  536.0000     6.5393   485.5519
  536.5000     6.6558   482.4364
  537.0000     6.3911   479.3140
  537.5000     5.9518   476.0061
  538.0000     5.9189   468.4922
  538.5000     5.8766   460.4879
  539.0000     5.8224   452.4777
  539.5000     5.7753   444.0540
  540.0000     5.7115   441.7772
  540.5000     5.6639   439.3740
  541.0000     5.6887   439.7360
  541.5000     5.7084   443.3909
  542.0000     5.7285   447.0785
  542.5000     5.7479   453.6518
  543.0000     5.7634   463.6983
  543.5000     5.7442   463.9333
  544.0000     5.7337   453.1163
  544.5000     5.9711   442.1942
  545.0000     5.9893   431.1176
  545.5000     6.0127   428.1171
  546.0000     6.0308   425.1243
  546.5000     6.2241   425.0490
  547.0000     6.4173   426.6031
  547.5000     6.2986   428.0292
  548.0000     6.1393   429.6095
  548.5000     5.9419   431.0414
  549.0000     5.9074   418.7971
  549.5000     5.8528   406.3163
  550.0000     5.8664   404.2602
  550.5000     5.8875   412.4040
  551.0000     5.9111   420.6676
  551.5000     5.9003   428.8192
  552.0000     5.8834   437.0705
  552.5000     5.8725   438.2982
