~VERSION INFORMATION
 VERS.                2.0:   CWLS LOG ASCII STANDARD - VERSION 2.0
 WRAP.                 NO:   ONE LINE PER DEPTH STEP
~WELL INFORMATION
#MNEM.UNIT      DATA TYPE    INFORMATION
#----------   ------------   ------------------------------
 STRT.F           28.0000:   START DEPTH
 STOP.F          791.0000:   STOP DEPTH
 STEP.F            0.5000:   STEP LENGTH
 NULL.          -999.2500:   NO VALUE
 COMP. LAWRENCE/ALLISON INC:   COMPANY
 WELL.    34-61 SX #11-11:   WELL
 FLD .             TEAPOT:   FIELD
 LOC .      S11 T38N R78W:   LOCATION
 CNTY.            NATRONA:   COUNTY
 STAT.            WYOMING:   STATE
 CTRY. UNITED STATES OF AMERICA:   COUNTRY
 SRVC.           Gearhart:   SERVICE COMPANY
 DATE.        29-JUL-1987:   LOGDATE
 API .       490251112500:   API NUMBER
~CURVE INFORMATION
#MNEM.UNIT       API CODE    CURVE DESCRIPTION
#----------   ------------   ------------------------------
 DEPT.F                  :   
 GRR .GAPI   07 310 01 00:   GAMMA RAY FROM RESISTIVITY
 RILD.OHMM   07 120 46 00:   RESISTIVITY INDUCTION LOG DEEP
 RILM.OHMM   07 120 44 00:   RESISTIVITY INDUCTION LOG MEDIUM
 RLL .OHMM   07 220 00 00:   RESISTIVITY LATEROLOG
~PARAMETER INFORMATION
#MNEM.UNIT          VALUE    DESCRIPTION
#----------   ------------   ------------------------------
 PD  .                 GL:   PERMANENT DATUM
 EPD .F              5172:   ELEVATION PERMANENT DATUM
 LMF .                 KB:   LOG MEASURED FROM
 DAPD.F                 7:   FEET ABOVE PERMANENT DATUM
 DMF .                 KB:   DRILLING MEASURED FROM
 EKB .F              5180:   KELLING BUSHING
 EDF .F              5178:   DRILLING FLOOR
 EGL .F              5172:   GROUND LEVEL
 DATE.        29-JUL-1987:   RUN DATE
 RUN .                  1:   RUN NUMBER
 DD  .F               793:   DEPTH DRILLER
 DL  .F               792:   DEPTH LOGGER
 BLI .F               791:   BOTTOM LOG INTERVAL
 TLI .F                30:   TOP LOG INTERVAL
 CS  .IN            8.625:   CASING SIZE
 CBL .F                50:   CASING BOTTOM LOGGER
 BS  .IN            7.875:   BIT SIZE
 BSD .F               793:   BIT SIZE AT DEPTH
 DFT .                MUD:   DRILLING FLUID TYPE
 DFD .                0.5:   DRILLING FLUID DENSITY
 MSS .           FLOWLINE:   MUD SAMPLE SOURCE
 RMS .OHMM           1.92:   RESISTIVITY MUD SAMPLE
 MST .F                71:   MUD SAMPLE TEMPERATURE
 RMF .OHMM            1.4:   RESISTIVITY MUD FILTRATE SAMPLE
 MFST.F                72:   MUD FILTRATE SAMPLE TEMPERATURE
 RMC .OHMM            2.2:   RESISTIVITY MUD CAKE
 MCST.F                72:   MUD CAKE SAMPLE TEMPERATURE
 MFSS.              CHART:   MUD FILTRATE SAMPLE SOURCE
 MCSS.              CHART:   MUD CAKE SAMPLE SOURCE
 TCS .HRS            2200:   TIME CURCULATED STOPPED
 MRT .F                60:   MAXIMUM RECORDED TEMPERATURE
 LUN .               7397:   LOGGING UNIT NUMBER
 LUL .           GILLETTE:   LOGGING UNIT LOCATION
 ENGI.         WEATHERMON:   RECORDING ENGINEER
 WITN.             STRONG:   WITNESSED BY
 CLNT.            A2DTECH:   CLIENT CODE
 ORIG.           5" PRINT:   ORIGIN OF DATA
 UWI .       490251112500:   UNIQUE WELL ID
 DICO. A2D Technologies, Inc.:   DIGITIZING COMPANY
~OTHER INFORMATION
~A   DEPT      GRR       RILD       RILM        RLL   
# ...
  466.0000    80.1223     8.2306     8.2168     8.2069
  466.5000    79.5107     8.2884     8.2150     8.2580
  467.0000    80.7686     8.2878     8.2130     8.2566
  467.5000    82.8746     8.2873     8.2113     8.3145
  468.0000    84.0979     8.2867     8.2685     8.3723
  468.5000    84.4037     8.3451     8.2589     8.3712
  469.0000    84.0979     8.4038     8.2647     8.3700
  469.5000    83.4862     8.4031     8.2626     8.3686
  470.0000    82.8746     8.3432     8.2026     8.3083
  470.5000    84.7095     8.3427     8.2009     8.3072
  471.0000    85.0153     8.2832     8.1992     8.2473
  471.5000    83.1804     8.2826     8.1976     8.1879
  472.0000    80.7339     8.2236     8.1379     8.1867
  472.5000    80.1223     8.1648     8.0784     8.1275
  473.0000    81.7452     8.1067     8.0768     8.0689
  473.5000    85.3211     8.0489     7.9614     7.9541
  474.0000    87.4618     7.9915     7.8477     7.8968
  474.5000    86.8502     7.8785     7.7907     7.8399
  475.0000    85.9327     7.7122     7.5174     7.7281
  475.5000    85.0143     7.5495     7.2029     7.6182
  476.0000    83.7920     7.2348     6.9015     7.4567
  476.5000    83.4862     6.4134     6.4278     7.2471
  477.0000    83.1804     5.6451     5.9866     6.9935
  477.5000    83.7920     5.1823     5.6513     6.6995
  478.0000    84.0979     4.4047     5.1927     6.2855
  478.5000    83.4791     3.9603     4.6349     5.9378
  479.0000    82.5688     3.6116     4.0499     5.5697
  479.5000    82.5688     3.2936     3.6405     5.1144
  480.0000    84.0979     3.0250     3.1141     4.5973
  480.5000    87.1560     2.8566     2.7535     4.0712
  481.0000    89.6024     2.7004     2.5162     3.6624
  481.5000    88.3527     2.6434     2.4454     3.4844
  482.0000    80.1223     2.6620     2.4449     3.6874
  482.5000    77.3700     2.7578     2.4793     3.9301
  483.0000    77.6758     2.9184     2.5865     4.0715
  483.5000    79.5107     3.0922     2.7956     4.4104
  484.0000    81.3456     3.4344     3.2438     5.0002
  484.5000    80.7339     3.8193     3.6327     5.3671
  485.0000    80.1223     4.2472     3.9546     5.8434
  485.5000    81.6514     4.6898     4.4920     6.2279
  486.0000    84.7095     5.0337     4.9303     6.5441
  486.5000    86.5678     5.3327     5.3988     6.7353
  487.0000    87.1560     5.6772     5.7943     6.5887
  487.5000    88.0734     5.8815     6.0449     6.1366
  488.0000    90.8257     6.0074     6.3063     5.9640
  488.5000    93.2722     6.0070     6.1288     6.0057
  489.0000    91.1315     5.8803     5.9514     6.2217
  489.5000    89.2375     5.7156     5.7472     6.4959
  490.0000    88.0734     5.5162     5.5067     6.8694
  490.5000    88.6850     5.3617     5.3139     6.4436
  491.0000    91.1315     5.2486     5.1642     6.1305
  491.5000    93.8838     5.1016     4.9481     5.8326
  492.0000    95.7187     4.9587     4.7408     5.5492
  492.5000    95.3414     4.8501     4.6731     5.3172
  493.0000    91.7431     4.7516     4.7389     5.2789
  493.5000    88.6850     4.7513     4.8058     5.6661
  494.0000    86.8502     4.8875     4.9780     5.9539
  494.5000    86.2385     5.0994     5.1587     6.0811
  495.0000    88.0734     5.3205     5.4562     6.2111
  495.5000    90.9093     5.5961     5.7734     6.4408
  496.0000    92.9664     5.9162     6.0660     6.6661
  496.5000    88.6850     6.1727     6.3733     6.8570
  497.0000    86.5443     6.3948     6.5553     7.0533
  497.5000    87.7676     6.6721     6.7481     7.2553
  498.0000    89.6024     6.9613     6.9841     7.3580
  498.5000    91.8389     7.2631     7.1835     7.5153
  499.0000    93.8838     7.4713     7.3365     7.5678
  499.5000    92.6606     7.5774     7.4401     7.6749
  500.0000    91.1315     7.5686     7.5444     7.6737
  500.5000    90.4872     7.5216     7.5428     7.6721
  501.0000    89.6024     7.5200     7.4879     7.5620
  501.5000    90.2141     7.4654     7.4335     7.5070
  502.0000    92.6606     7.4112     7.3752     7.4524
  502.5000    95.4128     7.3052     7.3254     7.3982
  503.0000    96.0245     7.2522     7.2207     7.3443
  503.5000    92.0489     7.0982     7.1176     7.2909
  504.0000    89.2966     6.8984     7.0159     7.2378
  504.5000    87.7676     6.6569     6.9157     7.1344
  505.0000    87.4618     6.3276     6.8169     7.0808
  505.5000    87.8206     5.9614     6.6720     7.0241
  506.0000    88.3792     5.5333     6.4383     6.8810
  506.5000    88.0734     5.2645     6.0382     6.6871
  507.0000    87.7676     5.0802     5.5714     6.4527
  507.5000    88.3792     5.0077     4.9845     6.0953
  508.0000    89.6024     4.9362     4.6754     5.6365
  508.5000    91.1315     4.9352     4.5437     5.2867
  509.0000    89.2966     5.0046     4.6735     5.2111
  509.5000    86.5197     5.0749     4.9103     5.5143
  510.0000    84.7095     5.2246     5.2327     5.9270
  510.5000    87.4618     5.5227     5.6161     6.4668
  511.0000    90.2141     6.0543     5.9849     7.0142
  511.5000    92.9664     6.3608     6.2940     7.3177
  512.0000    95.1070     6.6356     6.7629     7.4211
  512.5000    97.2477     6.8253     7.0903     7.4724
  513.0000    98.4709     7.0200     7.2413     7.5241
  513.5000    99.3884     7.1690     7.3435     7.6300
  514.0000    99.0826     7.2698     7.4469     7.7371
  514.5000    97.8593     7.3720     7.4983     7.7355
  515.0000    97.2477     7.4229     7.6038     7.7338
  515.5000    95.7187     7.4741     7.6560     7.7319
  516.0000    93.5780     7.5257     7.7088     7.7303
  516.5000    92.9664     7.5772     7.7072     7.7287
  517.0000    93.2722     7.5757     7.6508     7.7271
  517.5000    94.4954     7.5206     7.6492     7.7255
  518.0000    95.4128     7.5191     7.5936     7.7239
  518.5000    93.8838     7.5175     7.4851     7.7223
  519.0000    92.9500     7.5159     7.4836     7.7207
  519.5000    92.3058     7.5144     7.4820     7.6645
  520.0000    91.7431     7.5125     7.4805     7.6086
  520.5000    90.8257     7.4579     7.4789     7.5529
  521.0000    90.2141     7.4563     7.4773     7.5514
  521.5000    91.7431     7.4548     7.4229     7.4964
  522.0000    94.8012     7.4006     7.4211     7.4949
  522.5000    99.3884     7.3469     7.3671     7.4933
  523.0000    97.5535     7.2420     7.3135     7.4388
  523.5000    93.8714     7.0876     7.2604     7.4372
  524.0000    90.7521     6.8343     7.2076     7.4357
  524.5000    90.2141     6.4615     6.9551     7.5438
  525.0000    92.3547     6.0183     6.4777     7.6466
  525.5000    94.4954     5.5660     5.9481     7.3781
  526.0000    93.8838     5.2582     5.4587     6.7745
  526.5000    92.6606     5.1102     5.1127     6.3541
  527.0000    95.4128     5.0017     4.7712     6.0449
  527.5000    99.0826     4.9654     4.7365     5.8745
  528.0000    98.1651     5.0352     4.8717     6.0424
  528.5000    95.6941     5.1452     5.1186     6.4854
  529.0000    95.4128     5.3266     5.3022     6.9609
  529.5000    96.6361     5.3634     5.4151     7.2108
  530.0000    98.7768     5.2121     5.3377     6.9576
  530.5000    96.3303     5.1015     4.9013     6.4339
  531.0000    94.1896     5.0287     4.5602     5.9495
  531.5000    92.9664     5.0636     4.4678     5.5803
  532.0000    93.2722     5.1711     4.5305     5.3847
  532.5000    93.5780     5.2811     4.7939     5.4605
  533.0000    93.8838     5.5108     5.1451     5.8608
  533.5000    94.1896     5.7126     5.6810     6.3804
  534.0000    91.7431     5.9110     5.9278     6.8495
  534.5000    91.4373     6.0796     6.1943     7.1006
  535.0000    92.9664     6.2531     6.5421     7.1431
  535.5000    95.4128     6.4315     6.8250     7.1925
  536.0000    98.1651     6.4762     7.0199     7.2422
  536.5000    99.6942     6.3384     7.1697     7.2403
  537.0000    97.5535     6.0733     6.9674     7.2388
  537.5000    96.3303     5.7375     6.4891     7.1353
  538.0000    94.4628     5.4893     5.8747     6.7881
  538.5000    93.8838     5.2302     5.3563     6.3669
