~VERSION INFORMATION
 VERS.                2.0:   CWLS LOG ASCII STANDARD - VERSION 2.0
 WRAP.                 NO:   ONE LINE PER DEPTH STEP
~WELL INFORMATION
#MNEM.UNIT      DATA TYPE    INFORMATION
#----------   ------------   ------------------------------
 STRT.F           10.0000:   START DEPTH
 STOP.F         2599.5000:   STOP DEPTH
 STEP.F            0.5000:   STEP LENGTH
 NULL.          -999.2500:   NO VALUE
 COMP. FENIX & SCISSON INC:   COMPANY
 WELL.   34-SHX-33 #34-33:   WELL
 FLD .             TEAPOT:   FIELD
 LOC .      S33 T39N R78W:   LOCATION
 CNTY.            NATRONA:   COUNTY
 STAT.            WYOMING:   STATE
 CTRY. UNITED STATES OF AMERICA:   COUNTRY
 SRVC.           BIRDWELL:   SERVICE COMPANY
 DATE.        20-FEB-1978:   LOGDATE
 API .       490251058400:   API NUMBER
~CURVE INFORMATION
#MNEM.UNIT       API CODE    CURVE DESCRIPTION
#----------   ------------   ------------------------------
 DEPT.F                  :   
 GR  .GAPI   30 310 01 00:   GAMMA RAY
 CALI.IN     70 280 01 00:   CALIPER
~PARAMETER INFORMATION
#MNEM.UNIT          VALUE    DESCRIPTION
#----------   ------------   ------------------------------
 PD  .                 GL:   PERMANENT DATUM
 EPD .F              5174:   ELEVATION PERMANENT DATUM
 LMF .                 KB:   LOG MEASURED FROM
 DAPD.F                10:   FEET ABOVE PERMANENT DATUM
 DMF .                 KB:   DRILLING MEASURED FROM
 EKB .F              5184:   KELLING BUSHING
 EGL .F              5174:   GROUND LEVEL
 DATE.            2-20-78:   RUN DATE
 RUN .                  1:   RUN NUMBER
 DD  .F              2590:   DEPTH DRILLER
 DL  .F              2600:   DEPTH LOGGER
 BLI .F              2600:   BOTTOM LOG INTERVAL
 CS  .IN            8.625:   CASING SIZE
 CBD .F               737:   CASING BOTTOM DRILLER
 BS  .IN            8.625:   BIT SIZE
 BSD .F              2590:   BIT SIZE AT DEPTH
 TCS .HRS               2:   TIME CURCULATED STOPPED
 LUL .             CASPER:   LOGGING UNIT LOCATION
 ENGI.             MILLER:   RECORDING ENGINEER
 WITN.           MCGINLEY:   WITNESSED BY
 CLNT.            A2DTECH:   CLIENT CODE
 ORIG.           5" PRINT:   ORIGIN OF DATA
 UWI .       490251058400:   UNIQUE WELL ID
 DICO. A2D Technologies, Inc.:   DIGITIZING COMPANY
~OTHER INFORMATION
~A   DEPT        GR      CALI   
# ...
 1468.0000   138.2950     8.8063
 1468.5000   137.0816     8.8964
 1469.0000   136.0135     9.1536
 1469.5000   136.6359     9.4097
 1470.0000   140.5172     9.4373
 1470.5000   142.3107     9.4522
 1471.0000   138.2384     9.4841
 1471.5000   135.1954     9.5336
 1472.0000   135.2298     9.6098
 1472.5000   135.9018     9.7169
 1473.0000   135.2670     9.8031
 1473.5000   134.5912     9.8090
 1474.0000   135.3209     9.8155
 1474.5000   138.7653     9.8607
 1475.0000   141.6487     9.7632
 1475.5000   138.3810     9.5767
 1476.0000   133.1459     9.4402
 1476.5000   130.4657     9.4196
 1477.0000   131.0634     9.4127
 1477.5000   132.8616     9.4059
 1478.0000   137.4539     9.4006
 1478.5000   142.5421     9.4129
 1479.0000   142.7999     9.4264
 1479.5000   142.8669     9.4380
 1480.0000   145.3071     9.3877
 1480.5000   146.7708     9.2376
 1481.0000   145.0347     9.2408
 1481.5000   144.5447     9.2412
 1482.0000   144.0413     9.2410
 1482.5000   142.4736     9.2410
 1483.0000   141.1225     9.2410
 1483.5000   140.4109     9.2419
 1484.0000   141.2869     9.2459
 1484.5000   146.7020     9.2499
 1485.0000   149.4978     9.2538
 1485.5000   148.3942     9.2577
 1486.0000   144.7089     9.2606
 1486.5000   140.1918     9.2579
 1487.0000   138.8612     9.2552
 1487.5000   137.7400     9.2526
 1488.0000   134.7510     9.2500
 1488.5000   133.3230     9.2473
 1489.0000   134.9877     9.2447
 1489.5000   136.3214     9.2421
 1490.0000   135.5205     9.2394
 1490.5000   134.4061     9.2368
 1491.0000   133.6515     9.2342
 1491.5000   133.6661     9.2316
 1492.0000   133.6635     9.2289
 1492.5000   134.5272     9.2263
 1493.0000   142.5074     9.2236
 1493.5000   149.6515     9.2213
 1494.0000   147.9424     9.2243
 1494.5000   144.6474     9.2276
 1495.0000   144.7037     9.2308
 1495.5000   144.5772     9.2339
 1496.0000   140.0904     9.2371
 1496.5000   134.9587     9.2403
 1497.0000   132.8738     9.2435
 1497.5000   133.7380     9.2467
 1498.0000   134.7957     9.2498
 1498.5000   134.3866     9.2530
 1499.0000   134.1189     9.2562
 1499.5000   134.7012     9.2594
 1500.0000   136.4015     9.2609
 1500.5000   138.4894     9.2610
 1501.0000   141.6519     9.2610
 1501.5000   144.4343     9.2610
 1502.0000   147.1405     9.2610
 1502.5000   147.0239     9.2610
 1503.0000   142.0246     9.2610
 1503.5000   136.3414     9.2610
 1504.0000   134.0470     9.2610
 1504.5000   135.4111     9.2610
 1505.0000   137.0973     9.2610
 1505.5000   138.8151     9.2610
 1506.0000   139.7095     9.2610
 1506.5000   139.9172     9.2610
 1507.0000   140.1262     9.2610
 1507.5000   140.3694     9.2610
 1508.0000   139.0458     9.2610
 1508.5000   136.4876     9.2610
 1509.0000   133.8052     9.2610
 1509.5000   132.1639     9.2609
 1510.0000   131.3096     9.2608
 1510.5000   131.7549     9.2453
 1511.0000   134.6832     9.2188
 1511.5000   137.7195     9.1923
 1512.0000   140.6562     9.1653
 1512.5000   139.1130     9.1371
 1513.0000   137.3032     9.0983
 1513.5000   137.2113     8.7847
 1514.0000   137.2134     8.8749
 1514.5000   137.2967     9.0402
 1515.0000   138.8309     9.1555
 1515.5000   139.4682     9.2388
 1516.0000   134.7723     9.2416
 1516.5000   128.4238     9.2412
 1517.0000   122.0604     9.2411
 1517.5000   120.7447     9.2410
 1518.0000   128.6093     9.2348
 1518.5000   137.9948     9.1862
 1519.0000   143.3103     9.1616
 1519.5000   144.5469     9.1615
 1520.0000   145.2965     9.1613
 1520.5000   147.1229     9.1613
 1521.0000   148.3826     9.1613
 1521.5000   148.0883     9.1614
 1522.0000   143.1449     9.1616
 1522.5000   139.5295     9.1529
 1523.0000   140.7030     9.1424
 1523.5000   143.0660     9.1318
 1524.0000   145.4194     9.1212
 1524.5000   146.7268     9.1106
 1525.0000   140.1258     9.0999
 1525.5000   130.9092     9.0894
 1526.0000   133.2444     9.0825
 1526.5000   137.0623     9.0869
 1527.0000   140.3929     9.0910
 1527.5000   139.9835     9.0950
 1528.0000   136.8528     9.0989
 1528.5000   134.1037     9.0860
 1529.0000   136.6838     9.0452
 1529.5000   139.6296     9.0042
 1530.0000   142.3285     8.9650
 1530.5000   142.1274     9.0534
 1531.0000   141.5328     9.1549
 1531.5000   141.1988     9.1806
 1532.0000   141.4074     9.1815
 1532.5000   141.5031     9.1814
 1533.0000   141.0049     9.1813
 1533.5000   141.1053     9.1813
 1534.0000   141.6233     9.1813
 1534.5000   141.8248     9.1813
 1535.0000   141.2639     9.1813
 1535.5000   140.7963     9.1813
 1536.0000   140.9976     9.1813
 1536.5000   141.2318     9.1812
 1537.0000   141.4729     9.1811
 1537.5000   141.5065     9.1611
 1538.0000   139.4052     9.1220
 1538.5000   137.3077     9.0836
 1539.0000   135.3345     9.0778
 1539.5000   138.1309     9.1470
 1540.0000   145.6028     9.2152
 1540.5000   148.9612     9.2507
 1541.0000   145.6056     9.2624
 1541.5000   141.1125     9.2657
 1542.0000   137.9586     9.2691
 1542.5000   138.0375     9.2724
 1543.0000   139.3842     9.2758
 1543.5000   140.8726     9.2792
 1544.0000   142.0567     9.2826
 1544.5000   139.1472     9.2859
 1545.0000   134.9381     9.2893
 1545.5000   132.5308     9.2927
 1546.0000   133.5770     9.2960
 1546.5000   134.6450     9.3001
 1547.0000   134.8427     9.2600
 1547.5000   134.3193     9.1635
 1548.0000   135.1871     9.0635
 1548.5000   136.8369     9.0441
 1549.0000   136.6091     9.0467
 1549.5000   136.4257     9.0501
 1550.0000   136.4224     9.0535
 1550.5000   135.0649     9.0568
 1551.0000   132.3782     9.0600
 1551.5000   132.5969     9.0611
 1552.0000   137.7248     9.0599
 1552.5000   142.8349     9.0586
 1553.0000   144.1688     9.0574
 1553.5000   137.1813     9.0561
 1554.0000   131.3573     9.0548
 1554.5000   129.2053     9.0535
 1555.0000   133.0147     9.0523
 1555.5000   137.4558     9.0510
 1556.0000   138.6692     9.0497
 1556.5000   136.3517     9.0485
 1557.0000   135.8742     9.0472
 1557.5000   135.4255     9.0460
 1558.0000   134.8060     9.0447
 1558.5000   134.1628     9.0432
 1559.0000   135.0376     9.0419
 1559.5000   136.2977     9.0101
 1560.0000   137.5642     8.9540
 1560.5000   138.2617     8.8960
 1561.0000   136.9827     8.8839
 1561.5000   135.6895     8.9664
 1562.0000   136.1513     9.0573
 1562.5000   140.6099     9.1229
 1563.0000   145.1026     9.1215
 1563.5000   148.4412     9.1215
 1564.0000   148.1080     9.1215
 1564.5000   142.7410     9.1215
 1565.0000   134.5292     9.1215
 1565.5000   127.4618     9.1215
 1566.0000   125.7096     9.1215
 1566.5000   125.1447     9.1215
 1567.0000   125.6994     9.1215
 1567.5000   130.1122     9.1215
 1568.0000   135.7501     9.1215
 1568.5000   139.0864     9.1215
 1569.0000   135.7789     9.1215
 1569.5000   135.0538     9.1216
 1570.0000   133.8304     9.1211
 1570.5000   132.5409     9.1022
 1571.0000   134.9567     9.0820
 1571.5000   139.2045     9.0637
 1572.0000   141.9727     9.0451
 1572.5000   139.3496     9.0280
 1573.0000   136.5642     8.9519
 1573.5000   137.0056     8.7076
 1574.0000   139.1297     8.5666
 1574.5000   138.8724     8.8792
 1575.0000   138.3768     9.0305
 1575.5000   138.1851     9.1239
 1576.0000   138.8711     9.1216
 1576.5000   139.5286     9.1214
 1577.0000   139.6125     9.1215
 1577.5000   139.1568     9.1215
 1578.0000   135.7910     9.1215
 1578.5000   132.5898     9.1215
 1579.0000   130.7347     9.1215
 1579.5000   134.1067     9.1215
 1580.0000   135.8271     9.1215
 1580.5000   134.5247     9.1215
 1581.0000   132.9998     9.1215
 1581.5000   133.5547     9.1215
 1582.0000   135.2431     9.1215
 1582.5000   136.2268     9.1215
 1583.0000   135.6001     9.1215
 1583.5000   135.0050     9.1215
 1584.0000   136.9221     9.1215
 1584.5000   141.5966     9.1215
 1585.0000   146.1814     9.1215
 1585.5000   147.9233     9.1215
 1586.0000   143.3022     9.1215
 1586.5000   137.6591     9.1215
 1587.0000   135.3279     9.1215
 1587.5000   132.1586     9.1215
 1588.0000   128.6087     9.1215
 1588.5000   128.4813     9.1139
 1589.0000   135.9810     9.1054
