~VERSION INFORMATION
 VERS.                2.0:   CWLS LOG ASCII STANDARD - VERSION 2.0
 WRAP.                 NO:   ONE LINE PER DEPTH STEP
~WELL INFORMATION
#MNEM.UNIT      DATA TYPE    INFORMATION
#----------   ------------   ------------------------------
 STRT.F           36.5000:   START DEPTH
 STOP.F          476.0000:   STOP DEPTH
 STEP.F            0.5000:   STEP LENGTH
 NULL.          -999.2500:   NO VALUE
 COMP. LAWRENCE/ALLISON INC:   COMPANY
 WELL.    54-36 SXFO #3-3:   WELL
 FLD .            WILDCAT:   FIELD
 LOC .       S3 T38N R78W:   LOCATION
 CNTY.            NATRONA:   COUNTY
 STAT.            WYOMING:   STATE
 CTRY. UNITED STATES OF AMERICA:   COUNTRY
 SRVC.      Dresser Atlas:   SERVICE COMPANY
 DATE.        09-DEC-1983:   LOGDATE
 API .       490251095500:   API NUMBER
~CURVE INFORMATION
#MNEM.UNIT       API CODE    CURVE DESCRIPTION
#----------   ------------   ------------------------------
 DEPT.F                  :   
 GRD .GAPI   45 310 01 00:   GAMMA RAY FROM DENSITY LOG
 PORD.DEC    45 890 12 00:   POROSITY DENSITY SANDSTONE
 DEN .G/C3   45 350 01 00:   COMPENSATED BULK DENSTIY
 CORR.G/C3   45 356 01 00:   DENSITY CORRECTION
 CALD.IN     45 280 60 00:   CALIPER
 RFOC.OHMM   07 220 04 00:   RESISTIVITY FOCUSED LOG
 RILD.OHMM   07 120 46 00:   INDUCTION LOG DEEP RESISTIVITY
 RILM.OHMM   07 120 44 00:   INDUCTION LOG MEDIUM RESISTIVITY
~PARAMETER INFORMATION
#MNEM.UNIT          VALUE    DESCRIPTION
#----------   ------------   ------------------------------
 PD  .                 GL:   PERMANENT DATUM
 EPD .F              5166:   ELEVATION PERMANENT DATUM
 LMF .                 KB:   LOG MEASURED FROM
 DAPD.F                10:   FEET ABOVE PERMANENT DATUM
 DMF .                 KB:   DRILLING MEASURED FROM
 EKB .F              5176:   KELLING BUSHING
 EGL .F              5166:   GROUND LEVEL
 DATE.            12-9-83:   RUN DATE
 RUN .                  1:   RUN NUMBER
 DD  .F               478:   DEPTH DRILLER
 DL  .F               475:   DEPTH LOGGER
 BLI .F               473:   BOTTOM LOG INTERVAL
 TLI .F                44:   TOP LOG INTERVAL
 CBD .F                40:   CASING BOTTOM DRILLER
 CBL .F                44:   CASING BOTTOM LOGGER
 BS  .IN             8.75:   BIT SIZE
 BSD .F               478:   BIT SIZE AT DEPTH
 DFT .           AIR FOAM:   DRILLING FLUID TYPE
 MRT .F               100:   MAXIMUM RECORDED TEMPERATURE
 LUN .               6307:   LOGGING UNIT NUMBER
 LUL .               GLTE:   LOGGING UNIT LOCATION
 ENGI.            DEYOUNG:   RECORDING ENGINEER
 WITN.             GROOMS:   WITNESSED BY
 CLNT.            A2DTECH:   CLIENT CODE
 ORIG.       2", 5" PRINT:   ORIGIN OF DATA
 UWI .       490251095500:   UNIQUE WELL ID
 DICO. A2D Technologies, Inc.:   DIGITIZING COMPANY
~OTHER INFORMATION
~A   DEPT       GRD      PORD        DEN       CORR       CALD       RFOC       RILD       RILM   
# ...
  198.5000   113.0283     0.1786     2.3807     0.0269    13.3894  -999.2500     7.7764     8.0608
  199.0000   108.5715     0.1757     2.3860     0.0083    13.4178  -999.2500     7.8608     8.1198
  199.5000   104.7526     0.1734     2.3893     0.0017    13.4453  -999.2500     7.8885     8.1791
  200.0000   106.3096     0.1740     2.3856     0.0096    13.4560  -999.2500     7.9160     8.2389
  200.5000   107.5463     0.1794     2.3761     0.0234    13.4160  -999.2500     7.9437     8.2990
  201.0000   108.6348     0.1849     2.3671     0.0378    13.3691  -999.2500     7.9716     8.3603
  201.5000   109.9837     0.1910     2.3583     0.0359    13.2782  -999.2500     7.9995     8.3894
  202.0000   110.6675     0.1997     2.3413     0.0334    13.1876  -999.2500     8.0276     8.4083
  202.5000   106.8971     0.2124     2.3282     0.0626    13.0510  -999.2500     8.0560     8.4271
  203.0000   104.1454     0.2053     2.3343     0.1494    12.8031  -999.2500     8.0728     8.4534
  203.5000   106.0423     0.2185     2.3128     0.2039    12.5571  -999.2500     8.0422     8.4346
  204.0000   108.0729     0.2173     2.3454     0.1517    12.3118  -999.2500     8.0200     8.4035
  204.5000   105.4076     0.1705     2.4016     0.0886    12.1857  -999.2500     7.9979     8.3725
  205.0000   102.5894     0.1575     2.3863     0.0794    12.1937  -999.2500     7.9759     8.3416
  205.5000   101.9320     0.2529     2.3059     0.1319    12.2060  -999.2500     7.9539     8.3109
  206.0000   102.8541     0.2988     2.2083     0.1929    12.0009  -999.2500     7.9314     8.2802
  206.5000   103.7747     0.2982     2.1582     0.2225    11.7462  -999.2500     7.8859     8.2497
  207.0000   105.2493     0.2497     2.2896     0.1493    11.4905  -999.2500     7.8293     8.2044
  207.5000   109.5162     0.1961     2.4241     0.0728    11.2380  -999.2500     7.7096     8.0534
  208.0000   115.0131     0.1424     2.4697     0.0628    11.0830  -999.2500     7.5351     7.9242
  208.5000   116.9405     0.1250     2.4678     0.0526    11.0965  -999.2500     7.3540     7.7502
  209.0000   114.8191     0.1294     2.4613     0.0461    11.1078  -999.2500     7.1772     7.5709
  209.5000   112.2069     0.1359     2.4547     0.0382    11.1197  -999.2500     7.0056     7.3959
  210.0000   111.3739     0.1424     2.4439     0.0259    11.1151  -999.2500     6.8387     7.2249
  210.5000   112.9121     0.1489     2.4320     0.0136    11.1093  -999.2500     6.5221     7.0605
  211.0000   114.4361     0.1555     2.4201     0.0014    11.1036  -999.2500     6.2229     6.7743
  211.5000   114.9391     0.1620     2.4082    -0.0110    11.0980  -999.2500     5.9384     6.3662
  212.0000   114.9367     0.1685     2.3963    -0.0059    11.0923  -999.2500     5.4768     5.9812
  212.5000   114.0497     0.1719     2.3912     0.0098    11.0868  -999.2500     4.9682     5.4688
  213.0000   111.1322     0.1713     2.3953     0.0255    11.0827  -999.2500     4.4686     4.8621
  213.5000   107.8704     0.1707     2.3984     0.0397    11.0476  -999.2500     3.9445     4.3226
  214.0000   106.0068     0.1710     2.3933     0.0503    11.0272  -999.2500     3.4818     3.8430
  214.5000   110.2324     0.1752     2.3888     0.0553    11.0070  -999.2500     3.0734     3.4166
  215.0000   111.5823     0.1782     2.3631     0.0699    10.9875  -999.2500     2.7129     3.0375
  215.5000   109.4256     0.2046     2.3275     0.0859    10.9389  -999.2500     2.3935     2.7005
  216.0000   106.3987     0.2294     2.2914     0.1022    10.8753  -999.2500     2.2845     2.4605
  216.5000   103.3232     0.2569     2.2554     0.0976    10.8113  -999.2500     2.2440     2.4605
  217.0000   100.2510     0.2812     2.2195     0.0794    10.7581  -999.2500     2.3045     2.4986
  217.5000    97.1795     0.2982     2.1840     0.0610    10.7594  -999.2500     2.3465     2.5878
  218.0000    94.0561     0.3051     2.1660     0.0569    10.7595  -999.2500     2.4663     2.8984
  218.5000    92.6741     0.2932     2.1909     0.0707    10.7595  -999.2500     2.6780     3.2871
  219.0000    97.0415     0.2655     2.2370     0.0509    10.7595  -999.2500     2.9311     3.7279
  219.5000   101.8908     0.2377     2.2828     0.0240    10.7595  -999.2500     3.3573     4.2278
  220.0000   106.7423     0.2099     2.3284    -0.0029    10.7595  -999.2500     3.8978     4.7948
  220.5000   110.5158     0.1821     2.3741     0.0007    10.7595  -999.2500     4.5253     5.3748
  221.0000   113.2543     0.1585     2.4115     0.0061    10.7569  -999.2500     5.2539     5.6498
  221.5000   114.5300     0.1421     2.4379     0.0109    10.7519  -999.2500     5.5921     5.9389
  222.0000   115.4521     0.1318     2.4620     0.0314    10.7469  -999.2500     5.8799     6.2389
  222.5000   116.3686     0.1285     2.4655     0.0540    10.7420  -999.2500     6.2950     6.5318
  223.0000   117.2987     0.1301     2.4598     0.0667    10.7525  -999.2500     6.2711     6.5665
  223.5000   118.1898     0.1358     2.4541     0.0575    10.7786  -999.2500     6.2274     6.5922
  224.0000   117.5041     0.1381     2.4485     0.0570    10.8138  -999.2500     6.1860     6.5333
  224.5000   116.7274     0.1372     2.4612     0.0707    10.8893  -999.2500     6.0673     6.3514
  225.0000   115.9584     0.1282     2.4757     0.0736    10.9642  -999.2500     5.9396     6.3573
  225.5000   115.1865     0.1193     2.4893     0.0689    10.9993  -999.2500     5.7110     5.9253
  226.0000   114.4238     0.1128     2.4913     0.0641    11.0001  -999.2500     5.4499     5.6544
  226.5000   113.7427     0.1177     2.4850     0.0592    11.0002  -999.2500     5.2008     5.3960
  227.0000   117.3057     0.1259     2.4725     0.0544    11.0012  -999.2500     4.9630     5.1493
  227.5000   122.7484     0.1408     2.4429     0.0519    10.9612  -999.2500     4.7359     4.9139
  228.0000   129.0681     0.1557     2.4135     0.0495    10.9169  -999.2500     4.5197     4.6893
  228.5000   131.5620     0.1705     2.3841     0.0438    10.8725  -999.2500     4.3554     4.4774
  229.0000   127.4580     0.1859     2.3684     0.0228    10.8286  -999.2500     4.3554     4.5290
  229.5000   123.4688     0.1870     2.3635     0.0089    10.7837  -999.2500     4.3554     4.5930
  230.0000   122.9843     0.1939     2.3492     0.0564    10.6544  -999.2500     4.3554     4.7975
  230.5000   122.0504     0.2041     2.3286     0.1282    10.5145  -999.2500     4.5988     5.0380
  231.0000   118.4340     0.2141     2.3201     0.1432    10.3853  -999.2500     4.8412     5.2905
  231.5000   116.1990     0.2035     2.3288     0.0615    10.2636  -999.2500     5.0963     5.5557
  232.0000   114.2499     0.1803     2.3667    -0.0064    10.1768  -999.2500     5.3648     5.8343
  232.5000   113.0081     0.1571     2.4041     0.0017    10.1783  -999.2500     5.6475     6.1267
  233.0000   116.0454     0.1469     2.4364     0.0117    10.1783  -999.2500     5.9452     6.4339
  233.5000   119.0754     0.1498     2.4300     0.0086    10.1783  -999.2500     6.2591     6.7564
  234.0000   119.3293     0.1529     2.4248    -0.0183    10.1787  -999.2500     6.5916     7.0537
  234.5000   118.3095     0.1517     2.4255    -0.0450    10.1871  -999.2500     6.8051     7.1763
  235.0000   116.9294     0.1497     2.4291    -0.0565    10.1950  -999.2500     7.0276     7.3011
  235.5000   114.9440     0.1477     2.4328    -0.0417    10.2217  -999.2500     7.2951     7.4280
  236.0000   112.9644     0.1474     2.4340    -0.0196    10.2606  -999.2500     7.2455     7.5003
  236.5000   111.1704     0.1495     2.4310    -0.0077    10.3232  -999.2500     7.1867     7.5012
  237.0000   111.9784     0.1516     2.4281     0.0000    10.3863  -999.2500     7.1285     7.3977
  237.5000   114.7028     0.1505     2.4279     0.0084    10.3989  -999.2500     7.0707     7.2455
  238.0000   117.9526     0.1480     2.4339     0.0217    10.3990  -999.2500     6.9498     7.0979
  238.5000   120.2055     0.1466     2.4350     0.0339    10.3988  -999.2500     6.6945     6.9533
