~VERSION INFORMATION
 VERS.                2.0:   CWLS LOG ASCII STANDARD - VERSION 2.0
 WRAP.                 NO:   ONE LINE PER DEPTH STEP
~WELL INFORMATION
#MNEM.UNIT      DATA TYPE    INFORMATION
#----------   ------------   ------------------------------
 STRT.F            0.0000:   START DEPTH
 STOP.F          601.0000:   STOP DEPTH
 STEP.F            0.5000:   STEP LENGTH
 NULL.          -999.2500:   NO VALUE
 COMP. Fluor Daniel (NPOSR) Inc:   COMPANY
 WELL.  NPR ##3 84-STX-33:   WELL
 FLD .          N.P.R. #3:   FIELD
 LOC .      S33 T39N R78W:   LOCATION
 CNTY.            NATRONA:   COUNTY
 STAT.            WYOMING:   STATE
 CTRY. UNITED STATES OF AMERICA:   COUNTRY
 SRVC.      Western Atlas:   SERVICE COMPANY
 DATE.        31-JAN-1995:   LOGDATE
 API .       490252269500:   API NUMBER
~CURVE INFORMATION
#MNEM.UNIT       API CODE    CURVE DESCRIPTION
#----------   ------------   ------------------------------
 DEPT.F                  :   
 GRR .GAPI   07 310 01 00:   GAMMA RAY FROM RES. LOG.
 RILD.OHMM   07 120 46 00:   INDUCTION LOG DEEP RESISTIVITY
 RILM.OHMM   07 120 44 00:   INDUCTION LOG MEDIUM RESISTIVITY
 RFOC.OHMM   07 220 04 00:   RESISTIVITY FOCUSED LOG
~PARAMETER INFORMATION
#MNEM.UNIT          VALUE    DESCRIPTION
#----------   ------------   ------------------------------
 PD  .                 GL:   PERMANENT DATUM
 EPD .F              5105:   ELEVATION PERMANENT DATUM
 LMF .                 KB:   LOG MEASURED FROM
 DAPD.F                10:   FEET ABOVE PERMANENT DATUM
 DMF .                 KB:   DRILLING MEASURED FROM
 EKB .F              5115:   KELLING BUSHING
 EDF .F              5114:   DRILLING FLOOR
 EGL .F              5105:   GROUND LEVEL
 DATE.        31-JAN-1995:   RUN DATE
 RUN .                  1:   RUN NUMBER
 DD  .F               615:   DEPTH DRILLER
 DL  .F               609:   DEPTH LOGGER
 BLI .F               601:   BOTTOM LOG INTERVAL
 CS  .IN            9.625:   CASING SIZE
 CBD .F                54:   CASING BOTTOM DRILLER
 CBL .F                52:   CASING BOTTOM LOGGER
 BS  .IN             8.75:   BIT SIZE
 BSD .F               615:   BIT SIZE AT DEPTH
 DFT .              WATER:   DRILLING FLUID TYPE
 MRT .F                92:   MAXIMUM RECORDED TEMPERATURE
 LUN .            HL-6274:   LOGGING UNIT NUMBER
 LUL .             CASPER:   LOGGING UNIT LOCATION
 ENGI.             RAUTIO:   RECORDING ENGINEER
 WITN.             STRONG:   WITNESSED BY
 CLNT.            A2DTECH:   CLIENT CODE
 ORIG.       2", 5" PRINT:   ORIGIN OF DATA
 UWI .       490252269500:   UNIQUE WELL ID
 DICO. A2D Technologies, Inc.:   DIGITIZING COMPANY
~OTHER INFORMATION
~A    DEPT      GRR      RILD       RILM       RFOC   
# ...
  219.0000   103.4575     9.8844    10.4215    13.1755
  219.5000   104.9433     9.8187    10.4216    12.9610
  220.0000   103.2636     9.7586    10.4228    12.6606
  220.5000   100.6914     9.7587    10.4500    12.5719
  221.0000    98.1818     9.7593    10.4759    12.8099
  221.5000    96.7308     9.7595    10.5014    14.4711
  222.0000    97.0669     9.7590    10.5210    15.5986
  222.5000    97.8650     9.7613    10.3750    14.3024
  223.0000    98.6599     9.6344    10.2651    12.5719
  223.5000    99.4504     9.5482    10.1562    12.4545
  224.0000   100.2211     9.4416    10.0379    13.2286
  224.5000   101.7256     9.3380     9.8860    13.7067
  225.0000   105.8992     9.2253     9.7708    13.8081
  225.5000   108.1822     9.2683     9.6683    14.7106
  226.0000   107.0068     9.3169     9.9092    15.8940
  226.5000   104.5182     9.3658    10.1840    15.5986
  227.0000   102.8908     9.4149    10.3243    13.4250
  227.5000   101.2922     9.4639    10.3243    13.2997
  228.0000    99.5416     9.4886    10.1681    13.3850
  228.5000    97.2621     9.3414     9.9492    13.4250
  229.0000    95.9573     9.2267     9.7349    12.7859
  229.5000    97.5147     9.1058     9.5252    12.4545
  230.0000    99.5550     8.9865     9.3201    12.5278
  230.5000   101.4890     8.8687     9.1365    13.0866
  231.0000   102.8153     8.7525     9.0988    13.9382
  231.5000   103.7173     8.6378     9.0612    15.4427
  232.0000   101.6637     8.5590     9.0244    17.1499
  232.5000    98.9168     8.5324     8.9877    15.7665
  233.0000    97.1625     8.5092     8.9394    12.8168
  233.5000    99.1385     8.4856     8.8797    11.7730
  234.0000   102.3243     8.4231     8.8204    11.4925
  234.5000   102.0743     8.3444     8.7615    11.3395
  235.0000   101.6379     8.2665     8.7030    12.0806
  235.5000   102.0303     8.1894     8.6449    12.3383
  236.0000   102.1309     8.0901     8.5872    11.7661
  236.5000    99.8950     8.1049     8.5584    11.3395
  237.0000    97.5999     8.1260     8.5902    12.1659
  237.5000    98.6506     8.1472     8.6114    14.2021
  238.0000   103.1112     8.1664     8.6404    14.3763
  238.5000   106.7776     8.0733     8.5574    12.6295
  239.0000   106.2527     7.9511     8.4394    11.5871
  239.5000   104.4845     7.7431     8.3233    11.2337
  240.0000   103.0474     7.5406     8.1434    11.1288
  240.5000   102.0760     7.3433     7.8191    11.7529
  241.0000   102.6087     7.1484     7.5076    12.6945
  241.5000   103.1392     7.0382     7.2800    12.3198
  242.0000   103.3660     6.9543     7.2289    11.5657
  242.5000   103.5210     6.8736     7.2289    11.3833
  243.0000   103.6386     6.7685     7.2289    11.1092
  243.5000   102.1040     6.7699     7.2289    10.8200
  244.0000   100.3870     6.7682     7.3291    11.0249
  244.5000    99.6347     6.7696     7.4213    12.0045
  245.0000   102.1425     7.0099     7.5053    14.6354
  245.5000   105.0404     7.1552     7.5760    15.2090
  246.0000   105.6672     7.2544     7.6789    13.7822
  246.5000   103.0807     7.3056     7.7931    11.2337
  247.0000   100.1597     7.3572     7.7918    11.4822
  247.5000   101.3636     7.4091     7.8402    11.8732
  248.0000   103.9769     7.4702     7.8685    12.3984
  248.5000   109.2405     7.5406     7.8969    12.6964
  249.0000   112.6098     7.5753     7.9244    12.5916
  249.5000   112.6467     7.6036     7.9846    11.9460
  250.0000   111.3239     7.6305     8.0719    11.0249
  250.5000   110.4543     7.6954     8.1618    10.9220
  251.0000   109.8126     7.8575     8.2821    11.0249
  251.5000   109.2174     7.9522     8.4298    11.9959
  252.0000   108.6566     7.9771     8.5523    12.8099
  252.5000   106.1942     8.0021     8.6391    12.1333
  253.0000   103.5799     8.0146     8.5231    11.6631
  253.5000   101.0651     8.0146     8.4533    12.1659
  254.0000   100.0765     7.9937     8.3843    12.5719
  254.5000   102.1100     7.9246     8.3185    11.3395
  255.0000   105.5150     7.8561     8.1616    11.2325
  255.5000   107.3070     7.7882     8.0901    11.6064
  256.0000   107.2355     7.7208     8.0901    12.0052
  256.5000   105.6778     7.6474     8.0901    11.5888
  257.0000   105.6930     7.6295     8.0901    11.0249
  257.5000   105.7201     7.6040     8.0900    11.5002
  258.0000   104.4253     7.5760     8.0908    11.9959
  258.5000   102.7979     7.6116     8.0663    11.3311
  259.0000   103.4244     7.6514     8.0139    10.9142
  259.5000   106.3213     7.6914     8.0530    11.2350
  260.0000   107.6820     7.7205     8.1281    11.5572
  260.5000   107.5923     7.6703     8.1664    11.0218
  261.0000   107.4785     7.6247     8.1141    11.0232
  261.5000   107.3491     7.5760     8.0742    11.3940
  262.0000   107.4114     7.5385     8.0344    11.7822
  262.5000   109.0015     7.4970     7.9212    11.6091
  263.0000   109.9302     7.4558     7.7195    10.8200
  263.5000   110.2863     7.3878     7.6708     9.8513
  264.0000   110.6279     7.2940     7.6170    10.0379
  264.5000   110.9739     7.2013     7.5636    11.2337
  265.0000   111.1949     7.1097     7.5053    11.4464
  265.5000   111.4625     7.0284     7.4213    10.7694
  266.0000   109.9070     6.9664     7.3291    10.6189
  266.5000   105.5212     6.7631     7.2289    11.4464
  267.0000   101.8274     6.5510     6.9511    11.3395
  267.5000   102.5603     6.3441     6.6549    10.8391
  268.0000   106.3591     6.1635     6.3991    10.6189
  268.5000   110.0301     6.0730     6.2508    10.7190
  269.0000   111.3672     5.9645     6.1060    10.1325
  269.5000   110.5261     5.8579     6.0490     9.1178
  270.0000   109.6938     5.8262     6.1347     8.2433
  270.5000   109.1167     5.8262     6.2187     8.6269
  271.0000   110.1402     5.8969     6.3912     9.4309
  271.5000   110.1609     6.0057     6.5817    10.0379
  272.0000   109.1627     6.2429     6.7796     9.9432
  272.5000   105.9866     6.4898     6.9628     9.6110
  273.0000   104.8781     6.7672     7.0742     9.2176
  273.5000   104.0381     6.8350     7.1770     9.2131
  274.0000   103.9723     6.8334     7.2289    10.0143
  274.5000   107.8880     6.8675     7.1991    10.5198
  275.0000   109.9026     6.8877     7.1793    10.4038
  275.5000   110.5885     6.8978     7.1272    10.3243
  276.0000   110.6165     6.7867     7.0404    11.2706
  276.5000   111.3347     6.7064     6.9612    12.1166
  277.0000   111.4368     6.5984     6.8839    12.1065
  277.5000   111.3345     6.4805     6.8075    12.1086
  278.0000   109.4809     6.2982     6.6835    12.7058
  278.5000   106.8777     5.9719     6.4046    11.5002
  279.0000   106.4979     5.6648     6.1635    10.2183
  279.5000   108.1953     5.3738     5.6912     9.1392
  280.0000   109.7085     5.0947     5.2551     8.9693
  280.5000   107.5538     4.8953     5.1290     9.4000
  281.0000   105.4396     4.7846     4.9781     9.2253
  281.5000   104.7947     4.8241     4.8709     7.4213
  282.0000   106.1701     4.8809     5.0506     6.5817
  282.5000   107.3628     4.9559     5.3291     6.5203
  283.0000   106.9906     5.0144     5.6117     8.4181
  283.5000   105.5564     5.3546     5.9925     9.9810
  284.0000   104.1401     5.6703     6.2606    11.8342
  284.5000   104.4190     6.0429     6.7094    12.5963
  285.0000   104.9505     6.3991     6.7049    12.8226
  285.5000   105.8636     6.5794     6.9651    13.1977
  286.0000   107.3851     6.7476     7.1221    11.5272
  286.5000   108.9801     6.8735     7.2951     9.6683
  287.0000   108.4853     6.9546     7.3563     9.2253
  287.5000   108.4376     7.0366     7.4200     9.6494
  288.0000   109.5753     7.1196     7.4855    10.1523
  288.5000   114.1311     7.2036     7.5928    10.5198
  289.0000   116.5426     7.2885     7.7195    10.0850
  289.5000   116.0005     7.3745     7.8483     9.7629
  290.0000   114.4976     7.4435     7.9478     9.6155
  290.5000   112.0850     7.4711     7.9744     9.5780
  291.0000   110.6022     7.4988     8.0012    10.2898
  291.5000   107.7383     7.5266     8.0280    11.1288
