~VERSION INFORMATION
 VERS.                2.0:   CWLS LOG ASCII STANDARD - VERSION 2.0
 WRAP.                 NO:   ONE LINE PER DEPTH STEP
~WELL INFORMATION
#MNEM.UNIT      DATA TYPE    INFORMATION
#----------   ------------   ------------------------------
 STRT.F           20.0000:   START DEPTH
 STOP.F          677.0000:   STOP DEPTH
 STEP.F            0.5000:   STEP LENGTH
 NULL.          -999.2500:   NO VALUE
 COMP. FENIX & SCISSON INC:   COMPANY
 WELL. 11 WI NPR 3 #36-26 SX:   WELL
 FLD .             TEAPOT:   FIELD
 LOC .      S11 T38N R78W:   LOCATION
 CNTY.            NATRONA:   COUNTY
 STAT.            WYOMING:   STATE
 CTRY. UNITED STATES OF AMERICA:   COUNTRY
 SRVC.      Dresser Atlas:   SERVICE COMPANY
 DATE.        06-AUG-1980:   LOGDATE
 API .       490251084100:   API NUMBER
~CURVE INFORMATION
#MNEM.UNIT       API CODE    CURVE DESCRIPTION
#----------   ------------   ------------------------------
 DEPT.F                  :   
 SPR .MV     07 010 01 00:   SPONTANEOUS POTENTIAL
 SFL .OHMM   07 220 01 00:   SHALLOW FOCUSED LOG RESISTIVITY
 ILD .OHMM   07 120 46 00:   INDUCTION LOG DEEP
 ILM .OHMM   07 120 44 00:   INDUCTION LOG MEDIUM
 GRD .GAPI   45 310 01 00:   GAMMA RAY FROM DENSITY LOG
 RHOB.G/C3   45 350 01 00:   BULK DENSITY
 CALD.IN     45 280 60 00:   CALIPER
 CORR.G/C3   45 356 01 00:   DENSITY CORRECTION
 DPOR.DEC    45 890 12 00:   DENSITY POROSITY SANDSTONE
 NPOR.DEC    42 890 03 00:   NEUTRON POROSITY SANDSTONE
~PARAMETER INFORMATION
#MNEM.UNIT          VALUE    DESCRIPTION
#----------   ------------   ------------------------------
 PD  .                 GL:   PERMANENT DATUM
 EPD .F              5191:   ELEVATION PERMANENT DATUM
 LMF .                 KB:   LOG MEASURED FROM
 DAPD.F                 5:   FEET ABOVE PERMANENT DATUM
 DMF .                 KB:   DRILLING MEASURED FROM
 EKB .F              5196:   KELLING BUSHING
 EGL .F              5191:   GROUND LEVEL
 DATE.             8-6-80:   RUN DATE
 RUN .                  1:   RUN NUMBER
 DD  .F               680:   DEPTH DRILLER
 DL  .F               679:   DEPTH LOGGER
 BLI .F               676:   BOTTOM LOG INTERVAL
 TLI .F                20:   TOP LOG INTERVAL
 BS  .IN            7.875:   BIT SIZE
 BSD .F               680:   BIT SIZE AT DEPTH
 DFT .                KCL:   DRILLING FLUID TYPE
 DFD .                9.4:   DRILLING FLUID DENSITY
 DFV .                 45:   DRILLING FLUID VISCOSITY
 DFPH.                 12:   DRILLING FLUID PH
 MSS .           FLOWLINE:   MUD SAMPLE SOURCE
 RMS .OHMM            .11:   RESISTIVITY MUD SAMPLE
 MST .F                65:   MUD SAMPLE TEMPERATURE
 RMF .OHMM             .1:   RESISTIVITY MUD FILTRATE SAMPLE
 MFST.F                60:   MUD FILTRATE SAMPLE TEMPERATURE
 RMC .OHMM            .17:   RESISTIVITY MUD CAKE
 MCST.F                65:   MUD CAKE SAMPLE TEMPERATURE
 MFSS.               MEAS:   MUD FILTRATE SAMPLE SOURCE
 MCSS.              CHART:   MUD CAKE SAMPLE SOURCE
 TCS .HRS              .5:   TIME CURCULATED STOPPED
 MRT .F               100:   MAXIMUM RECORDED TEMPERATURE
 LUN .               6240:   LOGGING UNIT NUMBER
 LUL .               RVTN:   LOGGING UNIT LOCATION
 ENGI.            K. RALL:   RECORDING ENGINEER
 WITN.     AMAND/MCINTYRE:   WITNESSED BY
 CLNT.            A2DTECH:   CLIENT CODE
 ORIG.        2" 5" PRINT:   ORIGIN OF DATA
 UWI .       490251084100:   UNIQUE WELL ID
 DICO. A2D Technologies, Inc.:   DIGITIZING COMPANY
~OTHER INFORMATION
~A   DEPT       SPR       SFL         ILD         ILM      GRD       RHOB       CALD       CORR       DPOR       NPOR   
# ...
  489.0000   -72.6843     8.2685     7.7544     7.1206   124.4188     2.5346     8.1212     0.0654     0.0883     0.2882
  489.5000   -72.6299     8.2681     7.7606     7.1617   123.4514     2.5183     8.1235     0.0586     0.0988     0.2914
  490.0000   -72.5808     8.2160     7.7667     7.2023   123.7836     2.5015     8.1259     0.0439     0.1090     0.2813
  490.5000   -72.4951     8.1288     7.7728     7.1904   123.3689     2.4978     8.1282     0.0265     0.1064     0.2720
  491.0000   -72.4038     8.0425     7.7789     7.1787   122.8093     2.5081     8.1283     0.0314     0.0966     0.2626
  491.5000   -72.4816     7.9695     7.7850     7.1670   122.2462     2.5339     8.1283     0.0441     0.0796     0.2533
  492.0000   -72.5865     8.0347     7.7912     7.1554   121.6805     2.5596     8.1283     0.0555     0.0707     0.2523
  492.5000   -72.5432     8.0921     7.7973     7.1437   122.1919     2.5610     8.1283     0.0530     0.0794     0.2691
  493.0000   -72.4967     8.1499     7.8034     7.1321   124.0150     2.5353     8.1283     0.0446     0.0950     0.2826
  493.5000   -72.4520     8.2081     7.8096     7.1205   125.0232     2.5037     8.1283     0.0237     0.1111     0.2797
  494.0000   -72.4035     8.2683     7.8156     7.1089   124.6892     2.4714     8.1283     0.0032     0.1283     0.2770
  494.5000   -72.6153     8.1860     7.8240     7.0973   124.5194     2.4667     8.1283    -0.0096     0.1241     0.2805
  495.0000   -72.9555     8.0484     7.7773     7.0861   124.3369     2.4780     8.1266    -0.0034     0.1186     0.2866
  495.5000   -72.8583     7.9131     7.7024     7.0743   122.5423     2.4795     8.1249     0.0027     0.1190     0.2826
  496.0000   -72.7082     7.8242     7.6092     7.0710   120.7163     2.4634     8.1232    -0.0041     0.1277     0.2777
  496.5000   -72.6201     8.0665     7.6965     7.3382   119.3589     2.4815     8.1215     0.0083     0.1176     0.2728
  497.0000   -72.8006     8.2406     7.9269     7.5568   119.6170     2.5060     8.1198     0.0307     0.1043     0.2691
  497.5000   -72.9748     8.7633     8.1647     7.7819   121.2301     2.4966     8.1180     0.0239     0.1091     0.2691
  498.0000   -73.1488     9.0667     8.2683     7.8965   122.4119     2.4895     8.1163     0.0083     0.1138     0.2734
  498.5000   -73.3227     9.0953     8.1238     7.6928   120.9363     2.5118     8.1146     0.0000     0.0997     0.2779
  499.0000   -73.4966     9.1489     7.8117     7.0341   118.9809     2.5263     8.1129     0.0520     0.0906     0.2872
  499.5000   -73.6713     9.1096     7.0532     6.2462   117.4121     2.5115     8.1111     0.0400     0.1030     0.2994
  500.0000   -73.8459     9.0651     6.3725     5.5465   116.7216     2.4865     8.1094     0.0139     0.1182     0.3037
  500.5000   -73.9774     7.5035     5.7574     4.9253   115.9595     2.4537     8.1077     0.0018     0.1415     0.3079
  501.0000   -73.7871     5.4143     5.2017     4.3736   116.1501     2.4167     8.1065     0.0062     0.1629     0.3117
  501.5000   -73.5839     3.9241     4.8489     4.2629   121.3479     2.3716     8.1052     0.0193     0.1844     0.3338
  502.0000   -72.9920     3.8881     5.2323     4.6757   126.6627     2.3411     8.1039     0.0327     0.2004     0.3619
  502.5000   -72.3823     5.3728     5.7405     5.1171   133.0705     2.3582     8.1026     0.0254     0.2000     0.3667
  503.0000   -71.7743     7.5054     6.2981     5.6001   136.8048     2.4034     8.1013     0.0142     0.1628     0.3512
  503.5000   -71.1662    10.6000     6.9204     5.9917   133.5961     2.4484     8.1000     0.0034     0.1372     0.3295
  504.0000   -70.5631    10.8967     7.6378     6.3904   128.1739     2.4627     8.0987    -0.0134     0.1293     0.3063
  504.5000   -70.1051    10.3678     8.5381     7.4334   121.2509     2.4434     8.0974    -0.0307     0.1421     0.2883
  505.0000   -69.9163    10.0307     9.5445     8.6416   116.5023     2.4410     8.0961    -0.0165     0.1421     0.2771
  505.5000   -69.7177    10.0882     9.6682     9.3188   112.4095     2.4719     8.0948     0.0094     0.1213     0.2744
  506.0000   -69.3676    10.1234     9.6356     9.3188   108.3824     2.4947     8.0935     0.0235     0.1063     0.2733
  506.5000   -68.5136    10.1234     9.6108     9.2435   108.5025     2.5182     8.0922     0.0365     0.0926     0.2714
  507.0000   -68.2133    10.1234     9.5860     9.1459   111.3310     2.5221     8.0909     0.0289     0.0930     0.2715
  507.5000   -67.8904    10.1234     9.5613     9.0494   113.4361     2.4966     8.0897     0.0200     0.1149     0.2772
  508.0000   -67.5665    10.1234     9.5367     8.9816   115.1795     2.4699     8.0884     0.0135     0.1337     0.2836
  508.5000   -67.2431    10.1230     9.5121     8.9819   116.8859     2.4575     8.0863     0.0093     0.1241     0.2899
  509.0000   -66.9192    10.1208     9.4919     9.0888   119.6077     2.4894     8.0829     0.0207     0.1079     0.3046
  509.5000   -66.5779    10.2724     9.7343     9.1717   122.2632     2.5122     8.0795     0.0233     0.1010     0.2943
  510.0000   -65.9273    10.9728    10.3852     9.4288   123.8767     2.5071     8.0762     0.0233     0.1039     0.2966
  510.5000   -65.2258    11.8279    11.2904    10.2506   120.9873     2.5019     8.0729     0.0209     0.1049     0.2582
  511.0000   -64.5232    12.8883    12.2745    11.1441   117.0863     2.5004     8.0695     0.0165     0.1107     0.2580
  511.5000   -63.8212    15.0882    13.4005    12.0689   112.6512     2.4798     8.0630     0.0123     0.1212     0.2575
  512.0000   -63.1193    17.1040    14.6796    12.8230   107.9082     2.4646     8.0494     0.0176     0.1272     0.2495
  512.5000   -62.4161    16.1747    16.0798    13.6246    99.1807     2.4690     8.0360     0.0348     0.1267     0.2423
  513.0000   -61.7653    15.1106    17.6288    14.4765    89.9039     2.4542     8.0258     0.0426     0.1350     0.2452
  513.5000   -61.0534    14.0905    18.9729    15.3775    87.5547     2.4190     8.0238     0.0375     0.1517     0.2495
  514.0000   -60.4769    14.0906    19.4616    16.2304    91.0911     2.3908     8.0217     0.0332     0.1702     0.2511
  514.5000   -60.0067    15.5455    19.6314    16.5185    92.5001     2.3770     8.0196     0.0347     0.1812     0.2517
  515.0000   -59.5408    16.6383    19.8102    16.8117    85.2862     2.3488     8.0175     0.0285     0.1908     0.2556
  515.5000   -59.0715    16.7921    19.9926    17.1101    78.9206     2.3278     8.0154     0.0167     0.2049     0.2645
  516.0000   -58.7908    16.5659    20.1770    17.2621    75.1008     2.3441     8.0132     0.0166     0.2096     0.2759
  516.5000   -58.5826    16.1853    20.3715    16.8373    76.2078     2.3700     8.0111     0.0453     0.1900     0.2823
  517.0000   -58.3757    16.2533    20.2684    16.6383    77.2756     2.3821     8.0091     0.0664     0.1776     0.2806
  517.5000   -58.1681    16.3741    20.1611    16.9951    78.4135     2.3320     8.0066     0.0724     0.1788     0.2763
  518.0000   -57.9599    16.4889    20.0545    17.4217    81.0109     2.2825     8.0326     0.0650     0.2121     0.2720
  518.5000   -57.9307    16.2585    19.8588    16.8659    81.3539     2.2656     8.0752     0.0398     0.2388     0.2684
  519.0000   -57.9318    16.0350    19.5723    16.3364    76.9429     2.2910     8.1195     0.0220     0.2467     0.2636
  519.5000   -57.9775    16.0371    19.2899    16.3883    76.4540     2.3227     8.1253     0.0278     0.2281     0.2547
  520.0000   -58.1190    16.0371    19.0115    16.4332    80.7750     2.3224     8.1214     0.0276     0.2116     0.2459
  520.5000   -58.2589    16.0371    18.7525    16.4855    84.5461     2.3045     8.1173     0.0203     0.2178     0.2395
  521.0000   -58.3990    15.5329    18.2344    16.4927    88.2355     2.3110     8.1133     0.0126     0.2244     0.2417
  521.5000   -58.5390    15.0203    17.7570    15.4796    88.4392     2.3400     8.1094     0.0179     0.2239     0.2457
  522.0000   -58.6794    14.9691    17.2921    15.2708    84.0603     2.3736     8.1054     0.0232     0.2055     0.2497
