~VERSION INFORMATION
 VERS.                2.0:   CWLS LOG ASCII STANDARD - VERSION 2.0
 WRAP.                 NO:   ONE LINE PER DEPTH STEP
~WELL INFORMATION
#MNEM.UNIT      DATA TYPE    INFORMATION
#----------   ------------   ------------------------------
 STRT.F           38.0000:   START DEPTH
 STOP.F          517.0000:   STOP DEPTH
 STEP.F            0.5000:   STEP LENGTH
 NULL.          -999.2500:   NO VALUE
 COMP. FENIX & SCISSON U.S. NAVY:   COMPANY
 WELL.     NPR 3 #88 S -3:   WELL
 FLD .             TEAPOT:   FIELD
 LOC .       S3 T38N R78W:   LOCATION
 CNTY.            NATRONA:   COUNTY
 STAT.            WYOMING:   STATE
 CTRY. UNITED STATES OF AMERICA:   COUNTRY
 SRVC.              Welex:   SERVICE COMPANY
 DATE.        10-APR-1977:   LOGDATE
 API .       490251033000:   API NUMBER
~CURVE INFORMATION
#MNEM.UNIT       API CODE    CURVE DESCRIPTION
#----------   ------------   ------------------------------
 DEPT.F                  :   
 GRD .GAPI   45 310 01 00:   GAMMA RAY FROM DENSITY LOG
 CALD.IN     45 280 60 00:   CALIPER FROM DENSITY LOG
 CORR.G/C3   45 356 01 00:   DENSITY CORRECTION
 RHOB.G/C3   45 350 01 00:   BULK DENSITY
 DPHI.DEC    45 890 12 00:   DENSITY POROSITY SANDSTONE
 SPR .MV     07 010 01 00:   SPONTANEOUS POTENTIAL
 ILD .OHMM   07 120 46 00:   INDUCTION LOG DEEP
 ILM .OHMM   07 120 44 00:   INDUCTION LOG MEDIUM
 SGRD.OHMM   07 221 05 00:   SHALLOW SHORT GUARD RESISTIVITY
~PARAMETER INFORMATION
#MNEM.UNIT          VALUE    DESCRIPTION
#----------   ------------   ------------------------------
 PD  .                 GL:   PERMANENT DATUM
 EPD .F              5120:   ELEVATION PERMANENT DATUM
 LMF .                 GL:   LOG MEASURED FROM
 DMF .                 GL:   DRILLING MEASURED FROM
 EGL .F              5120:   GROUND LEVEL
 DATE.        10-APR-1977:   RUN DATE
 RUN .                  1:   RUN NUMBER
 DD  .F               520:   DEPTH DRILLER
 DL  .F               519:   DEPTH LOGGER
 BLI .F               517:   BOTTOM LOG INTERVAL
 TLI .F                40:   TOP LOG INTERVAL
 CS  .IN            8.625:   CASING SIZE
 CBD .F                40:   CASING BOTTOM DRILLER
 CBL .F                42:   CASING BOTTOM LOGGER
 BS  .IN            7.875:   BIT SIZE
 BSD .F               520:   BIT SIZE AT DEPTH
 DFT .           KCL- GEL:   DRILLING FLUID TYPE
 DFD .                8.8:   DRILLING FLUID DENSITY
 DFV .                 38:   DRILLING FLUID VISCOSITY
 DFPH.                8.0:   DRILLING FLUID PH
 DFL .                6.4:   DRILLING FLUID LOSS
 MSS .            MUD PIT:   MUD SAMPLE SOURCE
 RMS .OHMM            .28:   RESISTIVITY MUD SAMPLE
 MST .F                55:   MUD SAMPLE TEMPERATURE
 RMF .OHMM            .23:   RESISTIVITY MUD FILTRATE SAMPLE
 MFST.F                55:   MUD FILTRATE SAMPLE TEMPERATURE
 RMC .OHMM            .32:   RESISTIVITY MUD CAKE
 MCST.F                55:   MUD CAKE SAMPLE TEMPERATURE
 MFSS.               MEAS:   MUD FILTRATE SAMPLE SOURCE
 MCSS.               MEAS:   MUD CAKE SAMPLE SOURCE
 RMB .OHMM            .24:   RESISTIVITY MUD AT BHT
 BHT .F                65:   BOTTOM HOLE TEMPERATURE
 TCS .HRS            0300:   TIME CURCULATED STOPPED
 MRT .F                65:   MAXIMUM RECORDED TEMPERATURE
 LUN .               0716:   LOGGING UNIT NUMBER
 LUL .             VERNAL:   LOGGING UNIT LOCATION
 ENGI.        E. CALLAHAN:   RECORDING ENGINEER
 WITN.            R. LYON:   WITNESSED BY
 CLNT.            A2DTECH:   CLIENT CODE
 ORIG.           5" PRINT:   ORIGIN OF DATA
 UWI .       490251033000:   UNIQUE WELL ID
 DICO. A2D Technologies, Inc.:   DIGITIZING COMPANY
~OTHER INFORMATION
~A   DEPT       GRD        CALD     CORR         RHOB     DPHI        SPR        ILD        ILM       SGRD   
# ...
  476.0000   103.6046     7.8759     0.0010     2.4686     0.1089   -33.0862     9.9442    10.9307    16.5973
  476.5000   101.5315     7.8623     0.0011     2.4701     0.1063   -33.0996    10.0872    10.6014    17.4130
  477.0000   100.3526     7.8786     0.0012     2.4762     0.1020   -33.1130    10.4239    10.3946    17.2777
  477.5000   101.7072     7.8798     0.0013     2.4816     0.0994   -32.9724    10.7855    11.0568    17.1281
  478.0000   101.8696     7.8812     0.0015     2.4861     0.0975   -32.9891    10.9307    11.4401    17.6137
  478.5000   100.5416     7.8825     0.0016     2.4900     0.0969   -33.0025    10.9989    11.5940    18.3510
  479.0000   101.7472     7.8988     0.0017     2.4870     0.0969   -32.8619    11.0654    11.5830    18.4641
  479.5000   103.2509     7.9150     0.0018     2.4863     0.0974   -32.5774    11.1343    11.5743    17.9413
  480.0000   104.9036     7.9313     0.0019     2.4924     0.1010   -32.4398    11.2059    11.5655    18.3137
  480.5000   106.1092     7.9476     0.0021     2.4774     0.1073   -32.3027    11.4319    11.8008    18.5605
  481.0000   107.4638     7.9489     0.0022     2.4745     0.1061   -32.0151    11.5837    11.9596    18.9235
  481.5000   109.1165     7.9502     0.0083     2.4828     0.0971   -31.7273    11.7397    12.2860    19.3075
  482.0000   111.9614     7.9516     0.0174     2.4949     0.0922   -31.5901    11.7286    12.2767    19.2875
  482.5000   115.7006     7.9529     0.0160     2.5002     0.0916   -31.4333    11.5574    12.4418    19.2715
  483.0000   117.9494     7.9393     0.0132     2.4853     0.0976   -31.3156    11.5487    12.5193    19.1218
  483.5000   120.1982     7.9108     0.0118     2.4808     0.1021   -31.3324    11.5399    12.4207    19.2436
  484.0000   123.4902     7.8823     0.0104     2.4742     0.1063   -31.1918    11.6931    12.2395    19.3622
  484.5000   128.1235     7.8538     0.0075     2.4712     0.1072   -31.2085    11.7660    12.0610    19.7551
  485.0000   130.6704     7.8551     0.0061     2.4717     0.1071   -31.0679    11.8448    11.8026    19.7346
  485.5000   132.4722     7.8415     0.0048     2.4736     0.1059   -30.7835    11.9132    12.1269    19.4493
  486.0000   133.5287     7.8578     0.0019     2.4760     0.1038   -30.7968    11.8211    13.2665    21.1246
  486.5000   133.5421     7.8592    -0.0010     2.4692     0.1107   -30.6563    11.7282    12.7959    20.5266
  487.0000   129.6806     7.8754    -0.0039     2.4588     0.1167   -30.3718    11.7194    12.4307    19.3970
  487.5000   121.0501     7.8917    -0.0053     2.4551     0.1164   -30.2312    11.7105    12.0899    19.1125
  488.0000   115.6983     7.9079    -0.0036     2.4552     0.1148   -30.2479    11.7016    12.6825    19.3649
  488.5000   106.3227     7.9093     0.0025     2.4613     0.1124   -30.2613    11.6928    13.7779    19.7619
  489.0000   105.4419     7.8957     0.0071     2.4688     0.1106   -30.2747    11.6839    13.2039    19.6043
  489.5000   105.1572     7.8970     0.0132     2.4794     0.1022   -30.2881    11.6751    12.4786    18.7855
  490.0000   105.1705     7.8984     0.0133     2.4870     0.0974   -30.3014    11.5852    12.7349    19.0335
  490.5000   105.4819     7.8998     0.0135     2.4826     0.1018   -30.4654    11.4161    12.5468    19.0178
  491.0000   105.7933     7.8863     0.0136     2.4744     0.1045   -30.6355    11.2495    12.3662    18.4794
  491.5000   106.7009     7.8727     0.0122     2.4782     0.1027   -30.7937    11.1629    12.9744    18.2084
  492.0000   107.7574     7.8741     0.0093     2.4828     0.1030   -30.9799    11.0770    12.3451    18.0634
  492.5000   108.6649     7.8604     0.0064     2.4753     0.1048   -31.2753    10.8395    12.0806    17.9263
  493.0000   109.7215     7.8618     0.0036     2.4701     0.1105   -31.5898    10.6813    11.9877    17.7606
  493.5000   110.4072     7.8631     0.0007     2.4762     0.1035   -32.2056    10.5254    11.6494    16.9082
  494.0000   110.9422     7.8496    -0.0022     2.4815     0.1044   -32.6708    10.2997    11.6406    16.6555
  494.5000   111.1045     7.8509    -0.0036     2.4756     0.1086   -33.2866    10.1493    11.6317    16.5447
  495.0000   111.2668     7.8523    -0.0050     2.4674     0.1146   -33.7518    10.0710    11.5422    16.4162
  495.5000   111.2803     7.8535    -0.0063     2.4577     0.1176   -33.9158     9.9111    11.3739    16.2886
  496.0000   111.1445     7.8549    -0.0062     2.4518     0.1197   -34.0797     9.7097    11.2080    16.0497
  496.5000   110.7854     7.8562    -0.0061     2.4481     0.1199   -34.0931     9.5015    10.7410    16.0364
  497.0000   110.2025     7.8576    -0.0045     2.4489     0.1190   -34.1065     9.2978    10.5803    15.9118
  497.5000   109.4707     7.8442    -0.0014     2.4557     0.1124   -34.1199     9.2262    10.4298    15.6785
  498.0000   108.7390     7.8455     0.0078     2.4686     0.1052   -33.9793     9.1552    10.4218    15.4486
  498.5000   107.7852     7.8468     0.0124     2.4814     0.0998   -33.9960     9.1482    10.4123    15.0113
  499.0000   106.9044     7.8482     0.0140     2.4882     0.0967   -33.8584     9.1413    10.1892    14.7911
  499.5000   106.0235     7.8644     0.0126     2.4890     0.0970   -33.7214     9.2001    10.0406    14.7789
  500.0000   105.4408     7.8658     0.0082     2.4838     0.1051   -33.7362     9.2574     9.8254    14.7693
  500.5000   104.8580     7.8671     0.0039     2.4764     0.1096   -33.7425     8.9391     9.8866    14.6651
  501.0000   104.2752     7.8834    -0.0020     2.4652     0.1141   -33.9107     9.1281     9.9501    14.7677
  501.5000   103.9905     7.8847    -0.0079     2.4585     0.1168   -34.2095     9.1281     9.9433    15.1853
  502.0000   103.4077     7.8861    -0.0093     2.4541     0.1173   -34.3679     9.1919     9.7985    15.1853
  502.5000   102.8249     7.8874    -0.0017     2.4594     0.1156   -34.6769     9.1919     9.7913    15.0798
  503.0000   101.7951     7.8887     0.0060     2.4677     0.1111   -34.9858     9.0646     9.7857    14.8710
  503.5000   101.0632     7.8901     0.0091     2.4738     0.1068   -35.1442     8.9391     9.7109    14.5632
  504.0000   100.4805     7.8914     0.0122     2.4814     0.1026   -35.4532     8.6917     9.7037    14.3615
  504.5000   100.1957     7.8928     0.0138     2.4867     0.1004   -35.6300     8.5133     9.4301    14.1626
  505.0000   100.2091     7.8792     0.0124     2.4838     0.1009   -36.0693     8.3954     9.1006    13.7731
  505.5000   100.5205     7.8805     0.0111     2.4778     0.1014   -36.5289     8.2792     8.7759    13.6774
  506.0000   101.8751     7.8818     0.0142     2.4899     0.0962   -36.8379     8.1645     8.4773    13.6774
  506.5000   103.2298     7.8832     0.0270     2.5058     0.0846   -37.7493     7.9400     8.1811    13.4880
  507.0000   105.0315     7.8845     0.0377     2.5201     0.0742   -39.2631     7.6147     7.9504    13.4880
  507.5000   105.9390     7.8859     0.0445     2.5344     0.0658   -42.1323     7.1515     7.9445    13.2088
  508.0000   105.6543     7.8872     0.0529     2.5495     0.0583   -47.2282     6.6235     7.9400    12.9354
  508.5000   105.3696     7.8885     0.0605     2.5556     0.0567   -52.1259     6.2642     7.9899    12.9354
  509.0000   105.3829     7.8899     0.0592     2.5534     0.0606   -53.7501     5.9244     7.9840    12.9354
  509.5000   105.8434     7.8912     0.0555     2.5272     0.0753   -53.7579     5.8017     7.9781    12.9354
  510.0000   106.8999     7.8926     0.0564     2.5047     0.0888   -53.7657     5.8017     7.9723    12.9354
  510.5000   108.2545     7.8939     0.0587     2.4905     0.0960   -53.7735     5.8832     7.9124    12.6647
  511.0000   109.7582     7.8952     0.0604     2.4816     0.1038   -53.7813     6.0076     7.4781    12.0476
  511.5000   110.3677     7.8966     0.0620     2.4719     0.1137   -53.7891     6.0919     7.1170     9.4917
  512.0000   110.3844     7.8830     0.0666     2.4547     0.1164   -53.7952     6.3080     7.0637     7.9955
