~VERSION INFORMATION
 VERS.                2.0:   CWLS LOG ASCII STANDARD - VERSION 2.0
 WRAP.                 NO:   ONE LINE PER DEPTH STEP
~WELL INFORMATION
#MNEM.UNIT      DATA TYPE    INFORMATION
#----------   ------------   ------------------------------
 STRT.F           30.0000:   START DEPTH
 STOP.F          562.0000:   STOP DEPTH
 STEP.F            0.5000:   STEP LENGTH
 NULL.          -999.2500:   NO VALUE
 COMP. LAWRENCE/ALLISON INC:   COMPANY
 WELL. 81-16 SHX-SX-10 #10-10:   WELL
 FLD .             TEAPOT:   FIELD
 LOC .      S10 T38N R78W:   LOCATION
 CNTY.            NATRONA:   COUNTY
 STAT.            WYOMING:   STATE
 CTRY. UNITED STATES OF AMERICA:   COUNTRY
 SRVC.           Gearhart:   SERVICE COMPANY
 DATE.        03-JUN-1987:   LOGDATE
 API .       490251113300:   API NUMBER
~CURVE INFORMATION
#MNEM.UNIT       API CODE    CURVE DESCRIPTION
#----------   ------------   ------------------------------
 DEPT.F                  :   
 GRR .GAPI   07 310 01 00:   GAMMA RAY FROM RES. LOG.
 RILD.OHMM   07 120 46 00:   INDUCTION LOG DEEP RESISTIVITY
 RILM.OHMM   07 120 44 00:   INDUCTION LOG MEDIUM RESISTIVITY
~PARAMETER INFORMATION
#MNEM.UNIT          VALUE    DESCRIPTION
#----------   ------------   ------------------------------
 PD  .                 GL:   PERMANENT DATUM
 EPD .F              5169:   ELEVATION PERMANENT DATUM
 LMF .                 KB:   LOG MEASURED FROM
 DAPD.F                 8:   FEET ABOVE PERMANENT DATUM
 DMF .                 KB:   DRILLING MEASURED FROM
 EKB .F              5177:   KELLING BUSHING
 EDF .F              5175:   DRILLING FLOOR
 EGL .F              5169:   GROUND LEVEL
 DATE.             6-3-87:   RUN DATE
 RUN .                  1:   RUN NUMBER
 DD  .F               570:   DEPTH DRILLER
 DL  .F               570:   DEPTH LOGGER
 BLI .F               562:   BOTTOM LOG INTERVAL
 TLI .F                30:   TOP LOG INTERVAL
 CS  .IN            8.625:   CASING SIZE
 CBD .F                50:   CASING BOTTOM DRILLER
 CBL .F                49:   CASING BOTTOM LOGGER
 BS  .IN            7.875:   BIT SIZE
 BSD .F               570:   BIT SIZE AT DEPTH
 DFT .               FOAM:   DRILLING FLUID TYPE
 TCS .HRS            0930:   TIME CURCULATED STOPPED
 TLAB.HRS            1101:   TIME LOGGER AT BOTTOM
 MRT .F                80:   MAXIMUM RECORDED TEMPERATURE
 LUN .               7597:   LOGGING UNIT NUMBER
 LUL .           GILLETTE:   LOGGING UNIT LOCATION
 ENGI. WEATHERMON/JOHNSTON:   RECORDING ENGINEER
 WITN.             STRONG:   WITNESSED BY
 CLNT.            A2DTECH:   CLIENT CODE
 ORIG.       2", 5" PRINT:   ORIGIN OF DATA
 UWI .       490251113300:   UNIQUE WELL ID
 DICO. A2D Technologies, Inc.:   DIGITIZING COMPANY
~OTHER INFORMATION
~A   DEPT       GRR      RILD       RILM   
# ...
  303.0000   120.0606     9.6922     9.2921
  303.5000   118.9807     9.6924     9.3555
  304.0000   119.0783     9.6922     9.4194
  304.5000   121.3163     9.6922     9.5116
  305.0000   122.0246     9.6923     9.4847
  305.5000   121.6886     9.6925     9.4380
  306.0000   121.3852     9.6932     9.3915
  306.5000   121.2163     9.6305     9.3453
  307.0000   121.0488     9.5628     9.2992
  307.5000   120.8765     9.4956     9.2531
  308.0000   120.7380     9.4288     9.2067
  308.5000   122.1434     9.3625     9.1605
  309.0000   126.9427     9.2967     9.4088
  309.5000   131.7561     9.2469     9.6792
  310.0000   133.2188     9.4373     9.9322
  310.5000   128.5128     9.5939    10.1304
  311.0000   123.2572     9.6924    10.3325
  311.5000   117.9000     9.0279    10.4498
  312.0000   113.6826     8.5046     9.7710
  312.5000   114.1265     8.0118     8.8344
  313.0000   117.5886     7.5476     7.9876
  313.5000   121.0254     7.3779     7.2221
  314.0000   123.3038     7.3772     6.4675
  314.5000   120.8526     7.3780     6.3469
  315.0000   118.3988     7.3737     6.5648
  315.5000   116.4868     7.7098     7.1005
  316.0000   116.5272     8.2877     7.6800
  316.5000   116.5316     8.9052     8.3067
  317.0000   116.1939     9.5688     8.9846
  317.5000   115.6148    10.2814     9.7177
  318.0000   115.3085    11.0472    10.5107
  318.5000   115.2952    11.6148    11.4928
  319.0000   114.7400    11.7955    11.5783
  319.5000   113.2575    11.9789    11.6644
  320.0000   113.6734    12.1474    11.7511
  320.5000   116.2610    12.8226    11.8511
  321.0000   118.7944    13.4718    11.9772
  321.5000   120.3088    14.5917    12.1046
  322.0000   113.5006    15.9171    13.5071
  322.5000   103.3201    17.3663    15.9577
  323.0000    91.9677    18.9369    17.5954
  323.5000    80.4726    21.4160    19.4963
  324.0000    68.9301    24.4091    22.5025
  324.5000    60.0624    27.7894    27.1650
  325.0000    55.7319    30.1055    32.8028
  325.5000    55.8013    31.8864    37.6130
  326.0000    57.7251    33.4299    39.3717
  326.5000    60.2210    34.1089    39.0453
  327.0000    62.9734    34.8002    38.6854
  327.5000    66.9021    35.5055    38.2781
  328.0000    70.4210    36.2251    39.7858
  328.5000    70.3318    36.9594    41.6049
  329.0000    64.8752    37.5646    43.5201
  329.5000    60.6581    37.3056    45.5196
  330.0000    58.5287    37.0895    46.2051
  330.5000    61.7119    36.8644    46.2051
  331.0000    66.9649    36.0075    44.9168
  331.5000    71.6407    35.1291    41.9964
  332.0000    74.9494    34.1917    38.8373
  332.5000    74.5424    34.2552    36.3820
  333.0000    74.2132    34.3444    34.9725
  333.5000    73.4096    34.4338    34.1917
  334.0000    72.4469    34.5149    34.1917
  334.5000    72.2549    36.3241    36.0174
  335.0000    72.1201    38.0587    38.1556
  335.5000    70.2023    39.8761    40.4195
  336.0000    67.9231    41.9430    42.8328
  336.5000    65.5658    44.2029    45.2538
  337.0000    65.0891    46.5845    47.6731
  337.5000    66.7897    47.5252    50.1937
  338.0000    69.8866    46.5662    52.8536
  338.5000    73.0384    45.8059    55.2455
  339.0000    73.1135    45.0579    55.2423
  339.5000    72.1849    44.4962    55.2773
  340.0000    72.0936    43.5274    50.3559
  340.5000    75.6724    42.4237    47.1808
  341.0000    78.2586    41.3479    44.2048
  341.5000    76.4200    40.2995    42.2691
  342.0000    74.5161    39.3738    40.5876
  342.5000    75.4877    39.3738    39.7460
  343.0000    78.6452    39.3738    39.3738
  343.5000    81.6289    39.3738    40.1374
  344.0000    83.0796    39.0483    41.8239
  344.5000    82.7007    38.3735    43.6668
  345.0000    79.7947    37.7104    44.5117
  345.5000    76.0518    36.9052    44.5188
  346.0000    74.0882    35.6407    41.4306
  346.5000    75.2911    34.4195    39.0051
  347.0000    79.0873    33.2402    35.5029
  347.5000    82.8295    31.7128    32.1635
  348.0000    85.5377    30.2556    28.8653
  348.5000    84.9283    28.8653    28.1146
  349.0000    84.3846    27.5389    27.4861
  349.5000    84.0620    27.4350    26.8717
  350.0000    84.8593    27.2811    26.2707
  350.5000    86.3069    27.3603    25.6788
  351.0000    86.1243    27.5158    25.2974
  351.5000    85.9814    27.6721    25.5113
  352.0000    85.9838    27.8294    25.6976
  352.5000    86.0916    27.9874    25.8852
  353.0000    86.1966    28.1473    26.0793
  353.5000    86.2541    28.3032    26.3032
  354.0000    88.2591    28.6609    26.5283
  354.5000    90.5119    29.0454    26.7708
  355.0000    92.7639    29.4366    26.9960
  355.5000    92.8913    29.8306    27.2403
  356.0000    90.7634    30.2250    27.4875
  356.5000    87.1588    30.5415    28.1057
  357.0000    83.5060    30.3939    28.8371
  357.5000    81.4731    30.2720    29.6953
  358.0000    80.6124    30.2557    29.6924
  358.5000    82.2105    30.2560    29.6947
  359.0000    86.2632    30.2556    29.4734
  359.5000    90.3023    30.0293    28.8106
  360.0000    92.0288    29.3878    28.1627
  360.5000    90.3312    28.7601    27.5293
  361.0000    87.4587    28.1457    26.9102
  361.5000    84.5668    27.5445    26.3050
  362.0000    81.6797    26.9561    25.7108
  362.5000    80.1852    26.5460    25.2024
  363.0000    80.2370    26.2181    24.8323
  363.5000    83.3180    25.8942    24.5270
  364.0000    86.6763    25.5743    23.9144
  364.5000    88.6255    25.2584    23.9321
  365.0000    88.1548    24.9463    23.9625
  365.5000    87.6844    24.8315    23.9928
  366.0000    89.2132    24.8315    24.0233
  366.5000    91.7328    24.7932    24.0539
  367.0000    92.4237    24.7139    24.0840
  367.5000    90.1438    24.6362    24.1140
  368.0000    87.5933    24.5014    24.1376
  368.5000    85.0577    24.2351    23.6950
  369.0000    83.0305    23.9694    23.3176
  369.5000    84.3303    23.7068    22.9462
  370.0000    87.3888    23.4472    22.5807
  370.5000    89.0933    23.1905    22.2210
  371.0000    90.4119    22.9366    21.8669
  371.5000    91.6889    22.7690    21.5173
  372.0000    93.0022    22.6345    21.1629
  372.5000    93.0989    22.4987    21.0433
  373.0000    92.0439    22.3634    20.9234
  373.5000    91.0033    22.2292    20.8028
  374.0000    89.9307    21.9550    20.6829
  374.5000    87.8039    21.6053    20.5725
  375.0000    85.7414    21.2612    20.3991
  375.5000    84.9394    20.9226    20.2035
  376.0000    87.2227    20.6622    20.0098
  376.5000    89.4360    20.4739    19.8178
  377.0000    90.9109    20.2849    19.6274
  377.5000    88.7375    20.0979    19.4434
  378.0000    86.6095    19.9126    19.4183
  378.5000    86.6961    19.8127    19.3937
  379.0000    86.5081    19.8127    19.3691
  379.5000    86.2973    19.8128    19.3446
  380.0000    88.0980    19.8127    19.3204
  380.5000    88.9886    19.8125    19.2963
  381.0000    87.8666    19.8127    19.2712
  381.5000    86.7301    19.8127    19.1126
  382.0000    86.6031    19.5032    18.7479
  382.5000    87.2448    19.0150    18.3901
  383.0000    87.8892    18.5390    18.0803
  383.5000    87.7531    18.0338    17.8209
  384.0000    87.6449    17.7647    17.5652
  384.5000    88.4339    17.6200    17.3131
  385.0000    89.2287    17.4795    17.0644
  385.5000    89.9585    17.3400    16.8203
  386.0000    89.3121    17.2015    16.7106
  386.5000    88.5845    17.0626    16.6441
  387.0000    88.9959    16.9689    16.5777
  387.5000    91.6199    16.8557    16.5120
  388.0000    94.4349    16.7433    16.3946
  388.5000    97.2425    16.6317    16.2780
  389.0000    97.4348    16.5208    16.1623
  389.5000    94.6798    16.4107    16.0474
  390.0000    91.2288    16.2608    15.9564
  390.5000    87.9834    16.3331    15.8717
  391.0000    88.6610    16.4486    15.8092
  391.5000    94.8262    16.5650    16.0316
  392.0000   100.3507    16.6821    16.2108
  392.5000    98.5609    16.8001    16.3920
  393.0000    93.3598    16.9190    16.5753
  393.5000    89.0693    17.0387    16.7271
