~VERSION INFORMATION
 VERS.                2.0:   CWLS LOG ASCII STANDARD - VERSION 2.0
 WRAP.                 NO:   ONE LINE PER DEPTH STEP
~WELL INFORMATION
#MNEM.UNIT      DATA TYPE    INFORMATION
#----------   ------------   ------------------------------
 STRT.F           13.0000:   START DEPTH
 STOP.F          508.0000:   STOP DEPTH
 STEP.F            0.5000:   STEP LENGTH
 NULL.          -999.2500:   NO VALUE
 COMP. LAWRENCE/ALLISON INC:   COMPANY
 WELL.    51-35 SX #10-10:   WELL
 FLD .             TEAPOT:   FIELD
 LOC .      S10 T38N R78W:   LOCATION
 CNTY.            NATRONA:   COUNTY
 STAT.            WYOMING:   STATE
 CTRY. UNITED STATES OF AMERICA:   COUNTRY
 SRVC.       Schlumberger:   SERVICE COMPANY
 DATE.        26-FEB-1988:   LOGDATE
 API .       490251115500:   API NUMBER
~CURVE INFORMATION
#MNEM.UNIT       API CODE    CURVE DESCRIPTION
#----------   ------------   ------------------------------
 DEPT.F                  :   
 GRR .GAPI   07 310 01 00:   GAMMA RAY
 RILD.OHMM   07 120 46 00:   INDUCTION LOG DEEP RESISTIVITY
 RILM.OHMM   07 120 44 00:   RESITIVITY LONG MEDIUM
~PARAMETER INFORMATION
#MNEM.UNIT          VALUE    DESCRIPTION
#----------   ------------   ------------------------------
 PD  .                 GL:   PERMANENT DATUM
 EPD .F              5181:   ELEVATION PERMANENT DATUM
 LMF .                 KB:   LOG MEASURED FROM
 DAPD.F                 8:   FEET ABOVE PERMANENT DATUM
 DMF .                 KB:   DRILLING MEASURED FROM
 EKB .F              5189:   KELLING BUSHING
 EDF .F              5188:   DRILLING FLOOR
 EGL .F              5181:   GROUND LEVEL
 DATE.        26-FEB-1988:   RUN DATE
 RUN .                  1:   RUN NUMBER
 DD  .F               458:   DEPTH DRILLER
 DL  .F               440:   DEPTH LOGGER
 BLI .F               430:   BOTTOM LOG INTERVAL
 TLI .F               140:   TOP LOG INTERVAL
 CS  .IN            8.625:   CASING SIZE
 CBD .F                46:   CASING BOTTOM DRILLER
 CBL .F                46:   CASING BOTTOM LOGGER
 BSD .F               458:   BIT SIZE AT DEPTH
 DFT .          WATER/AIR:   DRILLING FLUID TYPE
 BHT .F               172:   BOTTOM HOLE TEMPERATURE
 TLAB.HRS            0830:   TIME LOGGER AT BOTTOM
 MRT .F               172:   MAXIMUM RECORDED TEMPERATURE
 LUN .               8256:   LOGGING UNIT NUMBER
 LUL .             CASPER:   LOGGING UNIT LOCATION
 ENGI.      PREISLER/FINK:   RECORDING ENGINEER
 WITN.               LOWE:   WITNESSED BY
 CLNT.            A2DTECH:   CLIENT CODE
 ORIG.           5" PRINT:   ORIGIN OF DATA
 UWI .       490251115500:   UNIQUE WELL ID
 DICO. A2D Technologies, Inc.:   DIGITIZING COMPANY
~OTHER INFORMATION
~A   DEPT       GRR      RILD       RILM   
# ...
  286.0000    63.0751    19.4713    20.3366
  286.5000    68.8796    19.3398    19.3688
  287.0000    74.0743    19.4802    18.0635
  287.5000    75.3056    19.4841    17.3249
  288.0000    73.7930    19.3516    16.8520
  288.5000    74.1159    19.3565    16.8566
  289.0000    76.6463    19.2249    17.2192
  289.5000    79.0144    18.9623    17.3449
  290.0000    72.9286    18.8352    17.3497
  290.5000    68.9770    18.9710    17.3544
  291.0000    67.7663    18.9750    17.3591
  291.5000    68.3909    19.1125    17.3638
  292.0000    69.0124    19.1164    17.3687
  292.5000    69.0242    18.9864    17.3745
  293.0000    67.5146    18.9912    17.2567
  293.5000    66.0020    18.8620    17.3827
  294.0000    65.7060    18.8081    17.3882
  294.5000    67.5501    18.6739    17.3934
  295.0000    71.8302    18.4835    17.3981
  295.5000    75.1956    18.3597    17.4029
  296.0000    76.7318    18.3509    17.4077
  296.5000    77.6585    18.2077    17.4135
  297.0000    77.0603    17.9227    17.4183
  297.5000    76.1605    17.8679    17.3002
  298.0000    77.3918    17.6248    16.9463
  298.5000    79.2329    17.3841    16.8314
  299.0000    78.3300    17.0274    16.4871
  299.5000    74.9882    16.7957    16.4916
  300.0000    71.9512    16.6815    16.4960
  300.5000    70.7435    16.4537    16.3854
  301.0000    71.0632    16.4578    16.2754
  301.5000    72.5994    16.3459    16.1662
  302.0000    74.1356    16.2355    16.1717
  302.5000    75.3669    16.2397    16.0621
  303.0000    75.6806    16.1300    15.9555
  303.5000    73.8661    16.0211    15.8484
  304.0000    72.0366    16.0252    15.8794
  304.5000    70.8410    16.1396    15.9589
  305.0000    71.1606    16.0313    15.6295
  305.5000    72.3919    15.9232    15.3084
  306.0000    73.3184    15.8157    15.2045
  306.5000    73.0253    15.7089    14.9937
  307.0000    72.1195    15.6029    14.7906
  307.5000    71.5244    15.3898    14.6903
  308.0000    73.4392    15.0748    14.4897
  308.5000    75.8194    14.7655    14.3907
  309.0000    76.1361    14.6658    13.9967
  309.5000    75.5381    14.5668    13.8048
  310.0000    74.3305    14.5631    13.5205
  310.5000    73.1227    14.3708    13.2363
  311.0000    72.2199    14.2745    12.9700
  311.5000    71.6220    13.9816    12.7922
  312.0000    70.3781    13.7907    12.4413
  312.5000    69.2066    13.5077    12.1845
  313.0000    69.8311    13.3233    12.0175
  313.5000    71.3673    13.3260    11.8533
  314.0000    73.2084    13.2360    11.8557
  314.5000    74.1348    13.2388    11.9415
  315.0000    73.2320    13.1493    12.1130
  315.5000    71.7104    13.0605    12.2864
  316.0000    70.3882    13.1553    12.3753
  316.5000    68.8781    13.1580    12.4648
  317.0000    69.8250    13.1607    12.5550
  317.5000    71.6631    13.1633    12.5575
  318.0000    73.5012    13.1660    12.6483
  318.5000    74.7296    13.0771    12.5626
  319.0000    73.8239    12.8985    12.5658
  319.5000    70.4791    12.8858    12.3929
  320.0000    68.3538    12.7256    12.2230
  320.5000    66.2285    12.6390    12.0554
  321.0000    68.3738    12.4670    11.9737
  321.5000    70.2119    12.2967    11.8931
  322.0000    72.3549    12.1288    11.8956
  322.5000    73.5833    11.8800    11.8986
  323.0000    74.8117    11.8830    11.8174
  323.5000    76.3450    11.8854    11.7373
  324.0000    75.7441    11.8878    11.6577
  324.5000    73.6057    11.8903    11.5787
  325.0000    72.4082    11.8927    11.5817
  325.5000    73.9436    11.8951    11.5840
  326.0000    75.7818    11.9808    11.5864
  326.5000    76.4004    12.0694    11.5893
  327.0000    77.0191    12.2393    11.5913
  327.5000    76.4159    12.3276    11.5937
  328.0000    75.8171    12.5038    11.6779
  328.5000    74.9025    12.5064    11.7624
  329.0000    73.7009    12.5089    11.7648
  329.5000    72.1876    12.5991    11.7672
  330.0000    72.5013    12.6016    11.6874
  330.5000    73.7297    12.6042    11.6904
  331.0000    72.5191    12.6068    11.6106
  331.5000    72.5279    12.6100    11.6135
  332.0000    73.4515    12.4377    11.6975
  332.5000    74.3750    12.2672    11.6999
  333.0000    72.3842    12.0997    11.7846
  333.5000    68.9071    11.9344    11.7047
  334.0000    67.0867    11.7719    11.6254
  334.5000    73.1932    11.6925    11.3065
  335.0000    76.2508    11.6136    10.9969
  335.5000    77.1721    11.5358    10.8461
  336.0000    75.3539    11.3783    10.6228
  336.5000    74.1423    11.3009    10.4040
  337.0000    73.8473    11.2251    10.3335
  337.5000    73.8584    11.3060    10.2635
  338.0000    73.2553    11.5475    10.3382
  338.5000    75.7054    11.9599    10.4130
  339.0000    78.1533    12.7473    10.7111
  339.5000    79.6865    14.0767    11.4103
  340.0000    77.2564    15.2784    12.4133
  340.5000    72.3872    15.8240    13.6950
  341.0000    68.0245    16.5039    16.2052
  341.5000    60.8218    17.7002    18.3059
  342.0000    61.4404    19.7948    20.2857
  342.5000    62.9737    20.9354    21.1607
  343.0000    63.8972    21.6831    21.4636
  343.5000    62.9892    22.3349    21.6189
  344.0000    62.3008    22.9383    21.9283
  344.5000    64.2287    23.2654    22.0869
  345.0000    66.4024    22.9477    22.2467
  345.5000    65.1633    22.7916    22.2514
  346.0000    62.1234    22.7974    22.5708
  346.5000    60.3030    22.8020    22.8939
  347.0000    59.3950    22.8067    22.8985
  347.5000    59.0990    22.9711    22.9032
  348.0000    59.4150    23.1377    22.9079
  348.5000    60.9482    22.9803    22.7526
  349.0000    61.8718    22.8252    22.4293
  349.5000    60.0536    22.6711    22.1175
  350.0000    60.6722    22.3615    21.6772
  350.5000    63.1201    22.2105    21.3811
  351.0000    64.6534    22.0615    21.0869
  351.5000    65.5769    21.9127    20.9440
  352.0000    66.8053    21.7648    20.9493
  352.5000    67.7288    21.4686    20.9536
  353.0000    65.5367    21.1754    20.9580
  353.5000    62.5658    21.0314    20.9632
  354.0000    60.7454    20.7452    20.6758
  354.5000    59.5326    20.4618    20.3923
  355.0000    59.5436    20.0421    19.6945
  355.5000    63.8208    19.6309    18.8879
  356.0000    66.5736    19.1998    18.2416
  356.5000    65.3629    18.7027    17.8631
  357.0000    64.4572    18.3190    17.4794
  357.5000    63.5536    17.9441    17.3794
  358.0000    63.2554    17.8220    17.5060
  358.5000    62.7073    17.7017    17.5096
  359.0000    62.4143    17.8301    17.5132
  359.5000    63.6485    17.7098    17.3936
  360.0000    64.8798    17.4599    17.2765
  360.5000    67.3306    17.3500    17.1519
  361.0000    69.7814    17.3544    16.9242
  361.5000    71.9274    17.2372    16.9285
  362.0000    72.2441    17.2407    16.8129
  362.5000    72.2561    17.1243    16.9354
  363.0000    72.2706    17.1278    16.9389
  363.5000    72.8921    17.1312    16.9423
  364.0000    73.8186    17.1348    16.9023
  364.5000    74.4401    17.1384    16.7484
  365.0000    72.9275    17.0225    16.7530
  365.5000    70.1954    16.9076    16.6394
  366.0000    68.3658    16.7935    16.4124
  366.5000    67.4751    16.4489    16.3034
  367.0000    69.6240    16.3379    16.1938
  367.5000    70.8553    16.1154    15.9730
  368.0000    72.0866    16.0067    15.9626
  368.5000    72.7081    16.0101    15.5412
  369.0000    72.4146    16.0141    15.2222
  369.5000    72.1219    16.0173    14.9097
  370.0000    72.4390    16.0206    14.7053
  370.5000    73.6729    16.0238    14.4044
  371.0000    73.9866    16.0740    14.3077
  371.5000    73.3886    16.0784    14.3117
  372.0000    72.4887    16.0837    14.5185
  372.5000    72.1957    16.0881    14.6245
  373.0000    71.2927    16.0924    14.7312
  373.5000    69.1433    15.9838    14.5303
  374.0000    67.0511    15.7665    14.3311
  374.5000    66.1453    15.5533    14.1365
  375.0000    66.4649    15.3419    13.9436
  375.5000    67.3913    15.2393    13.8501
  376.0000    67.7080    15.0322    13.8548
  376.5000    67.7198    14.8279    13.8585
