~VERSION INFORMATION
 VERS.                2.0:   CWLS LOG ASCII STANDARD - VERSION 2.0
 WRAP.                 NO:   ONE LINE PER DEPTH STEP
~WELL INFORMATION
#MNEM.UNIT      DATA TYPE    INFORMATION
#----------   ------------   ------------------------------
 STRT.F           40.0000:   START DEPTH
 STOP.F          459.0000:   STOP DEPTH
 STEP.F            0.5000:   STEP LENGTH
 NULL.          -999.2500:   NO VALUE
 COMP. BROWN JOHN E&C INC:   COMPANY
 WELL. NPR 3 63-34  X 10 #63-10:   WELL
 FLD .             TEAPOT:   FIELD
 LOC .      S10 T38N R78W:   LOCATION
 CNTY.            NATRONA:   COUNTY
 STAT.            WYOMING:   STATE
 CTRY. UNITED STATES OF AMERICA:   COUNTRY
 SRVC.       Schlumberger:   SERVICE COMPANY
 DATE.        25-SEP-1990:   LOGDATE
 API .       490251132100:   API NUMBER
~CURVE INFORMATION
#MNEM.UNIT       API CODE    CURVE DESCRIPTION
#----------   ------------   ------------------------------
 DEPT.F                  :   
 GRR .GAPI   07 310 01 00:   GAMMA RAY FROM RES. LOG.
 ILD .OHMM   07 120 46 00:   INDUCTION LOG DEEP
 ILM .OHMM   07 120 44 00:   INDUCTION LOG MEDIUM
~PARAMETER INFORMATION
#MNEM.UNIT          VALUE    DESCRIPTION
#----------   ------------   ------------------------------
 PD  .                 GL:   PERMANENT DATUM
 EPD .F              5178:   ELEVATION PERMANENT DATUM
 LMF .                 KB:   LOG MEASURED FROM
 DAPD.F                10:   FEET ABOVE PERMANENT DATUM
 DMF .                 KB:   DRILLING MEASURED FROM
 EKB .F              5188:   KELLING BUSHING
 EDF .F              5187:   DRILLING FLOOR
 EGL .F              5178:   GROUND LEVEL
 DATE.          9-25-1990:   RUN DATE
 RUN .                  1:   RUN NUMBER
 DD  .F               464:   DEPTH DRILLER
 DL  .F               465:   DEPTH LOGGER
 BLI .F               459:   BOTTOM LOG INTERVAL
 TLI .F                40:   TOP LOG INTERVAL
 CS  .IN            8.625:   CASING SIZE
 CBD .F                48:   CASING BOTTOM DRILLER
 CBL .F                46:   CASING BOTTOM LOGGER
 BS  .IN            7.875:   BIT SIZE
 BSD .F               464:   BIT SIZE AT DEPTH
 DFT .                AIR:   DRILLING FLUID TYPE
 TLAB.HRS            2200:   TIME LOGGER AT BOTTOM
 LUN .               5882:   LOGGING UNIT NUMBER
 LUL .               CODY:   LOGGING UNIT LOCATION
 ENGI.             FISHER:   RECORDING ENGINEER
 WITN.             STRONG:   WITNESSED BY
 CLNT.            A2DTECH:   CLIENT CODE
 ORIG.       2", 5" PRINT:   ORIGIN OF DATA
 UWI .       490251132100:   UNIQUE WELL ID
 DICO. A2D Technologies, Inc.:   DIGITIZING COMPANY
~OTHER INFORMATION
~A   DEPT       GRR       ILD        ILM   
# ...
  404.0000   115.8697    12.6851    12.4994
  404.5000   114.7169    12.5763    12.3918
  405.0000   113.7065    12.4683    12.2852
  405.5000   114.9022    12.3613    12.1794
  406.0000   116.5073    12.2553    12.0746
  406.5000   114.8836    12.1500    11.9706
  407.0000   112.9247    12.0417    11.8676
  407.5000   111.6044    11.9332    11.7654
  408.0000   111.3534    11.7923    11.6642
  408.5000   112.2864    11.9027    11.5444
  409.0000   113.2820    11.5226    11.2691
  409.5000   114.3334    11.2750    11.0005
  410.0000   115.2811    11.0327    10.7380
  410.5000   116.1811    10.8436    10.4829
  411.0000   116.9891    10.5819    10.2540
  411.5000   117.5791    10.3978    10.0256
  412.0000   118.2154    10.2684     9.8203
  412.5000   120.8171    10.1589     9.6193
  413.0000   123.5478     9.4493     9.4291
  413.5000   124.9190     9.1692     8.3976
  414.0000   124.4467     7.9351     7.4815
  414.5000   125.5304     6.9319     6.6654
  415.0000   130.1144     6.1995     5.9384
  415.5000   144.4726     6.0850     5.2906
  416.0000   153.0652     5.9726     4.8656
  416.5000   153.7208     5.9172     5.3292
  417.0000   141.3808     6.0980     5.9249
  417.5000   131.1457     6.3689     6.5900
  418.0000   124.3807     6.9396     7.3285
  418.5000   117.3353     7.6574     8.1503
  419.0000   115.5747     8.4501     9.0628
  419.5000   114.6956     9.3223    10.1589
  420.0000   114.1402    10.5545    10.1731
  420.5000   120.0224    10.5526    10.2004
  421.0000   123.6572    10.4966    10.2278
  421.5000   124.0230    10.4525    10.2540
  422.0000   120.8919    10.4463    10.2510
  422.5000   118.6560    10.7395    10.5483
  423.0000   119.1619    10.9967    10.8314
  423.5000   119.8331    11.2863    11.1208
  424.0000   120.9933    11.5726    11.4172
  424.5000   122.4386    11.7325    11.6225
  425.0000   124.8496    11.9212    11.8106
  425.5000   126.8226    12.1146    12.0022
  426.0000   127.3421    12.3111    12.1603
  426.5000   125.8185    12.5107    12.3652
  427.0000   124.0589    12.7137    12.5735
  427.5000   123.3154    12.9199    12.7854
  428.0000   122.1966    13.1295    13.0008
  428.5000   122.3567    13.2206    13.1905
  429.0000   122.5224    13.2830    13.2107
  429.5000   122.4831    13.3458    13.2310
  430.0000   121.6397    13.4087    13.2512
  430.5000   116.8670    13.4720    13.2716
  431.0000   111.9690    13.5356    13.2919
  431.5000   110.7593    13.5995    13.3123
  432.0000   110.5600    13.6637    13.3327
  432.5000   109.6875    13.6883    13.3532
  433.0000   110.8084    13.6362    13.3736
  433.5000   113.8904    13.5995    13.3941
  434.0000   116.8690    13.5615    13.4147
  434.5000   118.1921    13.5611    13.4349
  435.0000   115.7425    13.5613    13.4357
  435.5000   113.3537    13.5614    13.4356
  436.0000   111.4985    13.5614    13.4356
  436.5000   109.7418    13.5614    13.4356
  437.0000   108.1363    13.5615    13.4358
  437.5000  -999.2500    13.5609    13.4356
  438.0000  -999.2500    13.5632    13.3012
  438.5000  -999.2500    13.3522    13.1365
  439.0000  -999.2500    13.1507    12.9740
  439.5000  -999.2500    12.9431    12.8133
  440.0000  -999.2500    12.9438    12.6547
  440.5000  -999.2500    12.7512    12.4980
  441.0000  -999.2500    12.5117    12.3433
  441.5000  -999.2500    12.2758    12.1905
  442.0000  -999.2500    12.0445    12.0396
  442.5000  -999.2500    11.8176    11.8905
  443.0000  -999.2500    11.5950    11.7433
  443.5000  -999.2500    11.4253    11.5980
  444.0000  -999.2500    11.3255    11.4520
  444.5000  -999.2500    11.2265    11.3075
  445.0000  -999.2500    11.1284    11.1650
  445.5000  -999.2500    10.9452    11.0060
  446.0000  -999.2500    11.0476    10.7633
  446.5000  -999.2500    10.8009    10.5263
  447.0000  -999.2500    10.6487    10.3687
  447.5000  -999.2500    10.5162    10.2447
  448.0000  -999.2500    10.4243    10.2148
  448.5000  -999.2500    10.3500    10.1850
  449.0000  -999.2500    10.3500    10.1553
  449.5000  -999.2500    10.3500    10.1256
  450.0000  -999.2500    10.3498    10.0961
  450.5000  -999.2500    10.3506    10.0649
  451.0000  -999.2500    10.2904     9.9826
  451.5000  -999.2500    10.1836     9.8956
  452.0000  -999.2500    10.0776     9.8093
  452.5000  -999.2500     9.9726     9.7238
  453.0000  -999.2500     9.8688     9.6177
  453.5000  -999.2500     9.7661     9.5026
  454.0000  -999.2500     9.6644     9.3889
  454.5000  -999.2500     9.5638     9.3076
  455.0000  -999.2500     9.4642     9.2494
  455.5000  -999.2500     9.4108     9.1915
  456.0000  -999.2500     9.3825     9.1339
  456.5000  -999.2500     9.3543     9.0841
  457.0000  -999.2500     9.3416     9.0100
  457.5000  -999.2500     9.3416     8.9315
  458.0000  -999.2500     9.3416     8.8536
  458.5000  -999.2500     9.3416     8.7765
  459.0000  -999.2500     9.3416     8.9566
