~VERSION INFORMATION
 VERS.                2.0:   CWLS LOG ASCII STANDARD - VERSION 2.0
 WRAP.                 NO:   ONE LINE PER DEPTH STEP
~WELL INFORMATION
#MNEM.UNIT      DATA TYPE    INFORMATION
#----------   ------------   ------------------------------
 STRT.F           14.0000:   START DEPTH
 STOP.F          608.0000:   STOP DEPTH
 STEP.F            0.1000:   STEP LENGTH
 NULL.          -999.2500:   NO VALUE
 COMP. FENIX & SCISSON INC:   COMPANY
 WELL. NAVAL PETROLEUM RESERVE 3 S-15 #72-15:   WELL
 FLD .             TEAPOT:   FIELD
 LOC .      S15 T38N R78W:   LOCATION
 CNTY.            NATRONA:   COUNTY
 STAT.            WYOMING:   STATE
 CTRY. UNITED STATES OF AMERICA:   COUNTRY
 SRVC.           BIRDWELL:   SERVICE COMPANY
 DATE.        21-JUL-1978:   LOGDATE
 API .       490251067300:   API NUMBER
~CURVE INFORMATION
#MNEM.UNIT       API CODE    CURVE DESCRIPTION
#----------   ------------   ------------------------------
 DEPT.F                  :   
 ILD .OHMM   05 120 46 00:   INDUCTION LOG DEEP
 SN  .OHMM   05 040 16 00:   SHORT NORMAL 16"
 SPR .MV     05 010 01 00:   SPONTANEOUS POTENTIAL FROM RES.
 CALD.IN     45 280 60 00:   CALIPER FROM DENSITY LOG
 DPHI.DEC    45 890 12 00:   DENSITY POROSITY SANDSTONE
 DRHO.G/C3   45 356 01 00:   DENSITY CORRECTION
 GRD .GAPI   45 310 01 00:   GAMMA RAY FROM DENSITY LOG
 RHOB.G/C3   45 350 01 00:   BULK DENSITY
~PARAMETER INFORMATION
#MNEM.UNIT          VALUE    DESCRIPTION
#----------   ------------   ------------------------------
 PD  .                 GL:   PERMANENT DATUM
 EPD .F              5238:   ELEVATION PERMANENT DATUM
 LMF .                 KB:   LOG MEASURED FROM
 DAPD.F                 4:   FEET ABOVE PERMANENT DATUM
 DMF .                 KB:   DRILLING MEASURED FROM
 EKB .F              5242:   KELLING BUSHING
 EGL .F              5238:   GROUND LEVEL
 DATE.        21-JUL-1978:   RUN DATE
 RUN .                  1:   RUN NUMBER
 DD  .F               597:   DEPTH DRILLER
 DL  .F               615:   DEPTH LOGGER
 BLI .F               608:   BOTTOM LOG INTERVAL
 TLI .F                35:   TOP LOG INTERVAL
 CS  .IN            8.625:   CASING SIZE
 CBD .F                40:   CASING BOTTOM DRILLER
 CBL .F                35:   CASING BOTTOM LOGGER
 BS  .IN            7.875:   BIT SIZE
 BSD .F               597:   BIT SIZE AT DEPTH
 DFT .                KCL:   DRILLING FLUID TYPE
 DFD .                8.6:   DRILLING FLUID DENSITY
 DFV .                 33:   DRILLING FLUID VISCOSITY
 DFPH.                9.0:   DRILLING FLUID PH
 MSS .            MUD PIT:   MUD SAMPLE SOURCE
 MFSS.               MEAS:   MUD FILTRATE SAMPLE SOURCE
 MCSS.               MEAS:   MUD CAKE SAMPLE SOURCE
 BHT .F                74:   BOTTOM HOLE TEMPERATURE
 TCS .HRS               2:   TIME CURCULATED STOPPED
 MRT .F                74:   MAXIMUM RECORDED TEMPERATURE
 LUN .               2958:   LOGGING UNIT NUMBER
 LUL .             CASPER:   LOGGING UNIT LOCATION
 ENGI.             MILLER:   RECORDING ENGINEER
 WITN.           MCGINLEY:   WITNESSED BY
 CLNT.            A2DTECH:   CLIENT CODE
 ORIG.           5" PRINT:   ORIGIN OF DATA
 UWI .       490251067300:   UNIQUE WELL ID
 DICO. A2D Technologies, Inc.:   DIGITIZING COMPANY
~OTHER INFORMATION
~A   DEPT      ILD         SN        SPR       CALD       DPHI       DRHO         GRD      RHOB   
# ...
   78.8000     6.9195     7.5598   -13.1446     7.8138     0.1245     0.0452    83.3903     2.4717
   78.9000     6.9192     7.5594   -13.2670     7.8137     0.1235     0.0466    83.7143     2.4729
   79.0000     6.9190     7.5835   -13.4063     7.8136     0.1225     0.0466    84.1327     2.4741
   79.1000     6.9187     7.6110   -13.4060     7.8135     0.1211     0.0466    84.5994     2.4756
   79.2000     6.9184     7.6162   -13.4057     7.8134     0.1195     0.0466    84.9822     2.4766
   79.3000     6.9181     7.6629   -13.4565     7.8133     0.1180     0.0466    85.6857     2.4778
   79.4000     6.9178     7.6625   -13.5788     7.8132     0.1167     0.0466    86.5096     2.4795
   79.5000     6.9175     7.6922   -13.7046     7.8131     0.1145     0.0466    87.3670     2.4819
   79.6000     6.9172     7.7354   -13.7043     7.8131     0.1128     0.0466    88.1267     2.4846
   79.7000     6.9169     7.7678   -13.7959     7.8130     0.1121     0.0466    88.6164     2.4857
   79.8000     6.9111     7.7674   -13.8537     7.8177     0.1126     0.0466    89.2017     2.4869
   79.9000     6.8914     7.7670   -13.8907     7.8237     0.1142     0.0466    89.5958     2.4881
   80.0000     6.8685     7.7665   -14.0030     7.8278     0.1181     0.0466    90.0151     2.4891
   80.1000     6.8682     7.7661   -14.0027     7.8277     0.1220     0.0466    90.4243     2.4890
   80.2000     6.8679     7.7493   -14.0024     7.8276     0.1248     0.0466    90.9140     2.4878
   80.3000     6.8626     7.7118   -14.0021     7.8275     0.1267     0.0466    91.4612     2.4861
   80.4000     6.8495     7.7114   -14.0018     7.8294     0.1278     0.0466    91.6770     2.4839
   80.5000     6.8363     7.7109   -14.0250     7.8324     0.1283     0.0466    91.8416     2.4817
   80.6000     6.8232     7.7105   -14.1511     7.8354     0.1283     0.0466    92.0153     2.4798
   80.7000     6.8055     7.7101   -14.1508     7.8384     0.1277     0.0466    92.2131     2.4778
   80.8000     6.7860     7.7036   -14.1963     7.8414     0.1270     0.0467    92.2123     2.4761
   80.9000     6.7614     7.6814   -14.2573     7.8421     0.1263     0.0467    92.3295     2.4743
   81.0000     6.7249     7.6556   -14.2998     7.8420     0.1253     0.0466    92.4515     2.4725
   81.1000     6.7246     7.6553   -14.2996     7.8419     0.1245     0.0452    92.6347     2.4708
   81.2000     6.7244     7.6415   -14.2992     7.8418     0.1238     0.0452    92.8133     2.4695
   81.3000     6.7241     7.6195   -14.2990     7.8417     0.1230     0.0452    92.8221     2.4702
   81.4000     6.7238     7.5936   -14.2986     7.8416     0.1219     0.0452    93.1136     2.4713
   81.5000     6.7177     7.5485   -14.2984     7.8415     0.1215     0.0452    93.3112     2.4732
   81.6000     6.6770     7.5481   -14.3212     7.8414     0.1207     0.0452    93.4850     2.4754
   81.7000     6.6767     7.5162   -14.4477     7.8414     0.1201     0.0440    93.6069     2.4772
   81.8000     6.6498     7.4953   -14.4474     7.8413     0.1203     0.0437    93.7147     2.4793
   81.9000     6.6302     7.4822   -14.4471     7.8412     0.1213     0.0437    93.7140     2.4809
   82.0000     6.6299     7.4429   -14.4468     7.8411     0.1227     0.0437    93.0618     2.4819
   82.1000     6.6283     7.4424   -14.4832     7.8410     0.1245     0.0437    91.8438     2.4826
   82.2000     6.5837     7.4059   -14.5961     7.8409     0.1266     0.0437    90.6327     2.4832
   82.3000     6.5835     7.3904   -14.5958     7.8408     0.1287     0.0437    89.8932     2.4838
   82.4000     6.5614     7.3724   -14.5955     7.8407     0.1306     0.0437    89.6386     2.4832
   82.5000     6.5377     7.3387   -14.5952     7.8406     0.1315     0.0437    89.4017     2.4825
   82.6000     6.5374     7.3383   -14.5949     7.8405     0.1319     0.0437    89.1560     2.4816
   82.7000     6.5371     7.3379   -14.5946     7.8405     0.1321     0.0437    88.8486     2.4802
   82.8000     6.5369     7.3375   -14.5943     7.8404     0.1317     0.0437    88.5136     2.4783
   82.9000     6.5366     7.3145   -14.5940     7.8403     0.1307     0.0429    88.2679     2.4755
   83.0000     6.5363     7.2728   -14.5937     7.8402     0.1294     0.0422    87.9758     2.4728
   83.1000     6.5360     7.2356   -14.6571     7.8401     0.1282     0.0422    87.5775     2.4698
   83.2000     6.5358     7.2352   -14.7430     7.8400     0.1272     0.0422    87.1578     2.4675
   83.3000     6.5354     7.2348   -14.7427     7.8399     0.1262     0.0422    86.7894     2.4666
   83.4000     6.5352     7.2344   -14.7424     7.8398     0.1253     0.0422    86.4211     2.4673
   83.5000     6.5350     7.2249   -14.6377     7.8397     0.1246     0.0422    86.0120     2.4685
   83.6000     6.5347     7.2041   -14.5919     7.8396     0.1240     0.0422    85.6845     2.4697
   83.7000     6.5344     7.1834   -14.5916     7.8395     0.1230     0.0421    85.3969     2.4709
   83.8000     6.5341     7.1830   -14.5913     7.8395     0.1226     0.0407    85.1511     2.4720
   83.9000     6.5339     7.1826   -14.5910     7.8394     0.1231     0.0407    84.9054     2.4726
   84.0000     6.5336     7.1822   -14.5907     7.8393     0.1241     0.0407    84.6516     2.4740
   84.1000     6.5333     7.1818   -14.5904     7.8392     0.1246     0.0408    84.4139     2.4751
   84.2000     6.5375     7.1814   -14.5901     7.8391     0.1246     0.0408    84.2584     2.4755
   84.3000     6.5557     7.1810   -14.5898     7.8390     0.1246     0.0408    84.0732     2.4758
   84.4000     6.5739     7.1806   -14.5895     7.8389     0.1245     0.0408    83.8612     2.4762
   84.5000     6.5922     7.1802   -14.5892     7.8388     0.1243     0.0408    83.7325     2.4762
   84.6000     6.6106     7.1798   -14.5889     7.8387     0.1243     0.0408    83.4412     2.4762
   84.7000     6.6225     7.1692   -14.5886     7.8386     0.1240     0.0408    83.4407     2.4762
   84.8000     6.6223     7.1296   -14.5883     7.8385     0.1238     0.0408    83.4401     2.4759
   84.9000     6.6220     7.1291   -14.5880     7.8385     0.1236     0.0408    83.4395     2.4755
   85.0000     6.6217     7.1288   -14.5877     7.8384     0.1235     0.0408    83.4691     2.4755
   85.1000     6.6341     7.1284   -14.5874     7.8383     0.1237     0.0408    83.7399     2.4755
   85.2000     6.6525     7.1280   -14.5871     7.8382     0.1240     0.0413    84.5052     2.4750
   85.3000     6.6668     7.1276   -14.5868     7.8381     0.1242     0.0423    85.2003     2.4740
   85.4000     6.6665     7.1272   -14.5865     7.8380     0.1244     0.0423    85.8126     2.4730
   85.5000     6.6662     7.1269   -14.5862     7.8379     0.1249     0.0423    86.3756     2.4725
   85.6000     6.6659     7.1265   -14.5859     7.8378     0.1256     0.0423    86.7535     2.4725
   85.7000     6.6761     7.1261   -14.6895     7.8377     0.1261     0.0423    86.9909     2.4713
   85.8000     6.6947     7.1257   -14.7352     7.8376     0.1270     0.0423    87.4168     2.4705
   85.9000     6.7113     7.1253   -14.7349     7.8376     0.1280     0.0423    87.7816     2.4699
   86.0000     6.7110     7.1248   -14.7566     7.8375     0.1293     0.0423    88.0262     2.4691
   86.1000     6.7107     7.1245   -14.8842     7.8374     0.1306     0.0423    88.2707     2.4679
   86.2000     6.7104     7.1241   -15.0013     7.8373     0.1318     0.0423    88.5598     2.4672
   86.3000     6.7102     7.1077   -15.1236     7.8372     0.1327     0.0423    88.7598     2.4667
   86.4000     6.7099     7.0743   -15.1832     7.8371     0.1335     0.0423    88.8603     2.4657
   86.5000     6.7096     7.0739   -15.2184     7.8370     0.1340     0.0423    88.8597     2.4650
   86.6000     6.7093     7.0735   -15.3407     7.8369     0.1341     0.0435    88.8436     2.4650
   86.7000     6.7091     7.0731   -15.4821     7.8368     0.1339     0.0448    88.7076     2.4650
   86.8000     6.7088     7.0519   -15.4819     7.8367     0.1339     0.0453    88.5973     2.4650
