~VERSION INFORMATION
 VERS.                2.0:   CWLS LOG ASCII STANDARD - VERSION 2.0
 WRAP.                 NO:   ONE LINE PER DEPTH STEP
~WELL INFORMATION
#MNEM.UNIT      DATA TYPE    INFORMATION
#----------   ------------   ------------------------------
 STRT.F           30.0000:   START DEPTH
 STOP.F          468.0000:   STOP DEPTH
 STEP.F            0.1000:   STEP LENGTH
 NULL.          -999.2500:   NO VALUE
 COMP. LAWRENCE/ALLISON INC:   COMPANY
 WELL.    72-12 SX #10-10:   WELL
 FLD .             TEAPOT:   FIELD
 LOC .      S10 T38N R78W:   LOCATION
 CNTY.            NATRONA:   COUNTY
 STAT.            WYOMING:   STATE
 CTRY. UNITED STATES OF AMERICA:   COUNTRY
 SRVC.           Gearhart:   SERVICE COMPANY
 DATE.        17-MAY-1988:   LOGDATE
 API .       490251122400:   API NUMBER
~CURVE INFORMATION
#MNEM.UNIT       API CODE    CURVE DESCRIPTION
#----------   ------------   ------------------------------
 DEPT.F                  :   
 GRR .GAPI   07 310 01 00:   GAMMA RAY
 RILD.OHMM   07 120 46 00:   INDUCTION LOG DEEP RESISTIVITY
 RILM.OHMM   07 120 44 00:   INDUCTION LOG MEDIUM RESISTIVITY
~PARAMETER INFORMATION
#MNEM.UNIT          VALUE    DESCRIPTION
#----------   ------------   ------------------------------
 PD  .                 GL:   PERMANENT DATUM
 EPD .F              5166:   ELEVATION PERMANENT DATUM
 LMF .                 KB:   LOG MEASURED FROM
 DAPD.F              10.2:   FEET ABOVE PERMANENT DATUM
 DMF .                 KB:   DRILLING MEASURED FROM
 EKB .F            5176.2:   KELLING BUSHING
 EGL .F              5166:   GROUND LEVEL
 DATE.        17-MAY-1988:   RUN DATE
 RUN .                  1:   RUN NUMBER
 DD  .F               480:   DEPTH DRILLER
 DL  .F               476:   DEPTH LOGGER
 BLI .F               468:   BOTTOM LOG INTERVAL
 TLI .F                47:   TOP LOG INTERVAL
 CS  .IN            9.625:   CASING SIZE
 CBD .F                43:   CASING BOTTOM DRILLER
 CBL .F                47:   CASING BOTTOM LOGGER
 BS  .IN             8.75:   BIT SIZE
 BSD .F               480:   BIT SIZE AT DEPTH
 DFT .                AIR:   DRILLING FLUID TYPE
 TCS .HRS            0630:   TIME CURCULATED STOPPED
 TLAB.HRS            0930:   TIME LOGGER AT BOTTOM
 LUN .               7597:   LOGGING UNIT NUMBER
 LUL .           GILLETTE:   LOGGING UNIT LOCATION
 ENGI.             SLATKY:   RECORDING ENGINEER
 WITN.             STRONG:   WITNESSED BY
 CLNT.            A2DTECH:   CLIENT CODE
 ORIG.           5" PRINT:   ORIGIN OF DATA
 UWI .       490251122400:   UNIQUE WELL ID
 DICO. A2D Technologies, Inc.:   DIGITIZING COMPANY
~OTHER INFORMATION
~A   DEPT      GRR       RILD       RILM   
# ...
   48.2000   121.2121     3.0227     2.4958
   48.3000   121.2121     3.4538     2.5240
   48.4000   121.2121     4.0622     2.5811
   48.5000   121.4111     5.1533     2.6625
   48.6000   121.5152     5.9880     2.7450
   48.7000   121.6715     6.8944     2.8363
   48.8000   122.1390     7.6711     2.9646
   48.9000   122.4242     8.2813     3.0832
   49.0000   122.4242     8.9268     3.1921
   49.1000   122.5638     9.3199     3.3321
   49.2000   122.8065     9.9906     3.5034
   49.3000   123.0491    11.0820     3.6878
   49.4000   123.3333    12.3004     4.0204
   49.5000   123.5343    12.7267     4.1892
   49.6000   123.6364    12.7962     4.4343
   49.7000   123.6364    12.7624     4.7058
   49.8000   123.6562    12.6223     4.9768
   49.9000   123.3328    12.3460     5.3470
   50.0000   123.5354    11.8698     5.4425
   50.1000   124.0600    10.9662     5.5575
   50.2000   124.7067    10.0626     5.6725
   50.3000   125.1913     9.0437     5.7875
   50.4000   125.7601     6.4789     5.9026
   50.5000   125.7606     6.1573     6.0176
   50.6000   125.9002     5.9813     6.1326
   50.7000   126.0648     5.9477     6.2476
   50.8000   126.0824     5.9175     6.3627
   50.9000   126.3692     5.9171     6.4777
   51.0000   126.3697     5.9168     6.6759
   51.1000   126.5073     5.9165     6.9882
   51.2000   126.6739     5.9278     7.3624
   51.3000   126.6745     5.9606     7.4816
   51.4000   126.6753     5.9983     7.5474
   51.5000   126.6758     6.0557     7.5501
   51.6000   126.6764     6.1024     7.4987
   51.7000   126.6770     6.1487     7.4128
   51.8000   126.6517     6.2132     7.2929
   51.9000   126.0722     6.2522     7.1716
   52.0000   125.8788     6.2822     7.0335
   52.1000   125.6374     6.3609     6.8865
   52.2000   125.3960     6.4409     6.7705
   52.3000   125.1545     6.4854     6.6591
   52.4000   124.9131     6.6082     6.5483
   52.5000   124.8636     6.6402     6.4393
   52.6000   124.7333     6.6769     6.3408
   52.7000   124.4919     6.7139     6.2700
   52.8000   124.2416     6.7560     6.2003
   52.9000   123.7582     6.8402     6.1312
   53.0000   123.6545     6.8736     6.0803
   53.1000   123.9129     6.9363     6.0462
   53.2000   124.3976     6.9984     6.0116
   53.3000   124.8822     7.0318     5.9447
   53.4000   125.3669     7.0313     5.8281
   53.5000   125.6636     7.0659     5.7158
   53.6000   125.9063     7.1050     5.6473
   53.7000   126.0830     7.0975     5.6484
   53.8000   126.0836     7.0297     5.6799
   53.9000   126.0842     7.0293     5.7116
   54.0000   126.0848     6.9590     5.7612
   54.1000   126.0855     6.8815     5.8257
   54.2000   126.0861     6.8200     5.8891
   54.3000   126.0838     6.7759     5.9281
   54.4000   125.8424     6.6934     5.9550
   54.5000   125.6010     6.6593     5.9882
   54.6000   125.3596     6.5978     6.0215
   54.7000   125.1182     6.5242     6.0526
   54.8000   124.8776     6.4573     6.0524
   54.9000   124.8782     6.4180     6.0804
   55.0000   124.6970     6.3850     6.1143
   55.1000   124.4556     6.3257     6.1483
   55.2000   124.2141     6.2697     6.1795
   55.3000   123.9715     6.2345     6.1793
   55.4000   123.7313     6.1968     6.1791
   55.5000   123.1303     6.1332     6.1790
   55.6000   122.6424     6.1106     6.1788
   55.7000   122.4588     6.0957     6.1786
   55.8000   122.4594     6.0615     6.1784
   55.9000   122.9376     6.0251     6.1783
   56.0000   123.4222     6.0248     6.1781
   56.1000   124.0237     6.0245     6.1653
   56.2000   124.6946     6.0241     6.1349
   56.3000   125.1897     6.0238     6.1347
   56.4000   125.6638     6.0234     6.1346
   56.5000   126.1485     6.0231     6.1344
   56.6000   126.6331     6.0228     6.1342
   56.7000   127.0640     6.0224     6.1293
   56.8000   127.3140     6.0221     6.0913
   56.9000   127.5493     6.0218     6.0912
   57.0000   127.7919     6.0214     6.0910
   57.1000   128.0345     6.0211     6.0908
   57.2000   128.2255     6.0208     6.0907
   57.3000   128.2261     6.0204     6.0905
   57.4000   128.2267     6.0201     6.0903
   57.5000   128.2273     6.0198     6.0901
   57.6000   128.0065     6.0194     6.0900
   57.7000   127.5230     6.0191     6.0840
   57.8000   127.0170     6.0188     6.0474
   57.9000   126.5562     6.0184     6.0472
   58.0000   126.2424     6.0181     6.0471
   58.1000   126.0010     6.0178     6.0322
   58.2000   125.7119     6.0174     6.0048
   58.3000   125.2019     6.0171     6.0046
   58.4000   124.9737     6.0167     5.9729
   58.5000   125.0677     6.0164     5.9626
   58.6000   125.4170     6.0161     5.9474
   58.7000   125.9016     6.0158     5.9209
   58.8000   126.4170     6.0154     5.9207
   58.9000   126.8709     6.0151     5.9206
   59.0000   127.3556     6.0147     5.9204
   59.1000   127.9448     6.0144     5.9203
   59.2000   128.5842     6.0141     5.9201
   59.3000   128.8443     6.0137     5.9199
   59.4000   129.2941     6.0134     5.9198
   59.5000   129.7788     6.0131     5.9196
   59.6000   130.1608     6.0127     5.9194
   59.7000   130.4034     6.0124     5.9193
   59.8000   130.6655     6.0121     5.9191
   59.9000   130.8887     6.0117     5.9519
   60.0000   130.9697     6.0450     5.9601
   60.1000   130.9703     6.0530     5.9600
   60.2000   130.9709     6.0527     5.9683
   60.3000   130.9716     6.0524     6.0013
   60.4000   130.5309     6.0520     6.0011
   60.5000   130.0475     6.0858     6.0266
   60.6000   129.6626     6.0936     6.0427
   60.7000   129.3085     6.1107     6.0517
   60.8000   128.2473     6.1445     6.0846
   60.9000   127.3735     6.1784     6.0844
   61.0000   126.5636     6.2127     6.1109
   61.1000   125.7416     6.2470     6.1449
   61.2000   124.8453     6.2816     6.1792
   61.3000   124.3110     6.3164     6.2136
   61.4000   123.4453     6.3521     6.2483
   61.5000   122.6333     6.4231     6.2831
   61.6000   121.9079     6.4667     6.3378
   61.7000   121.1824     6.5024     6.3978
   61.8000   120.3746     6.5487     6.4313
   61.9000   119.5170     6.6193     6.4310
   62.0000   118.8566     6.6189     6.4898
   62.1000   118.1881     6.6476     6.5416
   62.2000   117.2521     6.6844     6.5781
   62.3000   116.4383     6.7214     6.6148
   62.4000   116.0137     6.7585     6.6579
   62.5000   115.2273     6.7959     6.6888
   62.6000   114.2598     6.8336     6.7261
   62.7000   113.3218     6.8714     6.7507
   62.8000   112.5019     6.9094     6.7541
   62.9000   111.8709     6.9476     6.7975
   63.0000   111.4444     6.9938     6.8296
   63.1000   111.2915     6.9935     6.8677
   63.2000   111.2921     7.0147     6.9060
   63.3000   111.2928     7.0535     6.9402
   63.4000   111.2933     7.0925     6.9400
   63.5000   111.2939     7.1393     6.9734
   63.6000   111.2945     7.1712     7.0123
   63.7000   111.3206     7.1884     7.0514
   63.8000   111.5989     7.2006     7.0907
   63.9000   112.0123     7.2404     7.1350
   64.0000   113.3697     7.2878     7.1700
   64.1000   114.7153     7.3208     7.2100
   64.2000   114.9345     7.3613     7.2502
   64.3000   114.9352     7.3887     7.2906
   64.4000   114.9358     7.3914     7.3354
   64.5000   115.0798     7.4394     7.3721
   64.6000   115.4873     7.4734     7.3863
   64.7000   116.1926     7.5148     7.4029
   64.8000   116.7565     7.5425     7.4441
   64.9000   117.3643     7.5455     7.4892
   65.0000   117.9495     7.5942     7.5274
   65.1000   118.4342     7.5939     7.5411
   65.2000   118.8800     7.5934     7.5587
   65.3000   118.8807     7.6073     7.5934
   65.4000   119.2820     7.6456     7.5931
   65.5000   119.7667     7.6451     7.6326
   65.6000   120.0946     7.6807     7.6458
   65.7000   120.1125     7.6977     7.6456
   65.8000   120.3989     7.7121     7.6453
   65.9000   120.5978     7.7548     7.6451
   66.0000   120.7030     7.8041     7.6449
   66.1000   120.6273     7.8038     7.6748
   66.2000   120.3705     7.8296     7.6979
   66.3000   119.7959     7.8574     7.6977
