~VERSION INFORMATION
 VERS.                2.0:   CWLS LOG ASCII STANDARD - VERSION 2.0
 WRAP.                 NO:   ONE LINE PER DEPTH STEP
~WELL INFORMATION
#MNEM.UNIT      DATA TYPE    INFORMATION
#----------   ------------   ------------------------------
 STRT.F            4.0000:   START DEPTH
 STOP.F          564.0000:   STOP DEPTH
 STEP.F            0.1000:   STEP LENGTH
 NULL.          -999.2500:   NO VALUE
 COMP.       F D SERV INC:   COMPANY
 WELL. NAVAL PETROLEUM RESERVE 3 SX-3 #88-4-3:   WELL
 FLD .             TEAPOT:   FIELD
 LOC .       S3 T38N R78W:   LOCATION
 CNTY.            NATRONA:   COUNTY
 STAT.            WYOMING:   STATE
 CTRY. UNITED STATES OF AMERICA:   COUNTRY
 SRVC.      Western Atlas:   SERVICE COMPANY
 DATE.        15-OCT-1992:   LOGDATE
 API .       490252255000:   API NUMBER
~CURVE INFORMATION
#MNEM.UNIT       API CODE    CURVE DESCRIPTION
#----------   ------------   ------------------------------
 DEPT.F                  :   
 GRR .GAPI   07 310 01 00:   GAMMA RAY
 RILD.OHMM   07 120 46 00:   INDUCTION LOG DEEP RESISTIVITY
 RILM.OHMM   07 120 44 00:   INDUCTION LOG MEDIUM RESISTIVITY
~PARAMETER INFORMATION
#MNEM.UNIT          VALUE    DESCRIPTION
#----------   ------------   ------------------------------
 PD  .                 GL:   PERMANENT DATUM
 EPD .F              5129:   ELEVATION PERMANENT DATUM
 LMF .                 KB:   LOG MEASURED FROM
 DAPD.F                10:   FEET ABOVE PERMANENT DATUM
 DMF .                 KB:   DRILLING MEASURED FROM
 EKB .F              5139:   KELLING BUSHING
 EGL .F              5129:   GROUND LEVEL
 DATE.        15-OCT-1992:   RUN DATE
 RUN .                  1:   RUN NUMBER
 DD  .F               570:   DEPTH DRILLER
 DL  .F               570:   DEPTH LOGGER
 BLI .F               564:   BOTTOM LOG INTERVAL
 TLI .F               564:   TOP LOG INTERVAL
 CS  .IN            8.625:   CASING SIZE
 CBL .F                94:   CASING BOTTOM LOGGER
 BS  .IN            7.875:   BIT SIZE
 BSD .F               570:   BIT SIZE AT DEPTH
 DFT .           AIR FOAM:   DRILLING FLUID TYPE
 TCS .HRS               4:   TIME CURCULATED STOPPED
 MRT .F                72:   MAXIMUM RECORDED TEMPERATURE
 LUN .            HL-6345:   LOGGING UNIT NUMBER
 LUL .          FT.MORGAN:   LOGGING UNIT LOCATION
 ENGI.             BURLEY:   RECORDING ENGINEER
 WITN.        DARY STRONG:   WITNESSED BY
 CLNT.            A2DTECH:   CLIENT CODE
 ORIG.           5" PRINT:   ORIGIN OF DATA
 UWI .       490252255000:   UNIQUE WELL ID
 DICO. A2D Technologies, Inc.:   DIGITIZING COMPANY
~OTHER INFORMATION
~A    DEPT      GRR      RILD       RILM   
# ...
  277.0000   136.7038     6.1258     6.1410
  277.1000   136.7044     6.1058     6.0862
  277.2000   136.9247     6.0353     6.0417
  277.3000   137.0063     5.9566     5.9716
  277.4000   137.1236     5.9266     5.8918
  277.5000   137.3083     5.8698     5.8342
  277.6000   137.3089     5.8174     5.7879
  277.7000   137.3096     5.7837     5.7399
  277.8000   137.0987     5.7503     5.6806
  277.9000   137.0099     5.7117     5.6475
  278.0000   137.0105     5.6841     5.6083
  278.1000   137.0111     5.6688     5.6082
  278.2000   137.0117     5.6639     5.5886
  278.3000   137.0124     5.6590     5.5686
  278.4000   137.4187     5.6541     5.5685
  278.5000   137.7664     5.6493     5.5683
  278.6000   138.2160     5.6444     5.5682
  278.7000   138.9159     5.6395     5.5930
  278.8000   139.4214     5.6346     5.6071
  278.9000   140.1600     5.6297     5.6069
  279.0000   141.1028     5.6248     5.6068
  279.1000   142.1004     5.6199     5.6066
  279.2000   143.0978     5.6150     5.6065
  279.3000   144.0553     5.6102     5.6063
  279.4000   144.8385     5.6053     5.6061
  279.5000   145.0767     5.6004     5.6060
  279.6000   144.9544     5.5952     5.6058
  279.7000   144.5713     5.6262     5.6057
  279.8000   144.0734     5.6350     5.6349
  279.9000   143.4495     5.6525     5.6448
  280.0000   141.8346     5.6857     5.6766
  280.1000   140.6893     5.7190     5.7243
  280.2000   139.7991     5.7557     5.7264
  280.3000   138.9259     5.7558     5.7643
  280.4000   138.0043     5.7796     5.7931
  280.5000   137.2572     5.7967     5.8267
  280.6000   136.4247     5.8066     5.8758
  280.7000   135.7631     5.8435     5.9278
  280.8000   135.3544     5.9207     5.9307
  280.9000   135.2235     5.9511     6.0536
  281.0000   135.2241     6.0094     6.0825
  281.1000   135.2393     6.0800     6.1619
  281.2000   135.5261     6.1698     6.2551
  281.3000   135.5266     6.3151     6.3354
  281.4000   135.6880     6.4880     6.4476
  281.5000   136.1564     6.5844     6.4846
  281.6000   136.9046     6.7007     6.5521
  281.7000   137.6405     6.8018     6.6063
  281.8000   137.9357     6.8816     6.6446
  281.9000   138.5479     6.9617     6.6894
  282.0000   139.1438     7.0105     6.7712
  282.1000   139.6429     7.0437     6.8086
  282.2000   140.0926     7.0850     6.8185
  282.3000   140.3447     7.1266     6.8611
  282.4000   140.3453     7.1683     6.9278
  282.5000   140.5414     7.2112     6.9631
  282.6000   140.6472     7.2114     6.9628
  282.7000   140.6478     7.2442     6.9626
  282.8000   140.6075     7.2627     6.9911
  282.9000   140.3483     7.2629     7.0113
  283.0000   139.8718     7.2631     7.0111
  283.1000   139.1869     7.2633     7.0109
  283.2000   138.3041     7.2635     7.0107
  283.3000   137.3077     7.2637     7.0105
  283.4000   136.3115     7.2415     7.0103
  283.5000   135.2392     7.2133     7.0101
  283.6000   134.5492     7.2035     6.9997
  283.7000   133.8021     7.1130     6.9607
  283.8000   132.9279     7.0756     6.9605
  283.9000   131.8560     7.0636     6.9266
  284.0000   130.6347     7.0434     6.8863
  284.1000   129.5285     7.0027     6.8462
  284.2000   128.8639     6.9622     6.8147
  284.3000   128.4572     6.9171     6.8143
  284.4000   128.2085     6.8820     6.7746
  284.5000   128.0271     6.8423     6.7042
  284.6000   128.0433     6.7845     6.6491
  284.7000   128.3291     6.7161     6.5814
  284.8000   128.5430     6.6733     6.4738
  284.9000   129.1164     6.5402     6.3962
  285.0000   129.5338     6.4764     6.2893
  285.1000   129.5344     6.3781     6.2350
  285.2000   129.5350     6.2524     6.1400
  285.3000   129.5357     6.1085     6.0104
  285.4000   129.3314     5.9683     5.9062
  285.5000   129.2361     5.8458     5.7965
  285.6000   129.0330     5.7911     5.7652
  285.7000   128.5855     5.7043     5.7078
  285.8000   128.3356     5.6315     5.6417
  285.9000   127.5921     5.5928     5.5959
  286.0000   127.2381     5.5271     5.5926
  286.1000   126.9895     5.4957     5.5564
  286.2000   126.8343     5.4887     5.4993
  286.3000   126.8349     5.4707     5.4571
  286.4000   126.8355     5.4506     5.4402
  286.5000   127.0757     5.4408     5.4317
  286.6000   127.1374     5.3748     5.4000
  286.7000   127.1380     5.3453     5.3639
  286.8000   127.2237     5.3375     5.3373
  286.9000   127.5070     5.3376     5.3063
  287.0000   128.0421     5.3378     5.2887
  287.1000   128.2739     5.3379     5.2885
  287.2000   128.3441     5.3381     5.2878
  287.3000   128.7290     5.3382     5.2512
  287.4000   129.3241     5.3384     5.2511
  287.5000   129.5739     5.3385     5.2509
  287.6000   129.8503     5.3387     5.2508
  287.7000   130.5191     5.3388     5.2506
  287.8000   130.9249     5.3390     5.2505
  287.9000   131.4141     5.3391     5.2504
  288.0000   132.1625     5.3604     5.2502
  288.1000   132.8940     5.3771     5.2674
  288.2000   133.4629     5.3772     5.2869
  288.3000   133.8921     5.3791     5.2867
  288.4000   134.3911     5.4155     5.2866
  288.5000   134.8902     5.4425     5.2865
  288.6000   135.3893     5.4744     5.3089
  288.7000   135.8801     5.4925     5.3562
  288.8000   136.1733     5.5000     5.4187
  288.9000   136.3797     5.5323     5.4854
  289.0000   136.4752     5.5708     5.5910
  289.1000   136.3729     5.6861     5.7100
  289.2000   136.1756     5.8275     5.8443
  289.3000   136.1762     5.9690     5.9644
  289.4000   135.9278     6.1105     6.0491
  289.5000   135.6792     6.2519     6.0894
  289.6000   135.5765     6.3934     6.2108
  289.7000   135.4827     6.5349     6.2420
  289.8000   135.1482     6.6763     6.3267
  289.9000   134.3754     6.8178     6.4208
  290.0000   134.1354     6.8797     6.5049
  290.1000   133.5087     6.8942     6.6163
  290.2000   132.6240     6.9407     6.6614
  290.3000   131.6275     7.0268     6.7582
  290.4000   130.6657     7.0657     6.8274
  290.5000   129.8677     7.1378     6.8835
  290.6000   129.1716     7.1993     6.9554
  290.7000   128.4247     7.2415     6.9960
  290.8000   127.6776     7.2865     7.0773
  290.9000   126.9305     7.3509     7.1271
  291.0000   126.1312     7.4154     7.1684
  291.1000   124.7586     7.4652     7.2257
  291.2000   123.8641     7.5090     7.3099
  291.3000   122.8678     7.5530     7.3988
  291.4000   122.3543     7.5973     7.4815
  291.5000   122.3549     7.6475     7.5688
  291.6000   122.3555     7.6868     7.6329
  291.7000   122.3562     7.7622     7.6922
  291.8000   122.5721     7.8321     7.7761
  291.9000   122.6580     7.8780     7.8249
  292.0000   122.6586     7.9220     7.8247
  292.1000   122.6592     7.9222     7.8896
  292.2000   122.6599     7.9614     7.9582
  292.3000   122.6606     8.0379     8.0043
  292.4000   122.4541     8.0916     8.0467
  292.5000   122.2055     8.1023     8.0464
  292.6000   121.9569     8.1491     8.0462
  292.7000   121.6035     8.1494     8.0460
  292.8000   120.8574     8.1496     8.0458
  292.9000   120.3595     8.1784     8.0455
  293.0000   120.0601     8.2075     8.0453
  293.1000   119.8115     8.2077     8.0450
  293.2000   119.4675     8.2080     8.0843
  293.3000   119.0573     8.2552     8.1013
  293.4000   119.0581     8.2663     8.1011
  293.5000   119.3002     8.2939     8.1214
  293.6000   119.5501     8.3250     8.2151
  293.7000   119.7999     8.3253     8.2149
  293.8000   120.2238     8.3255     8.2147
  293.9000   120.9011     8.3257     8.2145
  294.0000   121.1670     8.3260     8.2142
  294.1000   121.8671     8.3262     8.2140
  294.2000   122.2520     8.3264     8.2138
  294.3000   122.6319     8.3325     8.2601
  294.4000   123.0524     8.3856     8.2712
  294.5000   123.2752     8.3859     8.2709
  294.6000   123.2759     8.3861     8.2707
  294.7000   123.0517     8.3863     8.2705
  294.8000   122.8030     8.3866     8.2702
  294.9000   122.5544     8.3868     8.2700
  295.0000   122.3057     8.3871     8.3047
  295.1000   122.0384     8.3873     8.3278
