~VERSION INFORMATION
 VERS.                2.0:   CWLS LOG ASCII STANDARD - VERSION 2.0
 WRAP.                 NO:   ONE LINE PER DEPTH STEP
~WELL INFORMATION
#MNEM.UNIT      DATA TYPE    INFORMATION
#----------   ------------   ------------------------------
 STRT.F           38.0000:   START DEPTH
 STOP.F          890.0000:   STOP DEPTH
 STEP.F            0.5000:   STEP LENGTH
 NULL.          -999.2500:   NO VALUE
 COMP. FENIX & SCISSON INC:   COMPANY
 WELL.       43 SX #14-14:   WELL
 FLD .             TEAPOT:   FIELD
 LOC .      S14 T38N R78W:   LOCATION
 CNTY.            NATRONA:   COUNTY
 STAT.            WYOMING:   STATE
 CTRY. UNITED STATES OF AMERICA:   COUNTRY
 SRVC.            Unknown:   SERVICE COMPANY
 DATE.        28-APR-1978:   LOGDATE
 API .       490251063600:   API NUMBER
~CURVE INFORMATION
#MNEM.UNIT       API CODE    CURVE DESCRIPTION
#----------   ------------   ------------------------------
 DEPT.F                  :   
 SPR .MV     05 010 01 00:   SPONTANEOUS POTENTIAL FROM RES.
 SN  .OHMM   05 040 16 00:   SHORT NORMAL 16"
 ILD .OHMM   05 120 46 00:   INDUCTION LOG DEEP
 CILD.MMHO   05 110 46 00:   CONDUCTIVITY INDUCTION LOG DEEP
 CALD.IN     45 280 60 00:   CALIPER FROM DENSITY LOG
 GRD .GAPI   45 310 01 00:   GAMMA RAY FROM DENSITY LOG
 CORR.G/C3   45 356 01 00:   DENSITY CORRECTION
 DPHI.DEC    45 890 12 00:   DENSITY POROSITY SANDSTONE
 DEN .G/C3   45 350 01 00:   COMPENSATED BULK DENSTIY
~PARAMETER INFORMATION
#MNEM.UNIT          VALUE    DESCRIPTION
#----------   ------------   ------------------------------
 PD  .                 GL:   PERMANENT DATUM
 EPD .F              5217:   ELEVATION PERMANENT DATUM
 LMF .                 KB:   LOG MEASURED FROM
 DMF .                 KB:   DRILLING MEASURED FROM
 EKB .F              5221:   KELLING BUSHING
 EGL .F              5217:   GROUND LEVEL
 DATE.        28-APR-1978:   RUN DATE
 RUN .                  1:   RUN NUMBER
 DD  .F               890:   DEPTH DRILLER
 DL  .F               890:   DEPTH LOGGER
 BLI .F               884:   BOTTOM LOG INTERVAL
 TLI .F                40:   TOP LOG INTERVAL
 CS  .IN            8.625:   CASING SIZE
 CBD .F                40:   CASING BOTTOM DRILLER
 CBL .F                40:   CASING BOTTOM LOGGER
 BS  .IN            7.875:   BIT SIZE
 BSD .F               890:   BIT SIZE AT DEPTH
 DFT .                KCL:   DRILLING FLUID TYPE
 DFD .                8.7:   DRILLING FLUID DENSITY
 DFV .                 34:   DRILLING FLUID VISCOSITY
 DFL .                4.8:   DRILLING FLUID LOSS
 MSS .            MUD PIT:   MUD SAMPLE SOURCE
 RMS .OHMM             .4:   RESISTIVITY MUD SAMPLE
 MST .F                56:   MUD SAMPLE TEMPERATURE
 RMF .OHMM            .38:   RESISTIVITY MUD FILTRATE SAMPLE
 MFST.F                64:   MUD FILTRATE SAMPLE TEMPERATURE
 RMC .OHMM              1:   RESISTIVITY MUD CAKE
 MCST.F                66:   MUD CAKE SAMPLE TEMPERATURE
 MFSS.               MEAS:   MUD FILTRATE SAMPLE SOURCE
 RMB .OHMM             .3:   RESISTIVITY MUD AT BHT
 BHT .F                74:   BOTTOM HOLE TEMPERATURE
 TCS .HRS            0100:   TIME CURCULATED STOPPED
 MRT .F                74:   MAXIMUM RECORDED TEMPERATURE
 LUN .               2958:   LOGGING UNIT NUMBER
 LUL .               CASP:   LOGGING UNIT LOCATION
 ENGI.             MILLER:   RECORDING ENGINEER
 WITN.           MCGINLEY:   WITNESSED BY
 CLNT.            A2DTECH:   CLIENT CODE
 ORIG.           5" PRINT:   ORIGIN OF DATA
 UWI .       490251063600:   UNIQUE WELL ID
 DICO. A2D Technologies, Inc.:   DIGITIZING COMPANY
~OTHER INFORMATION
~A   DEPT      SPR         SN        ILD       CILD       CALD        GRD       CORR       DPHI        DEN   
# ...
  403.0000   -34.5452     8.3539     8.3808   112.6982     8.0159    84.5821     0.0361     0.0740     2.5110
  403.5000   -34.5648     8.3573     8.4429   111.1326     8.0624    85.9476     0.0363     0.0737     2.5163
  404.0000   -34.5844     8.3608     8.5044   109.5670     8.1701    91.6851     0.0364     0.0734     2.5194
  404.5000   -34.6040     8.3068     8.4501   108.7504     8.2330    92.9031     0.0366     0.0744     2.5135
  405.0000   -34.6274     8.2523     8.3960   107.9339     8.2922    93.3463     0.0368     0.0772     2.5135
  405.5000   -34.7690     8.2566     8.4011   108.6324     8.3088    93.0626     0.0369     0.0802     2.5144
  406.0000   -34.9085     8.3171     8.4052   109.3139     8.3104    89.0307     0.0371     0.0817     2.5054
  406.5000   -35.0479     8.4361     8.5261   109.9955     8.2821    86.4940     0.0357     0.0781     2.5025
  407.0000   -35.0673     8.5568     8.6488   109.1621     8.2687    86.6641     0.0358     0.0795     2.5033
  407.5000   -35.1785     8.6792     8.7129   109.0947     8.2549    86.6802     0.0360     0.0810     2.5056
  408.0000   -35.3432     8.8642     8.8382   108.2781     8.2270    86.3965     0.0361     0.0810     2.5072
  408.5000   -35.4573     8.9910     8.9037   105.9635     8.1987    83.2642     0.0363     0.0795     2.5028
  409.0000   -35.5968     9.0570     8.9080   105.1469     8.1552    82.9805     0.0364     0.0800     2.5044
  409.5000   -35.5875     9.1234     8.9741   103.5813     8.0956    82.9970     0.0366     0.0800     2.5059
  410.0000   -35.5786     9.1904     9.1032   102.7648     8.0243    83.0167     0.0367     0.0770     2.5090
  410.5000   -35.4214     9.3218     9.1706   101.9483     7.9510    83.3327     0.0354     0.0770     2.5091
  411.0000   -35.4125     9.3902     9.2386   100.3827     7.9373    85.2978     0.0356     0.0754     2.5092
  411.5000   -35.4036     9.5904     9.3715    99.5661     7.9393    85.3139     0.0357     0.0616     2.5108
  412.0000   -35.3947     9.6608     9.4410    97.9949     7.8810    84.2806     0.0359     0.0541     2.5186
  412.5000   -35.3858     9.7990     9.3161    97.1840     7.6880    77.7000     0.0360     0.0607     2.5583
  413.0000   -35.3769     9.9391     9.1918    96.3674     7.6144    70.5197     0.0391     0.0629     2.5328
  413.5000   -35.5165    10.0120     9.1974    96.3000     7.6013    70.0635     0.0423     0.0744     2.5336
  414.0000   -35.4995    10.0162     9.2009    96.2325     7.6330    71.9013     0.0439     0.0837     2.5307
  414.5000   -35.4985     9.9505     9.2054    96.9310     7.6645    80.3433     0.0411     0.0858     2.4954
  415.0000   -35.4896     9.7519     9.2098    97.5957     7.6662    81.8291     0.0382     0.0873     2.5075
  415.5000   -35.4807     9.5562     9.1507    97.5282     7.6681    81.9986     0.0369     0.0899     2.5031
  416.0000   -35.4718     9.3645     9.1552    98.9757     7.6697    82.0147     0.0385     0.0923     2.4911
  416.5000   -35.4629     9.2401     9.0967    99.6405     7.6713    82.4806     0.0462     0.0908     2.4762
  417.0000   -35.4540     9.1795     9.1641    99.5730     7.6728    82.9465     0.0479     0.0863     2.4830
  417.5000   -35.4451     9.1835     9.0429   100.2714     7.6592    83.4124     0.0480     0.0853     2.4891
  418.0000   -35.4361     9.1873     9.0473   100.9530     7.6612    83.2746     0.0481     0.0850     2.4954
  418.5000   -35.5771     9.1277     8.9894   100.8687     7.5131    83.1408     0.0483     0.0859     2.4975
  419.0000   -35.5667     9.1317     8.9938   100.8012     7.3950    83.6107     0.0484     0.0847     2.4946
  419.5000   -35.5570     9.1355     8.9363   101.4997     7.3367    85.1260     0.0486     0.0837     2.4947
  420.0000   -35.5488     9.0763     8.9406   101.4154     7.3842    87.1114     0.0502     0.0831     2.4985
  420.5000   -35.5399     9.0802     8.8834   101.3479     7.4669    87.5571     0.0504     0.0762     2.4971
  421.0000   -35.3826     9.0840     8.8266   101.2804     7.5515    86.8276     0.0535     0.0735     2.5002
  421.5000   -35.3737     9.0252     8.8309   101.9620     7.5830    85.9442     0.0568     0.0773     2.5078
  422.0000   -35.3647     8.9669     8.8352   101.8945     7.6296    85.0567     0.0598     0.0788     2.5213
  422.5000   -35.3558     8.9090     8.8395   101.8270     7.6461    85.2268     0.0615     0.0725     2.5071
  423.0000   -35.4955     8.8515     8.8438   101.7596     7.6777    85.5427     0.0601     0.0725     2.5110
  423.5000   -35.4866     8.7943     8.8481   102.4580     7.6639    85.5588     0.0603     0.0715     2.5193
  424.0000   -35.6261     8.7894     8.8524   103.1396     7.6959    84.6754     0.0604     0.0727     2.5186
  424.5000   -35.6172     8.7762     8.7956   103.0553     7.8771    83.9419     0.0561     0.0739     2.5339
  425.0000   -35.6083     8.7630     8.8000   102.9878     7.9686    83.6582     0.0382     0.0745     2.5346
  425.5000   -35.5994     8.7487     8.8043   102.9203     8.0015    85.2299     0.0309     0.0771     2.5174
  426.0000   -35.5905     8.6913     8.8086   103.6188     8.0171    85.9433     0.0280     0.0837     2.5160
  426.5000   -35.5812     8.5767     8.8128   103.5345     8.0636    86.1093     0.0312     0.0849     2.5130
  427.0000   -35.7214     8.5205     8.7565   103.4670     8.0802    86.4253     0.0313     0.0816     2.4966
  427.5000   -35.7117     8.4082     8.7005   104.9145     8.0818    88.8402     0.0330     0.0798     2.4861
  428.0000   -35.7028     8.3530     8.6438   107.0774     8.0834    89.9058     0.0332     0.0794     2.4944
  428.5000   -35.6938     8.3573     8.5886   109.2571     8.1000    90.0719     0.0318     0.0824     2.5088
  429.0000   -35.6842     8.3034     8.5337   110.6877     8.1016    89.9340     0.0320     0.0857     2.4999
  429.5000   -35.6760     8.3068     8.4791   110.6203     8.1182    90.1041     0.0306     0.0869     2.4954
  430.0000   -35.6663     8.3102     8.4249   110.5528     8.1348    90.1202     0.0308     0.0871     2.4947
  430.5000   -35.6581     8.3137     8.3710   110.4853     8.1364    90.2864     0.0324     0.0874     2.4941
  431.0000   -35.6492     8.3171     8.3761   111.1838     8.1080    91.9700     0.0325     0.0871     2.4941
  431.5000   -35.6410     8.3206     8.3215   111.8654     8.0947    92.4174     0.0327     0.0859     2.4933
  432.0000   -35.6320     8.2660     8.2683   113.2960     8.1566    90.7884     0.0403     0.0810     2.4935
  432.5000   -35.6231     8.1570     8.1600   115.4589     8.2630    90.3507     0.0465     0.0750     2.5026
  433.0000   -35.6135     8.1035     8.1639   117.6386     8.3245    90.3709     0.0466     0.0738     2.5102
  433.5000   -35.6053     7.9959     8.0550   119.8183     8.3560    90.5369     0.0468     0.0798     2.5156
  434.0000   -35.5964     7.8897     8.0035   122.7471     8.3576    91.4526     0.0455     0.0782     2.5006
  434.5000   -35.5867     7.8387     7.9523   125.6759     8.3439    94.6171     0.0456     0.0740     2.5067
  435.0000   -35.4295     7.7881     7.8471   127.8556     8.3308    95.6827     0.0427     0.0794     2.5150
  435.5000   -35.5711     7.7378     7.7970   129.3031     8.3025    95.7047     0.0414     0.0803     2.5174
  436.0000   -35.7083     7.7418     7.8017   129.2188     8.2735    94.4115     0.0430     0.0763     2.5062
  436.5000   -35.6994     7.7986     7.8055   127.6532     8.2288    92.2828     0.0447     0.0736     2.5040
  437.0000   -35.6914     7.8558     7.9178   125.3385     8.1281    91.5533     0.0463     0.0757     2.5116
  437.5000   -35.6816     7.9134     7.9765   120.7767     8.0100    87.0717     0.0465     0.0802     2.5178
  438.0000   -35.6734     8.0266     7.9803   117.7130     7.9368    83.0398     0.0466     0.0781     2.5156
  438.5000   -35.6630     8.1415     8.0951   116.8964     7.9084    82.3023     0.0468     0.0768     2.5020
  439.0000   -35.6555     8.2012     8.1551   116.8289     7.8647    82.7722     0.0454     0.0768     2.5134
