~VERSION INFORMATION
 VERS.                2.0:   CWLS LOG ASCII STANDARD - VERSION 2.0
 WRAP.                 NO:   ONE LINE PER DEPTH STEP
~WELL INFORMATION
#MNEM.UNIT      DATA TYPE    INFORMATION
#----------   ------------   ------------------------------
 STRT.F           64.0000:   START DEPTH
 STOP.F          390.0000:   STOP DEPTH
 STEP.F            0.5000:   STEP LENGTH
 NULL.          -999.2500:   NO VALUE
 COMP. DEPARTMENT OF ENERGY:   COMPANY
 WELL. NPR-3 55-65-SX C-2 #55-3:   WELL
 FLD . TEAPOT NAVAL RESERVE:   FIELD
 LOC .       S3 T38N R78W:   LOCATION
 CNTY.            NATRONA:   COUNTY
 STAT.            WYOMING:   STATE
 CTRY. UNITED STATES OF AMERICA:   COUNTRY
 SRVC.      Dresser Atlas:   SERVICE COMPANY
 DATE.        29-JUN-1985:   LOGDATE
 API .       490251134500:   API NUMBER
~CURVE INFORMATION
#MNEM.UNIT       API CODE    CURVE DESCRIPTION
#----------   ------------   ------------------------------
 DEPT.F                  :   
 CALD.IN     45 280 60 00:   CALIPER FROM DENSITY LOG
 CNC .DEC    42 890 03 00:   NEUTRON POROSITY SANDSTONE
 CORR.G/C3   45 356 01 00:   DENSITY CORRECTION
 GRD .GAPI   45 310 01 00:   GAMMA RAY FROM DENSITY LOG
 PORD.DEC    45 890 12 00:   POROSITY DENSITY SANDSTONE
 RHOB.G/C3   45 350 01 00:   BULK DENSITY
 SPR .MV     07 010 01 00:   SPONTANEOUS POTENTIAL
 ILD .OHMM   06 120 46 00:   INDUCTION LOG DEEP
 ILM .OHMM   07 120 44 00:   INDUCTION LOG MEDIUM
~PARAMETER INFORMATION
#MNEM.UNIT          VALUE    DESCRIPTION
#----------   ------------   ------------------------------
 PD  .                 GL:   PERMANENT DATUM
 EPD .F              5168:   ELEVATION PERMANENT DATUM
 LMF .                 GL:   LOG MEASURED FROM
 DMF .                 GL:   DRILLING MEASURED FROM
 EGL .F              5168:   GROUND LEVEL
 DATE.        29-JUN-1985:   RUN DATE
 RUN .                  1:   RUN NUMBER
 DD  .F               394:   DEPTH DRILLER
 DL  .F               394:   DEPTH LOGGER
 BLI .F               386:   BOTTOM LOG INTERVAL
 CS  .IN                7:   CASING SIZE
 CBD .F                80:   CASING BOTTOM DRILLER
 CBL .F                82:   CASING BOTTOM LOGGER
 BS  .IN            4.875:   BIT SIZE
 BSD .F               394:   BIT SIZE AT DEPTH
 DFT .           FOAM AIR:   DRILLING FLUID TYPE
 TCS .HRS               5:   TIME CURCULATED STOPPED
 MRT .F               238:   MAXIMUM RECORDED TEMPERATURE
 LUN .               6274:   LOGGING UNIT NUMBER
 LUL .               GLTE:   LOGGING UNIT LOCATION
 ENGI.             RAUTIO:   RECORDING ENGINEER
 WITN.           JENNINGS:   WITNESSED BY
 CLNT.            A2DTECH:   CLIENT CODE
 ORIG.           5" PRINT:   ORIGIN OF DATA
 UWI .       490251134500:   UNIQUE WELL ID
 DICO. A2D Technologies, Inc.:   DIGITIZING COMPANY
~OTHER INFORMATION
~A   DEPT     CALD          CNC     CORR        GRD       PORD       RHOB        SPR        ILD        ILM   
# ...
  137.0000     6.4208     0.2655    -0.0244   153.3132     0.1608     2.3838   -82.6847     5.8752     5.1304
  137.5000     6.4209     0.2642    -0.0177   155.4217     0.1620     2.3823   -82.4285     5.7947     5.1313
  138.0000     6.4211     0.2633     0.0026   154.0361     0.1617     2.3883   -85.1397     5.7550     5.1320
  138.5000     6.4213     0.2650     0.0146   145.4819     0.1554     2.3958   -85.7408     5.6371     5.0972
  139.0000     6.4364     0.2712     0.0116   144.2771     0.1521     2.3981   -86.0388     5.5215     5.0626
  139.5000     6.4366     0.2754    -0.0034   146.9879     0.1530     2.3899   -86.6399     5.3709     5.0245
  140.0000     6.4297     0.2788    -0.0215   147.8916     0.1604     2.3656   -85.7312     5.2607     4.8914
  140.5000     6.4218     0.2758    -0.0245   146.9879     0.1735     2.3619   -85.1250     5.0468     4.6279
  141.0000     6.4220     0.2724    -0.0215   146.0843     0.1759     2.3619   -86.6303     4.7749     4.3181
  141.5000     6.4221     0.2712    -0.0153   146.3855     0.1756     2.3618   -88.4373     4.7086     4.1138
  142.0000     6.4223     0.2774     0.0100   152.5060     0.1732     2.3656   -85.4178     4.6450     4.2010
  142.5000     6.4224     0.2840     0.0641   155.4217     0.1551     2.3905   -80.5681     4.6454     4.2900
  143.0000     6.4226     0.2851     0.1077   152.7108     0.1503     2.4018   -79.0770     4.6780     4.4114
  143.5000     6.4378     0.2752     0.1212   146.6868     0.1623     2.3771   -82.6932     4.7437     4.5362
  144.0000     6.4380     0.2658     0.1212   145.1807     0.1901     2.3384   -81.7853     4.8102     4.6970
  144.5000     6.4381     0.2640     0.1197   146.9879     0.1884     2.3482   -79.6707     4.9457     4.8299
  145.0000     6.4383     0.2743     0.1137   152.4096     0.1666     2.3859   -78.4611     5.1205     4.9357
  145.5000     6.4384     0.2776     0.0926   154.5181     0.1376     2.4221   -80.2681     5.2648     5.0368
  146.0000     6.4235     0.2770     0.0408   149.0239     0.1322     2.4326   -80.8692     5.4131     5.0726
  146.5000     6.4236     0.2745     0.0084   145.7831     0.1343     2.4251   -79.0556     5.5272     5.0733
  147.0000     6.4389     0.2740     0.0008   147.8916     0.1397     2.4183   -77.8460     5.5660     5.0740
  147.5000     6.4390     0.2761     0.0008   150.6024     0.1445     2.4130   -76.6364     5.6051     5.0394
  148.0000     6.4542     0.2773     0.0053   149.3976     0.1454     2.4107   -73.6169     5.5668     5.0054
  148.5000     6.4544     0.2764     0.0715   149.6988     0.1454     2.4107   -72.1056     5.5672     5.0060
  149.0000     6.4575     0.2731     0.0624   150.6024     0.1442     2.4122   -72.4043     5.5606     4.9721
  149.5000     6.4697     0.2707     0.0534   148.4940     0.1424     2.4160   -75.1156     5.5295     4.9383
  150.0000     6.4828     0.2749     0.0684   146.3855     0.1418     2.4175   -77.2242     5.4822     4.8374
  150.5000     6.4778     0.2783     0.0970   146.9944     0.1575     2.4054   -75.4113     5.4129     4.7382
  151.0000     6.4729     0.2776     0.1136   151.5183     0.1744     2.3655   -74.5034     5.3071     4.6735
  151.5000     6.4708     0.2767     0.1121   155.7411     0.1733     2.3625   -76.0087     5.1989     4.6418
  152.0000     6.4711     0.2764     0.0879   160.2651     0.1663     2.3723   -79.6130     5.0578     4.5786
  152.5000     6.4714     0.2782     0.0589   156.9126     0.1522     2.3971   -80.8137     4.7201     4.4230
  153.0000     6.4717     0.2834     0.0535   154.1767     0.1428     2.4152   -82.0144     4.1386     4.0701
  153.5000     6.4720     0.2903     0.0219   151.8506     0.1409     2.4182   -86.2318     3.7828     3.6667
  154.0000     6.4723     0.2985     0.0054   147.9408     0.1472     2.4099   -87.7342     3.6295     3.1400
  154.5000     6.4726     0.3018     0.0009   141.9226     0.1472     2.4077   -88.6335     3.5802     3.0422
  155.0000     6.4729     0.3042     0.0054   139.2177     0.1469     2.4076   -90.7390     3.5810     3.1721
  155.5000     6.4732     0.3045     0.0114   138.0188     0.1931     2.3934   -92.8607     3.5569     3.3304
  156.0000     6.4735     0.2990     0.0506   138.0247     0.2254     2.3308   -93.4421     3.5826     3.5211
  156.5000     6.4889     0.2848     0.1303   141.0427     0.2577     2.2366   -88.0049     3.6586     3.7746
  157.0000     6.5042     0.2778     0.1664   147.9763     0.2613     2.2170   -82.2675     3.7622     4.0185
  157.5000     6.5046     0.2812     0.1633   153.4039     0.2408     2.2916   -77.7367     3.9500     4.3379
  158.0000     6.5199     0.2839     0.1112   152.8074     0.1889     2.3843   -76.5241     4.3233     4.5862
  158.5000     6.5202     0.2827     0.0266   148.5964     0.1465     2.4092   -77.4232     4.7978     4.7819
  159.0000     6.5205     0.2808     0.0191   146.4799     0.1379     2.4250   -79.2273     5.0759     4.9172
  159.5000     6.5208     0.2805     0.0386   146.1986     0.1303     2.4356   -80.1278     5.2525     4.9521
  160.0000     6.5211     0.2793     0.0402   147.1096     0.1273     2.4401   -80.4223     5.3269     4.9874
  160.5000     6.5214     0.2772     0.0492   149.2240     0.1297     2.4272   -80.4162     5.4024     5.0578
  161.0000     6.5217     0.2751     0.0582   151.9407     0.1472     2.4011   -80.1086     5.4789     5.0937
  161.5000     6.5145     0.2739     0.0658   156.4647     0.1635     2.3830   -79.8009     5.4800     5.1656
  162.0000     6.5072     0.2760     0.0477   160.6875     0.1659     2.3753   -78.8888     5.5192     5.2386
  162.5000     6.5226     0.2778     0.0342   161.5955     0.1623     2.3888   -79.4862     5.5587     5.2758
  163.0000     6.5229     0.2793     0.0162   155.2776     0.1535     2.4002   -79.1786     5.5985     5.2765
  163.5000     6.5081     0.2796    -0.0021   151.3679     0.1478     2.4077   -77.3628     5.5997     5.2772
  164.0000     6.5085     0.2796    -0.0079   152.2774     0.1463     2.4107   -76.7536     5.6011     5.3517
  164.5000     6.5088     0.2765     0.0012   156.8014     0.1466     2.4077   -77.6527     5.6804     5.4272
  165.0000     6.5091     0.2735     0.0057   160.4217     0.1459     2.4122   -77.0434     5.7210     5.5423
  165.5000     6.5093     0.2732    -0.0258   159.1706     0.1424     2.4160   -76.4342     5.7222     5.6206
  166.0000     6.5097     0.2747    -0.0439   156.8191     0.1471     2.4167   -76.4283     5.7631     5.6213
  166.5000     6.5100     0.2750    -0.0273   157.1277     0.1565     2.4024   -80.3921     5.8044     5.6613
  167.0000     6.5253     0.2735     0.0554   152.9167     0.1692     2.3608   -81.5968     5.8459     5.6620
  167.5000     6.5256     0.2717     0.0930   148.7058     0.1982     2.3222   -83.0457     5.8471     5.6628
  168.0000     6.5259     0.2702     0.1005   145.0972     0.2000     2.3203   -84.2479     5.8893     5.6636
  168.5000     6.5263     0.2698     0.0133   142.6935     0.1888     2.3353   -83.0339     5.8905     5.6252
  169.0000     6.5266     0.2723    -0.0184   141.4946     0.1864     2.3466   -76.0898     5.8917     5.6259
  169.5000     6.5419     0.2753    -0.0245   139.9945     0.1764     2.3670   -70.9557     5.8928     5.5491
  170.0000     6.5422     0.2783    -0.0317   142.4100     0.1598     2.3866   -68.8382     5.9350     5.4735
  170.5000     6.5425     0.2807    -0.0483   149.3437     0.1595     2.3888   -71.8489     5.9775     5.4364
  171.0000     6.5428     0.2828    -0.0648   153.2652     0.1607     2.3873   -76.9712     6.0203     5.3622
  171.5000     6.5431     0.2843    -0.0663   154.1748     0.1610     2.3866   -78.7753     6.0215     5.2522
  172.0000     6.5584     0.2852    -0.0482   153.8674     0.1595     2.3873   -77.8643     5.9398     5.1805
  172.5000     6.5738     0.2855    -0.0106   153.5842     0.1519     2.4047   -77.5554     5.9000     5.0746
  173.0000     6.5691     0.2831     0.0210   154.4952     0.1417     2.4213   -78.1528     5.8604     5.0054
