~VERSION INFORMATION
 VERS.                2.0:   CWLS LOG ASCII STANDARD - VERSION 2.0
 WRAP.                 NO:   ONE LINE PER DEPTH STEP
~WELL INFORMATION
#MNEM.UNIT      DATA TYPE    INFORMATION
#----------   ------------   ------------------------------
 STRT.F          100.0000:   START DEPTH
 STOP.F          874.0000:   STOP DEPTH
 STEP.F            0.5000:   STEP LENGTH
 NULL.          -999.2500:   NO VALUE
 COMP. U S NAVY-INTEX OIL:   COMPANY
 WELL.     NPR #3 #45-S-2:   WELL
 FLD .             TEAPOT:   FIELD
 LOC .       S2 T38N R78W:   LOCATION
 CNTY.            NATRONA:   COUNTY
 STAT.            WYOMING:   STATE
 CTRY. UNITED STATES OF AMERICA:   COUNTRY
 SRVC.       Schlumberger:   SERVICE COMPANY
 DATE.        15-JUL-1962:   LOGDATE
 API .       490250642400:   API NUMBER
~CURVE INFORMATION
#MNEM.UNIT       API CODE    CURVE DESCRIPTION
#----------   ------------   ------------------------------
 DEPT.F                  :   
 ASN .OHMM   05 041 16 00:   AMPLIFIED SHORT NORMAL 16"
 CILD.MMHO   05 110 46 00:   CONDUCTIVITY INDUCTION LOG DEEP
 ILD .OHMM   05 120 46 00:   INDUCTION LOG DEEP
 SPR .MV     05 010 01 00:   SPONTANEOUS POTENTIAL FROM RES.
 GR  .GAPI   30 310 01 00:   GAMMA RAY
~PARAMETER INFORMATION
#MNEM.UNIT          VALUE    DESCRIPTION
#----------   ------------   ------------------------------
 LMF .                 KB:   LOG MEASURED FROM
 DMF .                 KB:   DRILLING MEASURED FROM
 EKB .F              5149:   KELLING BUSHING
 EGL .F              5144:   GROUND LEVEL
 DATE.        15-JUL-1962:   RUN DATE
 RUN .                  1:   RUN NUMBER
 DD  .F               875:   DEPTH DRILLER
 DL  .F               875:   DEPTH LOGGER
 BLI .F               874:   BOTTOM LOG INTERVAL
 TLI .F               100:   TOP LOG INTERVAL
 BS  .IN             6.75:   BIT SIZE
 BSD .F               875:   BIT SIZE AT DEPTH
 DFT .           OIL EMUL:   DRILLING FLUID TYPE
 DFD .               10.2:   DRILLING FLUID DENSITY
 DFV .                 42:   DRILLING FLUID VISCOSITY
 DFL .                4.6:   DRILLING FLUID LOSS
 RMS .OHMM            6.0:   RESISTIVITY MUD SAMPLE
 MST .F                64:   MUD SAMPLE TEMPERATURE
 RMF .OHMM            5.8:   RESISTIVITY MUD FILTRATE SAMPLE
 MFST.F                64:   MUD FILTRATE SAMPLE TEMPERATURE
 RMC .OHMM            5.2:   RESISTIVITY MUD CAKE
 MCST.F                66:   MUD CAKE SAMPLE TEMPERATURE
 TCS .HRS             0.5:   TIME CURCULATED STOPPED
 LUN .               2503:   LOGGING UNIT NUMBER
 LUL .               CSPR:   LOGGING UNIT LOCATION
 ENGI.           ELLERMAN:   RECORDING ENGINEER
 WITN.          JORGENSON:   WITNESSED BY
 CLNT.            A2DTECH:   CLIENT CODE
 ORIG.           5" PRINT:   ORIGIN OF DATA
 UWI .       490250642400:   UNIQUE WELL ID
 DICO. A2D Technologies, Inc.:   DIGITIZING COMPANY
~OTHER INFORMATION
~A   DEPT        ASN      CILD       ILD        SPR         GR   
# ...
  161.0000     5.8945   174.0020     6.0116   -41.9731  -999.2500
  161.5000     5.9259   173.9545     6.1667   -41.9552  -999.2500
  162.0000     5.9870   173.9037     6.1707   -42.0939  -999.2500
  162.5000     6.0779   173.8600     6.1753   -41.9265  -999.2500
  163.0000     6.1390   173.0587     6.2545   -41.9121  -999.2500
  163.5000     6.1850   174.5302     6.2590   -42.0507  -999.2500
  164.0000     6.1381   177.7373     6.2642   -41.8834  -999.2500
  164.5000     6.0080   183.5227     6.1188   -41.8685  -999.2500
  165.0000     5.8894   188.0245     5.8986   -41.8509  -999.2500
  165.5000     5.7408   192.5262     5.7521   -41.6891  -999.2500
  166.0000     5.5166   197.0280     5.6078   -41.6741  -999.2500
  166.5000     5.3691   200.0146     5.4624   -41.6582  -999.2500
  167.0000     5.2804   203.0808     5.3929   -41.6438  -999.2500
  167.5000     5.2217   207.4920     5.3972   -41.6293  -999.2500
  168.0000     5.2079   208.9744     5.3256   -41.6143  -999.2500
  168.5000     5.2240   208.9197     5.4059   -41.5970  -999.2500
  169.0000     5.2401   208.1184     5.4102   -41.5845  -999.2500
  169.5000     5.2571   206.5596     5.4147   -41.5695  -999.2500
  170.0000     5.2904   204.9495     5.4199   -41.5546  -999.2500
  170.5000     5.3337   203.4309     5.4990   -41.5394  -999.2500
  171.0000     5.3648   202.6297     5.5030   -41.6741  -999.2500
  171.5000     5.3959   201.4427     5.5075   -41.6592  -999.2500
  172.0000     5.4270   201.0271     5.5120   -41.6442  -999.2500
  172.5000     5.4431   200.2258     5.5174   -41.6277  -999.2500
  173.0000     5.4743   199.6086     5.5958   -41.6121  -999.2500
  173.5000     5.4757   199.3699     5.6003   -41.7489  -999.2500
  174.0000     5.4616   198.4445     5.6048   -41.7339  -999.2500
  174.5000     5.4331   197.0098     5.6095   -41.7160  -999.2500
  175.0000     5.4492   195.4509     5.6886   -41.7040  -999.2500
  175.5000     5.5102   194.0252     5.7680   -41.6891  -999.2500
  176.0000     5.5713   191.8350     5.7725   -41.6728  -999.2500
  176.5000     5.6355   189.2020     5.7775   -41.6584  -999.2500
  177.0000     5.6936   186.1742     5.8566   -41.6442  -999.2500
  177.5000     5.7098   183.1002     5.8608   -41.7788  -999.2500
  178.0000     5.7408   180.0262     5.8653   -41.7611  -999.2500
  178.5000     5.7719   176.1946     5.9446   -41.7467  -999.2500
  179.0000     5.8030   173.1206     6.0247   -41.7323  -999.2500
  179.5000     5.8641   169.9647     6.1220   -42.0205  -999.2500
  180.0000     5.9740   166.9617     6.2159   -42.4509  -999.2500
  180.5000     6.1062   166.1604     6.3370   -43.0374  -999.2500
  181.0000     6.1672   165.3591     6.4162   -43.1695  -999.2500
  181.5000     6.1534   166.0730     6.4216   -42.7031  -999.2500
  182.0000     6.1243   169.0596     6.2762   -42.3898  -999.2500
  182.5000     6.0659   176.7427     6.0559   -42.3754  -999.2500
  183.0000     5.9768   186.3855     5.9095   -42.5140  -999.2500
  183.5000     5.7892   196.1903     5.7650   -42.6457  -999.2500
  184.0000     5.5158   209.7829     5.4701   -42.7942  -999.2500
  184.5000     5.1576   228.6786     5.2375   -42.9157  -999.2500
  185.0000     4.8594   245.3016     4.8810   -42.7482  -999.2500
  185.5000     4.6061   256.6818     4.5859   -42.7338  -999.2500
  186.0000     4.3677   266.4153     4.2908   -43.0220  -999.2500
  186.5000     4.2323   268.6553     4.2951   -42.4061  -999.2500
  187.0000     4.1005   267.8431     4.2994   -41.9412  -999.2500
  187.5000     4.4463   262.4964     4.4545   -41.4798  -999.2500
  188.0000     4.7019   254.8769     4.6834   -41.1635  -999.2500
  188.5000     4.8378   244.9847     4.8374   -41.1491  -999.2500
  189.0000     4.8237   233.1314     5.0160   -41.1347  -999.2500
  189.5000     4.9749   219.1288     5.2512   -41.4228  -999.2500
  190.0000     5.1896   205.4487     5.4491   -41.8533  -999.2500
  190.5000     5.5164   193.2838     5.6158   -42.2873  -999.2500
  191.0000     5.7421   180.3613     5.8331   -42.2693  -999.2500
  191.5000     5.8930   168.9540     5.9865   -41.9560  -999.2500
  192.0000     6.0288   161.1718     6.1407   -41.6426  -999.2500
  192.5000     6.1947   155.2193     6.3897   -41.3293  -999.2500
  193.0000     6.2856   150.6301     6.7597   -41.1654  -999.2500
  193.5000     6.3168   146.7985     6.9130   -41.1500  -999.2500
  194.0000     6.3781   142.9669     7.1412   -40.9865  -999.2500
  194.5000     6.5589   139.8929     7.2197   -40.9691  -999.2500
  195.0000     6.6947   136.8182     7.2234   -40.9547  -999.2500
  195.5000     6.7857   136.7643     7.2270   -41.0934  -999.2500
  196.0000     6.8468   138.2466     7.2307   -41.2285  -999.2500
  196.5000     6.8180   141.9799     7.1594   -41.3600  -999.2500
  197.0000     6.7108   146.4816     7.0848   -41.4951  -999.2500
  197.5000     6.5661   151.7410     6.9311   -41.6301  -999.2500
  198.0000     6.4624   157.0404     6.7222   -41.6121  -999.2500
  198.5000     6.3588   164.5214     6.5762   -41.5977  -999.2500
  199.0000     6.2252   169.7807     6.3544   -41.5834  -999.2500
  199.5000     6.0467   175.7976     6.0595   -41.5690  -999.2500
  200.0000     5.7934   190.1429     5.9126   -41.4051  -999.2500
  200.5000     5.6003   198.4242     5.6926   -41.3972  -999.2500
  201.0000     5.3771   208.9784     5.4717   -41.3899  -999.2500
  201.5000     5.1239   229.3810     5.2508   -41.2331  -999.2500
  202.0000     4.8558   243.7229     5.0240   -41.3792  -999.2500
  202.5000     4.5727   255.7922     4.6602   -41.5346  -999.2500
  203.0000     4.3794   261.0433     4.5141   -41.8090  -999.2500
  203.5000     4.2007   263.2651     4.4420   -41.7999  -999.2500
  204.0000     4.3269   266.2424     4.4466   -41.3442  -999.2500
  204.5000     4.4731   266.1262     4.4502   -40.8884  -999.2500
  205.0000     4.3101   260.4547     4.4539   -40.4327  -999.2500
  205.5000     4.3264   244.8615     4.5324   -40.4254  -999.2500
  206.0000     4.5672   230.4156     4.6109   -40.7189  -999.2500
  206.5000     4.8081   214.4545     4.8398   -40.8595  -999.2500
  207.0000     4.9741   200.7662     5.1465   -41.0708  -999.2500
  207.5000     5.0951   189.3506     5.4461   -41.2930  -999.2500
  208.0000     5.2012   182.4805     5.6743   -41.2855  -999.2500
  208.5000     5.2624   180.1559     5.9025   -41.4275  -999.2500
  209.0000     5.2787   180.8615     6.0558   -41.4187  -999.2500
  209.5000     5.2476   180.8095     5.9837   -41.4114  -999.2500
  210.0000     5.2065   182.2727     5.9883   -41.5554  -999.2500
  210.5000     5.1629   185.2511     5.9169   -41.6976  -999.2500
  211.0000     5.1196   187.7222     5.7710   -41.8397  -999.2500
  211.5000     5.0611   194.2251     5.5501   -41.8306  -999.2500
  212.0000     4.9277   219.9307     5.3184   -41.9731  -999.2500
  212.5000     4.6745   238.0606     4.7350   -41.9655  -999.2500
  213.0000     4.4063   266.7965     4.2895   -41.8087  -999.2500
  213.5000     4.1083   301.5931     3.9189   -41.5022  -999.2500
  214.0000     3.6880   340.1775     3.6232   -41.4933  -999.2500
  214.5000     3.4699   371.1861     3.4762   -41.6373  -999.2500
  215.0000     3.2739   383.2554     3.3301   -41.9271  -999.2500
  215.5000     3.4552   380.1732     3.3347   -41.7703  -999.2500
  216.0000     3.6062   371.7879     3.4132   -40.8661  -999.2500
  216.5000     3.4728   362.4545     3.5724   -40.1114  -999.2500
  217.0000     3.3543   350.7224     3.8705   -39.9547  -999.2500
  217.5000     3.6401   332.9827     4.1736   -40.0987  -999.2500
  218.0000     4.0156   293.5368     4.6263   -40.2392  -999.2500
  218.5000     4.3163   244.2424     5.0791   -40.3812  -999.2500
  219.0000     4.4825   208.5844     5.3073   -40.5233  -999.2500
  219.5000     4.5735   197.9264     5.5355   -40.5157  -999.2500
  220.0000     4.5901   194.8442     5.6140   -40.5069  -999.2500
  220.5000     4.5615   200.0952     5.5427   -40.4741  -999.2500
  221.0000     4.5179   207.6190     5.4716   -40.1943  -999.2500
  221.5000     4.4743   211.3550     5.3255   -40.0365  -999.2500
