~VERSION INFORMATION
 VERS.                2.0:   CWLS LOG ASCII STANDARD - VERSION 2.0
 WRAP.                 NO:   ONE LINE PER DEPTH STEP
~WELL INFORMATION
#MNEM.UNIT      DATA TYPE    INFORMATION
#----------   ------------   ------------------------------
 STRT.F           87.0000:   START DEPTH
 STOP.F          987.0000:   STOP DEPTH
 STEP.F            0.5000:   STEP LENGTH
 NULL.          -999.2500:   NO VALUE
 COMP.   FLUOR DANIEL INC:   COMPANY
 WELL. NAVAL PETROLEUM RESERVE 3 SH-2 #53-2:   WELL
 FLD .        TEAPOT DOME:   FIELD
 LOC .       S2 T38N R78W:   LOCATION
 CNTY.            NATRONA:   COUNTY
 STAT.            WYOMING:   STATE
 CTRY. UNITED STATES OF AMERICA:   COUNTRY
 SRVC. Schlumberger Well Surveying Corp:   SERVICE COMPANY
 DATE.        17-JUL-1963:   LOGDATE
 API .       490250645200:   API NUMBER
~CURVE INFORMATION
#MNEM.UNIT       API CODE    CURVE DESCRIPTION
#----------   ------------   ------------------------------
 DEPT.F                  :   
 GR  .GAPI   30 310 01 00:   GAMMA RAY
 SPR .MV     05 010 01 00:   SPONTANEOUS POTENTIAL
 CILD.MMHO   05 110 46 00:   CONDUCTIVITY INDUCTION LOG DEEP
 ILD .OHMM   05 120 46 00:   INDUCTION LOG DEEP
 ASN .OHMM   05 041 16 00:   AMPLIFIED SHORT NORMAL 16"
~PARAMETER INFORMATION
#MNEM.UNIT          VALUE    DESCRIPTION
#----------   ------------   ------------------------------
 PD  .                 GL:   PERMANENT DATUM
 EPD .F              5165:   ELEVATION PERMANENT DATUM
 LMF .                 KB:   LOG MEASURED FROM
 DAPD.F                 5:   FEET ABOVE PERMANENT DATUM
 DMF .                 KB:   DRILLING MEASURED FROM
 EKB .F              5170:   KELLING BUSHING
 EGL .F              5165:   GROUND LEVEL
 DATE.          7-17-1963:   RUN DATE
 RUN .                  1:   RUN NUMBER
 DD  .F               986:   DEPTH DRILLER
 DL  .F               987:   DEPTH LOGGER
 BLI .F               986:   BOTTOM LOG INTERVAL
 TLI .F                30:   TOP LOG INTERVAL
 CS  .IN            8.625:   CASING SIZE
 CBD .F                10:   CASING BOTTOM DRILLER
 BS  .IN            7.875:   BIT SIZE
 BSD .F               986:   BIT SIZE AT DEPTH
 DFT .            GEL-OIL:   DRILLING FLUID TYPE
 DFD .                9.4:   DRILLING FLUID DENSITY
 DFV .                 67:   DRILLING FLUID VISCOSITY
 DFPH.                8.5:   DRILLING FLUID PH
 DFL .                4.6:   DRILLING FLUID LOSS
 MSS .           FLOWLINE:   MUD SAMPLE SOURCE
 RMS .OHMM           3.37:   RESISTIVITY MUD SAMPLE
 MST .F                79:   MUD SAMPLE TEMPERATURE
 RMF .OHMM           1.49:   RESISTIVITY MUD FILTRATE SAMPLE
 MFST.F                83:   MUD FILTRATE SAMPLE TEMPERATURE
 MFSS.           MEASURED:   MUD FILTRATE SAMPLE SOURCE
 BHT .F                80:   BOTTOM HOLE TEMPERATURE
 TCS .HRS            0030:   TIME CURCULATED STOPPED
 MRT .F                80:   MAXIMUM RECORDED TEMPERATURE
 LUN .               4507:   LOGGING UNIT NUMBER
 LUL .              CSPR.:   LOGGING UNIT LOCATION
 ENGI.            WINKLER:   RECORDING ENGINEER
 WITN.          JORGENSON:   WITNESSED BY
 CLNT.            A2DTECH:   CLIENT CODE
 ORIG.      2" & 5" PRINT:   ORIGIN OF DATA
 UWI .       490250645200:   UNIQUE WELL ID
 DICO. A2D Technologies, Inc.:   DIGITIZING COMPANY
~OTHER INFORMATION
~A   DEPT       GR        SPR       CILD          ILD        ASN 
# ...
  941.0000  -999.2500   -49.2416    44.2642    21.8333    23.5387
  941.5000  -999.2500   -48.8887    43.7186    21.8862    25.0762
  942.0000  -999.2500   -48.7311    48.6931    20.7009    25.1777
  942.5000  -999.2500   -48.6219    53.3809    18.9939    22.9194
  943.0000  -999.2500   -48.5116    58.0687    17.4943    20.6164
  943.5000  -999.2500   -48.6538    62.7349    16.1551    18.3170
  944.0000  -999.2500   -48.9194    67.6211    14.8944    16.5755
  944.5000  -999.2500   -50.4625    73.4060    13.5910    14.7323
  945.0000  -999.2500   -51.7402    79.2391    12.8171    14.0868
  945.5000  -999.2500   -52.0473    83.9196    12.4348    13.4228
  946.0000  -999.2500   -51.7988    86.9347    12.0580    13.0645
  946.5000  -999.2500   -51.2111    86.8523    11.9203    12.8623
  947.0000  -999.2500   -50.6306    86.4276    11.9317    12.8043
  947.5000  -999.2500   -50.2401    86.0011    11.9460    12.7827
  948.0000  -999.2500   -50.1069    85.5762    11.9604    12.7606
  948.5000  -999.2500   -49.9713    85.1516    11.9746    12.7384
  949.0000  -999.2500   -49.8993    84.7270    11.9887    12.7163
  949.5000  -999.2500   -49.8996    84.3024    12.0031    12.7135
  950.0000  -999.2500   -49.8995    83.9196    12.0200    12.7135
  950.5000  -999.2500   -49.8997    83.9196    12.0403    12.7135
  951.0000  -999.2500   -49.9003    83.9196    12.0604    12.7131
  951.5000  -999.2500   -49.8989    83.9196    12.0806    12.7148
  952.0000  -999.2500   -49.7607    83.9196    12.1009    12.8160
  952.5000  -999.2500   -49.6045    83.9196    12.1104    12.9130
  953.0000  -999.2500   -49.3023    83.9196    12.1106    12.8749
  953.5000  -999.2500   -48.6560    83.9196    12.1107    12.8380
  954.0000  -999.2500   -48.0973    83.9196    12.1105    12.7675
  954.5000  -999.2500   -48.2953    83.9196    12.1110    12.6221
  955.0000  -999.2500   -48.4894    84.6184    12.0251    12.4775
  955.5000  -999.2500   -48.2811    85.5645    11.8676    12.3333
  956.0000  -999.2500   -47.9846    86.5107    11.7117    12.2092
  956.5000  -999.2500   -47.6926    86.8584    11.6110    12.2240
  957.0000  -999.2500   -47.5506    86.7201    11.6262    12.2362
  957.5000  -999.2500   -47.7586    86.5819    11.6392    12.2480
  958.0000  -999.2500   -47.9548    86.4436    11.6526    12.2598
  958.5000  -999.2500   -47.9696    86.3054    11.6658    12.2715
  959.0000  -999.2500   -47.5754    86.1671    11.6791    12.2832
  959.5000  -999.2500   -47.1786    86.0289    11.6924    12.2949
  960.0000  -999.2500   -46.9487    85.8906    11.7057    12.3067
  960.5000  -999.2500   -46.7597    85.7524    11.7190    12.3184
  961.0000  -999.2500   -46.5704    85.6141    11.7322    12.3302
  961.5000  -999.2500   -46.5400    85.4759    11.7455    12.3419
  962.0000  -999.2500   -46.6340    85.3376    11.7588    12.3536
  962.5000  -999.2500   -46.7297    85.1994    11.7721    12.3654
  963.0000  -999.2500   -46.8256    85.0611    11.7854    12.3771
  963.5000  -999.2500   -46.9269    84.9246    11.7986    12.3889
  964.0000  -999.2500   -47.0397    85.4407    11.8045    12.4011
  964.5000  -999.2500   -47.0592    85.9504    11.7785    12.4097
  965.0000  -999.2500   -47.0102    86.4601    11.7531    12.3507
  965.5000  -999.2500   -46.9596    86.9698    11.7282    12.2898
  966.0000  -999.2500   -46.9106    87.4795    11.7100    12.2292
  966.5000  -999.2500   -46.7108    87.9892    11.6240    12.1689
  967.0000  -999.2500   -46.4006    88.4989    11.5673    12.1084
  967.5000  -999.2500   -46.0939    89.0086    11.5045    12.0233
  968.0000  -999.2500   -46.0110    89.5183    11.4412    11.9388
  968.5000  -999.2500   -45.9388    90.0280    11.3766    11.8546
  969.0000  -999.2500   -45.8655    90.5377    11.3092    11.7708
  969.5000  -999.2500   -45.7919    91.0474    11.2420    11.7072
  970.0000  -999.2500   -45.7182    91.5571    11.1981    11.7084
  970.5000  -999.2500   -45.6446    92.0668    11.1814    11.7085
  971.0000  -999.2500   -45.5705    92.5765    11.1645    11.7085
  971.5000  -999.2500   -45.4922    93.0862    11.1477    11.7082
  972.0000  -999.2500   -45.6154    93.5961    11.1309    11.7087
  972.5000  -999.2500   -45.6811    94.1061    11.1144    11.7353
  973.0000  -999.2500   -45.6824    94.6153    11.1209    11.8496
  973.5000  -999.2500   -45.6808    94.9749    11.1526    11.9592
  974.0000  -999.2500   -45.6933    94.9749    11.1840    12.0691
  974.5000  -999.2500   -46.0226    94.9783    11.2155    12.1834
  975.0000  -999.2500   -46.0841    94.5830    11.2462    12.3009
  975.5000  -999.2500   -46.0852    93.9830    11.2772    12.4793
  976.0000  -999.2500   -46.0844    91.6667    11.3660    12.6563
  976.5000  -999.2500   -46.0836    88.9447    11.8671    12.8691
  977.0000  -999.2500   -46.0801    83.0582    12.3701    13.3080
  977.5000  -999.2500   -46.1040    77.2826    12.9567    13.9767
  978.0000  -999.2500   -46.6564    71.5228    14.0489    15.0814
  978.5000  -999.2500   -47.6453    65.7797    15.4390    16.2592
  979.0000  -999.2500   -49.3288    59.8270    16.8683    17.6178
  979.5000  -999.2500   -52.8705    53.1267    18.7522    19.4601
  980.0000  -999.2500   -54.1155    46.9849    21.0504    21.3945
  980.5000  -999.2500   -53.4785    43.0528    22.4613    23.3288
  981.0000  -999.2500   -52.4050    41.8896    23.1895    25.4022
  981.5000  -999.2500   -51.3467    42.2151    23.3405    25.3699
  982.0000  -999.2500   -50.2738    42.5407    23.2678    24.2876
  982.5000  -999.2500   -49.8798    42.8662    23.1445    23.9452
  983.0000  -999.2500   -50.8238    43.1918    22.9766    23.5616
  983.5000  -999.2500   -51.9416    43.5173    22.7354    22.5823
  984.0000  -999.2500   -51.8942    43.8429    22.4953    21.5768
  984.5000  -999.2500   -51.9380    44.1684    22.2548    20.6606
  985.0000  -999.2500   -52.7622    44.4940    21.9971    20.6739
  985.5000  -999.2500   -52.8986    44.8196    21.6591    21.1526
  986.0000  -999.2500   -52.6661    45.1455    21.3165    20.7246
  986.5000  -999.2500   -53.1125    45.4703    21.2561  -999.2500
  987.0000  -999.2500   -54.0920  -999.2500  -999.2500  -999.2500
