~VERSION INFORMATION
 VERS.                2.0:   CWLS LOG ASCII STANDARD - VERSION 2.0
 WRAP.                 NO:   ONE LINE PER DEPTH STEP
~WELL INFORMATION
#MNEM.UNIT      DATA TYPE    INFORMATION
#----------   ------------   ------------------------------
 STRT.F            2.0000:   START DEPTH
 STOP.F          482.0000:   STOP DEPTH
 STEP.F            0.5000:   STEP LENGTH
 NULL.          -999.2500:   NO VALUE
 COMP. LAWRENCE/ALLISON INC:   COMPANY
 WELL.  NPR 3 #67-65-SX-3:   WELL
 FLD .             TEAPOT:   FIELD
 LOC .       S3 T38N R78W:   LOCATION
 CNTY.            NATRONA:   COUNTY
 STAT.            WYOMING:   STATE
 CTRY. UNITED STATES OF AMERICA:   COUNTRY
 SRVC.           Gearhart:   SERVICE COMPANY
 DATE.        13-JUN-1988:   LOGDATE
 API .       490251121900:   API NUMBER
~CURVE INFORMATION
#MNEM.UNIT       API CODE    CURVE DESCRIPTION
#----------   ------------   ------------------------------
 DEPT.F                  :   
 GRR .GAPI   07 310 01 00:   GAMMA RAY FROM RES. LOG.
 ILD .OHMM   07 120 46 00:   INDUCTION LOG DEEP
 ILM .OHMM   07 120 44 00:   INDUCTION LOG MEDIUM
~PARAMETER INFORMATION
#MNEM.UNIT          VALUE    DESCRIPTION
#----------   ------------   ------------------------------
 PD  .                 GL:   PERMANENT DATUM
 EPD .F              5172:   ELEVATION PERMANENT DATUM
 LMF .                 KB:   LOG MEASURED FROM
 DAPD.F                 5:   FEET ABOVE PERMANENT DATUM
 DMF .                 KB:   DRILLING MEASURED FROM
 EKB .F              5177:   KELLING BUSHING
 EGL .F              5172:   GROUND LEVEL
 DATE.            6-13-88:   RUN DATE
 RUN .                  1:   RUN NUMBER
 DD  .F               490:   DEPTH DRILLER
 DL  .F               490:   DEPTH LOGGER
 BLI .F             481.5:   BOTTOM LOG INTERVAL
 TLI .F                40:   TOP LOG INTERVAL
 CS  .IN            8.625:   CASING SIZE
 CBD .F                40:   CASING BOTTOM DRILLER
 CBL .F                40:   CASING BOTTOM LOGGER
 BS  .IN            7.875:   BIT SIZE
 BSD .F               490:   BIT SIZE AT DEPTH
 DFT .                AIR:   DRILLING FLUID TYPE
 TLAB.HRS            2345:   TIME LOGGER AT BOTTOM
 MRT .F                70:   MAXIMUM RECORDED TEMPERATURE
 LUN .               7597:   LOGGING UNIT NUMBER
 LUL .           GILLETTE:   LOGGING UNIT LOCATION
 ENGI.          HUCKFELDT:   RECORDING ENGINEER
 WITN.             STRONG:   WITNESSED BY
 CLNT.            A2DTECH:   CLIENT CODE
 ORIG.       2", 5" PRINT:   ORIGIN OF DATA
 UWI .       490251121900:   UNIQUE WELL ID
 DICO. A2D Technologies, Inc.:   DIGITIZING COMPANY
~OTHER INFORMATION
~A    DEPT      GRR       ILD        ILM   
# ...
  184.0000   113.1355     9.2746     8.8777
  184.5000   113.3799     9.3288     8.9343
  185.0000   114.4071     9.3992     8.9731
  185.5000   115.6822     9.3899     8.9731
  186.0000   116.0193     9.3202     8.9731
  186.5000   116.1766     9.2508     8.9726
  187.0000   116.3391     9.1821     8.9739
  187.5000   115.2006     9.1138     8.8102
  188.0000   113.3379     9.0566     8.6702
  188.5000   111.5299     9.0566     8.5324
  189.0000   112.6587     9.0566     8.3968
  189.5000   114.5670     9.0566     8.2633
  190.0000   116.4861     9.0566     8.1036
  190.5000   118.3226     8.8402     8.2009
  191.0000   118.9476     8.6248     8.2690
  191.5000   119.5182     8.4119     8.3313
  192.0000   119.9470     7.7327     8.0881
  192.5000   119.8217     7.1635     7.8483
  193.0000   119.7109     7.0821     7.5953
  193.5000   119.5862     6.7190     7.1653
  194.0000   120.2185     6.0389     6.7692
  194.5000   120.5683     5.3837     6.2275
  195.0000   119.3461     4.7995     5.5514
  195.5000   117.1109     4.2787     4.9448
  196.0000   115.6108     3.8145     4.4054
  196.5000   114.9378     3.4232     3.9249
  197.0000   114.2472     3.1792     3.4336
  197.5000   113.0282     2.9799     2.9948
  198.0000   111.1810     2.9495     2.6122
  198.5000   109.3327     2.9506     2.5213
  199.0000   106.2958     2.9898     2.5619
  199.5000   103.4753     3.0067     2.6166
  200.0000   102.1200     3.1971     2.8766
  200.5000   106.6427     3.4636     3.1981
  201.0000   112.7739     3.9445     3.5210
  201.5000   118.4537     4.4922     4.0025
  202.0000   117.8557     5.1159     4.5498
  202.5000   117.3557     5.6124     5.1720
  203.0000   117.3708     5.9537     5.6555
  203.5000   120.1507     6.3157     5.9773
  204.0000   123.7180     6.8580     6.3175
  204.5000   127.1351     6.8434     6.6091
  205.0000   128.7758     6.8078     6.5813
  205.5000   129.3518     6.7750     6.5446
  206.0000   129.4881     6.7425     6.5083
  206.5000   127.7322     6.7106     6.4718
  207.0000   125.9833     6.6776     6.4375
  207.5000   125.2586     6.4908     6.1764
  208.0000   127.2827     6.2314     5.8702
  208.5000   129.4731     5.8956     5.5792
  209.0000   131.8339     5.5773     5.3026
  209.5000   134.2526     5.2894     5.0820
  210.0000   132.2342     5.2918     5.0518
  210.5000   128.3609     5.3008     5.0651
  211.0000   126.5917     5.3233     5.0866
  211.5000   125.1921     5.3998     5.0988
  212.0000   126.4261     5.6574     5.1942
  212.5000   127.6710     5.9274     5.3677
  213.0000   128.2674     6.2101     5.6476
  213.5000   127.8278     6.4273     5.8915
  214.0000   127.4050     6.7037     6.2354
  214.5000   126.9723     6.9919     6.5995
  215.0000   126.9500     7.2925     6.9847
  215.5000   127.1588     7.6061     7.3942
  216.0000   127.3744     7.9331     7.6323
  216.5000   127.6014     8.1244     7.7944
  217.0000   127.1154     8.1665     7.8833
  217.5000   126.5190     8.1790     7.8804
  218.0000   125.6433     8.0666     7.8806
  218.5000   126.0848     7.9816     7.8858
  219.0000   126.5581     7.8970     7.7930
  219.5000   127.0271     7.8087     7.6363
  220.0000   127.4993     7.6323     7.2321
  220.5000   127.9872     7.3988     7.0425
  221.0000   127.1463     7.2508     7.0372
  221.5000   126.1250     7.1708     6.9972
  222.0000   126.2319     7.0520     6.8701
  222.5000   127.0570     6.7421     6.5573
  223.0000   129.8724     6.4351     6.2582
  223.5000   131.9392     6.1420     5.9710
  224.0000   133.3577     5.8051     5.7618
  224.5000   133.8913     5.8586     5.5250
  225.0000   134.6688     5.9503     5.2913
  225.5000   135.0033     6.0434     5.3162
  226.0000   132.6793     6.1381     5.3406
  226.5000   130.3599     6.2342     5.6770
  227.0000   129.1576     6.4580     6.0243
  227.5000   128.3318     6.7027     6.2708
  228.0000   127.5989     6.9575     6.5085
  228.5000   127.6178     7.2218     6.7817
  229.0000   127.6189     7.4962     7.0613
  229.5000   127.6246     7.7810     7.3523
  230.0000   127.6120     7.8978     7.4906
  230.5000   129.6174     7.9227     7.5686
  231.0000   132.6678     7.9478     7.6474
  231.5000   134.0932     7.9730     7.7270
  232.0000   133.4878     7.9982     7.8156
  232.5000   132.8598     8.0235     7.8399
  233.0000   132.4670     8.0489     7.8643
  233.5000   133.0477     8.0744     7.8814
  234.0000   133.6508     8.0999     7.8989
  234.5000   133.4768     8.1255     7.9183
  235.0000   133.2161     8.1513     7.9377
  235.5000   132.9921     8.2551     7.9548
  236.0000   132.6374     8.2020     7.8977
  236.5000   133.8742     8.1297     7.8366
  237.0000   135.0658     8.0576     7.7755
  237.5000   136.2874     7.9867     7.7360
  238.0000   135.7535     7.9548     7.7482
  238.5000   134.5515     7.9766     7.7697
  239.0000   133.3239     7.9928     7.7910
  239.5000   132.8698     8.0090     7.8093
  240.0000   132.8609     8.0253     7.7805
  240.5000   132.8648     8.0288     7.7444
  241.0000   132.8435     7.9004     7.6590
  241.5000   134.2401     7.8089     7.4633
  242.0000   136.3789     7.7367     7.2281
  242.5000   138.5562     7.0868     6.7992
  243.0000   139.5549     6.7159     6.3957
  243.5000   139.9509     6.6381     5.9144
  244.0000   140.3346     6.5572     5.9402
  244.5000   140.7045     6.4936     5.9885
  245.0000   140.1700     6.4234     6.0356
  245.5000   138.4902     6.3579     6.0810
  246.0000   136.8229     6.2906     6.0816
  246.5000   135.2946     6.2241     5.9464
  247.0000   135.5141     6.1588     5.8217
  247.5000   135.7964     6.1369     5.6997
  248.0000   136.0793     6.1916     5.5802
  248.5000   136.3629     6.2350     5.3903
  249.0000   136.8551     6.2788     5.5295
  249.5000   136.5657     6.3687     5.7396
  250.0000   135.3133     6.5709     5.9782
  250.5000   133.9963     6.7615     6.2360
  251.0000   132.6760     6.9576     6.5050
  251.5000   131.3669     7.1594     6.7884
  252.0000   129.7545     7.3864     6.9906
  252.5000   127.3652     7.3342     6.9892
  253.0000   126.0876     7.2328     6.9446
  253.5000   125.9874     7.1177     6.7786
  254.0000   126.0008     6.6678     6.3447
  254.5000   126.1413     6.2082     6.0273
  255.0000   127.2870     5.8591     5.6382
  255.5000   130.2133     5.8591     5.2425
  256.0000   133.7787     5.8952     5.1463
  256.5000   136.9158     5.9226     5.2157
  257.0000   136.2765     5.9501     5.2920
  257.5000   134.2328     6.0047     5.3693
  258.0000   133.4392     6.2901     5.6754
  258.5000   131.3454     6.6607     6.0904
  259.0000   127.6596     7.1203     6.5357
  259.5000   126.0089     7.6117     7.0127
  260.0000   125.1988     7.9981     7.5311
  260.5000   124.4170     8.1272     7.7685
  261.0000   123.5230     8.2583     7.9100
  261.5000   123.1875     8.3916     8.0541
  262.0000   123.8672     8.5270     8.1790
  262.5000   125.1218     8.6646     8.2165
  263.0000   126.3435     8.7386     8.2668
  263.5000   125.5965     8.7716     8.3175
  264.0000   124.7224     8.8047     8.3684
  264.5000   124.0506     8.8379     8.4197
  265.0000   124.6036     8.8712     8.4713
  265.5000   125.1400     8.9047     8.5232
  266.0000   125.6626     8.9384     8.5668
  266.5000   125.7566     8.9729     8.5304
  267.0000   125.0221     8.9731     8.4831
  267.5000   124.3051     8.9731     8.4358
  268.0000   123.2183     8.9931     8.3891
  268.5000   121.8295     9.1108     8.3320
  269.0000   122.0977     9.2300     8.4505
  269.5000   122.7492     9.3507     8.6610
  270.0000   122.6513     9.4731     8.8762
  270.5000   121.1890     9.5744     9.0623
  271.0000   120.1482     9.3680     8.8614
  271.5000   119.9569     9.1106     8.3428
  272.0000   119.9721     8.5271     7.6031
  272.5000   121.0386     7.6802     6.9225
  273.0000   123.9541     6.9278     6.4485
  273.5000   128.4167     6.8511     5.8949
  274.0000   133.8104     6.8587     5.3889
  274.5000   138.3889     6.9010     5.2425
