~VERSION INFORMATION
 VERS.                2.0:   CWLS LOG ASCII STANDARD - VERSION 2.0
 WRAP.                 NO:   ONE LINE PER DEPTH STEP
~WELL INFORMATION
#MNEM.UNIT      DATA TYPE    INFORMATION
#----------   ------------   ------------------------------
 STRT.F           32.0000:   START DEPTH
 STOP.F          571.0000:   STOP DEPTH
 STEP.F            0.5000:   STEP LENGTH
 NULL.          -999.2500:   NO VALUE
 COMP. FENIX & SCISSON INCORP.:   COMPANY
 WELL.      NPR-3 #21-S-3:   WELL
 FLD .             TEAPOT:   FIELD
 LOC .       S3 T38N R78W:   LOCATION
 CNTY.            NATRONA:   COUNTY
 STAT.            WYOMING:   STATE
 CTRY. UNITED STATES OF AMERICA:   COUNTRY
 SRVC.           BIRDWELL:   SERVICE COMPANY
 DATE.        25-JUL-1978:   LOGDATE
 API .       490251067100:   API NUMBER
~CURVE INFORMATION
#MNEM.UNIT       API CODE    CURVE DESCRIPTION
#----------   ------------   ------------------------------
 DEPT.F                  :   
 CALD.IN     45 280 60 00:   CALIPER FROM DENSITY LOG
 CORR.G/C3   45 356 01 00:   DENSITY CORRECTION
 DPHI.DEC    45 890 10 00:   DENSITY POROSITY LIMESTONE
 GRD .GAPI   45 310 01 00:   GAMMA RAY FROM DENSITY LOG
 RHOB.G/C3   45 350 01 00:   BULK DENSITY
 ILD .OHMM   05 120 46 00:   INDUCTION LOG DEEP
 SN  .OHMM   05 040 16 00:   SHORT NORMAL 16"
 SPR .MV     05 010 01 00:   SPONTANEOUS POTENTIAL FROM RES.
 NPHI.DEC    42 890 01 00:   NEUTRON POROSITY LIMESTONE
~PARAMETER INFORMATION
#MNEM.UNIT          VALUE    DESCRIPTION
#----------   ------------   ------------------------------
 PD  .                 GL:   PERMANENT DATUM
 EPD .F              5203:   ELEVATION PERMANENT DATUM
 LMF .                 KB:   LOG MEASURED FROM
 DAPD.F                 4:   FEET ABOVE PERMANENT DATUM
 DMF .                 KB:   DRILLING MEASURED FROM
 EKB .F              5207:   KELLING BUSHING
 EGL .F              5203:   GROUND LEVEL
 DATE.        25-JUL-1978:   RUN DATE
 RUN .                  1:   RUN NUMBER
 DD  .F               565:   DEPTH DRILLER
 DL  .F               573:   DEPTH LOGGER
 BLI .F               566:   BOTTOM LOG INTERVAL
 TLI .F                46:   TOP LOG INTERVAL
 CS  .IN            8.625:   CASING SIZE
 CBD .F                40:   CASING BOTTOM DRILLER
 CBL .F                48:   CASING BOTTOM LOGGER
 BS  .IN            7.875:   BIT SIZE
 BSD .F               565:   BIT SIZE AT DEPTH
 DFT .                KCL:   DRILLING FLUID TYPE
 DFD .                8.6:   DRILLING FLUID DENSITY
 DFV .                 30:   DRILLING FLUID VISCOSITY
 DFPH.                  9:   DRILLING FLUID PH
 MSS .           FLOWLINE:   MUD SAMPLE SOURCE
 LUN .               2958:   LOGGING UNIT NUMBER
 LUL .               CASP:   LOGGING UNIT LOCATION
 WITN.           MCGINLEY:   WITNESSED BY
 CLNT.            A2DTECH:   CLIENT CODE
 ORIG.           5" PRINT:   ORIGIN OF DATA
 UWI .       490251067100:   UNIQUE WELL ID
 DICO. A2D Technologies, Inc.:   DIGITIZING COMPANY
~OTHER INFORMATION
~A   DEPT     CALD       CORR       DPHI         GRD      RHOB        ILD         SN        SPR       NPHI   
# ...
  105.0000     6.7250     0.1024     0.1531   103.7087     2.4584     9.7519     9.1082   -47.6959  -999.2500
  105.5000     6.7105     0.0611     0.1483   104.4641     2.4419     9.6331     8.9272   -48.1273  -999.2500
  106.0000     6.8309     0.0385     0.1435   106.2703     2.4330     9.6415     8.8703   -48.2616  -999.2500
  106.5000     7.0706     0.0264     0.1420   109.1527     2.4300     9.6498     8.8769   -48.2467  -999.2500
  107.0000     7.1758     0.0219     0.1480   109.5826     2.4464     9.6582     8.8212   -48.3814  -999.2500
  107.5000     7.2063     0.0248     0.1540   109.4378     2.4411     9.6665     8.8265   -48.3635  -999.2500
  108.0000     7.2517     0.0293     0.1592   108.9917     2.4337     9.7418     8.8320   -48.3491  -999.2500
  108.5000     7.2523     0.0503     0.1636   108.6947     2.4269     9.7502     8.8385   -48.6320  -999.2500
  109.0000     7.1775     0.0930     0.1639   107.9495     2.4217     9.6916     8.8438   -49.2120  -999.2500
  109.5000     7.0872     0.1463     0.1633   106.9029     2.4165     9.5037     8.8491   -49.4948  -999.2500
  110.0000     6.9852     0.1598     0.1588   107.3577     2.4127     9.0641     8.7923   -49.4799  -999.2500
  110.5000     6.8811     0.1687     0.1546   110.0648     2.4225     8.9459     8.6187   -49.6147  -999.2500
  111.0000     6.7920     0.1477     0.1510   111.1203     2.4404     9.0798     8.5646   -49.5967  -999.2500
  111.5000     6.7476     0.1161     0.1489   111.5752     2.4614     9.1505     8.4525   -49.7345  -999.2500
  112.0000     6.7183     0.0755     0.1612   110.2282     2.4434     9.2218     8.3430   -49.5680  -999.2500
  112.5000     6.8087     0.0499     0.1615   107.4049     2.4202     9.2300     8.3480   -49.5536  -999.2500
  113.0000     6.8990     0.0362     0.1597   105.1071     2.4195     9.2397     8.3530   -49.5393  -999.2500
  113.5000     6.9893     0.0226     0.1489   103.9363     2.4180     9.3116     8.3580   -49.5245  -999.2500
  114.0000     7.0646     0.0183     0.1493   102.5882     2.4419     9.3197     8.3631   -49.6592  -999.2500
  114.5000     7.1250     0.0167     0.1523   104.8460     2.4397     9.3277     8.3104   -49.6412  -999.2500
  115.0000     7.2003     0.0302     0.1556   106.3519     2.4330     9.0821     8.3156   -49.6269  -999.2500
  115.5000     7.2308     0.0632     0.1583   106.8068     2.4315     8.9656     8.3207   -49.6125  -999.2500
  116.0000     7.2015     0.1067     0.1601   105.1595     2.4285     8.9736     8.3268   -49.5981  -999.2500
  116.5000     7.1125     0.1427     0.1592   103.3621     2.4240     9.0451     8.3318   -49.4352  -999.2500
  117.0000     7.0831     0.1591     0.1562   107.1203     2.4225     8.9889     8.3368   -49.4205  -999.2500
  117.5000     6.9941     0.1621     0.1472   109.2268     2.4262     8.9349     8.3418   -49.4029  -999.2500
  118.0000     6.9200     0.1260     0.1508   109.3814     2.4421     8.9446     8.3468   -49.2400  -999.2500
  118.5000     6.8757     0.0899     0.1550   109.3859     2.4532     8.9523     8.2944   -49.2256  -999.2500
  119.0000     6.9062     0.0583     0.1562   108.7648     2.4367     8.9600     8.2995   -49.0626  -999.2500
  119.5000     6.9516     0.0433     0.1571   107.1435     2.4285     8.9062     8.1907   -49.0483  -999.2500
  120.0000     7.0419     0.0327     0.1561   105.3450     2.4255     8.7335     8.1969   -48.8853  -999.2500
  120.5000     7.1322     0.0282     0.1586   109.1042     2.4270     8.5623     8.2018   -48.8707  -999.2500
  121.0000     7.1776     0.0356     0.1634   110.3099     2.4270     8.3926     8.2067   -49.0045  -999.2500
  121.5000     7.1782     0.0417     0.1697   110.4644     2.4255     8.1715     8.2117   -49.2868  -999.2500
  122.0000     7.0891     0.0940     0.1766   110.1685     2.4180     7.9563     8.2166   -49.2719  -999.2500
  122.5000     7.0132     0.1616     0.1760   109.7214     2.4082     7.8020     7.9979   -49.4067  -999.2500
  123.0000     6.8811     0.1871     0.1661   109.2765     2.3999     7.6965     7.9406   -49.5410  -999.2500
  123.5000     6.7621     0.1916     0.1643   109.1306     2.3993     7.5509     7.8436   -49.6752  -999.2500
  124.0000     6.6730     0.1735     0.1628   110.1862     2.4217     7.4045     7.7944   -49.8094  -999.2500
  124.5000     6.5838     0.1299     0.1610   115.1332     2.4727     7.4109     7.8002   -49.7915  -999.2500
  125.0000     6.6144     0.0443     0.1601   120.2553     2.4584     7.4686     7.8049   -49.7771  -999.2500
  125.5000     6.7047     0.0247     0.1670   120.2606     2.4337     7.5267     7.8636   -49.9114  -999.2500
  126.0000     6.7800     0.0112     0.1733   119.3641     2.4165     7.5853     7.9776   -49.8934  -999.2500
  126.5000     6.8852     0.0096     0.1742   118.4676     2.4037     7.7019     8.0933   -49.8790  -999.2500
  127.0000     6.9456     0.0081     0.1562   118.3208     2.4060     7.8664     8.2686   -49.7161  -999.2500
  127.5000     7.0359     0.0080     0.1493   117.7257     2.4226     8.0376     8.5048   -49.7017  -999.2500
  128.0000     7.1860     0.0080     0.1362   113.5259     2.4490     8.2693     8.5688   -49.6874  -999.2500
  128.5000     7.3676     0.0064     0.1326   111.4271     2.4562     8.4493     8.6917   -49.5244  -999.2500
  129.0000     7.4895     0.0064     0.1322   114.8861     2.4659     8.5151     8.5189   -49.3611  -999.2500
  129.5000     7.5914     0.0079     0.1335   115.4911     2.4712     8.5225     8.4086   -49.1950  -999.2500
  130.0000     7.6070     0.0138     0.1362   109.7898     2.4712     8.5300     8.4136   -49.1806  -999.2500
  130.5000     7.5627     0.0312     0.1371   107.3669     2.4614     8.5391     8.4188   -49.1663  -999.2500
  131.0000     7.4886     0.0693     0.1341   106.1201     2.4622     8.5465     8.4833   -49.3041  -999.2500
  131.5000     7.3397     0.1008     0.1326   104.2486     2.4682     8.5539     8.5471   -49.4383  -999.2500
  132.0000     7.1908     0.1307     0.1311   102.6013     2.4719     8.5619     8.5522   -49.5691  -999.2500
  132.5000     7.0120     0.1487     0.1284   101.8539     2.4749     8.6267     8.4973   -49.5542  -999.2500
  133.0000     6.8930     0.1577     0.1227   102.0096     2.4749     8.5749     8.5037   -49.5366  -999.2500
  133.5000     6.8039     0.1561     0.1158   101.5635     2.4772     8.6435     8.5088   -49.5223  -999.2500
  134.0000     6.6999     0.1411     0.1122   100.5169     2.4906     8.6510     8.3935   -49.3593  -999.2500
  134.5000     6.6257     0.1210     0.1242   102.0228     2.4951     8.7183     8.3446   -49.3450  -999.2500
  135.0000     6.5516     0.0854     0.1335   105.9311     2.4906     8.7261     8.3509   -49.3306  -999.2500
  135.5000     6.5688     0.0539     0.1450   105.6352     2.4689     8.6753     8.3559   -49.4651  -999.2500
  136.0000     6.6725     0.0403     0.1521   108.0420     2.4539     8.6828     8.3609   -49.4502  -999.2500
  136.5000     6.8076     0.0267     0.1485   109.5480     2.4434     8.6904     8.3659   -49.4326  -999.2500
  137.0000     6.8979     0.0162     0.1440   108.3013     2.4419     8.6979     8.3710   -49.4182  -999.2500
  137.5000     7.1526     0.0101     0.1395   106.5549     2.4496     8.7656     8.3760   -49.4039  -999.2500
  138.0000     7.3176     0.0086     0.1362   105.5082     2.4539     8.7732     8.3889   -49.3895  -999.2500
  138.5000     7.4377     0.0115     0.1320   105.8130     2.4622     8.7810     8.4453   -49.3751  -999.2500
  139.0000     7.4834     0.0240     0.1281   106.5681     2.4727     8.7903     8.5089   -49.3608  -999.2500
  139.5000     7.4380     0.0490     0.1278   107.0230     2.4742     8.7979     8.5140   -49.1887  -999.2500
  140.0000     7.3757     0.0820     0.1323   107.1764     2.4712     8.8055     8.4593   -48.5855  -999.2500
  140.5000     7.2459     0.1150     0.1347   106.8806     2.4652     8.8131     8.4656   -48.7234  -999.2500
  141.0000     7.0222     0.1359     0.1374   106.5856     2.4607     8.8817     8.4124   -48.7054  -999.2500
