~VERSION INFORMATION
 VERS.                2.0:   CWLS LOG ASCII STANDARD - VERSION 2.0
 WRAP.                 NO:   ONE LINE PER DEPTH STEP
~WELL INFORMATION
#MNEM.UNIT      DATA TYPE    INFORMATION
#----------   ------------   ------------------------------
 STRT.F           40.0000:   START DEPTH
 STOP.F          468.0000:   STOP DEPTH
 STEP.F            0.5000:   STEP LENGTH
 NULL.          -999.2500:   NO VALUE
 COMP. BROWN JOHN E&C INC:   COMPANY
 WELL. NAVAL PETROLEUM RESERVE 3 SX-1 #73-2-10:   WELL
 FLD .             TEAPOT:   FIELD
 LOC .      S10 T38N R78W:   LOCATION
 CNTY.            NATRONA:   COUNTY
 STAT.            WYOMING:   STATE
 CTRY. UNITED STATES OF AMERICA:   COUNTRY
 SRVC.     Atlas Wireline:   SERVICE COMPANY
 DATE.        05-MAY-1991:   LOGDATE
 API .       490251134000:   API NUMBER
~CURVE INFORMATION
#MNEM.UNIT       API CODE    CURVE DESCRIPTION
#----------   ------------   ------------------------------
 DEPT.F                  :   
 RILD.OHMM   07 120 46 00:   INDUCTION LOG DEEP RESISTIVITY
 RILM.OHMM   07 120 44 00:   INDUCTION LOG MEDIUM RESISTIVITY
 GRD .GAPI   45 310 01 00:   GAMMA RAY FROM DENSITY LOG
 CALD.IN     45 280 60 00:   CALIPER FROM DENSITY LOG
 CORR.G/C3   45 356 01 00:   DENSITY CORRECTION
 PORD.DEC    45 890 12 00:   POROSITY DENSITY SANDSTONE
 DEN .G/C3   45 350 01 00:   COMPENSATED BULK DENSTIY
~PARAMETER INFORMATION
#MNEM.UNIT          VALUE    DESCRIPTION
#----------   ------------   ------------------------------
 PD  .                 GL:   PERMANENT DATUM
 EPD .F              5178:   ELEVATION PERMANENT DATUM
 LMF .                 KB:   LOG MEASURED FROM
 DAPD.F                 5:   FEET ABOVE PERMANENT DATUM
 DMF .                 KB:   DRILLING MEASURED FROM
 EKB .F              5183:   KELLING BUSHING
 EGL .F              5178:   GROUND LEVEL
 DATE.        05-MAY-1991:   RUN DATE
 RUN .                  1:   RUN NUMBER
 DD  .F               470:   DEPTH DRILLER
 DL  .F               470:   DEPTH LOGGER
 BLI .F               468:   BOTTOM LOG INTERVAL
 TLI .F                 0:   TOP LOG INTERVAL
 CS  .IN            8.625:   CASING SIZE
 CBD .F                45:   CASING BOTTOM DRILLER
 CBL .F                45:   CASING BOTTOM LOGGER
 BS  .IN            7.875:   BIT SIZE
 BSD .F               470:   BIT SIZE AT DEPTH
 DFT .                AIR:   DRILLING FLUID TYPE
 LUN .            HL-6272:   LOGGING UNIT NUMBER
 LUL .             CASPER:   LOGGING UNIT LOCATION
 ENGI.            KINNETT:   RECORDING ENGINEER
 WITN.             STRONG:   WITNESSED BY
 CLNT.            A2DTECH:   CLIENT CODE
 ORIG.           5" PRINT:   ORIGIN OF DATA
 UWI .       490251134000:   UNIQUE WELL ID
 DICO. A2D Technologies, Inc.:   DIGITIZING COMPANY
~OTHER INFORMATION
~A   DEPT     RILD       RILM          GRD     CALD       CORR       PORD        DEN   
   40.0000  -999.2500  -999.2500     0.0000  -999.2500  -999.2500  -999.2500  -999.2500
   40.5000  -999.2500  -999.2500     0.0978  -999.2500  -999.2500  -999.2500  -999.2500
   41.0000  -999.2500  -999.2500     1.9200  -999.2500  -999.2500  -999.2500  -999.2500
   41.5000  -999.2500  -999.2500     3.5152  -999.2500  -999.2500  -999.2500  -999.2500
   42.0000  -999.2500  -999.2500     5.5644  -999.2500  -999.2500  -999.2500  -999.2500
   42.5000  -999.2500  -999.2500     8.5212  -999.2500  -999.2500  -999.2500  -999.2500
   43.0000  -999.2500  -999.2500    12.1647  -999.2500  -999.2500  -999.2500  -999.2500
   43.5000  -999.2500  -999.2500    15.5966  -999.2500  -999.2500  -999.2500  -999.2500
   44.0000  -999.2500  -999.2500    26.9371  -999.2500  -999.2500  -999.2500  -999.2500
   44.5000  -999.2500  -999.2500    39.3053  -999.2500  -999.2500  -999.2500  -999.2500
   45.0000  -999.2500  -999.2500    41.4597  -999.2500  -999.2500  -999.2500  -999.2500
   45.5000     1.2781     2.8011    41.2396     8.6710    -0.0449     0.2449     2.2376
   46.0000     1.5563     3.4262    45.4976     8.6536     0.0198     0.2348     2.2579
   46.5000     2.9264     4.2200    49.1959     8.6078     0.0349     0.2245     2.2737
   47.0000     5.8087     6.4465    48.7050     8.5621     0.0349     0.2101     2.2959
   47.5000     9.7119    13.7447    45.8069     8.5497     0.0244     0.1969     2.3228
   48.0000    11.5537    20.7068    48.0830     8.5496     0.0214     0.1815     2.3458
   48.5000     5.2704    11.8343    50.8129     8.5494     0.0244     0.1653     2.3667
   49.0000     4.6834     7.4589    50.5927     8.5342     0.0304     0.1518     2.3830
   49.5000     4.6188     8.1638    49.0110     8.5341     0.0320     0.1417     2.3956
   50.0000     4.6188     9.6822    48.1084     8.5339     0.0335     0.1363     2.4091
   50.5000     4.6510    10.0563    51.0669     8.5338     0.0320     0.1309     2.4241
   51.0000     4.7489     9.0001    50.1660     8.5336     0.0304     0.1258     2.4346
   51.5000     5.0905     7.7796    46.9957     8.5335     0.0273     0.1213     2.4444
   52.0000     6.0559     6.7246    45.6392     8.5333     0.0228     0.1177     2.4534
   52.5000     5.4189     6.0140    47.9170     8.5332     0.0167     0.1144     2.4617
   53.0000     5.4189     5.7291    49.2853     8.5330     0.0095     0.1117     2.4692
   53.5000     5.0905     5.6158    50.4267     8.5329     0.0035     0.1144     2.4669
   54.0000     4.8827     5.5779    51.7951     8.5327     0.0020     0.1180     2.4556
   54.5000     4.8827     5.5400    52.4826     8.5326     0.0035     0.1198     2.4496
   55.0000     4.9855     5.5408    52.7163     8.5324     0.0050     0.1189     2.4511
   55.5000     5.1260     5.5030    53.4039     8.5323     0.0066     0.1174     2.4556
   56.0000     5.1977     5.4657    55.4530     8.5321     0.0051     0.1159     2.4602
   56.5000     5.2339     5.4286    57.2752     8.5320     0.0036     0.1141     2.4647
   57.0000     5.1977     5.3546    58.6418     8.5318     0.0021     0.1120     2.4707
   57.5000     5.1260     5.3181    56.6079     8.5317     0.0021     0.1114     2.4729
   58.0000     5.0553     5.3190    56.1592     8.5315     0.0021     0.1132     2.4677
   58.5000     5.0203     5.3568    58.2100     8.5314     0.0021     0.1153     2.4617
   59.0000     4.9855     5.3949    59.8053     8.5312     0.0022     0.1162     2.4586
   59.5000     5.0553     5.4332    60.7181     8.5311     0.0022     0.1165     2.4571
   60.0000     5.1260     5.4718    57.5495     8.5309     0.0037     0.1168     2.4579
   60.5000     5.3071     5.5493    54.3793     8.5308     0.0067     0.1174     2.4571
   61.0000     5.4189     5.6669    53.0245     8.5306     0.0112     0.1181     2.4556
   61.5000     5.5330     5.8274    52.8041     8.5305     0.0158     0.1192     2.4541
   62.0000     5.6495     5.9924    53.4919     8.5454     0.0188     0.1201     2.4519
   62.5000     5.8492     6.1194    54.8602     8.5302     0.0203     0.1207     2.4504
   63.0000     6.0981     6.2927    56.4555     8.5300     0.0203     0.1210     2.4496
   63.5000     6.2699     6.4708    59.1854     8.5299     0.0188     0.1186     2.4519
   64.0000     6.4465     6.7004    58.9652     8.5297     0.0188     0.1144     2.4639
   64.5000     6.6309     6.9382    56.0197     8.5296     0.0128     0.1099     2.4760
   65.0000     6.8672     7.1346    56.2706     8.5294     0.0114     0.1060     2.4835
   65.5000     7.0641     7.2858    58.3432     8.5293     0.0114     0.1024     2.4865
   66.0000     7.2545     7.4410    58.0485     8.5291     0.0099     0.1000     2.4887
   66.5000     7.3560     7.5499    57.6375     8.5290     0.0069     0.0976     2.4895
   67.0000     7.5632     7.7053    58.8078     8.5288     0.0024     0.0952     2.4902
   67.5000     7.5632     7.7603    59.6937     8.5287    -0.0006     0.0961     2.4879
   68.0000     7.6159     7.8155    59.1680     8.5285    -0.0006     0.1000     2.4839
   68.5000     7.6159     7.8165    55.6239     8.5283    -0.0006     0.1030     2.4782
   69.0000     7.6159     7.8176    53.1328     8.5282     0.0010     0.1042     2.4767
   69.5000     7.6159     7.8187    55.4105     8.5280     0.0055     0.1048     2.4782
   70.0000     7.5632     7.8197    59.2751     8.5279     0.0055     0.1048     2.4797
   70.5000     7.5632     7.8208    59.9626     8.5277     0.0010     0.1048     2.4789
   71.0000     7.5632     7.8219    58.6078     8.5276    -0.0035     0.1051     2.4767
   71.5000     7.5632     7.8229    57.2513     8.5274    -0.0050     0.1060     2.4767
   72.0000     7.5632     7.8786    57.2598     8.5273    -0.0035     0.1069     2.4767
   72.5000     7.5632     7.8796    57.9473     8.5271    -0.0005     0.1090     2.4722
   73.0000     7.5632     7.9379    58.8618     8.5270     0.0026     0.1114     2.4677
   73.5000     7.6159     7.9984    60.2302     8.5268     0.0086     0.1126     2.4662
   74.0000     7.7225     8.1617    60.9160     8.5267     0.0146     0.1117     2.4677
   74.5000     7.7763     8.3347    58.4283     8.5114     0.0162     0.1102     2.4692
   75.0000     7.9954     8.5114    56.6196     8.5113     0.0071     0.1084     2.4714
   75.5000     8.2207     8.6918    54.8109     8.5111    -0.0034     0.1078     2.4729
   76.0000     8.3938     8.8760    52.7753     8.4959    -0.0019     0.1072     2.4744
   76.5000     8.6302     9.0641    50.9667     8.4807    -0.0018     0.1060     2.4759
   77.0000     8.8120     9.2563    48.4772     8.4654    -0.0033     0.1042     2.4774
   77.5000     8.9975     9.4524    46.2147     8.4502    -0.0003     0.1024     2.4827
   78.0000     9.2510     9.7201    45.7659     8.4501     0.0059     0.1000     2.4872
   78.5000     9.5779     9.9261    46.4552     8.4499     0.0088     0.0991     2.4887
   79.0000     9.8519    10.1365    47.5966     8.4498     0.0056     0.0991     2.4887
   79.5000    10.0642    10.3513    49.1919     8.4647     0.0028     0.1000     2.4895
   80.0000    10.3384    10.5757    50.5585     8.4645     0.0133     0.1000     2.4895
   80.5000    10.5561    10.8054    48.0708     8.4644     0.0013     0.0994     2.4895
   81.0000    10.7420    11.1008    48.3045     8.4642     0.0028     0.0981     2.4902
   81.5000    11.0053    11.3361    49.2189     8.4641     0.0028     0.0967     2.4902
   82.0000    11.3154    11.6571    49.4916     8.4639     0.0013     0.0957     2.4917
   82.5000    11.4737    11.9871    48.7786     8.4789    -0.0002     0.0945     2.4947
   83.0000    11.6342    12.2412    47.1969     8.4787    -0.0001     0.0934     2.4977
   83.5000    11.7969    12.4142    45.1613     8.4786     0.0029     0.0922     2.4992
   84.0000    11.7969    12.4158    43.8064     8.4935    -0.0031     0.0901     2.5008
   84.5000    11.7969    12.4175    45.1748     8.5084    -0.0031     0.0907     2.5008
   85.0000    11.7969    12.4192    46.3162     8.5234    -0.0016     0.0958     2.4947
