~VERSION INFORMATION
 VERS.                2.0:   CWLS LOG ASCII STANDARD - VERSION 2.0
 WRAP.                 NO:   ONE LINE PER DEPTH STEP
~WELL INFORMATION
#MNEM.UNIT      DATA TYPE    INFORMATION
#----------   ------------   ------------------------------
 STRT.F            0.0000:   START DEPTH
 STOP.F          860.0000:   STOP DEPTH
 STEP.F            0.5000:   STEP LENGTH
 NULL.          -999.2500:   NO VALUE
 COMP.          U.S. NAVY:   COMPANY
 WELL. NPR #3 TEAPOT DOME #28S-35:   WELL
 FLD .             TEAPOT:   FIELD
 LOC .      S35 T39N R78W:   LOCATION
 CNTY.            NATRONA:   COUNTY
 STAT.            WYOMING:   STATE
 CTRY. UNITED STATES OF AMERICA:   COUNTRY
 SRVC.       Schlumberger:   SERVICE COMPANY
 DATE.        10-NOV-1958:   LOGDATE
 API .       490250649800:   API NUMBER
~CURVE INFORMATION
#MNEM.UNIT       API CODE    CURVE DESCRIPTION
#----------   ------------   ------------------------------
 DEPT.F                  :   
 SPR .MV     01 010 01 00:   SPONTANEOUS POTENTIAL FROM RES.
 ASN .OHMM   01 041 16 00:   AMPLIFIED SHORT NORMAL 16"
 LT18.OHMM   01 070 18 00:   LATERAL 18'
 LN  .OHMM   01 060 64 00:   LONG NORMAL 64"
 GRN .CPS    35 310 30 00:   GAMMA RAY
 NEUT.CPS    35 330 30 00:   NEUTRON
 MCAL.IN     15 280 01 00:   CALIPER FROM MICRO LOG
~PARAMETER INFORMATION
#MNEM.UNIT          VALUE    DESCRIPTION
#----------   ------------   ------------------------------
 LMF .                 KB:   LOG MEASURED FROM
 DMF .                 KB:   DRILLING MEASURED FROM
 EKB .F              5113:   KELLING BUSHING
 EGL .F              5103:   GROUND LEVEL
 DATE.         11-10-1958:   RUN DATE
 RUN .                  1:   RUN NUMBER
 DD  .F               860:   DEPTH DRILLER
 DL  .F               861:   DEPTH LOGGER
 BLI .F               860:   BOTTOM LOG INTERVAL
 TLI .F                90:   TOP LOG INTERVAL
 CBD .F                34:   CASING BOTTOM DRILLER
 BS  .IN             6.75:   BIT SIZE
 BSD .F               860:   BIT SIZE AT DEPTH
 DFT .          OIL ADDED:   DRILLING FLUID TYPE
 DFD .                 10:   DRILLING FLUID DENSITY
 DFV .                 20:   DRILLING FLUID VISCOSITY
 DFPH.                7.5:   DRILLING FLUID PH
 DFL .                4.2:   DRILLING FLUID LOSS
 RMS .OHMM              2:   RESISTIVITY MUD SAMPLE
 MST .F                62:   MUD SAMPLE TEMPERATURE
 RMF .OHMM            1.4:   RESISTIVITY MUD FILTRATE SAMPLE
 MFST.F                72:   MUD FILTRATE SAMPLE TEMPERATURE
 RMC .OHMM            1.9:   RESISTIVITY MUD CAKE
 MCST.F                72:   MUD CAKE SAMPLE TEMPERATURE
 MFSS.                  M:   MUD FILTRATE SAMPLE SOURCE
 MCSS.                  M:   MUD CAKE SAMPLE SOURCE
 RMB .OHMM            1.7:   RESISTIVITY MUD AT BHT
 BHT .F                72:   BOTTOM HOLE TEMPERATURE
 TCS .HRS               1:   TIME CURCULATED STOPPED
 MRT .F                72:   MAXIMUM RECORDED TEMPERATURE
 LUN .               2754:   LOGGING UNIT NUMBER
 LUL .                 NC:   LOGGING UNIT LOCATION
 ENGI.             QUINBY:   RECORDING ENGINEER
 WITN.             MARTIN:   WITNESSED BY
 CLNT.            A2DTECH:   CLIENT CODE
 ORIG.     1", 2.5" PRINT:   ORIGIN OF DATA
 UWI .       490250649800:   UNIQUE WELL ID
 DICO. A2D Technologies, Inc.:   DIGITIZING COMPANY
~OTHER INFORMATION
~A    DEPT     SPR        ASN       LT18         LN          GRN     NEUT       MCAL   
# ...
  136.5000    -7.5096     4.6401     5.6029     5.6071     6.2607   376.3656     7.0192
  137.0000    -7.5081     4.6857     5.6056     5.6058     5.9862   382.4772     7.0188
  137.5000    -7.5068     4.6914     5.4729     5.6045     5.9661   385.5348     7.0184
  138.0000    -7.5054     4.7733     5.4758     5.4672     6.3110   384.0116     6.9907
  138.5000    -7.5041     4.8282     5.3433     5.4659     6.2080   405.5149     7.0176
  139.0000    -7.5028     4.8561     5.3460     5.4646     6.1051   406.9233     7.0172
  139.5000    -7.5013     4.9025     5.3487     5.5992     6.2698   395.7503     7.0168
  140.0000    -7.5000     4.8847     5.2162     5.5978     6.2080   389.6769     7.0164
  140.5000    -7.4986     4.8488     5.2189     5.5964     6.2698   390.8713     7.0160
  141.0000    -7.4973     4.8759     5.0864     5.7310     6.3728   397.9597     7.0155
  141.5000    -7.4960     4.9031     5.0791     5.7296     6.3933   409.2324     7.0151
  142.0000    -7.4945     4.9690     4.9566     5.7282     6.5169   401.5414     6.9874
  142.5000    -7.4932     5.0239     4.9426     5.8628     6.5581   400.0782     6.9870
  143.0000    -7.4918     5.0787     4.8067     5.8614     6.8060   413.5497     6.9866
  143.5000    -7.4905     5.1066     4.6944     5.8601     6.7099   413.1876     6.9862
  144.0000    -7.4892     5.1615     4.7243     5.8587     6.2450   399.9989     6.9858
  144.5000    -7.4878     5.2163     4.8351     5.8573     5.8168   404.0954     6.9580
  145.0000    -7.4864     5.2870     4.8716     5.8560     6.0639   391.7006     6.9576
  145.5000    -7.4851     5.4177     4.9757     5.8546     5.9571   385.5966     6.9572
  146.0000    -7.4834     5.4989     5.1135     5.8532     5.8855   379.4925     6.9568
  146.5000    -7.4821     5.5802     5.1601     5.8519     5.7546   358.1190     6.9564
  147.0000    -7.4808     5.6343     5.3014     5.8505     5.5312   360.4132     6.9287
  147.5000    -7.4794     5.6345     5.4426     5.7133     5.7040   377.9768     6.9283
  148.0000    -7.4781     5.6346     5.5297     5.7119     6.3250   387.1422     6.9279
  148.5000    -7.7487     5.6347     5.5325     5.7106     6.5375   388.0008     6.9275
  149.0000    -7.7471     5.6079     5.5351     5.7090     6.3991   388.6766     6.9270
  149.5000    -7.7458     5.5539     5.5378     5.5718     6.3588   391.7343     6.9266
  150.0000    -7.7445     5.4730     5.3378     5.4346     6.3521   375.7051     6.9536
  150.5000    -7.7431     5.3380     5.2021     5.4332     6.3331   371.8914     6.9531
  151.0000    -7.7418     4.9868     5.0054     5.2960     6.4168   373.9719     6.9527
  151.5000    -7.7404     4.7707     5.0081     5.2947     6.4757   397.1545     6.9523
  152.0000    -7.7391     4.5005     5.0113     5.2934     6.6816   404.7221     6.9792
  152.5000    -7.7378     4.3385     5.0140     5.1561     6.7640   396.2363     7.0071
  153.0000    -7.7364     4.1495     5.0635     5.1548     6.7434   390.0103     7.0342
  153.5000    -8.0068     4.0140     5.0189     5.1535     6.4757   405.5080     7.0600
  154.0000    -8.0055     3.9047     5.0220     5.1521     6.2698   418.4908     7.0596
  154.5000    -8.0040     3.8239     4.8896     5.1508     6.2080   425.3658     7.0592
  155.0000    -8.0027     3.7986     4.7571     5.2853     6.1051   424.6060     7.0588
  155.5000    -7.9620     3.9456     4.6246     5.4199     6.0639   419.2655     7.0583
  156.0000    -7.7283     4.2295     4.2219     5.5544     6.0639   410.1075     7.0579
  156.5000    -7.4552     4.7038     4.6300     5.6890     6.1051   408.1367     7.0575
  157.0000    -7.4538     4.8780     4.9029     5.7119     6.2286   420.8036     7.0545
  157.5000    -7.3822     5.2385     5.1758     5.8222     6.1041   426.9152     7.0294
  158.0000    -7.1793     5.4940     5.3136     5.8551     6.0639   426.1555     7.0290
  158.5000    -7.1780     5.6854     5.1811     5.9946     6.0659   424.6014     7.0013
  159.0000    -7.1767     5.8227     5.1839     6.0899     6.1444   419.2917     7.0008
  159.5000    -7.2762     5.9600     5.1865     6.2244     6.5440   420.8939     7.0004
  160.0000    -7.4459     6.0612     5.1892     6.2772     6.7640   423.7279     7.0000
  160.5000    -7.4443     6.0704     5.3270     6.4166     6.8973   441.1083     6.9996
  161.0000    -7.7147     6.0809     5.4649     6.4919     6.9755   439.0038     6.9992
  161.5000    -7.7133     6.2119     5.6027     6.4905     6.9905   417.5699     6.9988
  162.0000    -7.7119     6.2987     5.7405     6.4891     6.6598   410.1524     6.9984
  162.5000    -7.7106     6.4471     5.8953     6.4878     6.2055   423.8987     6.9980
  163.0000    -7.7093     6.5166     6.1514     6.4862     5.9187   417.7946     7.0023
  163.5000    -7.7076     6.6122     6.3129     6.3490     5.5422   420.4867     7.0245
  164.0000    -7.7063     6.6930     6.5622     6.3476     5.7006   403.6537     7.0241
  164.5000    -7.7049     6.6391     6.5649     6.3463     5.9216   392.6226     7.0237
  165.0000    -8.0958     6.4230     6.3987     6.3450     6.2042   394.1429     7.0233
  165.5000    -8.2462     6.2069     6.2628     6.3436     6.4345   395.7856     7.0229
  166.0000    -8.2446     6.0719     5.9919     6.2064     6.3316   401.0226     7.0224
  166.5000    -7.8533     5.9099     5.7209     6.2051     6.4345   402.5533     7.0220
  167.0000    -7.4266     5.6916     5.6320     5.9320     6.2331   417.8265     7.0216
  167.5000    -7.4253     5.4743     5.6351     5.7948     6.2922   414.7763     7.0212
  168.0000    -7.4239     5.2778     5.6919     5.6576     6.4112   411.7262     7.0208
  168.5000    -7.4226     5.0136     5.7757     5.6563     5.9467   414.7838     7.0204
  169.0000    -7.4212     4.9011     5.7784     5.6467     5.9395   419.3684     7.0199
  169.5000    -7.4196     4.7678     5.7811     5.5045     6.2286   419.3721     7.0195
  170.0000    -7.4182     4.5278     5.7838     5.3804     6.0522   407.1603     7.0191
  170.5000    -7.4169     4.1875     5.7865     5.2432     6.0227   404.1101     7.0187
  171.0000    -7.4156     3.9804     5.7149     5.2419     5.6520   408.6947     7.0183
  171.5000    -7.4142     3.8711     5.4439     5.2405     5.6109   396.4829     7.0179
  172.0000    -7.4129     3.7690     5.2546     5.2391     5.4049   404.2643     7.0174
  172.5000    -7.1398     3.7066     5.1216     5.1948     5.6315   411.0480     7.0170
  173.0000    -7.1385     3.8990     4.9892     5.1006     5.4873   417.8714     7.0083
  173.5000    -7.1371     4.3726     5.1275     5.0992     5.3638   401.3026     6.9889
  174.0000    -7.1358     4.5803     5.2653     5.0978     5.4049   395.7381     6.9612
  174.5000    -7.1344     4.7064     5.4031     5.0965     5.6932   394.0424     6.9608
  175.0000    -7.4048     4.7500     5.5409     5.0951     5.7756   385.8205     6.9604
  175.5000    -7.4035     4.7652     5.8138     5.0937     5.6520   393.7447     6.9599
  176.0000    -7.6739     4.7502     5.8165     5.0924     5.4667   395.4383     6.9870
  176.5000    -7.6726     4.7233     5.9543     5.0908     5.0742   384.5910     6.9864
  177.0000    -7.6793     4.6965     5.9570     5.0894     5.0343   376.6953     6.9860
  177.5000    -7.9416     4.6967     5.9596     4.9522     5.2889   378.3579     6.9956
  178.0000    -7.6684     4.6815     5.9623     4.9509     5.4049   383.6654     7.0126
  178.5000    -7.6671     4.6539     6.1001     4.8137     5.3432   387.3755     7.0017
  179.0000    -7.6658     4.6160     6.1028     4.6765     5.4251   391.9601     6.9844
  179.5000    -7.6644     4.5621     6.1054     4.5393     5.5792   396.5447     6.9567
  180.0000    -7.6087     4.4541     6.1081     4.1303     5.6109   381.2789     6.9563
  180.5000    -7.3899     4.2380     6.1108     4.2649     5.2628   381.1091     6.9832
  181.0000    -7.3886     3.9949     6.1135     4.3994     5.1851   393.5020     6.9828
  181.5000    -7.3872     3.6977     6.1162     4.5340     5.4920   408.7752     6.9824
