~VERSION INFORMATION
 VERS.                2.0:   CWLS LOG ASCII STANDARD - VERSION 2.0
 WRAP.                 NO:   ONE LINE PER DEPTH STEP
~WELL INFORMATION
#MNEM.UNIT      DATA TYPE    INFORMATION
#----------   ------------   ------------------------------
 STRT.F          100.0000:   START DEPTH
 STOP.F         1196.0000:   STOP DEPTH
 STEP.F            0.5000:   STEP LENGTH
 NULL.          -999.2500:   NO VALUE
 COMP. DEPARTMENT OF ENERGY:   COMPANY
 WELL.     NRP ##3 77S-11:   WELL
 FLD .             TEAPOT:   FIELD
 LOC .      S11 T38N R78W:   LOCATION
 CNTY.            NATRONA:   COUNTY
 STAT.            WYOMING:   STATE
 CTRY. UNITED STATES OF AMERICA:   COUNTRY
 SRVC.       Schlumberger:   SERVICE COMPANY
 DATE.        18-AUG-1959:   LOGDATE
 API .       490250632900:   API NUMBER
~CURVE INFORMATION
#MNEM.UNIT       API CODE    CURVE DESCRIPTION
#----------   ------------   ------------------------------
 DEPT.F                  :   
 SPR .MV     05 010 01 00:   SPONTANEOUS POTENTIAL FROM RES.
 ASN .OHMM   05 041 16 00:   AMPLIFIED SHORT NORMAL 16"
 ILD .OHMM   05 120 46 00:   INDUCTION LOG DEEP
 CILD.MMHO   05 110 46 00:   CONDUCTIVITY INDUCTION LOG DEEP
~PARAMETER INFORMATION
#MNEM.UNIT          VALUE    DESCRIPTION
#----------   ------------   ------------------------------
 PD  .                 GL:   PERMANENT DATUM
 EPD .F              5258:   ELEVATION PERMANENT DATUM
 LMF .                 KB:   LOG MEASURED FROM
 DAPD.F                 4:   FEET ABOVE PERMANENT DATUM
 DMF .                 KB:   DRILLING MEASURED FROM
 EKB .F              5262:   KELLING BUSHING
 EGL .F              5258:   GROUND LEVEL
 DATE.            8-18-59:   RUN DATE
 RUN .                  1:   RUN NUMBER
 DD  .F              1200:   DEPTH DRILLER
 DL  .F              1201:   DEPTH LOGGER
 BLI .F              1196:   BOTTOM LOG INTERVAL
 TLI .F               100:   TOP LOG INTERVAL
 CBD .F                17:   CASING BOTTOM DRILLER
 BS  .IN             6.75:   BIT SIZE
 BSD .F              1200:   BIT SIZE AT DEPTH
 DFT . GEL-OIL-PHDS-CAUSTIC:   DRILLING FLUID TYPE
 DFD .               10.8:   DRILLING FLUID DENSITY
 DFV .                 60:   DRILLING FLUID VISCOSITY
 DFPH.                  9:   DRILLING FLUID PH
 DFL .                  4:   DRILLING FLUID LOSS
 RMS .OHMM            1.8:   RESISTIVITY MUD SAMPLE
 MST .F                90:   MUD SAMPLE TEMPERATURE
 RMF .OHMM            1.5:   RESISTIVITY MUD FILTRATE SAMPLE
 MFST.F                90:   MUD FILTRATE SAMPLE TEMPERATURE
 RMC .OHMM              2:   RESISTIVITY MUD CAKE
 MCST.F                90:   MUD CAKE SAMPLE TEMPERATURE
 TCS .HRS               1:   TIME CURCULATED STOPPED
 LUN .               2523:   LOGGING UNIT NUMBER
 LUL .               CSPR:   LOGGING UNIT LOCATION
 ENGI.             KNOBEL:   RECORDING ENGINEER
 WITN.             MARTIN:   WITNESSED BY
 CLNT.            A2DTECH:   CLIENT CODE
 ORIG.     1", 2.5" PRINT:   ORIGIN OF DATA
 UWI .       490250632900:   UNIQUE WELL ID
 DICO. A2D Technologies, Inc.:   DIGITIZING COMPANY
~OTHER INFORMATION
~A   DEPT      SPR          ASN        ILD      CILD  
  100.0000   -46.7928     5.8481     5.2120   192.3759
  100.5000   -47.0259     5.8481     5.3887   191.1170
  101.0000   -47.1514     5.9293     5.3887   190.2660
  101.5000   -47.5100     5.9859     5.5654   189.4149
  102.0000   -47.8685     6.0247     5.7421   188.8298
  102.5000   -48.5857     6.2770     5.7699   183.6170
  103.0000   -48.5857     6.4693     5.7911   179.6454
  103.5000   -48.5857     6.6254     5.8123   175.6738
  104.0000   -48.5857     6.4643     5.8335   171.7021
  104.5000   -48.5857     6.3286     5.8547   167.7305
  105.0000   -48.5857     6.2014     5.8759   164.0071
  105.5000   -48.5857     6.3816     5.8971   163.2837
  106.0000   -48.5857     6.5512     5.9187   162.6028
  106.5000   -48.5857     6.7315     5.9187   161.9220
  107.0000   -48.5857     6.7203     5.9390   162.3486
  107.5000   -48.5857     6.7334     5.8734   161.2411
  108.0000   -48.5857     6.6784     5.7881   160.4610
  108.5000   -48.5857     6.6282     5.7336   161.1879
  109.0000   -48.5857     6.6480     5.7238   162.0390
  109.5000   -48.5857     6.7470     5.7390   162.8901
  110.0000   -48.5857     6.8701     5.7802   164.0071
  110.5000   -50.0199     6.9499     5.8635   162.4468
  111.0000   -50.0199     6.9745     5.9696   160.1773
  111.5000  -999.2500     6.9894     6.0561   156.9149
  112.0000  -999.2500     7.0426     6.1151   155.4787
  112.5000   -49.8914     7.1428     6.1814   152.9255
  113.0000   -49.8625     7.2704     6.2825   150.3723
  113.5000   -49.8337     7.4050     6.4053   147.8192
  114.0000   -49.8048     7.5312     6.5127   145.2660
  114.5000   -49.7759     7.6350     6.5820   142.7128
  115.0000   -49.7470     7.7153     6.6445   140.1596
  115.5000   -49.7181     7.7898     6.7801   137.6064
  116.0000   -49.6892     7.8572     7.0260   135.0532
  116.5000   -49.6614     7.8603     7.2848   132.5000
  117.0000   -49.3028     7.7647     7.3857   130.3192
  117.5000   -49.4191     7.6587     7.2682   132.5481
  118.0000   -48.9337     7.6507     7.0433   134.4934
  118.5000   -48.2536     7.6430     6.8473   136.4387
  119.0000   -46.8270     7.3865     6.7183   138.3840
  119.5000   -44.0768     6.8402     6.6444   140.3293
  120.0000   -39.9728     6.2969     6.6286   142.2746
  120.5000   -35.4969     6.0582     6.6421   144.5036
  121.0000   -32.1315     6.0957     6.5793   143.0497
  121.5000   -30.6126     6.1260     6.3432   141.3475
  122.0000   -30.3274     5.8921     5.9505   139.1844
  122.5000   -30.1166     5.3318     5.5220   140.4255
  123.0000   -29.4648     4.5921     5.1555   142.2500
  123.5000   -28.6940     3.9394     4.8231   143.7874
  124.0000   -28.2583     3.5790     4.4206   145.5459
  124.5000   -28.2339     3.4968     3.9591   148.1204
  125.0000   -28.4281     3.4839     3.6277   150.6137
  125.5000   -28.6604     3.3609     3.5918   155.9824
  126.0000   -28.8628     3.2148     3.8178   158.5111
  126.5000   -29.0491     3.3641     4.1975   154.0042
  127.0000   -29.2534     3.9864     4.7329   151.3716
  127.5000   -29.4706     4.8265     5.4611   145.6392
  128.0000   -29.6757     5.4415     6.2937   140.6827
  128.5000   -29.8678     5.6918     7.0534   137.5341
  129.0000   -30.0677     5.7816     7.6020   125.7175
  129.5000   -30.2892     5.8654     7.8586   117.9231
  130.0000   -30.4954     5.8835     7.7968   122.3595
  130.5000   -30.6308     5.7877     7.5108   126.3623
  131.0000   -30.6737     5.6555     7.1837   130.3235
  131.5000   -30.6622     5.5361     6.9190   137.1390
  132.0000   -30.6507     5.3983     6.6699   144.1733
  132.5000   -30.6570     5.2504     6.3651   150.7350
  133.0000   -30.6631     5.1561     6.0389   157.8302
  133.5000   -30.6589     5.1224     5.7970   165.6574
  134.0000   -30.6544     5.0936     5.6863   168.3907
  134.5000   -30.6599     5.0469     5.6299   171.2768
  135.0000   -30.6746     4.9998     5.5204   174.4844
  135.5000   -30.6934     4.9584     5.3685   177.4805
  136.0000   -30.7130     4.9116     5.2877   181.8030
  136.5000   -30.7321     4.8747     5.3262   181.7880
  137.0000   -30.7512     4.8718     5.3937   181.8210
  137.5000   -30.7704     4.9019     5.4015   181.7776
  138.0000   -30.7896     4.9439     5.3803   181.8450
  138.5000   -30.8088     4.9824     5.4118   181.7376
  139.0000   -30.8283     5.0157     5.5079   177.6596
  139.5000   -30.8477     5.0585     5.6210   174.8227
  140.0000   -30.8664     5.1418     5.7108   171.9858
  140.5000   -30.8854     5.2890     5.7544   169.1489
  141.0000   -30.9059     5.4809     5.7434   166.3121
  141.5000   -30.9258     5.6564     5.7207   164.0071
  142.0000   -30.9428     5.7609     5.7685   162.2340
  142.5000   -30.9610     5.7904     5.9036   158.3333
  143.0000   -30.9849     5.7868     6.0317   155.1418
  143.5000   -31.0060     5.7908     6.0500   156.4982
  144.0000   -31.0063     5.8025     5.9715   157.7748
  144.5000   -30.9787     5.8014     5.8998   159.0514
  145.0000   -30.9366     5.7955     5.8993   160.4610
  145.5000   -30.8974     5.8246     5.9359   161.7317
  146.0000   -30.8639     5.8961     5.9362   163.1501
  146.5000   -30.8297     5.9633     5.8727   164.5686
  147.0000   -30.7926     5.9838     5.7833   165.9870
  147.5000   -30.7557     5.9650     5.7267   167.4054
  148.0000   -30.7205     5.9324     5.7360   169.3262
  148.5000   -30.6852     5.8982     5.8007   166.9706
  149.0000   -30.6490     5.8889     5.8863   163.3232
  149.5000   -30.6128     5.9451     5.9654   159.6758
  150.0000   -30.5770     6.0504     6.0362   156.0284
  150.5000   -30.5413     6.1352     6.1224   152.3810
  151.0000   -30.5054     6.2043     6.2539   148.7335
  151.5000   -30.4694     6.3623     6.4418   145.0861
  152.0000   -30.4327     6.6324     6.6473   142.7305
  152.5000   -30.3965     6.8462     6.7883   136.3918
  153.0000   -30.3618     6.8239     6.8132   131.7110
  153.5000   -30.3260     6.5940     6.7806   127.0301
  154.0000   -30.2868     6.3313     6.7988   123.2270
  154.5000   -30.2497     6.1402     6.8721   127.2695
  155.0000   -30.2199     6.0160     6.8921   130.6738
  155.5000   -30.1864     5.9309     6.8084   134.0780
  156.0000   -30.1387     5.8689     6.6925   137.4823
  156.5000   -30.0979     5.8091     6.5817   140.8865
  157.0000   -30.0832     5.7564     6.4028   144.5036
  157.5000   -30.0575     5.7392     6.1484   148.0497
  158.0000   -29.9795     5.7480     5.9937   145.0000
  158.5000   -29.9221     5.7675     6.1083   141.5957
  159.0000   -30.0417     5.8408     6.4406   138.1915
  159.5000   -30.3962     5.9725     6.7912   134.7872
  160.0000   -30.8760     6.0595     7.0479   130.3192
  160.5000   -31.3427     6.1343     7.2580   127.9787
  161.0000   -31.7534     6.5280     7.5041   124.5745
  161.5000   -32.1415     7.4612     7.7718   119.6808
  162.0000   -32.5585     8.5541     7.9534   117.9078
  162.5000   -33.0312     9.1429     7.9723   117.9078
  163.0000   -33.4929     9.0679     7.8892   117.9078
  163.5000   -33.7813     8.7836     7.8385   120.4255
  164.0000   -33.7933     8.6905     7.8638   122.1277
  164.5000   -33.6129     8.7314     7.8818   123.2270
  165.0000   -33.4114     8.7015     7.8233   124.3794
  165.5000   -33.2651     8.6113     7.7294   125.2305
  166.0000   -33.1392     8.6039     7.6740   126.0816
  166.5000   -32.9895     8.7148     7.6692   126.7730
  167.0000   -32.8103     8.8469     7.6878   125.0405
  167.5000   -32.6283     8.9207     7.7277   123.5816
  168.0000   -32.4983     8.9809     7.8030   122.1226
  168.5000   -32.4690     9.1179     7.9078   120.6636
  169.0000   -32.5243     9.2766     8.0157   119.2047
  169.5000   -32.5976     9.2456     8.1031   117.7457
  170.0000   -32.6503     8.9535     8.1606   116.1348
  170.5000   -32.6941     8.6517     8.1955   116.1348
  171.0000   -32.7453     8.6467     8.2235   116.1348
  171.5000   -32.8029     8.8887     8.2356   116.8262
  172.0000   -32.8614     9.0387     8.1875   117.9078
  172.5000   -32.9142     8.9167     8.0509   119.7695
