~VERSION INFORMATION
 VERS.                2.0:   CWLS LOG ASCII STANDARD - VERSION 2.0
 WRAP.                 NO:   ONE LINE PER DEPTH STEP
~WELL INFORMATION
#MNEM.UNIT      DATA TYPE    INFORMATION
#----------   ------------   ------------------------------
 STRT.F            4.0000:   START DEPTH
 STOP.F          578.0000:   STOP DEPTH
 STEP.F            0.5000:   STEP LENGTH
 NULL.          -999.2500:   NO VALUE
 COMP.              FENIX:   COMPANY
 WELL.   NPR-3 #14SX11-11:   WELL
 FLD .             TEAPOT:   FIELD
 LOC .      S11 T38N R78W:   LOCATION
 CNTY.            NATRONA:   COUNTY
 STAT.            WYOMING:   STATE
 CTRY. UNITED STATES OF AMERICA:   COUNTRY
 SRVC.           BIRDWELL:   SERVICE COMPANY
 DATE.        14-FEB-1978:   LOGDATE
 API .       490251057100:   API NUMBER
~CURVE INFORMATION
#MNEM.UNIT       API CODE    CURVE DESCRIPTION
#----------   ------------   ------------------------------
 DEPT.F                  :   
 ILD .OHMM   05 120 46 00:   INDUCTION LOG DEEP
 SN  .OHMM   05 040 16 00:   SHORT NORMAL 16"
 SPR .MV     05 010 01 00:   SPONTANEOUS POTENTIAL FROM RES.
 CALD.IN     45 280 60 00:   CALIPER FROM DENSITY LOG
 CORR.G/C3   45 356 01 00:   DENSITY CORRECTION
 DPHI.DEC    45 890 12 00:   DENSITY POROSITY SANDSTONE
 GRD .GAPI   45 310 01 00:   GAMMA RAY FROM DENSITY LOG
 RHOB.G/C3   45 350 01 00:   BULK DENSITY
~PARAMETER INFORMATION
#MNEM.UNIT          VALUE    DESCRIPTION
#----------   ------------   ------------------------------
 PD  .                 GL:   PERMANENT DATUM
 EPD .F              5183:   ELEVATION PERMANENT DATUM
 LMF .                 KB:   LOG MEASURED FROM
 DAPD.F                 4:   FEET ABOVE PERMANENT DATUM
 DMF .                 KB:   DRILLING MEASURED FROM
 EKB .F              5187:   KELLING BUSHING
 EGL .F              5183:   GROUND LEVEL
 DATE.        14-FEB-1978:   RUN DATE
 RUN .                  1:   RUN NUMBER
 DD  .F               580:   DEPTH DRILLER
 DL  .F               580:   DEPTH LOGGER
 BLI .F               578:   BOTTOM LOG INTERVAL
 TLI .F                20:   TOP LOG INTERVAL
 CS  .IN            8.625:   CASING SIZE
 CBD .F                15:   CASING BOTTOM DRILLER
 CBL .F                39:   CASING BOTTOM LOGGER
 BS  .IN            7.875:   BIT SIZE
 BSD .F               580:   BIT SIZE AT DEPTH
 DFT .         LIGNO-SULF:   DRILLING FLUID TYPE
 DFD .                8.6:   DRILLING FLUID DENSITY
 DFV .                 33:   DRILLING FLUID VISCOSITY
 DFPH.                 11:   DRILLING FLUID PH
 DFL .                  4:   DRILLING FLUID LOSS
 MSS .           FLOWLINE:   MUD SAMPLE SOURCE
 RMS .OHMM            1.3:   RESISTIVITY MUD SAMPLE
 MST .F                62:   MUD SAMPLE TEMPERATURE
 RMF .OHMM            1.2:   RESISTIVITY MUD FILTRATE SAMPLE
 MFST.F                64:   MUD FILTRATE SAMPLE TEMPERATURE
 RMC .OHMM            1.6:   RESISTIVITY MUD CAKE
 MCST.F                62:   MUD CAKE SAMPLE TEMPERATURE
 MFSS.               MEAS:   MUD FILTRATE SAMPLE SOURCE
 BHT .F                70:   BOTTOM HOLE TEMPERATURE
 TCS .HRS               3:   TIME CURCULATED STOPPED
 MRT .F                70:   MAXIMUM RECORDED TEMPERATURE
 LUN .               2958:   LOGGING UNIT NUMBER
 LUL .               CASP:   LOGGING UNIT LOCATION
 ENGI.            POINTER:   RECORDING ENGINEER
 WITN.           MCGINLEY:   WITNESSED BY
 CLNT.            A2DTECH:   CLIENT CODE
 ORIG.           5" PRINT:   ORIGIN OF DATA
 UWI .       490251057100:   UNIQUE WELL ID
 DICO. A2D Technologies, Inc.:   DIGITIZING COMPANY
~OTHER INFORMATION
~A    DEPT     ILD         SN        SPR       CALD       CORR       DPHI         GRD      RHOB   
# ...
  490.0000    12.9739    14.0159   -40.3943     7.8084     0.0424     0.2214    51.3069     2.2708
  490.5000    14.2003    15.1252   -40.8518     7.8384     0.0424     0.2242    52.6717     2.2738
  491.0000    15.1735    16.7810   -42.3698     7.8224     0.0438     0.2227    52.6687     2.2828
  491.5000    16.2621    18.8780   -43.2819     7.8219     0.0467     0.2197    52.5131     2.2970
  492.0000    18.5514    23.0786   -43.7394     7.7909     0.0497     0.2169    52.2062     2.2909
  492.5000    22.3703    26.1431   -44.3490     7.7599     0.0512     0.2111    51.7473     2.2871
  493.0000    24.6497    27.4561   -44.5035     7.7593     0.0556     0.2011    51.1364     2.2896
  493.5000    26.0543    28.6035   -44.6579     7.7585     0.0630     0.1921    49.6137     2.3088
  494.0000    26.6003    29.8160   -44.6609     7.7428     0.0764     0.1825    44.7475     2.3223
  494.5000    26.7831    30.8652   -44.6638     7.7270     0.0839     0.1506    44.8965     2.3682
  495.0000    27.1554    32.1735   -44.6667     7.7112     0.0673     0.1161    46.8693     2.4538
  495.5000    27.3430    33.3057   -44.5070     7.6346     0.0373     0.1058    49.6321     2.4696
  496.0000    27.1518    33.5351   -43.9157     7.7708     0.0447     0.1423    53.2057     2.4492
  496.5000    27.1499    33.0666   -43.1611     7.8462     0.0581     0.1693    59.6256     2.3935
  497.0000    26.7742    32.1292   -43.0118     7.7239     0.0641     0.1806    60.2313     2.3747
  497.5000    26.2211    30.2174   -42.7124     7.6439     0.0685     0.1853    59.0118     2.3496
  498.0000    25.1044    28.9848   -42.7153     7.5403     0.0685     0.1908    57.7930     2.3430
  498.5000    23.6268    27.4197   -43.0213     7.4789     0.0669     0.1893    58.7019     2.3362
  499.0000    22.6622    25.7600   -43.0242     7.5087     0.0718     0.1857    60.8266     2.3339
  499.5000    21.4377    24.3690   -43.0279     7.5537     0.0923     0.1809    61.4316     2.3376
  500.0000    20.8497    23.3749   -43.0308     7.6595     0.0967     0.1758    61.1246     2.3489
  500.5000    20.5611    23.0516   -43.0337     7.6895     0.0876     0.1728    60.6495     2.3571
  501.0000    20.5597    22.8905   -43.0366     7.6735     0.0726     0.1809    58.2304     2.3593
  501.5000    20.7014    22.8890   -43.0396     7.6578     0.0665     0.1906    57.6196     2.3540
  502.0000    20.8441    22.7294   -43.0425     7.6420     0.0740     0.1891    58.9844     2.3388
  502.5000    20.8424    22.5709   -43.0455     7.6566     0.0934     0.1813    60.8051     2.3359
  503.0000    20.6969    22.5694   -42.8968     7.6710     0.0963     0.1716    61.8667     2.3426
  503.5000    20.6955    22.5679   -42.9005     7.7464     0.0933     0.1737    60.4953     2.3568
  504.0000    20.6941    22.5663   -42.7519     7.7764     0.0730     0.1870    59.5804     2.3643
  504.5000    20.6927    22.5645   -42.7548     7.6237     0.0572     0.1973    58.3617     2.3417
  505.0000    20.6914    22.5629   -42.6055     7.5927     0.0541     0.1997    57.7508     2.3247
  505.5000    20.6899    22.7183   -42.6092     7.6225     0.0511     0.2015    59.4984     2.3251
  506.0000    20.6882    22.7168   -42.6121     7.6675     0.0510     0.2012    60.1765     2.3197
  506.5000    20.5439    22.5584   -42.6152     7.6973     0.0494     0.1913    59.5649     2.3182
  507.0000    20.5425    22.5569   -42.6187     7.7271     0.0494     0.1862    62.1455     2.3302
  507.5000    20.2582    22.3996   -42.6183     7.7567     0.0493     0.1907    63.6625     2.3347
  508.0000    20.1168    22.2431   -42.6131     7.7713     0.0493     0.1884    64.4194     2.3324
  508.5000    19.9764    22.0880   -42.6078     7.7708     0.0492     0.1823    65.2036     2.3353
  509.0000    19.6908    21.6320   -42.7548     7.7398     0.0491     0.1772    66.5404     2.3443
  509.5000    19.4269    21.3328   -42.9078     7.7240     0.0491     0.1739    65.3217     2.3548
  510.0000    19.0256    20.8925   -42.9092     7.7234     0.0490     0.1706    62.7351     2.3585
  510.5000    18.6075    20.6035   -42.7588     7.7380     0.0490     0.1673    63.4920     2.3638
  511.0000    18.1217    19.8894   -42.4576     7.7526     0.0489     0.1746    65.9207     2.3692
  511.5000    17.7471    19.2211   -42.1424     7.7823     0.0503     0.1613    64.7019     2.3591
  512.0000    17.5015    18.6943   -41.5518     7.8273     0.0503     0.1638    64.8509     2.3809
  512.5000    17.2592    18.1820   -41.0987     7.8571     0.0502     0.1644    65.4559     2.3718
  513.0000    17.1388    18.0627   -40.6456     7.8869     0.0472     0.1653    67.4375     2.3718
  513.5000    16.7848    17.8762   -40.6471     7.9623     0.0351     0.1746    69.2680     2.3740
  514.0000    16.4378    17.6470   -40.6485     7.9617     0.0290     0.1776    69.2456     2.3611
  514.5000    16.0983    17.2816   -40.6500     7.8395     0.0335     0.1752    68.0269     2.3543
  515.0000    15.8754    17.1599   -40.6518     7.6565     0.0439     0.1560    64.3765     2.3613
  515.5000    15.4401    16.9209   -41.2593     7.6407     0.0424     0.1488    63.9183     2.3786
  516.0000    15.2264    16.8018   -41.4123     7.6400     0.0318     0.1551    64.8265     2.4003
  516.5000    15.0156    16.4539   -41.4137     7.6548     0.0226     0.1579    66.0393     2.3897
  517.0000    14.9106    15.7816   -41.4152     7.7205     0.0227     0.1636    67.4041     2.3837
  517.5000    14.8066    15.5623   -41.4167     7.7705     0.0271     0.1645    68.6170     2.3784
  518.0000    14.7033    15.4528   -41.4185     7.8006     0.0436     0.1513    69.0699     2.3768
  518.5000    14.6007    15.1323   -41.4199     7.8459     0.0465     0.1534    68.6111     2.3933
  519.0000    14.3986    14.9220   -41.4214     7.8456     0.0464     0.1540    69.9751     2.3941
  519.5000    14.2979    14.8170   -41.4228     7.8605     0.0479     0.1525    71.0360     2.3940
  520.0000    14.1981    14.7127   -41.2728     7.8602     0.0493     0.1501    63.5862     2.3955
  520.5000    14.0016    14.7108   -41.2697     7.8599     0.0508     0.1474    64.3431     2.3992
  521.0000    13.9039    14.7088   -41.1242     7.8278     0.0492     0.1446    65.7080     2.4024
  521.5000    13.8069    14.6048   -41.2775     7.7832     0.0476     0.1411    66.6176     2.4066
  522.0000    13.6156    14.4018   -41.2790     7.7981     0.0446     0.1465    66.9179     2.4089
  522.5000    13.5206    14.2017   -41.1285     7.8130     0.0415     0.1496    66.4590     2.4088
  523.0000    13.4263    14.0043   -41.1304     7.8280     0.0415     0.1508    64.7184     2.4050
  523.5000    13.3326    13.9058   -41.1318     7.8429     0.0459     0.1481    60.9812     2.3990
  524.0000    13.2395    13.8066   -41.1336     7.8425     0.0489     0.1448    60.6750     2.4012
  524.5000    13.1471    13.7102   -40.9832     7.8270     0.0518     0.1445    59.1515     2.4049
  525.0000    13.0552    13.6137   -40.9850     7.8267     0.0517     0.1430    58.6926     2.4071
  525.5000    12.9641    13.5179   -40.8346     7.7791     0.0517     0.1399    60.2094     2.4124
  526.0000    12.8737    13.3301   -40.5330     7.7349     0.0531     0.1359    62.0302     2.4198
  526.5000    12.7839    13.2362   -40.0803     7.7346     0.0515     0.1313    62.1799     2.4281
  527.0000    12.6946    12.9622   -39.9071     7.7496     0.0470     0.1280    64.1519     2.4363
  527.5000    12.4322    12.7702   -39.7802     7.7645     0.0409     0.1262    64.6049     2.4415
  528.0000    12.3455    12.6040   -39.7820     7.7945     0.0379     0.1265    62.9118     2.4340
  528.5000    12.0069    12.3430   -39.7835     7.7942     0.0378     0.1241    62.6233     2.4385
  529.0000    11.7589    12.1715   -39.7849     7.7939     0.0377     0.1214    64.8992     2.4467
  529.5000    11.5160    12.0023   -39.7864     7.8243     0.0377     0.1209    66.7199     2.4474
  530.0000    11.2779    11.8356   -39.7879     7.8541     0.0393     0.1209    67.9328     2.4481
