~VERSION INFORMATION
 VERS.                2.0:   CWLS LOG ASCII STANDARD - VERSION 2.0
 WRAP.                 NO:   ONE LINE PER DEPTH STEP
~WELL INFORMATION
#MNEM.UNIT      DATA TYPE    INFORMATION
#----------   ------------   ------------------------------
 STRT.F           30.0000:   START DEPTH
 STOP.F          580.0000:   STOP DEPTH
 STEP.F            0.5000:   STEP LENGTH
 NULL.          -999.2500:   NO VALUE
 COMP. FENIX & SCISSON INC:   COMPANY
 WELL.      87 SX 3 #87-3:   WELL
 FLD .             TEAPOT:   FIELD
 LOC .       S3 T38N R78W:   LOCATION
 CNTY.            NATRONA:   COUNTY
 STAT.            WYOMING:   STATE
 CTRY. UNITED STATES OF AMERICA:   COUNTRY
 SRVC.            Unknown:   SERVICE COMPANY
 DATE.        16-NOV-1978:   LOGDATE
 API .       490251074200:   API NUMBER
~CURVE INFORMATION
#MNEM.UNIT       API CODE    CURVE DESCRIPTION
#----------   ------------   ------------------------------
 DEPT.F                  :   
 CALD.IN     45 280 60 00:   CALIPER
 GRD .GAPI   45 310 01 00:   GAMMA RAY FROM DENSITY LOG
 RHOB.G/C3   45 350 01 00:   BULK DENSITY
 DPHI.DEC    45 890 12 00:   DENSITY POROSITY SANDSTONE
 CORR.G/C3   45 356 01 00:   DENSITY CORRECTION
 SFL .OHMM   05 221 01 00:   AMP. SHALLOW FOCUSED LOG RESISTIVITY
 ILD .OHMM   05 120 46 00:   INDUCTION LOG DEEP
 SPR .MV     05 010 01 00:   SPONTANEOUS POTENTIAL FROM RES.
~PARAMETER INFORMATION
#MNEM.UNIT          VALUE    DESCRIPTION
#----------   ------------   ------------------------------
 PD  .                 GL:   PERMANENT DATUM
 EPD .F              5120:   ELEVATION PERMANENT DATUM
 LMF .                 KB:   LOG MEASURED FROM
 DAPD.F                 4:   FEET ABOVE PERMANENT DATUM
 DMF .                 KB:   DRILLING MEASURED FROM
 EKB .F              5124:   KELLING BUSHING
 EGL .F              5120:   GROUND LEVEL
 DATE.           11-16-78:   RUN DATE
 RUN .                  1:   RUN NUMBER
 DD  .F               580:   DEPTH DRILLER
 DL  .F               574:   DEPTH LOGGER
 BLI .F               574:   BOTTOM LOG INTERVAL
 TLI .F                50:   TOP LOG INTERVAL
 CS  .IN            8.625:   CASING SIZE
 CBD .F                50:   CASING BOTTOM DRILLER
 CBL .F                50:   CASING BOTTOM LOGGER
 BS  .IN            7.875:   BIT SIZE
 BSD .F               580:   BIT SIZE AT DEPTH
 DFT .            SEA MUD:   DRILLING FLUID TYPE
 DFD .                8.7:   DRILLING FLUID DENSITY
 DFV .                 54:   DRILLING FLUID VISCOSITY
 DFPH.                9.8:   DRILLING FLUID PH
 MSS .           FLOWLINE:   MUD SAMPLE SOURCE
 RMS .OHMM            1.1:   RESISTIVITY MUD SAMPLE
 MST .F                56:   MUD SAMPLE TEMPERATURE
 RMF .OHMM             .9:   RESISTIVITY MUD FILTRATE SAMPLE
 MFST.F                60:   MUD FILTRATE SAMPLE TEMPERATURE
 RMC .OHMM            .95:   RESISTIVITY MUD CAKE
 MCST.F                60:   MUD CAKE SAMPLE TEMPERATURE
 MFSS.           MEASURED:   MUD FILTRATE SAMPLE SOURCE
 MCSS.           MEASURED:   MUD CAKE SAMPLE SOURCE
 RMB .OHMM            .93:   RESISTIVITY MUD AT BHT
 BHT .F                66:   BOTTOM HOLE TEMPERATURE
 TCS .HRS               1:   TIME CURCULATED STOPPED
 MRT .F                66:   MAXIMUM RECORDED TEMPERATURE
 LUN .               2958:   LOGGING UNIT NUMBER
 LUL .                CPR:   LOGGING UNIT LOCATION
 ENGI.             MILLER:   RECORDING ENGINEER
 WITN.           DINSMORE:   WITNESSED BY
 CLNT.            A2DTECH:   CLIENT CODE
 ORIG.       2", 5" PRINT:   ORIGIN OF DATA
 UWI .       490251074200:   UNIQUE WELL ID
 DICO. A2D Technologies, Inc.:   DIGITIZING COMPANY
~OTHER INFORMATION
~A   DEPT     CALD         GRD      RHOB       DPHI       CORR        SFL        ILD        SPR   
# ...
  394.5000     7.7110    72.0358     2.3074     0.2274     0.0375    28.6649    25.2469   -10.0266
  395.0000     7.7234    71.9605     2.3066     0.2288     0.0375    28.4878    25.0870    -9.9334
  395.5000     7.7097    72.8038     2.3057     0.2297     0.0410    28.4562    24.9280    -9.8487
  396.0000     7.6954    73.8058     2.3035     0.2299     0.0495    28.4246    24.8334    -9.7630
  396.5000     7.7008    73.8106     2.2995     0.2302     0.0573    28.3931    24.8327    -9.6771
  397.0000     7.7187    73.0766     2.2957     0.2362     0.0575    28.3616    24.8329    -9.5909
  397.5000     7.7365    72.3615     2.2858     0.2433     0.0574    28.3299    24.8330    -9.5040
  398.0000     7.7544    72.0045     2.2792     0.2470     0.0577    28.2973    24.8330    -9.4317
  398.5000     7.7722    73.1502     2.2834     0.2408     0.0662    28.2666    24.8337    -9.5642
  399.0000     7.7895    74.9105     2.3015     0.2318     0.0870    28.0306    24.8317    -9.6988
  399.5000     7.8086    77.9856     2.3191     0.2194     0.1073    27.5683    24.8372    -9.8323
  400.0000     7.8272    79.4912     2.3367     0.2079     0.1273    27.1137    24.4436    -9.9657
  400.5000     7.8462    76.0978     2.3543     0.1964     0.1331    26.7898    24.0861   -10.0988
  401.0000     7.8468    76.1931     2.3719     0.1849     0.1305    26.5219    23.7362   -10.2384
  401.5000     7.8404    76.2491     2.3892     0.1787     0.1275    26.2566    23.3615   -10.3865
  402.0000     7.8337    76.2986     2.3910     0.1892     0.1029    25.9940    22.9271   -10.5401
  402.5000     7.8271    76.1999     2.3616     0.2008     0.0753    25.7176    22.5019   -10.5590
  403.0000     7.8205    75.1693     2.3501     0.2031     0.0640    25.3242    22.0840   -10.4530
  403.5000     7.8140    73.5880     2.3570     0.1987     0.0682    24.9370    21.6740   -10.3457
  404.0000     7.8074    72.9279     2.3707     0.1903     0.0736    24.2316    21.2715   -10.2380
  404.5000     7.8008    73.0677     2.3845     0.1820     0.0768    23.4304    20.8765   -10.1305
  405.0000     7.7939    72.6070     2.3982     0.1737     0.0740    22.9419    20.4690   -10.0226
  405.5000     7.8051    72.3617     2.4059     0.1695     0.0685    22.7074    20.2894    -9.9152
  406.0000     7.8237    73.1586     2.3853     0.1853     0.0405    22.4753    20.0580    -9.8230
  406.5000     7.8425    74.2807     2.3557     0.2029     0.0124    22.2346    19.8276    -9.8608
  407.0000     7.8611    75.4182     2.3262     0.2194     0.0034    22.2346    19.5997    -9.8968
  407.5000     7.8586    76.5644     2.3181     0.2255     0.0028    22.1121    19.3745    -9.9324
  408.0000     7.8315    76.9990     2.3224     0.2237     0.0022    21.4792    19.1518    -9.9677
  408.5000     7.8122    77.2009     2.3309     0.2179     0.0016    21.0721    18.9317   -10.0035
  409.0000     7.8279    78.7906     2.3394     0.2121     0.0032    20.6728    18.7141    -9.9982
  409.5000     7.8432    80.3820     2.3480     0.2062     0.0055    20.2811    18.4940    -9.9588
  410.0000     7.8503    80.9867     2.3565     0.2004     0.0078    19.8967    18.1397    -9.9190
  410.5000     7.8475    78.5834     2.3641     0.1975     0.0088    19.5197    17.7838    -9.8794
  411.0000     7.8447    76.3801     2.3623     0.1990     0.0062    19.1421    17.4349    -9.8390
  411.5000     7.8420    76.5717     2.3557     0.2020     0.0037    18.7665    17.0928    -9.8822
  412.0000     7.8392    77.1340     2.3511     0.2035     0.0015    18.3983    16.8443    -9.9920
  412.5000     7.8365    77.6840     2.3581     0.2012     0.0015    18.0373    16.6219   -10.1024
  413.0000     7.8338    78.2341     2.3646     0.1999     0.0015    17.6835    16.4023   -10.2130
  413.5000     7.8334    78.7852     2.3623     0.2014     0.0015    17.3392    16.1858   -10.3235
  414.0000     7.8419    79.2955     2.3602     0.2030     0.0015    17.2385    15.9721   -10.4341
  414.5000     7.8502    79.2747     2.3606     0.2031     0.0015    17.1390    15.7612   -10.5431
  415.0000     7.8584    79.2379     2.3625     0.2012     0.0015    17.0407    15.5530   -10.5957
  415.5000     7.8667    79.2034     2.3633     0.1991     0.0015    16.9416    15.3476   -10.5354
  416.0000     7.8749    79.1704     2.3641     0.1970     0.0015    16.8016    15.1450   -10.4772
  416.5000     7.8831    79.1348     2.3662     0.1946     0.0015    16.5074    14.9450   -10.4186
  417.0000     7.8913    79.0075     2.3736     0.1896     0.0015    16.2207    14.7477   -10.3602
  417.5000     7.8996    78.4990     2.3810     0.1851     0.0015    15.9386    14.5529   -10.3017
  418.0000     7.9078    77.9974     2.3840     0.1851     0.0015    15.6615    14.3608   -10.2432
  418.5000     7.9160    77.5666     2.3854     0.1843     0.0015    15.3892    14.1711   -10.1848
  419.0000     7.9249    78.3870     2.3905     0.1814     0.0015    15.2416    13.9838   -10.1263
  419.5000     7.9456    79.2425     2.3994     0.1748     0.0015    15.2416    13.7985   -10.0678
  420.0000     7.9478    79.9432     2.4083     0.1678     0.0015    15.2074    13.7730   -10.0093
  420.5000     7.9444    78.9034     2.4172     0.1646     0.0015    15.0761    13.7731    -9.9508
  421.0000     7.9412    77.6881     2.4175     0.1653     0.0015    14.9460    13.7731    -9.8920
  421.5000     7.9381    76.7113     2.4168     0.1659     0.0015    14.8262    13.7731    -9.8307
  422.0000     7.9350    77.2794     2.4162     0.1646     0.0015    14.8259    13.7731    -9.8959
  422.5000     7.9321    79.3895     2.4199     0.1632     0.0015    14.8261    13.7731    -9.9902
  423.0000     7.9104    82.8187     2.4241     0.1614     0.0015    14.8262    13.7731   -10.0852
  423.5000     7.8777    84.8227     2.4284     0.1557     0.0015    14.8262    13.7731   -10.1799
  424.0000     7.8448    83.3126     2.4327     0.1571     0.0015    14.8262    13.7731   -10.2746
  424.5000     7.8118    82.0500     2.4306     0.1593     0.0015    14.8263    13.7732   -10.3694
  425.0000     7.7789    82.0869     2.4271     0.1599     0.0015    14.8262    13.7731   -10.4641
  425.5000     7.7459    81.0286     2.4298     0.1569     0.0022    14.8262    13.6878   -10.5576
  426.0000     7.7132    79.3145     2.4373     0.1507     0.0034    14.7673    13.5672   -10.5894
  426.5000     7.6919    77.8479     2.4449     0.1446     0.0048    14.6515    13.4476   -10.5219
  427.0000     7.6869    77.6625     2.4523     0.1430     0.0061    14.5367    13.3290   -10.4559
  427.5000     7.6816    77.4633     2.4510     0.1453     0.0074    14.4227    13.2115   -10.3896
  428.0000     7.6765    77.7759     2.4405     0.1513     0.0087    14.3097    13.0951   -10.3233
  428.5000     7.6732    78.9789     2.4315     0.1589     0.0100    14.1975    12.9797   -10.2570
  429.0000     7.6732    80.5298     2.4264     0.1608     0.0113    14.0862    12.8652   -10.1907
  429.5000     7.6732    82.6908     2.4281     0.1592     0.0126    13.9758    12.7518   -10.1245
  430.0000     7.6736    84.4882     2.4323     0.1555     0.0135    13.8666    12.6736   -10.0582
  430.5000     7.6936    84.3635     2.4361     0.1551     0.0135    13.7720    12.6626    -9.9919
  431.0000     7.7490    84.2649     2.4371     0.1544     0.0135    13.7722    12.6516    -9.9256
  431.5000     7.8039    84.6422     2.4392     0.1528     0.0135    13.7731    12.6405    -9.8597
  432.0000     7.8602    85.1412     2.4500     0.1513     0.0135    13.7731    12.6295    -9.8211
  432.5000     7.8731    85.6090     2.4609     0.1404     0.0135    13.7731    12.6185    -9.8215
  433.0000     7.8756    84.9323     2.4719     0.1310     0.0135    13.7731    12.6075    -9.8214
  433.5000     7.8778    84.1836     2.4781     0.1279     0.0135    13.7731    12.5965    -9.8214
  434.0000     7.8802    83.4315     2.4825     0.1264     0.0135    13.7731    12.5855    -9.8214
  434.5000     7.8825    82.7215     2.4787     0.1314     0.0135    13.7731    12.5745    -9.8209
