~VERSION INFORMATION
 VERS.                2.0:   CWLS LOG ASCII STANDARD - VERSION 2.0
 WRAP.                 NO:   ONE LINE PER DEPTH STEP
~WELL INFORMATION
#MNEM.UNIT      DATA TYPE    INFORMATION
#----------   ------------   ------------------------------
 STRT.F           90.0000:   START DEPTH
 STOP.F          784.0000:   STOP DEPTH
 STEP.F            0.5000:   STEP LENGTH
 NULL.          -999.2500:   NO VALUE
 COMP.               NAVY:   COMPANY
 WELL. RES 3 TEAPOT DOM #41S-11:   WELL
 FLD .             TEAPOT:   FIELD
 LOC .      S11 T38N R78W:   LOCATION
 CNTY.            NATRONA:   COUNTY
 STAT.            WYOMING:   STATE
 CTRY. UNITED STATES OF AMERICA:   COUNTRY
 SRVC.       Schlumberger:   SERVICE COMPANY
 DATE.        14-JUL-1962:   LOGDATE
 API .       490250638000:   API NUMBER
~CURVE INFORMATION
#MNEM.UNIT       API CODE    CURVE DESCRIPTION
#----------   ------------   ------------------------------
 DEPT.F                  :   
 GR  .GAPI   30 310 01 00:   GAMMA RAY
 SPR .MV     05 010 01 00:   SPONTANEOUS POTENTIAL FROM RES.
 ASN .OHMM   05 041 16 00:   AMPLIFIED SHORT NORMAL 16"
 ILD .OHMM   05 120 46 00:   INDUCTION LOG DEEP
 CILD.MMHO   05 110 46 00:   CONDUCTIVITY INDUCTION LOG DEEP
~PARAMETER INFORMATION
#MNEM.UNIT          VALUE    DESCRIPTION
#----------   ------------   ------------------------------
 LMF .                 KB:   LOG MEASURED FROM
 DMF .                 KB:   DRILLING MEASURED FROM
 EKB .F              5162:   KELLING BUSHING
 EGL .F              5157:   GROUND LEVEL
 DATE.        14-JUL-1962:   RUN DATE
 RUN .                  1:   RUN NUMBER
 DD  .F               785:   DEPTH DRILLER
 DL  .F               785:   DEPTH LOGGER
 BLI .F               784:   BOTTOM LOG INTERVAL
 TLI .F               100:   TOP LOG INTERVAL
 CBD .F                10:   CASING BOTTOM DRILLER
 BS  .IN             6.75:   BIT SIZE
 BSD .F               785:   BIT SIZE AT DEPTH
 DFT .           OIL EMUL:   DRILLING FLUID TYPE
 DFD .               10.2:   DRILLING FLUID DENSITY
 DFV .                 43:   DRILLING FLUID VISCOSITY
 DFL .                4.6:   DRILLING FLUID LOSS
 RMS .OHMM            5.2:   RESISTIVITY MUD SAMPLE
 MST .F                78:   MUD SAMPLE TEMPERATURE
 RMF .OHMM            5.2:   RESISTIVITY MUD FILTRATE SAMPLE
 MFST.F                78:   MUD FILTRATE SAMPLE TEMPERATURE
 RMC .OHMM              6:   RESISTIVITY MUD CAKE
 MCST.F                78:   MUD CAKE SAMPLE TEMPERATURE
 TCS .HRS              .5:   TIME CURCULATED STOPPED
 LUN .               2503:   LOGGING UNIT NUMBER
 LUL .               CSPR:   LOGGING UNIT LOCATION
 ENGI.           ELLERMAN:   RECORDING ENGINEER
 WITN.          JORGENSON:   WITNESSED BY
 CLNT.            A2DTECH:   CLIENT CODE
 ORIG.           5" PRINT:   ORIGIN OF DATA
 UWI .       490250638000:   UNIQUE WELL ID
 DICO. A2D Technologies, Inc.:   DIGITIZING COMPANY
~OTHER INFORMATION
~A   DEPT       GR        SPR          ASN        ILD       CILD 
# ...
  639.0000   103.0981   -36.1688     6.1782     5.9078   188.3030
  639.5000   100.8422   -36.1659     6.2689     5.8316   188.3208
  640.0000   106.7423   -38.2778     6.1329     5.9165   183.7898
  640.5000   110.9288   -40.2386     6.4350     6.5852   173.9558
  641.0000   116.7214   -41.7643     7.4169     7.4908   151.2431
  641.5000   116.4318   -42.4987     8.4602     8.5475   128.5303
  642.0000   114.5209   -41.8908     9.2145     9.3021   103.5485
  642.5000   115.8498   -41.2837     9.4713     9.6035    98.2599
  643.0000    94.5980   -40.9787     9.6526     9.7538    95.2441
  643.5000    84.0491   -40.8247     9.7734     9.7529    96.0162
  644.0000    85.2709   -40.8217     9.8640     9.6766    98.3035
  644.5000    87.2439   -40.9700     9.9245     9.6759   101.3914
  645.0000    80.4687   -41.2692     9.9547     9.7507   103.6391
  645.5000    65.2471   -41.1145     9.9849     9.7535   102.8961
  646.0000    53.4945   -40.5074    10.2719     9.9757    99.8803
  646.5000    50.6409   -39.7492    10.5740    10.2771    95.3493
  647.0000    33.9079   -39.7463    11.1027    10.7295    90.0608
  647.5000    34.2218   -40.0455    11.7069    11.3330    85.3534
  648.0000    15.5341   -40.6461    12.6133    12.0876    77.9723
  648.5000    14.3396   -41.3984    14.8036    12.9463    71.1686
  649.0000    13.1421   -43.2082    16.5408    14.2008    62.0922
  649.5000    13.7606   -46.2265    17.5227    15.5596    54.5309
  650.0000    17.6943   -50.1511    18.8066    17.9002    47.7273
  650.5000    15.5949   -53.0194    21.2236    20.1654    42.8304
  651.0000    11.3807   -54.8307    22.9904    21.3021    37.8940
  651.5000    11.8484   -55.5849    23.8623    22.1491    35.6286
  652.0000     6.2799   -52.8640    23.9368    22.6646    35.6377
  652.5000     6.4404   -53.3157    23.1796    21.9866    37.9177
  653.0000     6.5308   -52.4076    22.0453    21.3839    38.6826
  653.5000    13.3840   -51.6508    22.7991    21.3853    38.6899
  654.0000    15.8823   -54.6705    24.6466    21.5378    38.6972
  654.5000    19.1584   -56.6328    25.4393    21.6903    37.9469
  655.0000    19.3617   -56.7828    25.1357    21.4577    38.0808
  655.5000    21.3003   -56.1767    24.3035    20.5607    40.2361
  656.0000    19.0437   -56.7875    22.8670    19.1271    42.5161
  656.5000    18.9050   -57.8351    21.7326    18.1467    44.7962
  657.0000    17.2580   -57.8336    20.5226    17.6195    46.3186
  657.5000    19.9851   -56.7747    21.4501    17.2433    47.0835
  658.0000    23.9188   -54.9606    22.0303    16.9426    47.8995
  658.5000    16.0878   -52.2401    21.4242    16.7175    50.1302
  659.0000     6.7486   -50.1238    20.8941    16.6434    50.8951
  659.5000     6.3082   -50.7520    20.2129    16.6452    50.9024
  660.0000     6.0187   -53.2928    19.8338    16.7978    50.9097
  660.5000     9.8016   -54.3487    20.2099    17.0258    50.1576
  661.0000    18.5619   -54.3472    20.5106    17.4049    48.6516
  661.5000    18.8757   -53.5905    20.0556    18.0861    47.1437
  662.0000    19.1895   -54.0422    20.2807    18.8591    44.8801
  662.5000    19.8049   -54.2044    22.0164    19.7510    43.3723
  663.0000    18.0071   -53.4259    23.4500    19.8280    42.6202
  663.5000    14.9996   -53.5843    22.0135    19.7536    41.8699
  664.0000    16.9756   -55.6976    20.8791    19.8309    41.1215
  664.5000    16.9878   -57.8110    22.0289    20.0590    41.1288
  665.0000    17.4524   -59.0184    23.1417    20.4381    40.2525
  665.5000    19.4253   -55.9954    23.2917    20.8172    38.8706
  666.0000    25.3198   -53.7281    22.0814    20.5924    38.8798
  666.5000    24.4270   -52.6692    21.4002    19.9896    39.6446
  667.0000    19.1571   -54.0269    21.0211    19.4624    41.9247
  667.5000    20.9822   -55.6871    21.0196    19.2373    43.4471
  668.0000    19.4861   -57.0451    21.4713    19.2387    43.4545
  668.5000    18.5932   -56.5905    21.1674    19.2402    42.7042
  669.0000    13.9266   -55.6827    20.9393    19.2331    42.7133
  669.5000    24.0474   -54.6238    20.4847    18.7903    43.4782
  670.0000    26.1681   -54.3203    19.6524    18.1875    44.2430
  670.5000    27.8424   -54.1674    17.9138    17.6603    45.7655
  671.0000    35.5469   -53.5617    17.6012    17.2841    46.5304
  671.5000    39.9205   -52.8050    18.2900    16.8324    48.0530
  672.0000    44.3649   -51.7461    18.6767    16.3807    49.5771
  672.5000    47.3857   -50.6872    17.9831    15.8447    51.0995
  673.0000    50.5246   -49.7794    17.3774    15.4021    53.3796
  673.5000    47.5201   -49.0121    16.7718    15.1014    55.6596
  674.0000    53.7245   -49.4740    16.3171    14.9518    57.1821
  674.5000    47.4217   -50.5300    16.2401    14.8778    58.7045
  675.0000    42.4284   -51.7370    16.2387    14.8792    59.4697
  675.5000    42.5913   -52.0380    16.0756    14.8807    60.2343
  676.0000    48.3350   -50.8277    15.7822    14.9577    58.7282
  676.5000    45.7828   -50.3731    16.1584    14.9595    57.9761
  677.0000    44.5886   -50.9982    16.3839    15.0365    57.9853
  677.5000    44.4495   -52.1825    16.2310    15.1135    58.7501
  678.0000    44.9145   -53.2384    16.2295    15.2660    58.7066
  678.5000    46.2841   -53.3884    16.2281    15.5695    57.2496
  679.0000    48.7065   -52.4802    16.4532    15.9486    55.7436
  679.5000    37.7111   -51.7235    16.7535    16.4975    53.4782
  680.0000    32.5951   -51.1178    16.9786    17.3114    51.2127
  680.5000    20.0884   -51.1047    17.2038    17.9171    49.7049
  681.0000    25.3796   -50.8124    17.2782    18.2962    47.4395
  681.5000    38.6647   -50.5088    17.3523    18.5243    45.9316
  682.0000    41.6934   -49.2989    17.2749    18.5257    44.4238
  682.5000    43.0631   -48.2401    17.1979    18.4517    45.1905
  683.0000    41.7147   -47.6344    17.1206    18.2074    45.9553
  683.5000    48.9697   -48.5393    17.1191    17.6241    47.4778
  684.0000    53.2020   -49.7583    16.6909    17.1724    48.2427
  684.5000    44.1674   -50.4997    16.1342    16.6452    49.7778
  685.0000    34.2248   -50.6497    15.7551    16.0424    51.4142
  685.5000    29.8629   -49.5905    15.3760    15.5152    54.3270
  686.0000    33.7967   -48.8337    15.0724    15.1390    55.8495
  686.5000    33.0547   -48.8322    14.9954    14.8285    58.1295
  687.0000    28.3911   -49.2840    14.9164    14.7643    59.6519
  687.5000    25.8391   -49.3547    14.6903    14.6902    60.4168
  688.0000    21.3264   -49.4503    14.4620    14.5406    61.1818
  688.5000    22.2435   -49.5459    14.1584    14.3155    61.9484
  689.0000    28.7413   -49.6416    13.9304    14.0152    63.4709
  689.5000    34.3342   -49.7297    13.7023    13.7900    64.9933
  690.0000    41.1591   -48.9726    13.6253    13.5649    66.5158
  690.5000    44.3102   -48.2159    13.6239    13.4908    68.0382
  691.0000    42.2078   -48.9697    13.6223    13.4927    68.8031
  691.5000    35.8880   -49.1193    13.6206    13.5696    68.0528
  692.0000    42.0845   -48.6586    13.6191    13.5711    67.3044
  692.5000    41.9455   -48.3607    13.6932    13.5726    67.3117
  693.0000    40.8712   -48.5107    13.6917    13.6495    66.5596
  693.5000    33.8209   -49.1131    13.7658    13.7266    66.5687
  694.0000    39.1162   -49.7159    13.7643    13.7284    66.5760
  694.5000    43.6532   -50.1679    13.8384    13.8053    65.8257
  695.0000    40.4979   -50.6193    13.7611    13.8068    65.9596
  695.5000    37.7949   -50.9265    13.6085    13.7324    66.5997
  696.0000    40.3714   -50.7671    13.4560    13.5831    67.3646
  696.5000    45.3609   -50.0103    13.2280    13.3580    68.8871
  697.0000    46.5797   -49.8582    13.0755    13.2084    70.4095
  697.5000    53.8317   -50.0078    12.9985    13.0588    71.1744
  698.0000    56.8604   -49.4017    12.8379    12.9092    71.9394
  698.5000    46.6162   -48.7960    12.6931    12.8351    72.7060
  699.0000    49.1894   -48.0323    12.6161    12.6104    73.4709
  699.5000    48.8999   -48.6417    12.4636    12.5362    73.4782
