~VERSION INFORMATION
 VERS.                2.0:   CWLS LOG ASCII STANDARD - VERSION 2.0
 WRAP.                 NO:   ONE LINE PER DEPTH STEP
~WELL INFORMATION
#MNEM.UNIT      DATA TYPE    INFORMATION
#----------   ------------   ------------------------------
 STRT.F         1099.5000:   START DEPTH
 STOP.F         2700.0000:   STOP DEPTH
 STEP.F            0.5000:   STEP LENGTH
 NULL.          -999.2500:   NO VALUE
 COMP. LAWRENCE/ALLISON INC NPR #3:   COMPANY
 WELL.   47 STX 14 #47-14:   WELL
 FLD .             TEAPOT:   FIELD
 LOC .      S14 T38N R78W:   LOCATION
 CNTY.            NATRONA:   COUNTY
 STAT.            WYOMING:   STATE
 CTRY. UNITED STATES OF AMERICA:   COUNTRY
 SRVC.            Unknown:   SERVICE COMPANY
 DATE.        01-SEP-1988:   LOGDATE
 API .       490251124400:   API NUMBER
~CURVE INFORMATION
#MNEM.UNIT       API CODE    CURVE DESCRIPTION
#----------   ------------   ------------------------------
 DEPT.F                  :   
 ROP .MIN/FT 91 810 01 00:   RATE OF DRILLING PENETRATION
 TGAS.UNITS  91 830 01 00:   TOTAL GAS FROM HOTWIRE
~PARAMETER INFORMATION
#MNEM.UNIT          VALUE    DESCRIPTION
#----------   ------------   ------------------------------
 EKB .F              5286:   KELLING BUSHING
 EGL .F              5276:   GROUND LEVEL
 DATE.             9-1-88:   RUN DATE
 DD  .F              2700:   DEPTH DRILLER
 CBD .F              1088:   CASING BOTTOM DRILLER
 TCS .HRS            1200:   TIME CURCULATED STOPPED
 TLAB.HRS            1223:   TIME LOGGER AT BOTTOM
 ENGI.               HUSK:   RECORDING ENGINEER
 WITN.           PETERSON:   WITNESSED BY
 CLNT.            A2DTECH:   CLIENT CODE
 ORIG.           5" PRINT:   ORIGIN OF DATA
 UWI .       490251124400:   UNIQUE WELL ID
 DICO. A2D Technologies, Inc.:   DIGITIZING COMPANY
~OTHER INFORMATION
~A  DEPT       ROP       TGAS   
# ...
 1950.0000     0.3667   301.3681
 1950.5000     0.4037   301.2666
 1951.0000     0.4459   301.1651
 1951.5000     0.4880   301.0636
 1952.0000     0.5247   300.9622
 1952.5000     0.5199   300.8607
 1953.0000     0.4636   300.7592
 1953.5000     0.4213   300.6577
 1954.0000     0.4004   300.5563
 1954.5000     0.3897   300.4548
 1955.0000     0.3894   300.3533
 1955.5000     0.3891   300.2518
 1956.0000     0.3888   300.1504
 1956.5000     0.3782   300.0489
 1957.0000     0.3779   299.9474
 1957.5000     0.3776   299.8459
 1958.0000     0.3773   299.7445
 1958.5000     0.3787   299.6430
 1959.0000     0.3870   299.5415
 1959.5000     0.3867   299.4400
 1960.0000     0.3836   299.3386
 1960.5000     0.3757   299.2371
 1961.0000     0.3616   299.1356
 1961.5000     0.3185   299.0341
 1962.0000     0.2715   298.9327
 1962.5000     0.2921   298.8312
 1963.0000     0.3024   298.7297
 1963.5000     0.3119   298.6282
 1964.0000     0.3116   298.5268
 1964.5000     0.3129   298.4253
 1965.0000     0.3233   298.3238
 1965.5000     0.3360   298.2224
 1966.0000     0.3570   298.1209
 1966.5000     0.3720   298.0194
 1967.0000     0.3717   304.1709
 1967.5000     0.3676   304.1583
 1968.0000     0.3566   304.1474
 1968.5000     0.3501   304.1364
 1969.0000     0.3450   304.1255
 1969.5000     0.3340   304.1146
 1970.0000     0.3285   304.1037
 1970.5000     0.3406   304.0927
 1971.0000     0.3769   304.0818
 1971.5000     0.4096   304.0709
 1972.0000     0.4358   304.0600
 1972.5000     0.4510   304.0490
 1973.0000     0.4098   304.0381
 1973.5000     0.3696   304.0272
 1974.0000     0.3382   304.0162
 1974.5000     0.3257   304.0053
 1975.0000     0.3319   303.9944
 1975.5000     0.3354   303.9835
 1976.0000     0.3351   303.9725
 1976.5000     0.3348   303.9616
 1977.0000     0.3424   303.9507
 1977.5000     0.3651   303.9398
 1978.0000     0.3648   303.9288
 1978.5000     0.3645   303.9179
 1979.0000     0.3539   303.9070
 1979.5000     0.3226   303.8960
 1980.0000     0.3016   303.8851
 1980.5000     0.2807   303.8742
 1981.0000     0.2697   303.8633
 1981.5000     0.2594   303.8523
 1982.0000     0.2612   303.8414
 1982.5000     0.2823   303.8305
 1983.0000     0.3051   303.8195
 1983.5000     0.3369   303.8086
 1984.0000     0.3736   303.7977
 1984.5000     0.4323   303.7868
 1985.0000     0.4949   303.7758
 1985.5000     0.4356   303.7649
 1986.0000     0.3926   303.7540
 1986.5000     0.3520   303.7430
 1987.0000     0.3226   303.7321
 1987.5000     0.2977   303.7212
 1988.0000     0.2796   303.7103
 1988.5000     0.2979   303.6993
 1989.0000     0.3339   303.6884
 1989.5000     0.3809   303.6775
 1990.0000     0.4341   303.6666
 1990.5000     0.4914   303.6556
 1991.0000     0.4394   303.6447
 1991.5000     0.3978   303.6338
 1992.0000     0.3665   303.6228
 1992.5000     0.3662   303.6119
 1993.0000     0.3659   303.6010
 1993.5000     0.3656   303.5901
 1994.0000     0.3653   303.5791
 1994.5000     0.3650   303.5682
 1995.0000     0.3647   303.5573
 1995.5000     0.3644   303.5464
 1996.0000     0.3640   303.5354
 1996.5000     0.3637   303.5245
 1997.0000     0.3634   303.5136
 1997.5000     0.3631   303.5026
 1998.0000     0.3628   303.4917
 1998.5000     0.3728   303.4808
 1999.0000     0.3932   303.4698
 1999.5000     0.4239   303.4589
 2000.0000     0.4545   303.4471
 2000.5000     0.4749   303.4657
 2001.0000     0.4621   303.4860
 2001.5000     0.4298   303.5063
 2002.0000     0.4002   303.5265
 2002.5000     0.3892   303.5468
 2003.0000     0.3615   303.5670
 2003.5000     0.3159   303.5873
 2004.0000     0.3153   303.6075
 2004.5000     0.3147   303.6278
 2005.0000     0.3206   303.6480
 2005.5000     0.3306   303.6683
 2006.0000     0.3478   303.6886
 2006.5000     0.3610   303.7088
 2007.0000     0.3866   303.7291
 2007.5000     0.4260   303.7493
 2008.0000     0.4858   303.7696
 2008.5000     0.4956   303.7898
 2009.0000     0.4743   303.8101
 2009.5000     0.4324   303.8304
 2010.0000     0.4008   303.8506
 2010.5000     0.3795   303.8709
 2011.0000     0.3479   303.8911
 2011.5000     0.3471   303.9114
 2012.0000     0.3358   303.9316
 2012.5000     0.3246   303.9519
 2013.0000     0.3133   303.9722
 2013.5000     0.3035   303.9924
 2014.0000     0.3047   304.0127
 2014.5000     0.3127   304.0329
 2015.0000     0.3144   304.0532
 2015.5000     0.3271   304.0734
 2016.0000     0.3478   304.0937
 2016.5000     0.3685   304.1140
 2017.0000     0.3964   304.1342
 2017.5000     0.4384   304.1545
 2018.0000     0.4803   304.1747
 2018.5000     0.5131   304.1950
 2019.0000     0.5142   304.2152
 2019.5000     0.4975   304.2355
 2020.0000     0.4752   304.2557
 2020.5000     0.4601   304.2760
 2021.0000     0.4595   304.2963
 2021.5000     0.4589   304.3165
 2022.0000     0.4583   304.3368
 2022.5000     0.4576   304.3570
 2023.0000     0.4570   304.3773
 2023.5000     0.4564   304.3976
 2024.0000     0.4638   304.4178
 2024.5000     0.4655   304.4381
 2025.0000     0.4648   304.4583
 2025.5000     0.4642   304.4786
 2026.0000     0.4636   304.4988
 2026.5000     0.4630   304.5191
 2027.0000     0.4520   304.5393
 2027.5000     0.4204   304.5596
 2028.0000     0.3887   304.5799
 2028.5000     0.3779   304.6001
 2029.0000     0.3891   304.6204
 2029.5000     0.4087   304.6406
 2030.0000     0.4201   304.6609
 2030.5000     0.4391   304.6812
 2031.0000     0.4472   304.7014
 2031.5000     0.4465   304.7216
 2032.0000     0.4459   304.7419
 2032.5000     0.4452   304.7622
 2033.0000     0.4349   304.7824
 2033.5000     0.4095   304.8027
 2034.0000     0.4059   304.8229
 2034.5000     0.4201   304.8432
 2035.0000     0.4453   304.8635
 2035.5000     0.4718   304.8837
 2036.0000     0.4873   304.9040
 2036.5000     0.4865   304.9242
 2037.0000     0.4638   304.9445
 2037.5000     0.4373   304.9648
 2038.0000     0.4154   304.9850
 2038.5000     0.4135   305.0052
 2039.0000     0.4304   305.0255
 2039.5000     0.4438   305.0458
 2040.0000     0.4690   305.0660
 2040.5000     0.5082   305.0863
 2041.0000     0.5256   305.1065
 2041.5000     0.5271   305.1268
 2042.0000     0.5057   305.1471
 2042.5000     0.4638   305.1673
 2043.0000     0.4218   305.1876
 2043.5000     0.3903   305.2078
 2044.0000     0.3690   305.2281
 2044.5000     0.3683   305.2484
 2045.0000     0.3574   305.2686
 2045.5000     0.3568   305.2888
 2046.0000     0.3562   305.3091
 2046.5000     0.3556   305.3294
 2047.0000     0.3550   305.3496
 2047.5000     0.3647   305.3699
 2048.0000     0.3640   305.3901
 2048.5000     0.3634   305.4104
 2049.0000     0.3628   305.4307
 2049.5000     0.3622   305.4509
 2050.0000     0.3616   305.4766
 2050.5000     0.3610   305.5105
 2051.0000     0.3667   305.5443
 2051.5000     0.3839   305.5781
 2052.0000     0.4016   305.6119
 2052.5000     0.4287   305.6458
 2053.0000     0.4361   305.6796
 2053.5000     0.4153   305.7134
 2054.0000     0.3777   305.7472
 2054.5000     0.3497   305.7811
 2055.0000     0.3621   305.8149
 2055.5000     0.3868   305.8487
 2056.0000     0.4173   305.8825
 2056.5000     0.4271   305.9164
 2057.0000     0.4369   305.9502
 2057.5000     0.4468   305.9840
 2058.0000     0.4463   306.0178
 2058.5000     0.4458   306.0516
 2059.0000     0.4452   306.0855
 2059.5000     0.4437   306.1193
 2060.0000     0.4325   306.1531
 2060.5000     0.4213   306.1870
 2061.0000     0.4058   306.2208
 2061.5000     0.3732   306.2546
 2062.0000     0.3435   306.2884
 2062.5000     0.3248   306.3222
 2063.0000     0.3171   306.3561
 2063.5000     0.3127   306.3899
 2064.0000     0.3058   306.4237
 2064.5000     0.3100   306.4576
 2065.0000     0.3151   306.4914
 2065.5000     0.3200   306.5252
 2066.0000     0.3244   306.5590
 2066.5000     0.3301   306.5928
 2067.0000     0.3534   306.6266
 2067.5000     0.3780   306.6605
 2068.0000     0.4062   306.6943
 2068.5000     0.4378   306.7281
 2069.0000     0.4452   306.7620
 2069.5000     0.4136   306.7958
 2070.0000     0.3925   306.8296
 2070.5000     0.3713   306.8634
 2071.0000     0.3708   306.8972
