~VERSION INFORMATION
 VERS.                2.0:   CWLS LOG ASCII STANDARD - VERSION 2.0
 WRAP.                 NO:   ONE LINE PER DEPTH STEP
~WELL INFORMATION
#MNEM.UNIT      DATA TYPE    INFORMATION
#----------   ------------   ------------------------------
 STRT.F            0.0000:   START DEPTH
 STOP.F         2230.0000:   STOP DEPTH
 STEP.F            0.5000:   STEP LENGTH
 NULL.          -999.2500:   NO VALUE
 COMP. LAWRENCE/ALLISON INC:   COMPANY
 WELL. NPR 3 SH X 34 #48-34:   WELL
 FLD .            WILDCAT:   FIELD
 LOC .      S34 T39N R78W:   LOCATION
 CNTY.            NATRONA:   COUNTY
 STAT.            WYOMING:   STATE
 CTRY. UNITED STATES OF AMERICA:   COUNTRY
 SRVC.            Unknown:   SERVICE COMPANY
 DATE.        02-SEP-1991:   LOGDATE
 API .       490251110600:   API NUMBER
~CURVE INFORMATION
#MNEM.UNIT       API CODE    CURVE DESCRIPTION
#----------   ------------   ------------------------------
 DEPT.F                  :   
 ROP .MIN/FT 91 810 01 00:   RAT OF DRILLING PENETRATION
 TGAS.UNITS  91 830 01 00:   TOTAL GAS FROM HOTWIRE
 C1  .VF     91 831 01 00:   METHANE
 C2  .VF     91 832 01 00:   ETHANE
 C3  .VF     91 833 01 00:   PROPANE
 C4  .VF     91 834 01 00:   BUTANE
 TT  .US/F   81 520 00 00:   TRANSIT TIME
 GR  .GAPI   81 310 01 00:   GAMMA RAY FROM CEMENT BOND LOG
~PARAMETER INFORMATION
#MNEM.UNIT          VALUE    DESCRIPTION
#----------   ------------   ------------------------------
 EKB .F              5145:   KELLING BUSHING
 EGL .F              5135:   GROUND LEVEL
 DATE.          09-2-1991:   RUN DATE
 RUN .                  1:   RUN NUMBER
 BLI .F              2400:   BOTTOM LOG INTERVAL
 TLI .F              2200:   TOP LOG INTERVAL
 ENGI.           C. TOWER:   RECORDING ENGINEER
 WITN.            R. HUSK:   WITNESSED BY
 CLNT.            A2DTECH:   CLIENT CODE
 ORIG.           5" PRINT:   ORIGIN OF DATA
 UWI .       490251110600:   UNIQUE WELL ID
 DICO. A2D Technologies, Inc.:   DIGITIZING COMPANY
~OTHER INFORMATION
~A    DEPT     ROP       TGAS         C1         C2         C3         C4          TT         GR  
# ...
 2065.5000     0.5291    46.0139    19.1711     2.1581     2.1520     0.3548  -999.2500  -999.2500
 2066.0000     0.5294    45.9507    19.1054     2.1596     2.1519     0.3447  -999.2500  -999.2500
 2066.5000     0.5297    45.8876    19.0397     2.2008     2.1519     0.3346  -999.2500  -999.2500
 2067.0000     0.5301    45.8245    18.9741     2.2471     2.1519     0.3245  -999.2500  -999.2500
 2067.5000     0.5304    45.7613    18.9084     2.2936     2.1519     0.3144  -999.2500  -999.2500
 2068.0000     0.5308    45.6982    18.8428     2.3400     2.1519     0.3043  -999.2500  -999.2500
 2068.5000     0.5311    45.6351    18.7771     2.3864     2.1519     0.2942  -999.2500  -999.2500
 2069.0000     0.5314    45.5720    18.7115     2.4327     2.1519     0.2841  -999.2500  -999.2500
 2069.5000     0.5318    45.5088    18.6458     2.4792     2.1520     0.2740  -999.2500  -999.2500
 2070.0000     0.5321    45.4457    18.5801     2.5256     2.1515     0.2639  -999.2500  -999.2500
 2070.5000     0.5325    45.3825    18.5145     2.5721     2.1375     0.2538  -999.2500  -999.2500
 2071.0000     0.5338    45.3187    18.4488     2.6128     2.1229     0.2437  -999.2500  -999.2500
 2071.5000     0.5356    45.2529    18.3832     2.5996     2.1084     0.2336  -999.2500  -999.2500
 2072.0000     0.5373    45.2646    18.3174     2.5863     2.0939     0.2235  -999.2500  -999.2500
 2072.5000     0.5391    45.2819    18.2638     2.5731     2.0794     0.2134  -999.2500  -999.2500
 2073.0000     0.5408    45.2990    18.2171     2.5601     2.0649     0.2033  -999.2500  -999.2500
 2073.5000     0.5426    45.3159    18.1706     2.5470     2.0504     0.1932  -999.2500  -999.2500
 2074.0000     0.5443    45.3328    18.1240     2.5340     2.0359     0.1831  -999.2500  -999.2500
 2074.5000     0.5461    45.3497    18.0774     2.5209     2.0214     0.1730  -999.2500  -999.2500
 2075.0000     0.5479    45.3666    18.0309     2.5078     2.0069     0.1629  -999.2500  -999.2500
 2075.5000     0.5496    45.3834    17.9843     2.4948     1.9924     0.1528  -999.2500  -999.2500
 2076.0000     0.5514    45.4003    17.9377     2.4817     1.9779     0.1426  -999.2500  -999.2500
 2076.5000     0.5531    45.4172    17.8911     2.4687     1.9634     0.1326  -999.2500  -999.2500
 2077.0000     0.5549    45.4341    17.8446     2.4556     1.9489     0.1231  -999.2500  -999.2500
 2077.5000     0.5566    45.4510    17.7980     2.4425     1.9344     0.1132  -999.2500  -999.2500
 2078.0000     0.5584    45.4679    17.7514     2.4295     1.9200     0.1037  -999.2500  -999.2500
 2078.5000     0.5601    45.4848    17.7049     2.4164     1.9054     0.0942  -999.2500  -999.2500
 2079.0000     0.5619    45.5017    17.6583     2.4034     1.8988     0.0848  -999.2500  -999.2500
 2079.5000     0.5637    45.5186    17.6117     2.3904     1.8987     0.0754  -999.2500  -999.2500
 2080.0000     0.5654    45.5355    17.5651     2.3654     1.8987     0.0660  -999.2500  -999.2500
 2080.5000     0.5672    45.5524    17.5186     2.3355     1.8987     0.0565  -999.2500  -999.2500
 2081.0000     0.5689    45.5693    17.4720     2.3056     1.8987     0.0471  -999.2500  -999.2500
 2081.5000     0.5699    45.5862    17.4255     2.2757     1.8987     0.0377  -999.2500  -999.2500
 2082.0000     0.5689    45.6030    17.3789     2.2458     1.8987     0.0283  -999.2500  -999.2500
 2082.5000     0.5679    45.6199    17.3306     2.2159     1.8987     0.0189  -999.2500  -999.2500
 2083.0000     0.5670    45.6368    17.3174     2.1860     1.8987     0.0094  -999.2500  -999.2500
 2083.5000     0.5660    45.6537    17.3169     2.1561     1.8987     0.0000  -999.2500  -999.2500
 2084.0000     0.5650    45.6706    17.3170     2.1262     1.8987     0.0000  -999.2500  -999.2500
 2084.5000     0.5640    45.6875    17.3171     2.0963     1.8987     0.0000  -999.2500  -999.2500
 2085.0000     0.5630    45.7045    17.3171     2.0664     1.8987     0.0000  -999.2500  -999.2500
 2085.5000     0.5621    45.7215    17.3171     2.0365     1.8987     0.0000  -999.2500  -999.2500
 2086.0000     0.5611    45.7378    17.3171     2.0065     1.8987     0.0000  -999.2500  -999.2500
 2086.5000     0.5601    45.7343    17.3171     1.9768     1.8987     0.0000  -999.2500  -999.2500
 2087.0000     0.5591    45.6728    17.3171     1.9470     1.8987     0.0000  -999.2500  -999.2500
 2087.5000     0.5581    45.6134    17.3171     1.9420     1.8987     0.0000  -999.2500  -999.2500
 2088.0000     0.5572    45.5542    17.3171     1.9618     1.8988     0.0000  -999.2500  -999.2500
 2088.5000     0.5562    45.4948    17.3171     1.9816     1.8986     0.0000  -999.2500  -999.2500
 2089.0000     0.5552    45.4355    17.3172     2.0016     1.8773     0.0000  -999.2500  -999.2500
 2089.5000     0.5542    45.3761    17.3176     2.0215     1.8534     0.0000  -999.2500  -999.2500
 2090.0000     0.5532    45.3168    17.3168     2.0415     1.8295     0.0000  -999.2500  -999.2500
 2090.5000     0.5523    45.2574    17.2776     2.0614     1.8056     0.0000  -999.2500  -999.2500
 2091.0000     0.5513    45.1981    17.0614     2.0813     1.7817     0.0000  -999.2500  -999.2500
 2091.5000     0.5503    45.1387    16.8468     2.1013     1.7578     0.0000  -999.2500  -999.2500
 2092.0000     0.5493    45.0794    16.6327     2.1213     1.7339     0.0000  -999.2500  -999.2500
 2092.5000     0.5483    45.0200    16.4183     2.1415     1.7100     0.0000  -999.2500  -999.2500
 2093.0000     0.5474    44.9607    16.2042     2.1576     1.6861     0.0000  -999.2500  -999.2500
 2093.5000     0.5464    44.9013    15.9914     2.1257     1.6624     0.0000  -999.2500  -999.2500
 2094.0000     0.5454    44.8420    15.8745     2.0946     1.6452     0.0000  -999.2500  -999.2500
 2094.5000     0.5444    44.7826    15.9431     2.0639     1.6456     0.0000  -999.2500  -999.2500
 2095.0000     0.5434    44.7233    16.0085     2.0331     1.6456     0.0000  -999.2500  -999.2500
 2095.5000     0.5425    44.6640    16.0741     2.0025     1.6456     0.0000  -999.2500  -999.2500
 2096.0000     0.5415    44.6046    16.1398     1.9718     1.6456     0.0000  -999.2500  -999.2500
 2096.5000     0.5405    44.5452    16.2055     1.9390     1.6456     0.0000  -999.2500  -999.2500
 2097.0000     0.5395    44.4859    16.2723     1.9753     1.6456     0.0000  -999.2500  -999.2500
 2097.5000     0.5386    44.4266    16.3372     2.0361     1.6456     0.0000  -999.2500  -999.2500
 2098.0000     0.5376    44.3672    16.2105     2.0977     1.6457     0.0000  -999.2500  -999.2500
 2098.5000     0.5366    44.3079    16.0672     2.1593     1.6450     0.0000  -999.2500  -999.2500
 2099.0000     0.5356    44.2485    15.9243     2.2209     1.6319     0.0000  -999.2500  -999.2500
 2099.5000     0.5346    44.1892    15.8309     2.2824     1.6192     0.0000  -999.2500  -999.2500
 2100.0000     0.5336    44.1298    15.7851     2.3434     1.6065     0.0000  -999.2500  -999.2500
 2100.5000     0.5326    44.0705    15.7393     2.3815     1.5940     0.0000  -999.2500  -999.2500
 2101.0000     0.5332    44.0111    15.6938     2.3586     1.5814     0.0000  -999.2500  -999.2500
 2101.5000     0.5339    43.9518    15.6482     2.3373     1.5688     0.0000  -999.2500  -999.2500
 2102.0000     0.5346    43.8924    15.6027     2.3161     1.5562     0.0000  -999.2500  -999.2500
 2102.5000     0.5353    43.8331    15.5571     2.2948     1.5436     0.0000  -999.2500  -999.2500
 2103.0000     0.5359    43.7737    15.5115     2.2736     1.5310     0.0000  -999.2500  -999.2500
 2103.5000     0.5366    43.7144    15.4660     2.2523     1.5185     0.0000  -999.2500  -999.2500
 2104.0000     0.5373    43.6550    15.4204     2.2310     1.5059     0.0000  -999.2500  -999.2500
 2104.5000     0.5380    43.5957    15.3748     2.2098     1.4933     0.0000  -999.2500  -999.2500
 2105.0000     0.5387    43.5364    15.3293     2.1886     1.4807     0.0000  -999.2500  -999.2500
 2105.5000     0.5394    43.4770    15.2837     2.1669     1.4681     0.0000  -999.2500  -999.2500
