~VERSION INFORMATION
 VERS.                2.0:   CWLS LOG ASCII STANDARD - VERSION 2.0
 WRAP.                 NO:   ONE LINE PER DEPTH STEP
~WELL INFORMATION
#MNEM.UNIT      DATA TYPE    INFORMATION
#----------   ------------   ------------------------------
 STRT.F           33.0000:   START DEPTH
 STOP.F         1310.0000:   STOP DEPTH
 STEP.F            0.5000:   STEP LENGTH
 NULL.          -999.2500:   NO VALUE
 COMP. FENIX & SCISSON INC:   COMPANY
 WELL.    NPR-3 #76-14 SX:   WELL
 FLD .        TEAPOT DOME:   FIELD
 LOC .      S14 T38N R78W:   LOCATION
 CNTY.            NATRONA:   COUNTY
 STAT.            WYOMING:   STATE
 CTRY. UNITED STATES OF AMERICA:   COUNTRY
 SRVC.            Unknown:   SERVICE COMPANY
 DATE.        12-APR-1978:   LOGDATE
 API .       490251061200:   API NUMBER
~CURVE INFORMATION
#MNEM.UNIT       API CODE    CURVE DESCRIPTION
#----------   ------------   ------------------------------
 DEPT.F                  :   
 SPR .MV     05 010 01 00:   SPONTANEOUS POTENTIAL FROM RES.
 SN  .OHMM   05 040 16 00:   SHORT NORMAL 16"
 ILD .OHMM   05 120 46 00:   INDUCTION LOG DEEP
 CALD.IN     45 280 60 00:   CALIPER FROM DENSITY LOG
 GRD .GAPI   45 310 01 00:   GAMMA RAY FROM DENSITY LOG
 DPOR.DEC    45 890 12 00:   DENSITY POROSITY SANDSTONE
 CORR.G/C3   45 356 01 00:   DENSITY CORRECTION
 RHOB.G/C3   45 350 01 00:   BULK DENSITY
~PARAMETER INFORMATION
#MNEM.UNIT          VALUE    DESCRIPTION
#----------   ------------   ------------------------------
 PD  .                 GL:   PERMANENT DATUM
 EPD .F              5332:   ELEVATION PERMANENT DATUM
 LMF .                 KB:   LOG MEASURED FROM
 DMF .                 KB:   DRILLING MEASURED FROM
 EKB .F              5336:   KELLING BUSHING
 EGL .F              5332:   GROUND LEVEL
 DATE.          4-12-1978:   RUN DATE
 RUN .                  1:   RUN NUMBER
 DD  .F              1300:   DEPTH DRILLER
 DL  .F              1302:   DEPTH LOGGER
 BLI .F              1298:   BOTTOM LOG INTERVAL
 TLI .F                50:   TOP LOG INTERVAL
 CS  .IN            8.625:   CASING SIZE
 CBD .F                40:   CASING BOTTOM DRILLER
 CBL .F                46:   CASING BOTTOM LOGGER
 BS  .IN            7.875:   BIT SIZE
 BSD .F              1300:   BIT SIZE AT DEPTH
 DFT .                KCL:   DRILLING FLUID TYPE
 DFD .                8.5:   DRILLING FLUID DENSITY
 DFV .                 28:   DRILLING FLUID VISCOSITY
 MSS .            MUD PIT:   MUD SAMPLE SOURCE
 RMS .OHMM           1.45:   RESISTIVITY MUD SAMPLE
 MST .F                50:   MUD SAMPLE TEMPERATURE
 RMF .OHMM           1.25:   RESISTIVITY MUD FILTRATE SAMPLE
 MFST.F                62:   MUD FILTRATE SAMPLE TEMPERATURE
 RMC .OHMM           1.65:   RESISTIVITY MUD CAKE
 MCST.F                61:   MUD CAKE SAMPLE TEMPERATURE
 MFSS.           MEASURED:   MUD FILTRATE SAMPLE SOURCE
 MCSS.           MEASURED:   MUD CAKE SAMPLE SOURCE
 RMB .OHMM            .93:   RESISTIVITY MUD AT BHT
 BHT .F                78:   BOTTOM HOLE TEMPERATURE
 TCS .HRS               6:   TIME CURCULATED STOPPED
 MRT .F                78:   MAXIMUM RECORDED TEMPERATURE
 LUN .               2958:   LOGGING UNIT NUMBER
 LUL .                CAS:   LOGGING UNIT LOCATION
 ENGI.             MILLER:   RECORDING ENGINEER
 WITN.           MCGINLEY:   WITNESSED BY
 CLNT.            A2DTECH:   CLIENT CODE
 ORIG.      2" , 5" PRINT:   ORIGIN OF DATA
 UWI .       490251061200:   UNIQUE WELL ID
 DICO. A2D Technologies, Inc.:   DIGITIZING COMPANY
~OTHER INFORMATION
~A   DEPT      SPR         SN        ILD       CALD         GRD      DPOR       CORR       RHOB   
# ...
  802.5000   -23.5100     7.7657     6.5436     7.7614    60.4674     0.0963     0.0367     2.4849
  803.0000   -23.5260     7.7598     6.5409     7.7506    58.6738     0.0934     0.0385     2.4914
  803.5000   -23.5421     7.7539     6.5382     7.7398    58.5008     0.0905     0.0403     2.4982
  804.0000   -23.5581     7.7480     6.5355     7.7290    58.4980     0.0876     0.0422     2.4865
  804.5000   -23.5741     7.7420     6.5328     7.7182    58.7225     0.0855     0.0437     2.4979
  805.0000   -23.5901     7.7361     6.5301     7.7094    60.4906     0.0858     0.0411     2.5126
  805.5000   -23.6061     7.7302     6.5274     7.7076    62.2682     0.0868     0.0383     2.5063
  806.0000   -23.6221     7.7243     6.5247     7.7056    62.3095     0.0890     0.0356     2.5091
  806.5000   -23.6381     7.7184     6.5220     7.7036    62.2910     0.0915     0.0328     2.5064
  807.0000   -23.6542     7.7125     6.5193     7.7017    60.7652     0.0919     0.0301     2.4998
  807.5000   -23.6702     7.7066     6.5176     7.6997    58.0757     0.0919     0.0298     2.5011
  808.0000   -23.6862     7.7007     6.5369     7.6977    55.3607     0.0927     0.0298     2.5032
  808.5000   -23.7004     7.6956     6.5537     7.6958    53.9742     0.0938     0.0298     2.5010
  809.0000   -23.7001     7.7209     6.5707     7.6938    53.8820     0.0948     0.0298     2.4981
  809.5000   -23.7000     7.7468     6.5877     7.6918    53.0571     0.0958     0.0298     2.4948
  810.0000   -23.7000     7.7729     6.6048     7.6898    54.0053     0.0969     0.0298     2.4913
  810.5000   -23.7000     7.7990     6.6219     7.6879    56.2424     0.0980     0.0298     2.4878
  811.0000   -23.7000     7.8252     6.6390     7.6859    58.5080     0.0958     0.0298     2.4852
  811.5000   -23.7000     7.8515     6.6562     7.6839    60.6527     0.0922     0.0298     2.4913
  812.0000   -23.7000     7.8779     6.6734     7.6820    60.9284     0.0914     0.0298     2.4976
  812.5000   -23.7000     7.9044     6.6907     7.6800    60.9061     0.0919     0.0298     2.5000
  813.0000   -23.7000     7.9309     6.7080     7.6780    61.8305     0.0924     0.0298     2.4947
  813.5000   -23.7000     7.9576     6.7254     7.6761    63.4257     0.0929     0.0298     2.4949
  814.0000   -23.7000     7.9843     6.7428     7.6741    63.9326     0.0935     0.0298     2.4984
  814.5000   -23.7000     8.0112     6.7603     7.6721    62.6316     0.0947     0.0300     2.4996
  815.0000   -23.7000     8.0381     6.7778     7.6701    61.1992     0.0958     0.0317     2.4953
  815.5000   -23.7000     8.0651     6.7953     7.6672    59.7677     0.0967     0.0334     2.4910
  816.0000   -23.7000     8.0922     6.8129     7.6642    58.3329     0.0950     0.0351     2.4892
  816.5000   -23.7000     8.1194     6.8306     7.6612    57.7230     0.0927     0.0360     2.4929
  817.0000   -23.7000     8.1467     6.8482     7.6582    57.6306     0.0917     0.0365     2.4965
  817.5000   -23.7000     8.1741     6.8660     7.6552    58.4147     0.0905     0.0369     2.5001
  818.0000   -23.7000     8.2015     6.8838     7.6522    59.1936     0.0892     0.0374     2.5037
  818.5000   -23.7000     8.2698     6.9452     7.6491    59.3542     0.0879     0.0379     2.5059
  819.0000   -23.7000     8.4543     7.0218     7.6461    58.6130     0.0867     0.0383     2.5069
  819.5000   -23.6999     9.0029     7.0992     7.6431    57.5488     0.0836     0.0388     2.5092
  820.0000   -23.7003     9.6942     7.1774     7.6401    56.4241     0.0807     0.0393     2.5144
  820.5000   -23.6980     9.6916     7.2566     7.6371    57.7946     0.0758     0.0397     2.5172
  821.0000   -23.8165     9.8744     7.3365     7.6341    60.2620     0.0707     0.0398     2.5186
  821.5000   -23.9838    10.0586     7.3790     7.6311    62.3896     0.0740     0.0383     2.5354
  822.0000   -24.1531    10.0542     7.4152     7.6281    61.3189     0.0789     0.0368     2.5283
  822.5000   -24.3066    10.0573     7.4517     7.6251    60.0181     0.0830     0.0354     2.5174
  823.0000   -24.3204    10.0562     7.4883     7.6220    58.7397     0.0820     0.0339     2.5122
  823.5000   -24.3374    10.0561     7.5252     7.6190    57.6216     0.0809     0.0325     2.5199
  824.0000   -24.3550    10.0563     7.5622     7.6160    57.5031     0.0859     0.0310     2.5185
  824.5000   -24.3726    10.0531     7.5994     7.6129    57.5307     0.0927     0.0296     2.5104
  825.0000   -24.3902    10.1467     7.6368     7.6103    59.1588     0.0952     0.0281     2.5023
  825.5000   -24.4078    10.3020     7.6743     7.6186    60.3853     0.0943     0.0283     2.4941
  826.0000   -24.4253    10.4598     7.7121     7.6274    60.9630     0.0935     0.0289     2.4919
  826.5000   -24.4429    10.6200     7.7501     7.6361    62.9684     0.0927     0.0295     2.4960
  827.0000   -24.4605    10.7826     7.7882     7.6448    64.0707     0.0895     0.0301     2.4991
  827.5000   -24.4781    10.9477     7.8265     7.6535    63.9606     0.0863     0.0306     2.5018
  828.0000   -24.4957    11.1307     7.8382     7.6622    63.4456     0.0890     0.0312     2.5092
  828.5000   -24.5133    11.1307     7.8382     7.6697    61.4478     0.0905     0.0318     2.5070
  829.0000   -24.5308    11.1307     7.8382     7.6645    61.1094     0.0871     0.0324     2.4979
  829.5000   -24.5484    11.1307     7.8382     7.6594    62.2689     0.0836     0.0330     2.5045
  830.0000   -24.5660    11.1307     7.8382     7.6543    63.4573     0.0836     0.0336     2.5115
  830.5000   -24.5836    11.1307     7.8382     7.6492    62.6660     0.0849     0.0342     2.5153
  831.0000   -24.6012    11.1307     7.8382     7.6442    59.8581     0.0859     0.0347     2.5126
  831.5000   -24.6188    11.1307     7.8382     7.6391    56.8688     0.0859     0.0353     2.5100
  832.0000   -24.6364    11.1307     7.8382     7.6340    53.8717     0.0882     0.0359     2.5073
  832.5000   -24.6539    11.1307     7.8381     7.6290    52.9507     0.0903     0.0365     2.5047
  833.0000   -24.6715    11.1307     7.8393     7.6239    57.5975     0.0907     0.0371     2.5021
  833.5000   -24.6891    11.1309     7.8006     7.6188    61.5166     0.0907     0.0377     2.4995
  834.0000   -24.7067    11.1334     7.7462     7.6137    61.9747     0.0896     0.0383     2.5005
  834.5000   -24.7243    11.0043     7.6926     7.6101    61.3499     0.0888     0.0389     2.5037
  835.0000   -24.7418    10.8334     7.6393     7.6196    60.8641     0.0880     0.0395     2.5041
  835.5000   -24.7594    10.6651     7.5863     7.6399    61.8772     0.0871     0.0400     2.5041
  836.0000   -24.7770    10.4994     7.5543     7.6601    63.0426     0.0863     0.0406     2.5066
  836.5000   -24.7946    10.3385     7.5540     7.6860    62.8472     0.0855     0.0412     2.5088
  837.0000   -24.8122    10.3182     7.5541     7.7177    60.6971     0.0846     0.0418     2.5076
  837.5000   -24.8298    10.2982     7.5541     7.7491    58.5194     0.0839     0.0424     2.5090
  838.0000   -24.8473    10.2782     7.5541     7.7806    56.3303     0.0839     0.0430     2.5123
  838.5000   -24.8649    10.2583     7.5541     7.8121    56.6998     0.0839     0.0435     2.5148
  839.0000   -24.8825    10.2384     7.5540     7.8438    59.5735     0.0824     0.0441     2.5121
  839.5000   -24.8999    10.2185     7.5543     7.8690    61.9729     0.0797     0.0447     2.5146
  840.0000   -24.9137    10.1987     7.5549     7.8928    64.2500     0.0812     0.0453     2.5204
  840.5000   -24.9273    10.1789     7.4650     7.9167    63.9247     0.0873     0.0459     2.5139
  841.0000   -24.9410    10.1592     7.3874     7.9405    63.3441     0.0879     0.0484     2.5051
  841.5000   -24.9546    10.1395     7.3108     7.9645    60.6802     0.0859     0.0546     2.5047
  842.0000   -24.9682    10.1198     7.2681     7.9885    57.0180     0.0840     0.0639     2.5143
  842.5000   -24.9818    10.1002     7.2478     8.0091    56.1489     0.0823     0.0735     2.5056
