~VERSION INFORMATION
 VERS.                2.0:   CWLS LOG ASCII STANDARD - VERSION 2.0
 WRAP.                 NO:   ONE LINE PER DEPTH STEP
~WELL INFORMATION
#MNEM.UNIT      DATA TYPE    INFORMATION
#----------   ------------   ------------------------------
 STRT.F          217.0000:   START DEPTH
 STOP.F         3170.0000:   STOP DEPTH
 STEP.F            0.5000:   STEP LENGTH
 NULL.          -999.2500:   NO VALUE
 COMP. FENIX & SCISSON INC:   COMPANY
 WELL.    51 TX 33 #51-33:   WELL
 FLD .             TEAPOT:   FIELD
 LOC .      S33 T39N R78W:   LOCATION
 CNTY.            NATRONA:   COUNTY
 STAT.            WYOMING:   STATE
 CTRY. UNITED STATES OF AMERICA:   COUNTRY
 SRVC.            Unknown:   SERVICE COMPANY
 DATE.        02-APR-1978:   LOGDATE
 API .       490251068600:   API NUMBER
~CURVE INFORMATION
#MNEM.UNIT       API CODE    CURVE DESCRIPTION
#----------   ------------   ------------------------------
 DEPT.F                  :   
 TGAS.UNITS  91 830 01 00:   TOTAL GAS FROM HOTWIRE
 ROP .MIN/FT 91 810 01 00:   RATE OF DRILLING PENETRATION
~PARAMETER INFORMATION
#MNEM.UNIT          VALUE    DESCRIPTION
#----------   ------------   ------------------------------
 DATE.         2-APR-1978:   RUN DATE
 RUN .                  1:   RUN NUMBER
 BLI .F              3150:   BOTTOM LOG INTERVAL
 TLI .F               250:   TOP LOG INTERVAL
 DFT .       CHEMICAL GEL:   DRILLING FLUID TYPE
 ENGI.            R. CABS:   RECORDING ENGINEER
 CLNT.            A2DTECH:   CLIENT CODE
 ORIG.           5" PRINT:   ORIGIN OF DATA
 UWI .       490251068600:   UNIQUE WELL ID
 DICO. A2D Technologies, Inc.:   DIGITIZING COMPANY
~OTHER INFORMATION
~A   DEPT       TGAS      ROP   
# ...
  824.5000     1.6064  -999.2500
  825.0000     1.6089  -999.2500
  825.5000     1.6114  -999.2500
  826.0000     1.6140  -999.2500
  826.5000     1.6165  -999.2500
  827.0000     1.5321  -999.2500
  827.5000     1.4483  -999.2500
  828.0000     1.4509  -999.2500
  828.5000     1.4534  -999.2500
  829.0000     1.3690  -999.2500
  829.5000     1.3715  -999.2500
  830.0000     1.3741  -999.2500
  830.5000     1.4636  -999.2500
  831.0000     1.4661  -999.2500
  831.5000     1.4687  -999.2500
  832.0000     1.4713  -999.2500
  832.5000     1.4744  -999.2500
  833.0000     1.5639  -999.2500
  833.5000     1.4795  -999.2500
  834.0000     1.4820  -999.2500
  834.5000     1.3970  -999.2500
  835.0000     1.4871  -999.2500
  835.5000     1.4896  -999.2500
  836.0000     1.4922  -999.2500
  836.5000     1.3208  -999.2500
  837.0000     1.3240  -999.2500
  837.5000     1.3265  -999.2500
  838.0000     1.5030  -999.2500
  838.5000     1.5055  -999.2500
  839.0000     1.5080  -999.2500
  839.5000     1.5106  -999.2500
  840.0000     1.5131  -999.2500
  840.5000     1.5157  -999.2500
  841.0000     1.5183  -999.2500
  841.5000     1.6083  -999.2500
  842.0000     1.6978  -999.2500
  842.5000     1.7004  -999.2500
  843.0000     1.7899  -999.2500
  843.5000     1.7924  -999.2500
  844.0000     1.7074  -999.2500
  844.5000     1.7105  -999.2500
  845.0000     1.7131  -999.2500
  845.5000     1.7157  -999.2500
  846.0000     1.7183  -999.2500
  846.5000     1.7213  -999.2500
  847.0000     1.7239  -999.2500
  847.5000     1.7264  -999.2500
  848.0000     1.7290  -999.2500
  848.5000     1.7315  -999.2500
  849.0000     1.7340  -999.2500
  849.5000     1.7366  -999.2500
  850.0000     1.8261  -999.2500
  850.5000     1.8286  -999.2500
  851.0000     1.8212  -999.2500
  851.5000     1.8140  -999.2500
  852.0000     1.8067  -999.2500
  852.5000     1.7995  -999.2500
  853.0000     1.7923  -999.2500
  853.5000     1.7850  -999.2500
  854.0000     1.7007  -999.2500
  854.5000     1.4472  -999.2500
  855.0000     1.2791  -999.2500
  855.5000     1.1981  -999.2500
  856.0000     1.1155  -999.2500
  856.5000     1.1229  -999.2500
  857.0000     1.1288  -999.2500
  857.5000     1.1435  -999.2500
  858.0000     1.3159  -999.2500
  858.5000     1.4957  -999.2500
  859.0000     1.5885  -999.2500
  859.5000     1.6814  -999.2500
  860.0000     1.6873  -999.2500
  860.5000     1.6931  -999.2500
  861.0000     1.6991  -999.2500
  861.5000     1.6194  -999.2500
  862.0000     1.6253  -999.2500
  862.5000     1.6312  -999.2500
  863.0000     1.6371  -999.2500
  863.5000     1.6429  -999.2500
  864.0000     1.7358  -999.2500
  864.5000     1.7417  -999.2500
  865.0000     1.7490  -999.2500
  865.5000     1.7549  -999.2500
  866.0000     1.7608  -999.2500
  866.5000     1.5927  -999.2500
  867.0000     1.5986  -999.2500
  867.5000     1.6045  -999.2500
  868.0000     1.5234  -999.2500
  868.5000     1.4423  -999.2500
  869.0000     1.5367  -999.2500
  869.5000     1.5425  -999.2500
  870.0000     1.6354  -999.2500
  870.5000     1.7282  -999.2500
  871.0000     1.8210  -999.2500
  871.5000     1.8270  -999.2500
  872.0000     1.9200  -999.2500
  872.5000     2.0141  -999.2500
  873.0000     2.0200  -999.2500
  873.5000     2.0258  -999.2500
  874.0000     2.0317  -999.2500
  874.5000     2.0376  -999.2500
  875.0000     2.0435  -999.2500
  875.5000     2.0496  -999.2500
  876.0000     1.9683  -999.2500
  876.5000     1.8872  -999.2500
  877.0000     1.8946  -999.2500
  877.5000     1.9004  -999.2500
  878.0000     1.9063  -999.2500
  878.5000     1.9122  -999.2500
  879.0000     1.8311  -999.2500
  879.5000     1.7501  -999.2500
  880.0000     1.7574  -999.2500
  880.5000     1.7633  -999.2500
  881.0000     1.5953  -999.2500
  881.5000     1.6011  -999.2500
  882.0000     1.6070  -999.2500
  882.5000     1.5259  -999.2500
  883.0000     1.5333  -999.2500
  883.5000     1.6261  -999.2500
  884.0000     1.6320  -999.2500
  884.5000     1.6379  -999.2500
  885.0000     1.6438  -999.2500
  885.5000     1.6497  -999.2500
  886.0000     1.6557  -999.2500
  886.5000     1.6629  -999.2500
  887.0000     1.5803  -999.2500
  887.5000     1.4993  -999.2500
  888.0000     1.5066  -999.2500
  888.5000     1.4241  -999.2500
  889.0000     1.4314  -999.2500
  889.5000     1.3503  -999.2500
  890.0000     1.3577  -999.2500
  890.5000     1.3636  -999.2500
  891.0000     1.4564  -999.2500
  891.5000     1.5493  -999.2500
  892.0000     1.5551  -999.2500
  892.5000     1.5620  -999.2500
  893.0000     1.7418  -999.2500
  893.5000     1.8346  -999.2500
  894.0000     1.9275  -999.2500
  894.5000     1.9333  -999.2500
  895.0000     1.8523  -999.2500
  895.5000     1.8583  -999.2500
  896.0000     1.8655  -999.2500
  896.5000     1.8714  -999.2500
  897.0000     1.8773  -999.2500
  897.5000     1.8831  -999.2500
  898.0000     1.8006  -999.2500
  898.5000     1.8080  -999.2500
  899.0000     1.7269  -999.2500
  899.5000     1.7342  -999.2500
  900.0000     1.6532  -999.2500
  900.5000     1.6590  -999.2500
  901.0000     1.6649  -999.2500
  901.5000     1.5838  -999.2500
  902.0000     1.5026  -999.2500
  902.5000     1.4217  -999.2500
  903.0000     1.4290  -999.2500
  903.5000     1.4349  -999.2500
  904.0000     1.4408  -999.2500
  904.5000     1.4467  -999.2500
  905.0000     1.5395  -999.2500
  905.5000     1.5454  -999.2500
  906.0000     1.5513  -999.2500
  906.5000     1.5574  -999.2500
  907.0000     1.5645  -999.2500
  907.5000     1.7443  -999.2500
  908.0000     1.7502  -999.2500
  908.5000     1.9300  -999.2500
  909.0000     1.9359  -999.2500
  909.5000     2.0287  -999.2500
  910.0000     2.0348  -999.2500
  910.5000     1.9535  -999.2500
  911.0000     1.8724  -999.2500
  911.5000     1.7914  -999.2500
  912.0000     1.7103  -999.2500
  912.5000     1.6304  -999.2500
  913.0000     1.6832  -999.2500
  913.5000     1.7543  -999.2500
  914.0000     1.8371  -999.2500
  914.5000     1.7527  -999.2500
  915.0000     1.6691  -999.2500
  915.5000     1.6733  -999.2500
  916.0000     1.6767  -999.2500
  916.5000     1.8540  -999.2500
  917.0000     1.7704  -999.2500
  917.5000     1.6869  -999.2500
  918.0000     1.6754  -999.2500
  918.5000     1.6067  -999.2500
  919.0000     1.6110  -999.2500
  919.5000     1.6143  -999.2500
  920.0000     1.6177  -999.2500
  920.5000     1.5333  -999.2500
  921.0000     1.5375  -999.2500
  921.5000     1.5409  -999.2500
  922.0000     1.4574  -999.2500
  922.5000     1.3738  -999.2500
  923.0000     1.3780  -999.2500
  923.5000     1.3814  -999.2500
  924.0000     1.3848  -999.2500
  924.5000     1.3882  -999.2500
  925.0000     1.3916  -999.2500
  925.5000     1.3950  -999.2500
  926.0000     1.3984  -999.2500
  926.5000     1.4018  -999.2500
  927.0000     1.4052  -999.2500
  927.5000     1.4963  -999.2500
  928.0000     1.4997  -999.2500
  928.5000     1.5031  -999.2500
  929.0000     1.5065  -999.2500
  929.5000     1.5968  -999.2500
  930.0000     1.6002  -999.2500
  930.5000     1.6036  -999.2500
  931.0000     1.6070  -999.2500
  931.5000     1.6104  -999.2500
  932.0000     1.5130  -999.2500
  932.5000     1.3571  -999.2500
  933.0000     1.2727  -999.2500
  933.5000     1.2770  -999.2500
  934.0000     1.2803  -999.2500
  934.5000     1.2837  -999.2500
  935.0000     1.2871  -999.2500
  935.5000     1.2905  -999.2500
  936.0000     1.2939  -999.2500
  936.5000     1.2000  -999.2500
  937.0000     1.1268  -999.2500
  937.5000     1.1310  -999.2500
  938.0000     1.1344  -999.2500
  938.5000     1.2247  -999.2500
  939.0000     1.3151  -999.2500
  939.5000     1.3185  -999.2500
  940.0000     1.3219  -999.2500
  940.5000     1.4992  -999.2500
  941.0000     1.5026  -999.2500
  941.5000     1.5937  -999.2500
  942.0000     1.6841  -999.2500
  942.5000     1.6875  -999.2500
  943.0000     1.6909  -999.2500
  943.5000     1.6942  -999.2500
  944.0000     1.6098  -999.2500
  944.5000     1.5270  -999.2500
  945.0000     1.5305  -999.2500
  945.5000     1.6244  -999.2500
