~VERSION INFORMATION
 VERS.                2.0:   CWLS LOG ASCII STANDARD - VERSION 2.0
 WRAP.                 NO:   ONE LINE PER DEPTH STEP
~WELL INFORMATION
#MNEM.UNIT      DATA TYPE    INFORMATION
#----------   ------------   ------------------------------
 STRT.F           36.0000:   START DEPTH
 STOP.F          564.0000:   STOP DEPTH
 STEP.F            0.5000:   STEP LENGTH
 NULL.          -999.2500:   NO VALUE
 COMP.    FENIX & SCISSON:   COMPANY
 WELL.        NPR #73-S-3:   WELL
 FLD .             TEAPOT:   FIELD
 LOC .       S3 T38N R78W:   LOCATION
 CNTY.            NATRONA:   COUNTY
 STAT.            WYOMING:   STATE
 CTRY. UNITED STATES OF AMERICA:   COUNTRY
 SRVC.       Schlumberger:   SERVICE COMPANY
 DATE.        19-FEB-1977:   LOGDATE
 API .       490251027900:   API NUMBER
~CURVE INFORMATION
#MNEM.UNIT       API CODE    CURVE DESCRIPTION
#----------   ------------   ------------------------------
 DEPT.F                  :   
 SPR .MV     07 010 01 00:   SPONTANEOUS POTENTIAL
 ILD .OHMM   07 120 46 00:   INDUCTION LOG DEEP
 ILM .OHMM   07 120 44 00:   INDUCTION LOG MEDIUM
 LL8 .OHMM   07 220 08 00:   LATEROLOG-8 RES.
 CALD.IN     45 280 60 00:   CALIPER FROM DENSITY LOG
 CORR.G/C3   45 356 01 00:   DENSITY CORRECTION
 RHOB.G/C3   45 350 01 00:   BULK DENSITY
 DPHI.DEC    45 890 12 00:   DENSITY POROSITY SANDSTONE
 GRD .GAPI   45 310 01 00:   GAMMA RAY FROM DENSITY LOG
~PARAMETER INFORMATION
#MNEM.UNIT          VALUE    DESCRIPTION
#----------   ------------   ------------------------------
 PD  .                 GL:   PERMANENT DATUM
 EPD .F              5128:   ELEVATION PERMANENT DATUM
 LMF .                 GL:   LOG MEASURED FROM
 DAPD.F                 5:   FEET ABOVE PERMANENT DATUM
 DMF .                 KB:   DRILLING MEASURED FROM
 EKB .F              5133:   KELLING BUSHING
 EGL .F              5128:   GROUND LEVEL
 DATE.        19-FEB-1977:   RUN DATE
 RUN .                  1:   RUN NUMBER
 DD  .F               570:   DEPTH DRILLER
 DL  .F               565:   DEPTH LOGGER
 BLI .F               564:   BOTTOM LOG INTERVAL
 TLI .F                36:   TOP LOG INTERVAL
 CS  .IN            8.625:   CASING SIZE
 CBD .F                40:   CASING BOTTOM DRILLER
 CBL .F                41:   CASING BOTTOM LOGGER
 BS  .IN            7.875:   BIT SIZE
 BSD .F               570:   BIT SIZE AT DEPTH
 DFT .                FGM:   DRILLING FLUID TYPE
 DFD .                8.9:   DRILLING FLUID DENSITY
 DFV .                 31:   DRILLING FLUID VISCOSITY
 DFPH.                8.2:   DRILLING FLUID PH
 DFL .                9.2:   DRILLING FLUID LOSS
 MSS .            MUD PIT:   MUD SAMPLE SOURCE
 RMS .OHMM           .244:   RESISTIVITY MUD SAMPLE
 MST .F                78:   MUD SAMPLE TEMPERATURE
 RMF .OHMM           .233:   RESISTIVITY MUD FILTRATE SAMPLE
 MFST.F                68:   MUD FILTRATE SAMPLE TEMPERATURE
 RMC .OHMM            .36:   RESISTIVITY MUD CAKE
 MCST.F                78:   MUD CAKE SAMPLE TEMPERATURE
 MFSS.               MEAS:   MUD FILTRATE SAMPLE SOURCE
 MCSS.               CALC:   MUD CAKE SAMPLE SOURCE
 RMB .OHMM            .35:   RESISTIVITY MUD AT BHT
 BHT .F                55:   BOTTOM HOLE TEMPERATURE
 TCS .HRS               2:   TIME CURCULATED STOPPED
 MRT .F                55:   MAXIMUM RECORDED TEMPERATURE
 LUN .               7711:   LOGGING UNIT NUMBER
 LUL .               CSPR:   LOGGING UNIT LOCATION
 ENGI.                FIX:   RECORDING ENGINEER
 WITN.           VOORHEES:   WITNESSED BY
 CLNT.            A2DTECH:   CLIENT CODE
 ORIG.           5" PRINT:   ORIGIN OF DATA
 UWI .       490251027900:   UNIQUE WELL ID
 DICO. A2D Technologies, Inc.:   DIGITIZING COMPANY
~OTHER INFORMATION
~A   DEPT      SPR        ILD        ILM        LL8       CALD       CORR       RHOB       DPHI        GRD   
# ...
  291.5000   -54.2514     9.6454     7.1014     9.3552     9.3505     0.0189     2.4771     0.1028   112.7140
  292.0000   -54.3869     9.4599     6.9622     9.2035     9.6489     0.0219     2.4839     0.0986   110.0418
  292.5000   -54.2153     9.2736     6.9202     9.1481     9.8877     0.0325     2.4922     0.0935   106.6219
  293.0000   -54.0483     9.0909     6.9738     9.0307    10.1117     0.0348     2.4787     0.1001   107.2399
  293.5000   -53.7322     8.9734     6.9796     8.9148    10.4844     0.0378     2.4765     0.1031   108.1510
  294.0000   -53.2670     8.7967     7.0337     8.7101    11.0209     0.0311     2.4743     0.1048   108.2951
  294.5000   -52.9509     8.6237     7.0396     8.5093    11.1853     0.0229     2.4601     0.1139   108.1560
  295.0000   -52.4858     8.5107     7.0454     8.3425    11.2158     0.0206     2.4548     0.1166   106.6786
  295.5000   -52.3188     8.3447     7.0513     8.1791    11.2016     0.0327     2.4662     0.1117   104.0063
  296.0000   -52.0027     8.2922     7.0074     8.0741    11.1429     0.0470     2.4782     0.1033   104.0167
  296.5000   -51.9846     8.1851     7.0147     8.0255    10.7865     0.0523     2.4835     0.1006   104.9212
  297.0000   -51.9702     8.0809     7.0205     8.0322    10.5789     0.0576     2.4888     0.0924   105.9747
  297.5000   -51.9523     8.1430     6.9768     7.9838    10.7011     0.0591     2.4971     0.0951   106.5812
  298.0000   -51.9344     8.3193     6.8792     7.7205    10.8353     0.0396     2.4731     0.1141   105.6973
  298.5000   -52.0805     8.0995     6.6541     7.2137    10.8963     0.0382     2.4611     0.1150   101.3857
  299.0000   -52.3557     7.6714     6.3848     6.8805    10.9092     0.0562     2.4747     0.1050   101.9921
  299.5000   -52.9290     7.2659     5.8890     6.4288    10.8355     0.0683     2.4815     0.1002   103.4377
  300.0000   -53.5330     6.6950     5.1062     6.0068    10.9450     0.0721     2.4769     0.1027   105.0310
  300.5000   -54.2281     6.2530     5.0735     6.0102    10.9713     0.0519     2.4618     0.1091   106.3424
  301.0000   -54.9552     5.7213     5.0775     5.6532    10.7313     0.0331     2.4016     0.1468   103.6727
  301.5000   -55.6824     5.1632     4.7104     5.2088    10.4676     0.0264     2.3930     0.1576   101.0005
  302.0000   -56.5587     4.4711     4.2512     4.3591    10.3347     0.0212     2.3782     0.1687   100.9508
  302.5000   -57.2859     3.8188     3.7327     3.7756    10.2908     0.0235     2.3564     0.1759   102.9585
  303.0000   -57.8686     3.3068     3.1449     3.3845    10.3368     0.0258     2.3257     0.1897   103.1178
  303.5000   -58.2933     2.8635     2.7236     2.9925    10.4717     0.0243     2.2957     0.2189   103.2772
  304.0000   -58.5779     2.6747     2.5972     2.5919    10.5022     0.0319     2.2379     0.2535   103.9235
  304.5000   -58.5555     2.6217     2.5629     2.3718    10.3696     0.0646     2.2350     0.2525   106.0154
  305.0000   -58.3885     2.5693     2.5826     2.3896     9.8498     0.0342     2.2155     0.2621   105.9662
  305.5000   -57.7745     2.5890     2.8651     2.7247     9.0770     0.0253     2.2043     0.2636   104.6622
  306.0000   -56.8624     2.6447     3.6222     3.4441     8.8251     0.0351     2.2674     0.2392   106.1628
  306.5000   -55.6522     2.8155     3.7772     4.0088     8.8410     0.0389     2.3208     0.2049   110.7931
  307.0000   -54.7401     3.1452     3.8897     3.8758     8.9313     0.0404     2.3487     0.1838   115.7215
  307.5000   -53.8279     3.7125     4.1563     3.6960     9.0216     0.0269     2.3796     0.1693   117.9672
  308.0000   -53.2139     4.3521     4.8823     5.0736     9.0077     0.0187     2.3789     0.1658   118.7227
  308.5000   -52.5998     4.9976     5.4701     6.8696     9.0088     0.0233     2.3910     0.1608   119.6272
  309.0000   -52.2838     5.5829     5.7361     6.9690     9.1291     0.0474     2.4416     0.1346   120.5317
  309.5000   -51.9678     6.0674     5.8873     6.8310     9.3236     0.0639     2.4597     0.1156   120.8400
  310.0000   -51.9499     6.4149     5.9316     6.7884     9.4883     0.0737     2.4760     0.1108   120.9994
  310.5000   -51.9320     6.7358     5.9763     6.7926     9.3997     0.0430     2.4536     0.1143   120.7116
  311.0000   -51.9141     6.8806     5.9800     6.7968     9.6125     0.0265     2.4514     0.1210   119.8277
  311.5000   -51.8961     6.8376     5.9837     6.8010     9.7714     0.0236     2.4665     0.1140   120.8812
  312.0000   -51.8782     6.7939     5.9873     6.7586     9.9089     0.0244     2.4710     0.1068   122.8290
  312.5000   -51.8603     6.7514     5.9091     6.7628     9.8951     0.0229     2.4658     0.1137   122.9883
  313.0000   -51.9914     6.7093     5.7523     6.8137     9.8812     0.0108     2.4546     0.1209   122.5515
  313.5000   -52.1225     6.6674     5.5949     6.8179     9.8823     0.0080     2.4547     0.1239   122.8722
  314.0000   -52.2536     6.6268     5.3728     6.9643     9.8984     0.0081     2.4375     0.1299   125.4238
  314.5000   -52.2357     6.3626     5.1950     7.0651     9.9143     0.0103     2.4247     0.1362   126.4575
  315.0000   -52.6648     6.0255     4.9899     7.0695     9.9153     0.0126     2.4150     0.1404   126.7660
  315.5000   -53.5411     5.5131     4.8245     6.7880     9.9164     0.0157     2.4113     0.1461   126.6294
  316.0000   -54.7154     5.1496     4.6968     5.3399     9.9174     0.0172     2.3904     0.1578   125.4475
  316.5000   -55.5917     4.8432     4.6042     4.5934     9.7101     0.0173     2.3739     0.1680   125.1572
  317.0000   -56.1699     4.7792     4.5754     5.2736     9.6513     0.0181     2.3724     0.1693   124.7229
  317.5000   -56.4500     4.8492     4.6417     5.7305     9.7270     0.0173     2.3845     0.1652   122.3487
  318.0000   -56.5856     4.9877     4.7741     5.3901     9.8024     0.0181     2.4050     0.1556   119.2294
  318.5000   -56.4141     5.2012     4.9443     5.0699     9.8184     0.0430     2.4098     0.1423   118.0474
  319.0000   -56.0981     5.4991     5.1204     5.8207     9.6855     0.0490     2.4320     0.1314   120.4422
  319.5000   -55.4841     5.8140     5.5263     6.1535     9.7162     0.0468     2.4554     0.1274   123.1351
  320.0000   -54.7210     6.1470     5.9235     6.1573     9.7917     0.0551     2.4690     0.1148   123.2919
  320.5000   -54.1070     6.4545     6.2196     6.1190     9.8076     0.0619     2.4833     0.1033   122.2615
  321.0000   -53.4929     6.6846     6.4857     6.5135     9.7005     0.0529     2.4856     0.1009   120.0364
  321.5000   -53.0279     6.9708     6.6707     7.1758     9.5271     0.0267     2.4601     0.1136   117.0660
  322.0000   -52.5629     7.2693     6.8140     7.6385     9.3942     0.0238     2.4670     0.1093   116.0331
  322.5000   -52.2469     7.5285     6.9127     7.9105     9.4250     0.0284     2.4805     0.1042   115.4473
  323.0000   -52.0799     7.7970     6.9648     8.0803     9.4558     0.0307     2.4829     0.1002   115.4576
  323.5000   -52.0656     8.0196     6.9691     8.1411     9.4271     0.0322     2.4882     0.0972   118.9080
  324.0000   -52.0477     8.1346     6.9734     8.0903     9.3981     0.0299     2.4852     0.0969   120.6945
  324.5000   -52.1796     8.0296     6.9299     8.0399     9.3994     0.0277     2.4740     0.1029   120.5385
  325.0000   -52.1610     7.9782     6.8865     7.9898     9.4153     0.0270     2.4696     0.1107   119.9454
  325.5000   -52.2928     7.8212     6.7502     7.8856     9.4163     0.0241     2.4651     0.1161   120.4297
  326.0000   -52.2742     7.6135     6.6621     7.7294     9.4322     0.0181     2.4472     0.1230   121.4833
  326.5000   -52.2563     7.4113     6.4853     7.4729     9.4332     0.0182     2.4487     0.1217   121.6426
  327.0000   -52.5356     7.2145     6.3558     7.1755     9.4193     0.0182     2.4540     0.1184   120.1626
  327.5000   -52.6850     7.0714     6.1881     7.0819     9.4055     0.0190     2.4503     0.1199   119.5742
