~VERSION INFORMATION
 VERS.                2.0:   CWLS LOG ASCII STANDARD - VERSION 2.0
 WRAP.                 NO:   ONE LINE PER DEPTH STEP
~WELL INFORMATION
#MNEM.UNIT      DATA TYPE    INFORMATION
#----------   ------------   ------------------------------
 STRT.F            2.0000:   START DEPTH
 STOP.F          518.0000:   STOP DEPTH
 STEP.F            0.5000:   STEP LENGTH
 NULL.          -999.2500:   NO VALUE
 COMP. LAWRENCE/ALLISON INC:   COMPANY
 WELL.    54-51 SX #10-10:   WELL
 FLD .             TEAPOT:   FIELD
 LOC .      S10 T38N R78W:   LOCATION
 CNTY.            NATRONA:   COUNTY
 STAT.            WYOMING:   STATE
 CTRY. UNITED STATES OF AMERICA:   COUNTRY
 SRVC.            Unknown:   SERVICE COMPANY
 DATE.        14-AUG-1984:   LOGDATE
 API .       490251098800:   API NUMBER
~CURVE INFORMATION
#MNEM.UNIT       API CODE    CURVE DESCRIPTION
#----------   ------------   ------------------------------
 DEPT.F                  :   
 CALD.IN     45 280 60 00:   CALIPER
 DEN .G/C3   45 350 01 00:   COMPENSATED BULK DENSTIY
 CORR.G/C3   45 356 01 00:   DENSITY CORRECTION
 CNC .DEC    42 890 03 00:   NEUTRON POROSITY SANDSTONE
 PORD.DEC    45 890 12 00:   POROSITY DENSITY SANDSTONE
 GRR .GAPI   07 310 01 00:   GAMMA RAY FROM RES. LOG.
 RFOC.OHMM   07 220 04 00:   RESISTIVITY FOCUSED LOG
 RILD.OHMM   07 120 46 00:   INDUCTION LOG DEEP RESISTIVITY
 RILM.OHMM   07 120 44 00:   INDUCTION LOG MEDIUM RESISTIVITY
 AC  .US/F   60 520 00 00:   ACOUSTIC SONIC
 SPR .MV     07 010 01 00:   SPONTANEOUS POTENTIAL
~PARAMETER INFORMATION
#MNEM.UNIT          VALUE    DESCRIPTION
#----------   ------------   ------------------------------
 PD  .                 GL:   PERMANENT DATUM
 EPD .F              5197:   ELEVATION PERMANENT DATUM
 LMF .                 GL:   LOG MEASURED FROM
 DMF .                 GL:   DRILLING MEASURED FROM
 EGL .F              5197:   GROUND LEVEL
 DATE.        14-AUG-1984:   RUN DATE
 RUN .                  1:   RUN NUMBER
 DD  .F               530:   DEPTH DRILLER
 DL  .F               520:   DEPTH LOGGER
 BLI .F               518:   BOTTOM LOG INTERVAL
 CS  .IN            9.625:   CASING SIZE
 CBD .F                40:   CASING BOTTOM DRILLER
 CBL .F                42:   CASING BOTTOM LOGGER
 BS  .IN            7.875:   BIT SIZE
 BSD .F               530:   BIT SIZE AT DEPTH
 DFT .          KCL WATER:   DRILLING FLUID TYPE
 MSS .           FLOWLINE:   MUD SAMPLE SOURCE
 RMS .OHMM            .19:   RESISTIVITY MUD SAMPLE
 MST .F                80:   MUD SAMPLE TEMPERATURE
 RMB .OHMM            .17:   RESISTIVITY MUD AT BHT
 BHT .F                90:   BOTTOM HOLE TEMPERATURE
 TCS .HRS               4:   TIME CURCULATED STOPPED
 MRT .F                90:   MAXIMUM RECORDED TEMPERATURE
 LUN .               6274:   LOGGING UNIT NUMBER
 LUL .               GLTE:   LOGGING UNIT LOCATION
 ENGI.             RAUTIO:   RECORDING ENGINEER
 WITN.              FIVAS:   WITNESSED BY
 CLNT.            A2DTECH:   CLIENT CODE
 ORIG.       2", 5" PRINT:   ORIGIN OF DATA
 UWI .       490251098800:   UNIQUE WELL ID
 DICO. A2D Technologies, Inc.:   DIGITIZING COMPANY
~OTHER INFORMATION
~A    DEPT    CALD        DEN       CORR        CNC       PORD         GRR      RFOC       RILD       RILM         AC        SPR   
# ...
  429.0000     8.2391     2.4972     0.0398     0.2455     0.1092    85.8855    13.2918    12.9540    12.3203    89.3214    68.1023
  429.5000     8.2398     2.4951     0.0295     0.2481     0.1098    86.4075    13.0822    12.7536    12.1159    89.8149    68.0446
  430.0000     8.2405     2.4889     0.0188     0.2526     0.1124    87.1624    12.8760    12.5564    11.9154    90.3085    67.9871
  430.5000     8.2412     2.4843     0.0080     0.2564     0.1154    88.8346    12.6728    12.3621    11.8174    90.8020    67.9280
  431.0000     8.2419     2.4903     0.0050     0.2532     0.1132    90.4713    12.4066    12.1808    11.7510    90.7940    67.8274
  431.5000     8.2426     2.4985     0.0079     0.2501     0.1059    90.4750    12.5755    12.0033    11.6285    90.3005    67.5772
  432.0000     8.2433     2.5068     0.0128     0.2549     0.1013    87.6089    12.9895    11.8377    11.4570    89.8444    67.3309
  432.5000     8.2440     2.5146     0.0302     0.2656     0.0999    83.4357    12.8708    11.6742    11.2879    89.7214    67.0850
  433.0000     8.2447     2.5058     0.0381     0.2675     0.1028    84.2340    12.5779    11.5128    11.1214    90.3940    66.8389
  433.5000     8.2454     2.4951     0.0297     0.2660     0.1096    86.4167    12.3027    11.3537    10.9574    91.0774    66.5923
  434.0000     8.2461     2.4875     0.0213     0.2629     0.1143    88.6118    12.0334    11.1968    10.7961    91.7910    66.3448
  434.5000     8.2469     2.4882     0.0153     0.2610     0.1138    89.7792    11.7701    11.0419    10.6383    92.3570    66.3046
  435.0000     8.2476     2.4882     0.0095     0.2636     0.1141    89.7862    11.5125    10.8892    10.4829    92.9851    66.3099
  435.5000     8.2483     2.4852    -0.0026     0.2639     0.1160    91.1113    11.2146    10.7389    10.3208    92.9763    66.1307
  436.0000     8.2490     2.4821    -0.0145     0.2557     0.1178    92.1354    11.3226    10.6940    10.3105    92.9105    65.9215
  436.5000     8.2497     2.4790    -0.0233     0.2517     0.1183    91.1022    11.4566    10.6727    10.3003    92.8447    65.7117
  437.0000     8.2504     2.4780    -0.0235     0.2533     0.1183    90.1176    11.5921    10.6515    10.2900    92.7789    65.5253
  437.5000     8.2511     2.4824    -0.0085     0.2550     0.1176    88.7440    11.7292    10.6304    10.2798    92.7131    65.3409
  438.0000     8.2518     2.4863     0.0165     0.2500     0.1150    86.7815    11.8679    10.6093    10.2696    92.6484    65.1563
  438.5000     8.2515     2.4865     0.0274     0.2464     0.1151    84.9425    12.0083    10.5882    10.2594    92.5887    64.9717
  439.0000     8.2509     2.4844     0.0217     0.2500     0.1165    86.5057    12.1797    10.5672    10.2496    92.8717    64.7874
  439.5000     8.2503     2.4824     0.0161     0.2589     0.1179    89.3337    12.0306    10.5459    10.2390    93.1321    64.6019
  440.0000     8.2496     2.4806     0.0111     0.2679     0.1172    90.5674    11.8393    10.5245    10.2306    93.3930    64.5264
  440.5000     8.2490     2.4864     0.0123     0.2759     0.1139    90.9514    11.6513    10.4434    10.0489    93.6543    64.5258
  441.0000     8.2484     2.4929     0.0135     0.2753     0.1089    90.4810    11.4667    10.3202     9.8668    93.9156    64.5258
  441.5000     8.2478     2.4969     0.0147     0.2720     0.1091    89.9762    11.2852    10.1979     9.6879    94.1769    64.5249
  442.0000     8.2471     2.4945     0.0105     0.2691     0.1099    91.2901    11.1065    10.0769     9.5060    94.3781    64.5244
  442.5000     8.2465     2.4920     0.0042     0.2742     0.1107    93.0879    10.9309     9.9527     9.4302    94.5368    64.3508
  443.0000     8.2458     2.4941     0.0024     0.2798     0.1096    93.2500    10.7579     9.7037     9.3521    94.7287    64.0479
  443.5000     8.2452     2.4977     0.0075     0.2788     0.1083    92.5425    10.6063     9.5835     9.2746    94.9206    63.7435
  444.0000     8.2446     2.4987     0.0125     0.2756     0.1074    90.9616    10.5594     9.4492     9.1978    95.0873    63.4380
  444.5000     8.2439     2.4973     0.0175     0.2772     0.1099    90.1122    10.5125     9.2886     9.1217    95.1517    63.1320
  445.0000     8.2433     2.4936     0.0225     0.2788     0.1125    90.3292    10.4663     9.1306     9.0462    95.2161    62.8191
  445.5000     8.2427     2.4877     0.0189     0.2797     0.1150    90.8399    10.4202     8.9684     8.9086    95.2796    62.7098
  446.0000     8.2421     2.4838     0.0144     0.2806     0.1163    92.6583    10.3747     8.7657     8.6530    95.3420    62.6378
  446.5000     8.2414     2.4850     0.0098     0.2815     0.1149    93.6001    10.3250     8.5675     8.4049    95.2306    62.5684
  447.0000     8.2408     2.4865     0.0053     0.2817     0.1148    93.8379    10.4228     8.3737     8.1638    95.1893    62.4982
  447.5000     8.2402     2.4841     0.0078     0.2765     0.1155    94.0781    10.5164     8.1844     7.9111    95.8872    62.4272
  448.0000     8.2395     2.4768     0.0250     0.2713     0.1213    94.3124     9.7310     7.9998     7.4797    97.4744    62.3548
  448.5000     8.2389     2.4567     0.0423     0.2692     0.1347    94.5468     8.5267     7.7676     7.3508    99.7227    62.3703
  449.0000     8.2383     2.4423     0.0399     0.2703     0.1391    94.5510     8.2071     8.0139     7.4146   100.6468    62.3918
  449.5000     8.2376     2.4526     0.0297     0.2713     0.1331    94.3533     8.5549     8.2935     7.8872    99.5219    62.4130
  450.0000     8.2370     2.4727     0.0376     0.2671     0.1213    93.1739     9.3603     8.6035     8.2089    97.9458    62.4340
  450.5000     8.2364     2.4950     0.0373     0.2603     0.1088    91.6138    10.4349     8.9465     8.5429    96.3697    62.4550
  451.0000     8.2357     2.4911     0.0219     0.2597     0.1143    89.9936    11.2707     9.3031     8.8905    95.2458    62.4759
  451.5000     8.2351     2.4845     0.0065     0.2577     0.1176    89.9005    11.4556     9.6740     9.2521    94.5851    62.4967
  452.0000     8.2345     2.4830     0.0088     0.2561     0.1180    89.6407    11.6435    10.0596     9.6284    93.9244    62.5182
  452.5000     8.2338     2.4961     0.0188     0.2579     0.1067    88.5786    11.8345    10.4606    10.0201    92.7861    62.5396
  453.0000     8.2332     2.5137     0.0194     0.2595     0.0955    87.5497    12.0286    10.9099    10.4276    91.2945    62.6432
  453.5000     8.2326     2.5365     0.0039     0.2577     0.0842    86.5189    12.2259    11.1121    10.7286    90.2985    62.8287
  454.0000     8.2322     2.5573    -0.0113     0.2496     0.0737    85.4236    12.5210    11.0105    10.7817    90.0000    63.0106
  454.5000     8.2338     2.5554     0.0052     0.2457     0.0810    86.4893    12.4868    11.0431    10.8351    90.2985    63.0864
  455.0000     8.2356     2.5297     0.0078     0.2492     0.0915    88.2496    12.4230    11.1043    10.8888    90.9313    62.8567
  455.5000     8.2374     2.5114     0.0063     0.2560     0.0993    89.3284    12.3596    11.1659    10.9427    91.4922    62.6371
  456.0000     8.2391     2.5105     0.0183     0.2519     0.1010    88.4357    12.2964    11.2279    11.0105    91.5978    62.4176
  456.5000     8.2409     2.5103     0.0303     0.2450     0.1028    87.6283    12.2336    11.3181    10.9706    91.7227    62.1956
  457.0000     8.2427     2.5065     0.0351     0.2412     0.1044    89.3079    12.1711    11.3065    10.9175    91.8475    61.9661
  457.5000     8.2445     2.5026     0.0307     0.2498     0.1058    91.2938    12.1089    11.2740    10.8646    91.8905    61.9544
  458.0000     8.2463     2.5059     0.0269     0.2594     0.1007    92.1527    12.0471    11.2415    10.8102    91.8067    61.9563
  458.5000     8.2480     2.5148     0.0315     0.2783     0.0943    91.8459    11.9591    11.1081    10.7788    91.4527    61.9571
  459.0000     8.2498     2.5235     0.0441     0.2815     0.0925    90.6444    11.9923    11.1156    10.7373    91.0988    61.9556
