~VERSION INFORMATION
 VERS.                2.0:   CWLS LOG ASCII STANDARD - VERSION 2.0
 WRAP.                 NO:   ONE LINE PER DEPTH STEP
~WELL INFORMATION
#MNEM.UNIT      DATA TYPE    INFORMATION
#----------   ------------   ------------------------------
 STRT.F           30.0000:   START DEPTH
 STOP.F          759.0000:   STOP DEPTH
 STEP.F            0.5000:   STEP LENGTH
 NULL.          -999.2500:   NO VALUE
 COMP. FENIX & SCISSON INC:   COMPANY
 WELL.    NPR ##3 15-S-14:   WELL
 FLD .             TEAPOT:   FIELD
 LOC .      S14 T38N R78W:   LOCATION
 CNTY.            NATRONA:   COUNTY
 STAT.            WYOMING:   STATE
 CTRY. UNITED STATES OF AMERICA:   COUNTRY
 SRVC.              Welex:   SERVICE COMPANY
 DATE.        23-FEB-1977:   LOGDATE
 API .       490251027600:   API NUMBER
~CURVE INFORMATION
#MNEM.UNIT       API CODE    CURVE DESCRIPTION
#----------   ------------   ------------------------------
 DEPT.F                  :   
 GURD.OHMM   07 220 05 00:   SHALLOW SHORT GUARD RESISTIVITY
 ILD .OHMM   07 120 46 00:   INDUCTION LOG DEEP
 ILM .OHMM   07 120 44 00:   INDUCTION LOG MEDIUM
 SPR .MV     07 010 01 00:   SPONTANEOUS POTENTIAL
 CALD.IN     45 280 60 00:   CALIPER FROM DENSITY LOG
 CORR.G/C3   45 356 01 00:   DENSITY CORRECTION
 DPHI.DEC    45 890 12 00:   DENSITY POROSITY SANDSTONE
 GRD .GAPI   45 310 01 00:   GAMMA RAY FROM DENSITY LOG
 RHOB.G/C3   45 350 01 00:   BULK DENSITY
~PARAMETER INFORMATION
#MNEM.UNIT          VALUE    DESCRIPTION
#----------   ------------   ------------------------------
 PD  .                 GL:   PERMANENT DATUM
 EPD .F            5229.2:   ELEVATION PERMANENT DATUM
 LMF .                 GL:   LOG MEASURED FROM
 DMF .                 GL:   DRILLING MEASURED FROM
 EGL .F            5229.2:   GROUND LEVEL
 DATE.        23-FEB-1977:   RUN DATE
 RUN .                  1:   RUN NUMBER
 DD  .F               764:   DEPTH DRILLER
 DL  .F               762:   DEPTH LOGGER
 BLI .F               760:   BOTTOM LOG INTERVAL
 TLI .F                40:   TOP LOG INTERVAL
 CS  .IN            8.625:   CASING SIZE
 CBD .F                40:   CASING BOTTOM DRILLER
 CBL .F                40:   CASING BOTTOM LOGGER
 BS  .IN            7.875:   BIT SIZE
 BSD .F               764:   BIT SIZE AT DEPTH
 DFT .           CHEM/GEL:   DRILLING FLUID TYPE
 DFD .                9.4:   DRILLING FLUID DENSITY
 DFV .                 50:   DRILLING FLUID VISCOSITY
 DFPH.               11.0:   DRILLING FLUID PH
 DFL .               12.2:   DRILLING FLUID LOSS
 MSS .           FLOWLINE:   MUD SAMPLE SOURCE
 RMS .OHMM           0.23:   RESISTIVITY MUD SAMPLE
 MST .F                38:   MUD SAMPLE TEMPERATURE
 RMF .OHMM           0.15:   RESISTIVITY MUD FILTRATE SAMPLE
 MFST.F                38:   MUD FILTRATE SAMPLE TEMPERATURE
 RMC .OHMM           0.54:   RESISTIVITY MUD CAKE
 MCST.F                38:   MUD CAKE SAMPLE TEMPERATURE
 MFSS.               MEAS:   MUD FILTRATE SAMPLE SOURCE
 MCSS.               MEAS:   MUD CAKE SAMPLE SOURCE
 RMB .OHMM           .148:   RESISTIVITY MUD AT BHT
 BHT .F                59:   BOTTOM HOLE TEMPERATURE
 TCS .HRS               2:   TIME CURCULATED STOPPED
 MRT .F                59:   MAXIMUM RECORDED TEMPERATURE
 LUN .               8611:   LOGGING UNIT NUMBER
 LUL .           GILLETTE:   LOGGING UNIT LOCATION
 ENGI.             C.DOAK:   RECORDING ENGINEER
 WITN.         STUEBINGER:   WITNESSED BY
 CLNT.            A2DTECH:   CLIENT CODE
 ORIG.           5" PRINT:   ORIGIN OF DATA
 UWI .       490251027600:   UNIQUE WELL ID
 DICO. A2D Technologies, Inc.:   DIGITIZING COMPANY
~OTHER INFORMATION
~A   DEPT     GURD        ILD        ILM        SPR         CALD      CORR      DPHI         GRD        RHOB 
# ...
  249.0000     9.5134     7.5336     9.1915   -49.5552     8.2653     0.1048     0.0821   106.2005     2.5146
  249.5000     9.4489     7.6388     9.1289   -49.4044     8.2645     0.1048     0.0818   108.8925     2.5124
  250.0000     9.9876     7.7455     8.9423   -49.2537     8.2638     0.1048     0.0948   112.7804     2.5019
  250.5000    10.5566     7.7996     8.7594   -49.2679     8.2782     0.1028     0.1081   114.7251     2.4864
  251.0000    10.7792     7.7989     8.6995   -49.2970     8.2923     0.1009     0.1120   113.8297     2.4717
  251.5000    10.8554     7.7981     8.8213   -49.3261     8.3066     0.0988     0.1140   110.9911     2.4614
  252.0000    10.8568     7.7974     8.9447   -49.3552     8.3208     0.0988     0.1056   108.8999     2.4598
  252.5000    10.8471     7.7966     9.1959   -49.3843     8.3351     0.1003     0.1008   114.0184     2.4710
  253.0000    10.7850     7.7958     9.4543   -49.4134     8.3343     0.1033     0.0996   114.2840     2.4808
  253.5000    11.5585     7.8492     9.4437   -49.4425     8.3184     0.1048     0.1017   110.4141     2.4770
  254.0000    11.4321     7.8487     8.9472   -49.4716     8.3028     0.1033     0.1038   108.1587     2.4732
  254.5000    11.0704     7.8482     8.5253   -49.5008     8.2870     0.0988     0.1054   108.3097     2.4725
  255.0000    10.7019     7.7936     8.4088   -49.5299     8.2863     0.0973     0.1027   109.5250     2.4756
  255.5000    10.4824     7.7395     8.5265   -49.5522     8.2705     0.0990     0.0985   111.2351     2.4814
  256.0000    10.4824     7.6857     8.6457   -49.7015     8.2652     0.1020     0.0939   113.2647     2.4896
  256.5000    10.5621     7.5799     8.5276   -49.5522     8.2541     0.1048     0.0918   113.1182     2.4941
  257.0000    10.6282     7.4755     8.1811   -49.7015     8.2533     0.1078     0.0912   111.1779     2.4963
  257.5000    10.5551     7.3726     7.7890   -49.8507     8.2526     0.1108     0.0901   109.9851     2.4948
  258.0000    10.4102     7.2468     7.6896   -49.8507     8.2519     0.1138     0.0874   112.1006     2.4985
  258.5000    10.2673     7.1710     8.0158   -49.8507     8.2511     0.1168     0.0847   112.2331     2.5060
  259.0000    10.1264     7.1212     8.2410   -49.8507     8.2504     0.1168     0.0868   109.3967     2.5045
  259.5000    10.0567     7.0716     8.5312   -49.8507     8.2647     0.1168     0.0907   109.8481     2.4977
  260.0000    10.0567     7.0712     8.4147   -49.8507     8.2637     0.1168     0.0935   111.0468     2.4924
  260.5000    10.1264     7.0221     8.1295   -49.8507     8.2630     0.1138     0.0961   112.2456     2.4887
  261.0000    10.2673     7.0390     8.0726   -50.0000     8.2623     0.1108     0.0958   113.8928     2.4871
  261.5000    10.2673     7.0698     8.4218   -49.8507     8.2615     0.1093     0.0940   115.9843     2.4879
  262.0000    10.1264     7.0693     8.3591   -49.8507     8.2608     0.1078     0.0931   118.6822     2.4946
  262.5000    10.0567     7.1177     7.9650   -49.8072     8.2601     0.1078     0.0946   119.5820     2.4961
  263.0000     9.9875     7.1664     7.7484   -49.7015     8.2593     0.1078     0.0964   118.6880     2.4916
  263.5000     9.9875     7.1660     7.8567   -49.7015     8.2586     0.1093     0.0982   117.3449     2.4870
  264.0000    10.1264     7.2152     8.0218   -49.5522     8.2579     0.1123     0.0991   118.0960     2.4825
  264.5000    10.3385     7.2646     8.3619   -49.5522     8.2571     0.1168     0.0937   118.6969     2.4850
  265.0000    10.5551     7.3143     8.5376   -49.4030     8.2564     0.1183     0.0892   117.3545     2.4972
  265.5000    10.6282     7.3138     8.5974   -49.2537     8.2706     0.1168     0.0869   118.2543     2.5079
  266.0000    10.4102     7.3881     7.9044   -49.1045     8.2697     0.1153     0.0938   118.8544     2.5064
  266.5000    10.1966     7.4658     7.8058   -48.9552     8.2690     0.1123     0.0991   116.0180     2.4906
  267.0000    10.1264     7.5170     8.1933   -48.8060     8.2683     0.1077     0.1010   114.6757     2.4779
  267.5000    10.4102     7.6209     8.3078   -48.6567     8.2675     0.1047     0.1007   112.2870     2.4764
  268.0000    10.7761     7.7261     8.3084   -48.6567     8.2818     0.1018     0.0998   108.7923     2.4801
  268.5000    11.1549     7.7792     8.4246   -48.5075     8.2810     0.1003     0.0994   106.7622     2.4876
  269.0000    11.0781     7.8868     8.6612   -48.5075     8.2803     0.1003     0.0981   108.5596     2.4875
  269.5000    10.7761     7.9957     8.4257   -48.3582     8.2796     0.1018     0.0920   110.2068     2.4928
  270.0000    11.5632     8.0505     9.2821   -48.3582     8.2939     0.1048     0.0860   115.9699     2.5010
  270.5000    12.0358     8.1057     9.1555   -48.4496     8.2931     0.1093     0.0830   119.5496     2.5092
  271.0000    11.7889     8.1613     8.9682   -48.5075     8.2924     0.1108     0.0836   119.9949     2.5122
  271.5000    11.7077     8.1606     8.9069   -48.3582     8.2916     0.1078     0.0848   120.2909     2.5099
  272.0000    11.5470     8.2167     9.0316   -48.3582     8.2907     0.1063     0.0839   121.3332     2.5084
  272.5000    11.5470     8.2730     9.4798   -48.3582     8.3051     0.1063     0.0830   118.9427     2.5113
  273.0000    11.5470     8.3296     9.5559   -48.3582     8.3042     0.1063     0.0821   114.7612     2.5121
  273.5000    11.5470     8.3290     9.4811   -48.2090     8.3035     0.1078     0.0831   114.9080     2.5075
  274.0000    11.6271     8.3861     9.4757   -48.0597     8.3028     0.1093     0.0858   114.4511     2.5007
  274.5000    11.7077     8.4461     9.4171   -47.9105     8.2870     0.1108     0.0885   113.0920     2.4954
  275.0000    11.8982     8.5604     9.6818   -47.9105     8.3015     0.1138     0.0897   111.5672     2.4971
  275.5000    12.4589     8.6786    10.0228   -47.9105     8.3006     0.1153     0.0915   110.5696     2.4985
  276.0000    12.6322     8.7986    10.4477   -47.9105     8.2998     0.1063     0.0948   114.1488     2.4940
  276.5000    12.3731     8.9204    10.4484   -47.9105     8.2991     0.1018     0.0987   116.9821     2.4872
  277.0000    12.4589     9.1061    10.1643   -47.7612     8.2983     0.0988     0.0974   115.3379     2.4849
  277.5000    13.1669     9.2960    10.0255   -47.7612     8.2976     0.0995     0.0917   114.2906     2.5006
  278.0000    13.1828     9.3597    10.0336   -47.7612     8.2969     0.1048     0.0890   116.5270     2.5036
  278.5000    12.8080     9.5229    10.6223   -47.7612     8.2960     0.1093     0.0873   119.3603     2.5028
  279.0000    13.0890     9.6203    11.4344   -47.7612     8.2952     0.1138     0.0870   120.1048     2.4998
  279.5000    13.8194     9.7533    11.2006   -47.7612     8.2945     0.1168     0.0870   117.8629     2.4975
  280.0000    13.4427     9.8202    10.7465   -47.7612     8.2938     0.1168     0.0861   119.5022     2.5013
  280.5000    13.1669     9.8875    10.4542   -47.7612     8.2930     0.1168     0.0837   120.9923     2.5072
  281.0000    13.7243    10.0240    11.0491   -47.7612     8.2773     0.1168     0.0825   121.1397     2.5102
  281.5000    15.4348    10.0234    12.1721   -47.6119     8.2766     0.1157     0.0831   120.3904     2.5094
  282.0000    15.9774    10.0227    12.5141   -47.6119     8.2758     0.1138     0.0850   119.9401     2.5049
  282.5000    14.7061    10.0220    12.3319   -47.7612     8.2751     0.1153     0.0856   120.3854     2.5034
  283.0000    14.3052     9.9524    11.8429   -47.7612     8.2894     0.1153     0.0826   121.4277     2.5049
  283.5000    14.1053     9.8152    11.4415   -47.7612     8.2886     0.1153     0.0796   120.0820     2.5101
  284.0000    13.8194     9.6801    11.2851   -47.7612     8.2879     0.1168     0.0766   113.8109     2.5162
  284.5000    13.5359     9.5468    11.6827   -47.7612     8.2870     0.1168     0.0733   113.6526     2.5222
  285.0000    13.1669     9.4153    12.3475   -47.7612     8.2862     0.1183     0.0706   115.0000     2.5283
