~VERSION INFORMATION
 VERS.                2.0:   CWLS LOG ASCII STANDARD - VERSION 2.0
 WRAP.                 NO:   ONE LINE PER DEPTH STEP
~WELL INFORMATION
#MNEM.UNIT      DATA TYPE    INFORMATION
#----------   ------------   ------------------------------
 STRT.F            0.5000:   START DEPTH
 STOP.F         2271.5000:   STOP DEPTH
 STEP.F            0.5000:   STEP LENGTH
 NULL.          -999.2500:   NO VALUE
 COMP. BROWN JOHN E&C INC:   COMPANY
 WELL. NPR 3 STX-11 #27-11:   WELL
 FLD .             TEAPOT:   FIELD
 LOC .      S11 T38N R78W:   LOCATION
 CNTY.            NATRONA:   COUNTY
 STAT.            WYOMING:   STATE
 CTRY. UNITED STATES OF AMERICA:   COUNTRY
 SRVC.      Dresser Atlas:   SERVICE COMPANY
 DATE.        20-JAN-1993:   LOGDATE
 API .       490251108500:   API NUMBER
~CURVE INFORMATION
#MNEM.UNIT       API CODE    CURVE DESCRIPTION
#----------   ------------   ------------------------------
 DEPT.F                  :   
 ILD .OHMM   07 120 46 00:   INDUCTION LOG DEEP
 ILM .OHMM   07 120 44 00:   INDUCTION LOG MEDIUM
 GRR .GAPI   07 310 01 00:   GAMMA RAY FROM RES. LOG.
~PARAMETER INFORMATION
#MNEM.UNIT          VALUE    DESCRIPTION
#----------   ------------   ------------------------------
 PD  .                 GL:   PERMANENT DATUM
 EPD .F              5187:   ELEVATION PERMANENT DATUM
 LMF .                 KB:   LOG MEASURED FROM
 DAPD.F                12:   FEET ABOVE PERMANENT DATUM
 DMF .                 KB:   DRILLING MEASURED FROM
 EKB .F            5198.8:   KELLING BUSHING
 EDF .F            5197.8:   DRILLING FLOOR
 EGL .F              5187:   GROUND LEVEL
 DATE.            1-20-93:   RUN DATE
 RUN .                  1:   RUN NUMBER
 DD  .F              2279:   DEPTH DRILLER
 DL  .F              2279:   DEPTH LOGGER
 BLI .F              2271:   BOTTOM LOG INTERVAL
 TLI .F               692:   TOP LOG INTERVAL
 CS  .IN            8.625:   CASING SIZE
 CBD .F               689:   CASING BOTTOM DRILLER
 CBL .F               692:   CASING BOTTOM LOGGER
 BS  .IN            7.875:   BIT SIZE
 BSD .F              2279:   BIT SIZE AT DEPTH
 DFT .                OIL:   DRILLING FLUID TYPE
 BHT .F                92:   BOTTOM HOLE TEMPERATURE
 TCS .HRS               2:   TIME CURCULATED STOPPED
 MRT .F                92:   MAXIMUM RECORDED TEMPERATURE
 LUN .            HL-6274:   LOGGING UNIT NUMBER
 LUL .             CASPER:   LOGGING UNIT LOCATION
 ENGI.             RAUTIO:   RECORDING ENGINEER
 WITN.             STRONG:   WITNESSED BY
 CLNT.            A2DTECH:   CLIENT CODE
 ORIG.  2", 5", 20" PRINT:   ORIGIN OF DATA
 UWI .       490251108500:   UNIQUE WELL ID
 DICO. A2D Technologies, Inc.:   DIGITIZING COMPANY
~OTHER INFORMATION
~A    DEPT     ILD        ILM         GRR  
# ...
 1183.5000     9.5281     8.6473   139.5565
 1184.0000     9.5596     8.7026   137.9734
 1184.5000     9.5912     8.7561   135.2578
 1185.0000     9.6230     8.7871   135.3310
 1185.5000     9.6548     8.8241   135.4870
 1186.0000     9.6867     8.8373   133.8465
 1186.5000     9.6990     8.8374   132.1126
 1187.0000     9.7076     8.8373   130.7089
 1187.5000     9.7163     8.8373   131.9848
 1188.0000     9.7249     8.8373   135.2121
 1188.5000     9.7336     8.8372   136.9880
 1189.0000     9.7422     8.8366   134.6689
 1189.5000     9.7509     8.8903   131.3193
 1190.0000     9.7594     8.9327   129.1727
 1190.5000     9.7688     8.9753   129.2708
 1191.0000     9.7769     9.0181   129.4595
 1191.5000     9.8861     9.0612   129.0010
 1192.0000     9.9385     9.1044   128.1868
 1192.5000     9.9911     9.1478   129.4968
 1193.0000    10.0441     9.1915   132.9976
 1193.5000    10.0974     9.2353   136.4471
 1194.0000    10.1508     9.2794   138.2837
 1194.5000    10.2046     9.3237   136.7981
 1195.0000    10.2435     9.3681   135.0914
 1195.5000    10.1631     9.4271   134.1441
 1196.0000    10.1000     9.3424   136.2516
 1196.5000    10.0193     9.2198   139.0958
 1197.0000     9.8851     9.0988   139.7661
 1197.5000     9.7541     8.9794   135.9389
 1198.0000     9.6248     8.8616   132.1280
 1198.5000     9.4972     8.7561   128.8142
 1199.0000     9.3713     8.6931   130.2106
 1199.5000     9.2471     8.6358   131.6032
 1200.0000     9.1245     8.5789   133.3417
 1200.5000     9.0035     8.5216   135.0463
 1201.0000     8.8842     8.4435   134.7428
 1201.5000     8.7561     8.5128   134.4352
 1202.0000     8.6184     8.3154   136.0589
 1202.5000     8.4700     8.1636   139.5319
 1203.0000     8.3241     8.0148   143.4205
 1203.5000     8.1808     7.8691   147.1233
 1204.0000     8.0399     7.7259   148.9420
 1204.5000     7.9014     7.5854   150.8338
 1205.0000     7.7653     7.4474   152.7466
 1205.5000     7.6316     7.3120   153.9658
 1206.0000     7.5001     7.1790   154.6727
 1206.5000     7.3709     7.0484   154.3342
 1207.0000     7.2440     7.0064   152.0899
 1207.5000     7.1996     6.9920   149.5010
 1208.0000     7.1812     6.9782   148.4566
 1208.5000     7.1631     6.9644   150.3054
 1209.0000     7.1450     6.9506   151.3360
 1209.5000     7.1269     6.9368   150.5294
 1210.0000     7.1088     6.9230   149.7532
 1210.5000     7.0908     6.9093   148.9913
 1211.0000     7.0728     6.8956   146.8079
 1211.5000     7.0549     6.8819   144.3081
 1212.0000     7.0370     6.8683   143.1587
 1212.5000     7.0192     6.8547   146.6803
 1213.0000     7.0013     6.8410   149.5648
 1213.5000     6.9834     6.8274   148.9245
 1214.0000     6.9659     6.8250   148.7009
 1214.5000     6.9520     6.8249   149.4717
 1215.0000     7.0816     6.8628   149.5986
 1215.5000     7.1427     6.9246   149.7835
 1216.0000     7.2031     6.9870   150.7292
 1216.5000     7.2640     7.0499   151.5490
 1217.0000     7.3254     7.1135   150.5791
 1217.5000     7.3874     7.1775   149.7960
 1218.0000     7.4499     7.2135   149.3387
 1218.5000     7.4847     7.1765   148.9249
 1219.0000     7.3663     7.1510   146.3109
 1219.5000     7.3267     7.1255   143.6507
 1220.0000     7.2874     7.1002   144.1406
 1220.5000     7.2482     7.0749   144.7429
 1221.0000     7.2093     7.0497   143.2298
 1221.5000     7.1706     7.0247   142.2615
 1222.0000     7.1320     6.9996   143.6792
 1222.5000     7.0816     6.9745   145.0170
 1223.0000     7.1064     6.9523   145.2083
 1223.5000     7.1472     6.9937   143.8607
 1224.0000     7.1146     7.0330   141.9860
 1224.5000     7.0816     7.0722   140.0883
 1225.0000     7.2385     7.1117   138.4926
 1225.5000     7.3868     7.1591   137.5549
 1226.0000     7.5376     7.2748   139.4253
 1226.5000     7.6895     7.3924   144.1660
 1227.0000     7.7983     7.5120   149.3691
 1227.5000     7.8572     7.6341   152.1364
 1228.0000     7.9238     7.7676   154.0543
 1228.5000     8.0294     7.7655   153.6070
 1229.0000     8.1364     7.7662   152.8491
 1229.5000     8.2084     7.7662   152.8006
 1230.0000     8.0992     7.7534   152.3936
 1230.5000     8.0177     7.6627   151.0656
 1231.0000     7.9373     7.5729   151.6408
 1231.5000     7.8577     7.4843   152.7923
 1232.0000     7.7790     7.3966   151.1581
 1232.5000     7.7010     7.3100   147.5498
 1233.0000     7.6239     7.2244   145.4245
 1233.5000     7.5476     7.1398   147.2460
 1234.0000     7.4638     7.0562   148.1020
 1234.5000     7.3428     6.9736   147.2314
 1235.0000     7.2237     6.8920   146.4253
 1235.5000     7.1065     6.8113   146.7760
 1236.0000     6.9913     6.7179   147.2007
 1236.5000     6.8779     6.6049   147.5378
 1237.0000     6.7663     6.4936   145.6236
 1237.5000     6.6566     6.3841   141.3539
 1238.0000     6.5485     6.2766   137.0605
 1238.5000     6.4420     6.1709   137.2475
 1239.0000     6.3392     6.1094   145.0018
 1239.5000     6.3797     6.2096   151.3738
 1240.0000     6.4299     6.2823   152.1180
 1240.5000     6.4805     6.3475   147.5672
 1241.0000     6.5315     6.3842   142.5782
 1241.5000     6.5829     6.4213   141.8137
 1242.0000     6.6347     6.4586   144.7630
 1242.5000     6.6870     6.4961   144.1900
 1243.0000     6.7396     6.5372   144.0061
 1243.5000     6.7927     6.5828   146.0823
 1244.0000     6.8461     6.6287   148.4394
 1244.5000     6.9000     6.6749   144.7272
 1245.0000     6.9543     6.7214   139.8387
 1245.5000     7.0090     6.7683   137.8848
 1246.0000     7.0622     6.8155   141.3042
 1246.5000     7.1155     6.8630   142.0917
 1247.0000     7.1691     6.9109   139.5763
 1247.5000     7.2232     6.9591   136.1206
 1248.0000     7.2777     7.0076   134.5110
 1248.5000     7.3326     7.0565   138.0950
 1249.0000     7.3871     7.1338   141.5678
 1249.5000     7.4642     7.2417   142.1809
 1250.0000     7.5603     7.3512   142.5341
 1250.5000     7.6588     7.4623   145.6840
 1251.0000     7.7585     7.5751   146.2431
 1251.5000     7.8594     7.6897   142.8014
 1252.0000     7.9616     7.8059   137.5520
 1252.5000     8.0651     7.9240   132.3417
 1253.0000     8.1700     8.0438   128.0254
 1253.5000     8.2763     8.1654   126.1867
 1254.0000     8.3969     8.2888   127.0547
 1254.5000     8.5695     8.3942   127.4222
 1255.0000     8.7456     8.4731   127.1637
 1255.5000     8.9253     8.5528   127.6357
 1256.0000     9.1091     8.6332   131.1286
 1256.5000     9.1865     8.6902   134.6500
 1257.0000     9.2107     8.7207   134.5343
 1257.5000     9.2351     8.7514   131.8881
 1258.0000     9.2596     8.7822   131.8089
 1258.5000     9.2843     8.8130   134.0000
 1259.0000     9.3090     8.8440   135.2375
 1259.5000     9.3338     8.8751   132.2002
 1260.0000     9.3586     8.9063   129.0015
 1260.5000     9.3835     8.9376   126.2950
 1261.0000     9.4085     8.9690   128.8782
 1261.5000     9.4335     9.0006   132.8616
 1262.0000     9.4587     9.0322   136.8171
 1262.5000     9.4838     9.0639   140.8556
 1263.0000     9.5091     9.0958   140.6602
 1263.5000     9.5344     9.1278   135.2301
 1264.0000     9.5598     9.1599   129.7020
 1264.5000     9.5852     9.2620   124.1576
 1265.0000     9.6949     9.3963   120.6069
 1265.5000     9.9929     9.5506   120.8374
 1266.0000    10.3000     9.8244   122.6277
 1266.5000    10.6287    10.1074   124.8413
 1267.0000    10.9154    10.3982   125.5270
 1267.5000    11.2214    10.6973   124.3257
 1268.0000    11.5360    11.0050   118.6897
 1268.5000    11.8594    11.3215   112.5458
 1269.0000    12.0803    11.5356   106.4501
 1269.5000    12.2373    11.6854   106.7047
 1270.0000    12.3962    11.8372   111.6708
 1270.5000    12.5573    11.9910   117.0167
 1271.0000    12.7204    12.1468   120.0732
 1271.5000    12.9018    12.3200   117.5590
 1272.0000    12.9747    12.3905   114.7053
 1272.5000    13.0559    12.4672   116.1787
 1273.0000    13.1376    12.5451   120.4961
 1273.5000    13.2198    12.6237   124.5146
 1274.0000    13.3025    12.7030   125.9675
