~VERSION INFORMATION
 VERS.                2.0:   CWLS LOG ASCII STANDARD - VERSION 2.0
 WRAP.                 NO:   ONE LINE PER DEPTH STEP
~WELL INFORMATION
#MNEM.UNIT      DATA TYPE    INFORMATION
#----------   ------------   ------------------------------
 STRT.F           24.0000:   START DEPTH
 STOP.F          464.0000:   STOP DEPTH
 STEP.F            0.5000:   STEP LENGTH
 NULL.          -999.2500:   NO VALUE
 COMP.    FENIX & SCISSON:   COMPANY
 WELL.       NPR #62-S-10:   WELL
 FLD .             TEAPOT:   FIELD
 LOC .      S10 T38N R78W:   LOCATION
 CNTY.            NATRONA:   COUNTY
 STAT.            WYOMING:   STATE
 CTRY. UNITED STATES OF AMERICA:   COUNTRY
 SRVC.              Welex:   SERVICE COMPANY
 DATE.        12-APR-1977:   LOGDATE
 API .       490251033300:   API NUMBER
~CURVE INFORMATION
#MNEM.UNIT       API CODE    CURVE DESCRIPTION
#----------   ------------   ------------------------------
 DEPT.F                  :   
 SPR .MV     07 010 01 00:   SPONTANEOUS POTENTIAL
 ILD .OHMM   07 120 46 00:   INDUCTION LOG DEEP
 ILM .OHMM   07 120 44 00:   INDUCTION LOG MEDIUM
 SGRD.OHMM   07 221 05 00:   SHALLOW SHORT GUARD RESISTIVITY
 GRD .GAPI   45 310 01 00:   GAMMA RAY FROM DENSITY LOG
 CALD.IN     45 280 60 00:   CALIPER FROM DENSITY LOG
 CORR.G/C3   45 356 01 00:   DENSITY CORRECTION
 RHOB.G/C3   45 350 01 00:   BULK DENSITY
 DPHI.DEC    45 890 12 00:   DENSITY POROSITY SANDSTONE
~PARAMETER INFORMATION
#MNEM.UNIT          VALUE    DESCRIPTION
#----------   ------------   ------------------------------
 PD  .                 GL:   PERMANENT DATUM
 EPD .F              5155:   ELEVATION PERMANENT DATUM
 LMF .                 GL:   LOG MEASURED FROM
 DMF .                 GL:   DRILLING MEASURED FROM
 EGL .F              5155:   GROUND LEVEL
 DATE.        12-APR-1977:   RUN DATE
 RUN .                  1:   RUN NUMBER
 DD  .F               460:   DEPTH DRILLER
 DL  .F               464:   DEPTH LOGGER
 BLI .F               462:   BOTTOM LOG INTERVAL
 TLI .F                30:   TOP LOG INTERVAL
 CS  .IN            8.625:   CASING SIZE
 BS  .IN            7.875:   BIT SIZE
 BSD .F               460:   BIT SIZE AT DEPTH
 DFT .            KCL GEL:   DRILLING FLUID TYPE
 DFD .                8.8:   DRILLING FLUID DENSITY
 TCS .HRS            0100:   TIME CURCULATED STOPPED
 MRT .F                65:   MAXIMUM RECORDED TEMPERATURE
 ENGI.        E. CALLAHAN:   RECORDING ENGINEER
 WITN.            R. LYON:   WITNESSED BY
 CLNT.            A2DTECH:   CLIENT CODE
 ORIG.           5" PRINT:   ORIGIN OF DATA
 UWI .       490251033300:   UNIQUE WELL ID
 DICO. A2D Technologies, Inc.:   DIGITIZING COMPANY
~OTHER INFORMATION
~A   DEPT      SPR        ILD        ILM       SGRD        GRD       CALD       CORR       RHOB       DPHI   
# ...
  389.0000   -25.7522    10.8272    12.1788    15.9958   106.5258     8.1110     0.0469     2.5143     0.0855
  389.5000   -25.4304    10.9084    12.3571    16.4512   105.9362     8.1126     0.0470     2.5144     0.0855
  390.0000   -24.6867    10.9902    12.5381    16.0074   107.9019     8.1140     0.0471     2.5130     0.0852
  390.5000   -25.4294    11.1495    12.6339    16.6942   106.1162     8.1153     0.0456     2.5100     0.0867
  391.0000   -26.0129    11.3110    12.9079    17.1695   104.0307     8.1166     0.0442     2.5063     0.0894
  391.5000   -26.2970    11.4749    13.0207    17.9042   103.1445     8.1180     0.0428     2.5034     0.0906
  392.0000   -25.6895    11.6412    13.2868    17.0635   103.0075     8.1193     0.0414     2.5019     0.0948
  392.5000   -25.0820    11.7284    13.3883    17.0724   103.0214     8.1356     0.0400     2.5020     0.0921
  393.0000   -24.9222    11.7350    13.3976    17.3173   103.4846     8.1370     0.0431     2.5051     0.0902
  393.5000   -25.0612    11.7415    13.4068    17.8103   104.0976     8.1533     0.0507     2.5157     0.0848
  394.0000   -25.3493    11.7480    13.5093    18.4445   104.8607     8.1546     0.0583     2.5323     0.0752
  394.5000   -25.4881    11.8361    13.5186    18.5782   105.9240     8.1709     0.0644     2.5347     0.0736
  395.0000   -25.1788    11.9235    13.8118    17.7096   106.6966     8.1570     0.0660     2.5302     0.0758
  395.5000   -24.8697    12.0129    14.1114    17.1149   107.9280     8.1586     0.0646     2.5235     0.0812
  396.0000   -24.4115    12.1164    14.8221    17.1220   109.4542     8.1600     0.0617     2.5183     0.0784
  396.5000   -24.1025    12.2783    14.5277    17.6094   111.2618     8.1613     0.0603     2.5146     0.0827
  397.0000   -24.2412    12.2851    14.0434    18.3630   112.4838     8.1626     0.0543     2.5101     0.0887
  397.5000   -24.6785    12.2919    13.9559    18.7557   113.2284     8.1640     0.0469     2.5064     0.0868
  398.0000   -24.6680    12.2987    14.0630    18.7635   113.5169     8.1653     0.0380     2.5005     0.0876
  398.5000   -24.3590    12.3055    14.2689    18.3859   113.0805     8.1666     0.0260     2.4945     0.0949
  399.0000   -24.0500    12.3123    14.5784    17.7684   112.1943     8.1680     0.0081     2.4856     0.1042
  399.5000   -23.8902    12.3191    14.7919    17.0534   110.2587     8.1693    -0.0054     2.4728     0.1132
  400.0000   -23.8797    12.3259    14.5988    16.8244   109.0694     8.1707    -0.0068     2.4654     0.1171
  400.5000   -23.9543    12.2315    14.2101    16.4880   112.6635     8.1719     0.0057     2.4703     0.1098
  401.0000   -24.1474    12.0904    14.2200    16.8454   113.8584     8.1731     0.0329     2.4921     0.0991
  401.5000   -24.2599    12.0988    14.0344    17.3698   114.1539     8.1893     0.0445     2.5027     0.0907
  402.0000   -24.2297    12.1073    13.9449    17.3192   115.1989     8.1904     0.0446     2.5065     0.0854
  402.5000   -23.9070    12.1157    13.6703    17.1063   116.2439     8.1916     0.0446     2.5124     0.0857
  403.0000   -23.4351    12.0385    13.4918    17.2387   117.1390     8.1778     0.0476     2.5200     0.0827
  403.5000   -23.2677    11.8814    13.5012    17.7280   118.0342     8.1790     0.0492     2.5284     0.0779
  404.0000   -23.9838    11.7264    13.6989    17.7379   118.6294     8.1805     0.0492     2.5292     0.0739
  404.5000   -24.4074    11.5755    14.0932    17.2637   118.8031     8.1664     0.0448     2.5278     0.0739
  405.0000   -24.3881    11.3457    13.8133    16.5714   118.7705     8.1526     0.0433     2.5256     0.0760
  405.5000   -24.1920    11.1205    13.3528    16.1283   118.7660     8.1388     0.0403     2.5234     0.0784
  406.0000   -23.7433    11.0497    12.9973    15.5890   118.7616     8.1403     0.0389     2.5227     0.0793
  406.5000   -23.7194    10.9812    12.6513    15.3813   118.9151     8.1262     0.0419     2.5236     0.0789
  407.0000   -23.6956    10.8398    12.4840    15.4989   119.3524     8.1277     0.0480     2.5259     0.0771
  407.5000   -23.8209    10.6965    12.3210    15.0846   119.3478     8.1288     0.0526     2.5192     0.0786
  408.0000   -24.2448    10.5569    12.1601    14.1804   119.1094     8.1300     0.0541     2.5283     0.0789
  408.5000   -23.9216    10.3365    12.0013    14.2888   117.6888     8.1312     0.0526     2.5231     0.0779
  409.0000   -23.8975     9.9856    11.9269    14.4959   116.1851     8.1174     0.0482     2.5119     0.0833
  409.5000   -24.0286     9.5903    11.8529    15.2233   115.5810     8.1186     0.0452     2.5029     0.0890
  410.0000   -24.1537     9.2150    11.6982    14.8163   116.7771     8.1198     0.0438     2.5000     0.0950
  410.5000   -24.4220     9.1620    11.6256    14.1242   113.9229     8.1060     0.0438     2.4993     0.0920
  411.0000   -24.5531     9.2969    11.5535    14.0327   113.0189     8.0922     0.0423     2.4994     0.0917
  411.5000   -24.6782     9.7638    11.5615    13.9266   114.9635     8.0784     0.0424     2.4995     0.0916
  412.0000   -24.4988     9.4386    11.4106    13.6529   115.7098     8.0646     0.0439     2.4996     0.0916
  412.5000   -24.4746     9.1242    10.7291    13.4851   113.3055     8.0661     0.0455     2.5005     0.0915
  413.0000   -24.8982     8.8815    10.9618    13.4958   111.5019     8.0672     0.0501     2.5035     0.0903
  413.5000   -25.3218     8.8262    11.2773    13.6882   109.8483     8.0684     0.0561     2.5066     0.0876
  414.0000   -25.4529     8.9556    11.2070    13.8866   109.6682     8.0696     0.0592     2.5172     0.0834
  414.5000   -25.4227     9.1497    11.0606    14.1856   110.8889     8.0708     0.0592     2.5225     0.0791
  415.0000   -25.5478     9.2836    11.2230    14.2920   114.6326     8.0720     0.0562     2.5264     0.0761
  415.5000   -25.5236     9.2260    11.0765    14.1036   119.7256     8.0731     0.0548     2.5302     0.0734
  416.0000   -25.5045     9.1672    10.5582    13.9177   122.7197     8.0743     0.0548     2.5340     0.0710
  416.5000   -25.9473     9.0492    10.7891    13.7324   120.4664     8.0755     0.0534     2.5394     0.0685
  417.0000   -26.6627     8.9311    10.7966    13.3671   123.0765     8.0767     0.0564     2.5455     0.0661
  417.5000   -27.2241     8.8146    10.5822    13.1000   123.6059     8.0629     0.0580     2.5508     0.0625
  418.0000   -27.1999     8.6996    10.4422    12.9273   122.2510     8.0491     0.0580     2.5539     0.0600
  418.5000   -26.5787     8.6442    10.1660    12.7551   122.5465     8.0503     0.0566     2.5547     0.0588
  419.0000   -26.1068     8.4741    10.0315    12.6743   123.4416     8.0365     0.0536     2.5511     0.0609
  419.5000   -25.9334     8.3621     9.9022    12.5090   124.1879     8.0379     0.0506     2.5466     0.0660
  420.0000   -26.3570     8.1975     9.7713    12.4281   123.2828     8.0541     0.0492     2.5437     0.0648
  420.5000   -26.7806     8.0348     9.5128    12.3511   121.6292     8.0400     0.0462     2.5370     0.0674
  421.0000   -27.0610     7.9300     9.2595    12.3580   119.8256     8.0415     0.0447     2.5295     0.0731
  421.5000   -27.0308     7.8795     9.2005    12.3635   118.0221     8.0427     0.0448     2.5251     0.0761
  422.0000   -27.0066     7.8306     9.3369    12.2849   117.7189     8.0438     0.0448     2.5221     0.0794
  422.5000   -26.8332     7.8375     9.4736    12.2919   119.3625     8.0450     0.0479     2.5222     0.0806
  423.0000   -26.5105     7.7875     9.4802    12.3840   119.0582     8.0462     0.0510     2.5223     0.0793
  423.5000   -26.3371     7.7943     9.3564    12.3909   117.2547     8.0474     0.0540     2.5254     0.0778
  424.0000   -26.6115     7.7446     9.2342    12.2276   115.2854     8.0485     0.0541     2.5285     0.0757
  424.5000   -26.7366     7.7503     9.1754    11.5760   116.9460     8.0647     0.0526     2.5278     0.0751
  425.0000   -26.7124     7.8095     9.1184    10.3694   118.5907     8.0659     0.0481     2.5256     0.0768
