~VERSION INFORMATION
 VERS.                2.0:   CWLS LOG ASCII STANDARD - VERSION 2.0
 WRAP.                 NO:   ONE LINE PER DEPTH STEP
~WELL INFORMATION
#MNEM.UNIT      DATA TYPE    INFORMATION
#----------   ------------   ------------------------------
 STRT.F           26.0000:   START DEPTH
 STOP.F          476.0000:   STOP DEPTH
 STEP.F            0.5000:   STEP LENGTH
 NULL.          -999.2500:   NO VALUE
 COMP. FENIX & SCISSON INC:   COMPANY
 WELL.         SX-3 #66-3:   WELL
 FLD .             TEAPOT:   FIELD
 LOC .       S3 T38N R78W:   LOCATION
 CNTY.            NATRONA:   COUNTY
 STAT.            WYOMING:   STATE
 CTRY. UNITED STATES OF AMERICA:   COUNTRY
 SRVC.              Welex:   SERVICE COMPANY
 DATE.        02-APR-1977:   LOGDATE
 API .       490251032800:   API NUMBER
~CURVE INFORMATION
#MNEM.UNIT       API CODE    CURVE DESCRIPTION
#----------   ------------   ------------------------------
 DEPT.F                  :   
 CALD.IN     45 280 60 00:   CALIPER FROM DENSITY LOG
 GRD .GAPI   45 310 01 00:   GAMMA RAY FROM DENSITY LOG
 CORR.G/C3   45 356 01 00:   DENSITY CORRECTION
 DPHI.DEC    45 890 12 00:   DENSITY POROSITY SANDSTONE
 RHOB.G/C3   45 350 01 00:   BULK DENSITY
~PARAMETER INFORMATION
#MNEM.UNIT          VALUE    DESCRIPTION
#----------   ------------   ------------------------------
 PD  .                 GL:   PERMANENT DATUM
 LMF .                 GL:   LOG MEASURED FROM
 DMF .                 GL:   DRILLING MEASURED FROM
 EGL .F              5152:   GROUND LEVEL
 DATE.        02-APR-1977:   RUN DATE
 RUN .                  1:   RUN NUMBER
 DD  .F               485:   DEPTH DRILLER
 DL  .F               480:   DEPTH LOGGER
 BLI .F               478:   BOTTOM LOG INTERVAL
 TLI .F                34:   TOP LOG INTERVAL
 CS  .IN            8.625:   CASING SIZE
 BS  .IN            7.875:   BIT SIZE
 BSD .F               485:   BIT SIZE AT DEPTH
 DFT .                KCL:   DRILLING FLUID TYPE
 DFD .                8.9:   DRILLING FLUID DENSITY
 BHT .F                61:   BOTTOM HOLE TEMPERATURE
 TCS .HRS            0300:   TIME CURCULATED STOPPED
 MRT .F                61:   MAXIMUM RECORDED TEMPERATURE
 ENGI.            C. DOAK:   RECORDING ENGINEER
 WITN.   R. B. HARRINGTON:   WITNESSED BY
 CLNT.            A2DTECH:   CLIENT CODE
 ORIG.           5" PRINT:   ORIGIN OF DATA
 UWI .       490251032800:   UNIQUE WELL ID
 DICO. A2D Technologies, Inc.:   DIGITIZING COMPANY
~OTHER INFORMATION
~A   DEPT       CALD      GRD       CORR       DPHI       RHOB   
# ...
  209.0000     7.9058   115.3785     0.0134     0.1214     2.4566
  209.5000     7.8919   118.5152     0.0165     0.1151     2.4663
  210.0000     7.8933   121.3546     0.0196     0.1109     2.4731
  210.5000     7.8794   122.4110     0.0228     0.1130     2.4560
  211.0000     7.8809   124.3548     0.0242     0.1259     2.4313
  211.5000     7.8820   119.9175     0.0195     0.1307     2.4164
  212.0000     7.8832   117.5564     0.0138     0.1321     2.4299
  212.5000     7.8693   117.4200     0.0154     0.1257     2.4389
  213.0000     7.8856   119.6691     0.0170     0.1239     2.4404
  213.5000     7.9016   122.3600     0.0186     0.1263     2.4278
  214.0000     7.9176   123.2637     0.0171     0.1317     2.4226
  214.5000     7.9187   121.9427     0.0142     0.1353     2.4159
  215.0000     7.9349   124.6376     0.0098     0.1379     2.4070
  215.5000     7.9361   126.7341     0.0083     0.1391     2.4040
  216.0000     7.9371   127.3406     0.0069     0.1370     2.4108
  216.5000     7.9383   122.7547     0.0100     0.1346     2.4123
  217.0000     7.9396   120.6908     0.0131     0.1367     2.4019
  217.5000     7.9407   120.1086     0.0146     0.1423     2.3937
  218.0000     7.9419   121.7634     0.0147     0.1462     2.3911
  218.5000     7.9282   122.9684     0.0148     0.1369     2.4087
  219.0000     7.9294   123.5790     0.0149     0.1327     2.4185
  219.5000     7.9306   124.3382     0.0149     0.1293     2.4290
  220.0000     7.9318   124.9488     0.0150     0.1257     2.4372
  220.5000     7.9330   123.7756     0.0166     0.1221     2.4432
  221.0000     7.9193   125.2785     0.0167     0.1185     2.4500
  221.5000     7.9205   126.6321     0.0197     0.1153     2.4569
  222.0000     7.9217   124.8653     0.0213     0.1082     2.4680
  222.5000     7.9228   122.9499     0.0244     0.1049     2.4695
  223.0000     7.9092   121.7774     0.0260     0.1027     2.4718
  223.5000     7.9104   120.9022     0.0276     0.1036     2.4771
  224.0000     7.9115   122.9987     0.0261     0.1093     2.4667
  224.5000     7.9127   124.7980     0.0245     0.1129     2.4562
  225.0000     7.9139   124.8143     0.0233     0.1172     2.4488
  225.5000     7.9152   124.6819     0.0218     0.1220     2.4376
  226.0000     7.9166   127.0995     0.0219     0.1245     2.4451
  226.5000     7.9026   128.2808     0.0220     0.1197     2.4519
  227.0000     7.9041   126.4725     0.0236     0.1185     2.4534
  227.5000     7.8607   123.3952     0.0237     0.1274     2.4348
  228.0000     7.8323   122.1843     0.0222     0.1298     2.4259
  228.5000     7.8183   120.5780     0.0208     0.1241     2.4356
  229.0000     7.8046   119.8692     0.0179     0.1205     2.4446
  229.5000     7.7910   119.7600     0.0134     0.1172     2.4551
  230.0000     7.8221   121.1177     0.0105     0.1273     2.4335
  230.5000     7.8530   122.7684     0.0091     0.1237     2.4417
  231.0000     7.8838   121.7445     0.0122     0.1198     2.4537
  231.5000     7.9147   121.0179     0.0137     0.1168     2.4583
  232.0000     7.9455   121.1827     0.0153     0.1153     2.4613
  232.5000     7.9616   121.7933     0.0169     0.1147     2.4651
  233.0000     7.9776   122.7011     0.0185     0.1150     2.4673
  233.5000     7.9788   125.3920     0.0200     0.1171     2.4547
  234.0000     7.9799   129.5687     0.0126     0.1222     2.4435
  234.5000     7.9960   133.4483     0.0067     0.1246     2.4331
  235.0000     7.9820   136.1391     0.0008     0.1281     2.4271
  235.5000     7.9684   138.5328     0.0053     0.1299     2.4272
  236.0000     7.9547   139.7337     0.0114     0.1292     2.4302
  236.5000     7.9411   133.8105     0.0160     0.1268     2.4378
  237.0000     7.9426   129.2205     0.0206     0.1219     2.4499
  237.5000     7.9436   125.5221     0.0238     0.1137     2.4580
  238.0000     7.9450   122.2694     0.0267     0.1195     2.4417
  238.5000     7.9310   126.2976     0.0206     0.1273     2.4253
  239.0000     7.9323   123.4906     0.0134     0.1378     2.4079
  239.5000     7.9336   121.8684     0.0074     0.1483     2.3899
  240.0000     7.9200   122.1818     0.0000     0.1665     2.3655
  240.5000     7.9211   119.5275    -0.0014     0.1751     2.3498
  241.0000     7.9223   117.9093    -0.0013     0.1748     2.3536
  241.5000     7.9235   117.0300    -0.0013     0.1530     2.3768
  242.0000     7.9246   120.9136     0.0033     0.1359     2.4112
  242.5000     7.9258   123.4559     0.0079     0.1326     2.4232
  243.0000     7.9418   124.9580     0.0125     0.1263     2.4382
  243.5000     7.9430   125.8658     0.0140     0.1209     2.4524
  244.0000     7.9442   124.6934     0.0171     0.1210     2.4465
  244.5000     7.9454   123.5210     0.0202     0.1230     2.4405
  245.0000     7.9466   123.8344     0.0233     0.1217     2.4466
  245.5000     7.9329   125.7823     0.0279     0.1168     2.4593
  246.0000     7.9341   126.9873     0.0324     0.1172     2.4549
  246.5000     7.8908   126.8544     0.0325     0.1201     2.4422
  247.0000     7.8446   127.0198     0.0311     0.1256     2.4340
  247.5000     7.7599   128.3734     0.0222     0.1373     2.4071
  248.0000     7.7017   130.0357     0.0132     0.1453     2.3922
  248.5000     7.7029   127.5144     0.0073     0.1519     2.3855
  249.0000     7.7337   125.1532     0.0029     0.1599     2.3803
  249.5000     7.8239   123.9808    -0.0001     0.1411     2.3923
  250.0000     7.8882   124.8886     0.0006     0.1288     2.4188
  250.5000     7.9446   126.9826     0.0046     0.1249     2.4335
  251.0000     7.9604   128.3316     0.0062     0.1213     2.4410
  251.5000     7.9612   125.3717     0.0093     0.1171     2.4493
  252.0000     7.9621   122.7088     0.0139     0.1111     2.4635
  252.5000     7.9630   121.5319     0.0170     0.1051     2.4711
  253.0000     7.9788   121.9895     0.0187     0.1102     2.4576
  253.5000     7.9796   121.5526     0.0203     0.1096     2.4621
  254.0000     7.9805   120.0814     0.0188     0.1018     2.4719
  254.5000     7.9814   118.0130     0.0190     0.0988     2.4787
  255.0000     7.9823   118.4705     0.0160     0.0997     2.4802
  255.5000     7.9831   119.2253     0.0131     0.1080     2.4740
  256.0000     7.9840   119.5313     0.0088     0.1176     2.4620
  256.5000     7.9850   119.1002     0.0058     0.1244     2.4400
  257.0000     7.9858   119.2606     0.0045     0.1268     2.4318
  257.5000     7.9867   119.5696     0.0016     0.1268     2.4341
  258.0000     7.9875   120.3243     0.0017     0.1256     2.4401
  258.5000     7.9884   121.2276     0.0015     0.1234     2.4453
  259.0000     7.9745   119.1592     0.0019     0.1219     2.4484
  259.5000     7.9754   118.1308     0.0050     0.1201     2.4514
  260.0000     7.9762   119.6285     0.0066     0.1189     2.4529
  260.5000     7.9771   120.3883     0.0097     0.1183     2.4552
  261.0000     7.9782   120.8410     0.0128     0.1170     2.4590
  261.5000     7.9791   117.7772     0.0159     0.1124     2.4672
  262.0000     7.9800   115.0105     0.0175     0.1046     2.4732
  262.5000     7.9809   113.7197     0.0206     0.1011     2.4763
  263.0000     7.9817   114.0559     0.0253     0.1006     2.4778
  263.5000     7.9826   113.9191     0.0299     0.1035     2.4778
  264.0000     7.9687   112.8907     0.0300     0.1098     2.4741
  264.5000     7.9695   112.1596     0.0241     0.1152     2.4667
  265.0000     7.9704   113.8058     0.0167     0.1217     2.4533
  265.5000     7.9713   116.4922     0.0093     0.1319     2.4257
  266.0000     7.9571   120.2187     0.0034     0.1420     2.4078
  266.5000     7.9434   119.4876     0.0005     0.1479     2.3929
  267.0000     7.9292   118.0629     0.0036     0.1524     2.3899
  267.5000     7.9303   114.9039     0.0142     0.1330     2.4011
  268.0000     7.9164   109.1208     0.0218     0.1129     2.4715
  268.5000     7.9173   107.7952     0.0249     0.0834     2.5073
  269.0000     7.9033   108.1042     0.0250     0.0774     2.5134
  269.5000     7.9042   108.4180     0.0191     0.0893     2.5037
