~VERSION INFORMATION
 VERS.                2.0:   CWLS LOG ASCII STANDARD - VERSION 2.0
 WRAP.                 NO:   ONE LINE PER DEPTH STEP
~WELL INFORMATION
#MNEM.UNIT      DATA TYPE    INFORMATION
#----------   ------------   ------------------------------
 STRT.F           88.0000:   START DEPTH
 STOP.F          991.0000:   STOP DEPTH
 STEP.F            0.5000:   STEP LENGTH
 NULL.          -999.2500:   NO VALUE
 COMP. US NAVY /INTEX OIL CO.:   COMPANY
 WELL.    NPR #3 #S-11 63:   WELL
 FLD .             TEAPOT:   FIELD
 LOC .      S11 T38N R78W:   LOCATION
 CNTY.            NATRONA:   COUNTY
 STAT.            WYOMING:   STATE
 CTRY. UNITED STATES OF AMERICA:   COUNTRY
 SRVC.       Schlumberger:   SERVICE COMPANY
 DATE.        24-JUL-1964:   LOGDATE
 API .       490250636200:   API NUMBER
~CURVE INFORMATION
#MNEM.UNIT       API CODE    CURVE DESCRIPTION
#----------   ------------   ------------------------------
 DEPT.F                  :   
 SPR .MV     05 010 01 00:   SPONTANEOUS POTENTIAL FROM RES.
 ASN .OHMM   05 041 16 00:   AMPLIFIED SHORT NORMAL 16"
 ILD .OHMM   05 120 46 00:   INDUCTION LOG DEEP
 CILD.MMHO   05 110 46 00:   CONDUCTIVITY INDUCTION LOG DEEP
 CALS.IN     60 280 50 00:   CALIPER FROM SONIC LOG
 DT  .US/F   60 520 33 00:   INTERVAL TRANSIT TIME
 GR  .GAPI   30 310 01 00:   GAMMA RAY
~PARAMETER INFORMATION
#MNEM.UNIT          VALUE    DESCRIPTION
#----------   ------------   ------------------------------
 PD  .                 GL:   PERMANENT DATUM
 LMF .                 KB:   LOG MEASURED FROM
 DAPD.F                 5:   FEET ABOVE PERMANENT DATUM
 DMF .                 KB:   DRILLING MEASURED FROM
 EKB .F              5914:   KELLING BUSHING
 DATE.          7-24-1964:   RUN DATE
 RUN .                  1:   RUN NUMBER
 DD  .F               990:   DEPTH DRILLER
 DL  .F               992:   DEPTH LOGGER
 BLI .F               991:   BOTTOM LOG INTERVAL
 TLI .F               990:   TOP LOG INTERVAL
 CS  .IN            8.625:   CASING SIZE
 CBD .F                15:   CASING BOTTOM DRILLER
 BS  .IN             6.75:   BIT SIZE
 BSD .F               990:   BIT SIZE AT DEPTH
 DFT .            GEL OIL:   DRILLING FLUID TYPE
 DFD .                9.2:   DRILLING FLUID DENSITY
 DFV .                 47:   DRILLING FLUID VISCOSITY
 MSS .            MUD PIT:   MUD SAMPLE SOURCE
 RMS .OHMM           1.24:   RESISTIVITY MUD SAMPLE
 MST .F                75:   MUD SAMPLE TEMPERATURE
 RMF .OHMM           .801:   RESISTIVITY MUD FILTRATE SAMPLE
 MFST.F                80:   MUD FILTRATE SAMPLE TEMPERATURE
 MFSS.                 FP:   MUD FILTRATE SAMPLE SOURCE
 RMB .OHMM           1.09:   RESISTIVITY MUD AT BHT
 BHT .F                85:   BOTTOM HOLE TEMPERATURE
 TCS .HRS              .5:   TIME CURCULATED STOPPED
 MRT .F                85:   MAXIMUM RECORDED TEMPERATURE
 LUN .               2572:   LOGGING UNIT NUMBER
 LUL .                 MC:   LOGGING UNIT LOCATION
 ENGI.             BOWLER:   RECORDING ENGINEER
 WITN.          JORGENSEN:   WITNESSED BY
 CLNT.            A2DTECH:   CLIENT CODE
 ORIG.      2" & 5" PRINT:   ORIGIN OF DATA
 UWI .       490250636200:   UNIQUE WELL ID
 DICO. A2D Technologies, Inc.:   DIGITIZING COMPANY
~OTHER INFORMATION
~A   DEPT      SPR          ASN        ILD      CILD      CALS         DT         GR   
# ...
  224.5000   -44.2659     6.2966     5.2448   185.4479  -999.2500  -999.2500  -999.2500
  225.0000   -44.1134     6.3568     5.2456   183.9552  -999.2500  -999.2500  -999.2500
  225.5000   -44.1049     6.4528     5.2463   181.6902  -999.2500  -999.2500  -999.2500
  226.0000   -43.9525     6.5974     5.2540   179.4298  -999.2500  -999.2500  -999.2500
  226.5000   -43.9455     6.6276     5.3223   177.9156  -999.2500  -999.2500  -999.2500
  227.0000   -43.9384     6.5080     5.3230   175.6552  -999.2500  -999.2500  -999.2500
  227.5000   -44.0768     6.4482     5.3238   172.6484  -999.2500  -999.2500  -999.2500
  228.0000   -44.0697     6.8084     5.3245   171.1343  -999.2500  -999.2500  -999.2500
  228.5000   -44.2081     7.0186     5.3252   169.5275  -999.2500  -999.2500  -999.2500
  229.0000   -44.1993     7.0035     5.3259   168.1005  -999.2500  -999.2500  -999.2500
  229.5000   -44.3394     6.8222     5.3266   166.5863  -999.2500  -999.2500  -999.2500
  230.0000   -44.3306     6.7496     5.3274   166.5646  -999.2500  -999.2500  -999.2500
  230.5000   -44.3235     6.7650     5.3283   165.7967  -999.2500  -999.2500  -999.2500
  231.0000   -44.3165     6.8102     5.3290   166.5213  -999.2500  -999.2500  -999.2500
  231.5000   -44.3095     6.9455     5.3297   168.7385  -999.2500  -999.2500  -999.2500
  232.0000   -44.3024     6.8107     5.3304   169.4631  -999.2500  -999.2500  -999.2500
  232.5000   -44.2937     6.8561     5.3311   168.6898  -999.2500  -999.2500  -999.2500
  233.0000   -44.2867     6.9167     5.3319   166.4293  -999.2500  -999.2500  -999.2500
  233.5000   -44.2796     6.9512     5.4102   165.6614  -999.2500  -999.2500  -999.2500
  234.0000   -44.1273     7.0069     5.5565   163.4010  -999.2500  -999.2500  -999.2500
  234.5000   -44.2673     6.8873     5.6318   164.8773  -999.2500  -999.2500  -999.2500
  235.0000   -44.2585     6.8575     5.6325   167.8353  -999.2500  -999.2500  -999.2500
  235.5000   -44.2514     6.9628     5.6333   169.3331  -999.2500  -999.2500  -999.2500
  236.0000   -44.2427     6.8732     5.6340   172.2642  -999.2500  -999.2500  -999.2500
  236.5000   -44.2357     6.6936     5.5601   172.9888  -999.2500  -999.2500  -999.2500
  237.0000   -44.2287     6.5883     5.4122   173.7188  -999.2500  -999.2500  -999.2500
  237.5000   -44.2216     6.5267     5.4129   175.1843  -999.2500  -999.2500  -999.2500
  238.0000   -44.2146     6.5746     5.4138   175.1627  -999.2500  -999.2500  -999.2500
  238.5000   -44.2076     6.6348     5.4146   175.8881  -999.2500  -999.2500  -999.2500
  239.0000   -44.2006     6.6951     5.3407   174.3731  -999.2500  -999.2500  -999.2500
  239.5000   -44.0480     6.7553     5.3416   172.0149  -999.2500  -999.2500  -999.2500
  240.0000   -44.0394     6.8456     5.3423   171.3393  -999.2500  -999.2500  -999.2500
  240.5000   -44.0324     6.9358     5.3430   172.0694  -999.2500  -999.2500  -999.2500
  241.0000   -44.0254     7.0119     5.4182   172.7940  -999.2500  -999.2500  -999.2500
  241.5000   -44.0183     6.9365     5.5677   172.0206  -999.2500  -999.2500  -999.2500
  242.0000   -44.0113     6.9067     5.6430   170.5065  -999.2500  -999.2500  -999.2500
  242.5000   -44.0043     6.9521     5.7925   167.4997  -999.2500  -999.2500  -999.2500
  243.0000   -43.9971     6.9224     5.9421   162.9352  -999.2500  -999.2500  -999.2500
  243.5000   -43.9885     6.9676     6.2404   157.0033  -999.2500  -999.2500  -999.2500
  244.0000   -43.8361     7.1928     6.3155   150.2652  -999.2500  -999.2500  -999.2500
  244.5000   -43.8291     7.5080     6.5395   145.0197  -999.2500  -999.2500  -999.2500
  245.0000   -43.6767     7.8881     6.8378   140.5204  -999.2500  -999.2500  -999.2500
  245.5000   -43.5243     8.2133     6.9995   138.2599  -999.2500  -999.2500  -999.2500
  246.0000   -43.5173     8.3635     7.1370   135.9995  -999.2500  -999.2500  -999.2500
  246.5000   -43.6556     8.4237     7.1378   133.7388  -999.2500  -999.2500  -999.2500
  247.0000   -43.9375     8.4390     7.0639   133.7120  -999.2500  -999.2500  -999.2500
  247.5000   -43.9305     8.2594     6.9160   137.4217  -999.2500  -999.2500  -999.2500
  248.0000   -44.0706     7.9748     6.7679   141.8776  -999.2500  -999.2500  -999.2500
  248.5000   -44.2089     7.7352     6.5454   147.0799  -999.2500  -999.2500  -999.2500
  249.0000   -44.2001     7.6006     6.3918   150.0433  -999.2500  -999.2500  -999.2500
  249.5000   -44.1931     7.5410     6.2492   152.2605  -999.2500  -999.2500  -999.2500
  250.0000   -44.0407     7.5429     6.2599   155.2239  -999.2500  -999.2500  -999.2500
  250.5000   -43.9603     7.5640     6.4014   159.6650  -999.2500  -999.2500  -999.2500
  251.0000   -43.8892     7.5573     6.5523   161.8674  -999.2500  -999.2500  -999.2500
  251.5000   -43.8863     7.4531     6.7033   160.3293  -999.2500  -999.2500  -999.2500
  252.0000   -43.7381     7.4386     6.8543   158.0540  -999.2500  -999.2500  -999.2500
  252.5000   -43.7353     7.5143     7.0797   155.0324  -999.2500  -999.2500  -999.2500
  253.0000   -43.7325     7.6348     7.3051   149.7721  -999.2500  -999.2500  -999.2500
  253.5000   -43.7296     7.8618     7.3824   145.2580  -999.2500  -999.2500  -999.2500
  254.0000   -43.7268     8.0618     7.6072   140.7440  -999.2500  -999.2500  -999.2500
  254.5000   -43.7238     8.2964     7.7586   135.4836  -999.2500  -999.2500  -999.2500
  255.0000   -43.7204     8.5218     7.9096   130.9695  -999.2500  -999.2500  -999.2500
  255.5000   -43.7175     8.7773     7.9862   126.4351  -999.2500  -999.2500  -999.2500
  256.0000   -43.7147     8.9578     8.1372   123.3436  -999.2500  -999.2500  -999.2500
  256.5000   -43.7118     9.0933     8.2138   120.4033  -999.2500  -999.2500  -999.2500
  257.0000   -43.8550     9.2288     8.2903   118.8743  -999.2500  -999.2500  -999.2500
  257.5000   -43.8515     9.3344     8.2925   117.3453  -999.2500  -999.2500  -999.2500
  258.0000   -43.8486     9.4399     8.2947   116.5625  -999.2500  -999.2500  -999.2500
  258.5000   -43.7004     9.4855     8.2225   117.2815  -999.2500  -999.2500  -999.2500
  259.0000   -43.6976     9.3601     7.9960   119.4747  -999.2500  -999.2500  -999.2500
  259.5000   -43.5494     9.1269     7.6935   126.1546  -999.2500  -999.2500  -999.2500
  260.0000   -43.5465     8.8577     7.3367   132.8346  -999.2500  -999.2500  -999.2500
  260.5000   -43.6891     8.4984     6.8181   141.0071  -999.2500  -999.2500  -999.2500
  261.0000   -43.6855     8.1392     6.4482   146.9800  -999.2500  -999.2500  -999.2500
  261.5000   -43.6827     7.9899     6.1528   149.8894  -999.2500  -999.2500  -999.2500
  262.0000   -43.6798     7.7805     6.1550   149.8438  -999.2500  -999.2500  -999.2500
  262.5000   -43.6770     7.5712     6.2315   148.3148  -999.2500  -999.2500  -999.2500
  263.0000   -43.5288     7.5099     6.3081   146.0396  -999.2500  -999.2500  -999.2500
  263.5000   -43.5259     7.8903     6.3847   142.2717  -999.2500  -999.2500  -999.2500
  264.0000   -43.3777     8.4386     6.4613   139.9965  -999.2500  -999.2500  -999.2500
  264.5000   -43.3749     9.5377     6.5380   141.4525  -999.2500  -999.2500  -999.2500
  265.0000   -43.3623     9.7932     6.5406   144.4103  -999.2500  -999.2500  -999.2500
  265.5000   -43.2239     9.5989     6.5428   143.6184  -999.2500  -999.2500  -999.2500
  266.0000   -43.2209     9.1047     6.5450   140.5969  -999.2500  -999.2500  -999.2500
  266.5000   -43.2174     8.5506     6.3239   142.9181  -999.2500  -999.2500  -999.2500
  267.0000   -43.2146     7.9665     6.1773   149.8661  -999.2500  -999.2500  -999.2500
  267.5000   -43.3578     7.5622     6.0307   158.3888  -999.2500  -999.2500  -999.2500
  268.0000   -43.3543     7.3529     5.9579   164.3225  -999.2500  -999.2500  -999.2500
  268.5000   -43.3514     7.2331     5.8862   168.0174  -999.2500  -999.2500  -999.2500
  269.0000   -43.3486     7.1592     5.8884   169.4826  -999.2500  -999.2500  -999.2500
  269.5000   -43.2004     7.1448     5.8907   169.4370  -999.2500  -999.2500  -999.2500
