~VERSION INFORMATION
 VERS.                2.0:   CWLS LOG ASCII STANDARD - VERSION 2.0
 WRAP.                 NO:   ONE LINE PER DEPTH STEP
~WELL INFORMATION
#MNEM.UNIT      DATA TYPE    INFORMATION
#----------   ------------   ------------------------------
 STRT.F           30.0000:   START DEPTH
 STOP.F          500.0000:   STOP DEPTH
 STEP.F            0.5000:   STEP LENGTH
 NULL.          -999.2500:   NO VALUE
 COMP. FENIX & SCISSON INC:   COMPANY
 WELL.     3-FI #55-45 SX:   WELL
 FLD .             TEAPOT:   FIELD
 LOC .       S3 T38N R78W:   LOCATION
 CNTY.            NATRONA:   COUNTY
 STAT.            WYOMING:   STATE
 CTRY. UNITED STATES OF AMERICA:   COUNTRY
 SRVC.              Welex:   SERVICE COMPANY
 DATE.        16-MAY-1980:   LOGDATE
 API .       490251082700:   API NUMBER
~CURVE INFORMATION
#MNEM.UNIT       API CODE    CURVE DESCRIPTION
#----------   ------------   ------------------------------
 DEPT.F                  :   
 SPR .MV     07 010 01 00:   SPONTANEOUS POTENTIAL
 GURD.OHMM   07 220 05 00:   GUARD RESISTIVITY
 CALD.IN     45 280 60 00:   CALIPER
 GRD .GAPI   45 310 01 00:   GAMMA RAY FROM DENSITY LOG
 RHOB.G/C3   45 350 01 00:   BULK DENSITY
 CORR.G/C3   45 356 01 00:   DENSITY CORRECTION
 NPHI.DEC    42 890 03 00:   NEUTRON POROSITY SANDSTONE
 DPHI.DEC    45 890 12 00:   DENSITY POROSITY SANDSTONE
 ILD .OHMM   07 120 46 00:   INDUCTION LOG DEEP
 ILM .OHMM   07 120 44 00:   INDUCTION LOG MEDIUM
~PARAMETER INFORMATION
#MNEM.UNIT          VALUE    DESCRIPTION
#----------   ------------   ------------------------------
 PD  .                 GL:   PERMANENT DATUM
 EPD .F              5167:   ELEVATION PERMANENT DATUM
 LMF .                 KB:   LOG MEASURED FROM
 DAPD.F                 5:   FEET ABOVE PERMANENT DATUM
 DMF .                 KB:   DRILLING MEASURED FROM
 EKB .F              5172:   KELLING BUSHING
 EGL .F              5167:   GROUND LEVEL
 DATE.            5-16-80:   RUN DATE
 RUN .                  1:   RUN NUMBER
 DD  .F               483:   DEPTH DRILLER
 DL  .F               496:   DEPTH LOGGER
 BLI .F               494:   BOTTOM LOG INTERVAL
 TLI .F                35:   TOP LOG INTERVAL
 BS  .IN             9.75:   BIT SIZE
 BSD .F               483:   BIT SIZE AT DEPTH
 DFT .            KCL MUD:   DRILLING FLUID TYPE
 DFD .                9.5:   DRILLING FLUID DENSITY
 DFV .                 45:   DRILLING FLUID VISCOSITY
 DFL .                7.5:   DRILLING FLUID LOSS
 MSS .            MUD PIT:   MUD SAMPLE SOURCE
 RMS .OHMM            .29:   RESISTIVITY MUD SAMPLE
 MST .F                75:   MUD SAMPLE TEMPERATURE
 RMF .OHMM            .23:   RESISTIVITY MUD FILTRATE SAMPLE
 MFST.F                75:   MUD FILTRATE SAMPLE TEMPERATURE
 RMC .OHMM            .35:   RESISTIVITY MUD CAKE
 MCST.F                75:   MUD CAKE SAMPLE TEMPERATURE
 MFSS.           MEASURED:   MUD FILTRATE SAMPLE SOURCE
 MCSS.           MEASURED:   MUD CAKE SAMPLE SOURCE
 TCS .HRS               2:   TIME CURCULATED STOPPED
 LUN .               9685:   LOGGING UNIT NUMBER
 LUL .             CASPER:   LOGGING UNIT LOCATION
 ENGI.            TOTHILL:   RECORDING ENGINEER
 WITN.              AMEND:   WITNESSED BY
 CLNT.            A2DTECH:   CLIENT CODE
 ORIG.           5" PRINT:   ORIGIN OF DATA
 UWI .       490251082700:   UNIQUE WELL ID
 DICO. A2D Technologies, Inc.:   DIGITIZING COMPANY
~OTHER INFORMATION
~A   DEPT      SPR         GURD     CALD        GRD       RHOB       CORR         NPHI       DPHI        ILD        ILM 
# ...
  231.0000   -54.8158     5.0803    10.2976   111.9023     2.4411     0.0280     0.3327     0.1393     3.3982     5.1057
  231.5000   -55.1509     4.7399    10.2986   110.7148     2.4380     0.0250     0.3257     0.1343     3.3071     5.0973
  232.0000   -55.4410     4.4587    10.2986   109.5282     2.4389     0.0241     0.3321     0.1287     3.2184     5.0898
  232.5000   -55.5952     4.6627    10.2992   108.3176     2.4571     0.0361     0.3391     0.1326     3.1320     5.0829
  233.0000   -55.7834     4.8943    10.3009   107.9172     2.4592     0.0452     0.3441     0.1369     3.0478     5.0791
  233.5000   -55.6581     4.4347    10.3026   107.4800     2.4507     0.0365     0.3427     0.1391     2.9659     4.6877
  234.0000   -55.4851     3.8205    10.3043   107.4619     2.4501     0.0416     0.3373     0.1316     2.8861     4.3056
  234.5000   -55.3035     3.2914    10.3060   107.4595     2.4410     0.0384     0.3304     0.1380     2.8086     3.9873
  235.0000   -55.1298     2.9038    10.3077   108.0155     2.4559     0.0449     0.3236     0.1444     2.6950     4.2964
  235.5000   -54.9523     3.3530    10.3094   108.9867     2.4382     0.0262     0.3201     0.1514     2.7136     4.4124
  236.0000   -54.7753     3.9498    10.3111   109.9581     2.4310     0.0079     0.3265     0.1498     2.7977     4.5494
  236.5000   -54.6000     4.6281    10.3128   110.9518     2.4254     0.0033     0.3239     0.1450     2.7963     4.6906
  237.0000   -54.4214     4.7390    10.3145   111.5703     2.4278     0.0063     0.3195     0.1359     2.8836     4.8363
  237.5000   -54.2464     4.8489    10.3161   112.0677     2.4430     0.0185     0.3151     0.1318     3.0288     4.9865
  238.0000   -54.0726     4.9614    10.3182   112.5228     2.4553     0.0305     0.3153     0.1291     3.1813     5.1413
  238.5000   -53.8799     5.0765    10.3200   113.0028     2.4567     0.0380     0.3176     0.1291     3.3415     5.2505
  239.0000   -53.8493     5.1786    10.3007   113.4821     2.4585     0.0392     0.3201     0.1239     3.5116     5.3595
  239.5000   -53.9962     5.1500    10.3046   113.9608     2.4649     0.0478     0.3210     0.1337     3.7003     5.3332
  240.0000   -54.1262     5.0673    10.3088   114.4395     2.4690     0.0551     0.3222     0.1435     3.7003     5.2810
  240.5000   -54.2554     4.9875    10.3131   114.9182     2.4335     0.0305     0.3214     0.1541     3.6123     5.2294
  241.0000   -54.3877     4.9109    10.3175   115.3973     2.4236     0.0257     0.3255     0.1586     3.4928     5.1782
  241.5000   -54.5313     4.8352    10.3218   115.8782     2.4095     0.0259     0.3321     0.1618     3.3773     5.1276
  242.0000   -54.5709     4.7595    10.3262   116.3948     2.4118     0.0289     0.3386     0.1614     3.2656     5.0803
  242.5000   -54.4627     3.9574    10.3305   115.4340     2.4043     0.0327     0.3452     0.1533     3.1576     4.3398
  243.0000   -54.3695     2.6828    10.3349   114.0126     2.4185     0.0401     0.3485     0.1482     3.0525     3.9868
  243.5000   -54.2735     2.9294    10.3392   112.5853     2.4253     0.0435     0.3459     0.1405     3.0136     4.3763
  244.0000   -54.1758     4.2769    10.3436   111.1494     2.4425     0.0344     0.3386     0.1424     3.0139     4.2971
  244.5000   -54.0802     4.9798    10.3479   110.4832     2.4359     0.0189     0.3285     0.1292     3.0142     4.1045
  245.0000   -53.9835     4.9304    10.3523   110.4707     2.4501     0.0322     0.3239     0.1347     3.0127     3.9868
  245.5000   -53.8870     4.8956    10.3566   110.5275     2.4562     0.0387     0.3198     0.1358     3.1432     4.5721
  246.0000   -53.7906     5.0679    10.3587   110.6397     2.4464     0.0191     0.3156     0.1270     3.2832     5.4736
  246.5000   -53.6942     5.2157    10.3570   110.7513     2.4563     0.0237     0.3115     0.1169     3.4291     5.6532
  247.0000   -53.5979     5.3651    10.3536   110.8643     2.4707     0.0364     0.3086     0.1104     3.5817     5.8033
  247.5000   -53.5012     5.5240    10.3502   110.9653     2.4913     0.0519     0.3114     0.1193     3.7412     5.9575
  248.0000   -53.4049     5.5767    10.3468   110.8681     2.4874     0.0434     0.3142     0.1262     3.9078     6.0085
  248.5000   -53.3093     5.5767    10.3434   109.8336     2.4659     0.0284     0.3076     0.1285     4.0819     5.8909
  249.0000   -53.2102     5.5767    10.3400   108.5350     2.4586     0.0274     0.3129     0.1310     4.2955     5.7573
  249.5000   -53.1188     5.5767    10.3366   107.2196     2.4619     0.0296     0.3159     0.1387     4.2955     5.6268
  250.0000   -53.0088     5.5767    10.3332   106.5736     2.4512     0.0217     0.3090     0.1464     4.3182     5.4992
  250.5000   -53.0009     5.6410    10.3298   106.4294     2.4360     0.0065     0.3147     0.1503     4.3556     5.4736
  251.0000   -52.9983     5.7228    10.3264   105.8781     2.4240    -0.0056     0.3200     0.1540     4.3934     5.5240
  251.5000   -53.0009     5.8058    10.3230   105.3522     2.4229    -0.0085     0.3242     0.1594     4.4314     5.5747
  252.0000   -52.9996     5.8899    10.3195   104.8335     2.4131    -0.0186     0.3251     0.1533     4.4699     5.6259
  252.5000   -53.0001     5.9753    10.3187   104.4503     2.4087    -0.0167     0.3183     0.1454     4.5086     5.6776
  253.0000   -52.9999     6.1215    10.3186   104.4694     2.4249    -0.0051     0.3126     0.1414     4.5426     5.7298
  253.5000   -52.9999     6.0990    10.3186   104.6479     2.4378     0.0065     0.3070     0.1379     4.5230     5.7871
  254.0000   -53.0015     6.0292    10.3186   104.8230     2.4535     0.0185     0.3013     0.1466     4.5056     5.6862
  254.5000   -52.9794     5.9602    10.3186   104.9973     2.4334     0.0184     0.3014     0.1545     4.4904     5.5797
  255.0000   -52.9079     5.8920    10.3186   105.1714     2.4233     0.0056     0.3038     0.1575     4.4597     5.4736
  255.5000   -52.8384     5.7885    10.3186   105.3452     2.4115    -0.0004     0.2974     0.1538     4.4621     5.3696
  256.0000   -52.7675     5.8400    10.3186   105.0336     2.4152    -0.0014     0.2974     0.1614     4.5458     5.2733
  256.5000   -52.6969     5.9532    10.3186   104.3713     2.4189    -0.0028     0.2974     0.1625     4.5669     5.4177
  257.0000   -52.6264     6.0685    10.3186   103.7166     2.4060    -0.0041     0.2997     0.1645     4.5866     5.6470
  257.5000   -52.5558     6.1861    10.3186   102.9711     2.4016    -0.0036     0.3006     0.1658     4.6065     5.8859
  258.0000   -52.4854     6.3541    10.3186   102.9232     2.3964     0.0000     0.3006     0.1658     4.6268     6.2367
  258.5000   -52.4143     6.3479    10.3187   103.3196     2.4031     0.0036     0.3014     0.1759     4.4054     6.1507
  259.0000   -52.3450     6.3439    10.3176   104.4247     2.3878     0.0070     0.3124     0.1864     4.1950     6.0107
  259.5000   -52.2729     6.3406    10.3165   105.5119     2.3718     0.0095     0.3237     0.1948     3.9947     5.8975
  260.0000   -52.1967     6.3690    10.3153   106.5898     2.3556     0.0052     0.3350     0.2002     3.8039     5.2573
  260.5000   -52.0380     4.6738    10.3142   107.7423     2.3390     0.0211     0.3465     0.2033     3.6223     4.7672
  261.0000   -51.8703     3.4024    10.3131   105.9238     2.3362     0.0387     0.3461     0.1929     3.4493     4.2955
  261.5000   -51.7005     2.4767    10.3119   103.3560     2.3481     0.0563     0.3308     0.1752     3.3709     4.7283
  262.0000   -51.5323     3.5773    10.3108   100.7542     2.3699     0.0742     0.3182     0.1698     3.3743     5.4706
  262.5000   -51.3635     6.3541    10.3096    98.1961     2.3929     0.0456     0.3032     0.1395     3.3653     6.2367
  263.0000   -51.1948     6.6846    10.3085    96.3256     2.4049     0.0066     0.3069     0.1399     3.5227     6.1115
  263.5000   -51.0261     6.9749    10.3074    95.7349     2.4446     0.0055     0.2938     0.1471     3.7621     6.0085
  264.0000   -50.8574     7.0369    10.3062    95.0461     2.4321    -0.0002     0.2912     0.1435     4.0179     6.1973
