~VERSION INFORMATION
 VERS.                2.0:   CWLS LOG ASCII STANDARD - VERSION 2.0
 WRAP.                 NO:   ONE LINE PER DEPTH STEP
~WELL INFORMATION
#MNEM.UNIT      DATA TYPE    INFORMATION
#----------   ------------   ------------------------------
 STRT.F            2.0000:   START DEPTH
 STOP.F          482.0000:   STOP DEPTH
 STEP.F            0.5000:   STEP LENGTH
 NULL.          -999.2500:   NO VALUE
 COMP. LAWRENCE/ALLISON INC:   COMPANY
 WELL.  NPR 3 #67-65-SX-3:   WELL
 FLD .             TEAPOT:   FIELD
 LOC .       S3 T38N R78W:   LOCATION
 CNTY.            NATRONA:   COUNTY
 STAT.            WYOMING:   STATE
 CTRY. UNITED STATES OF AMERICA:   COUNTRY
 SRVC.           Gearhart:   SERVICE COMPANY
 DATE.        13-JUN-1988:   LOGDATE
 API .       490251121900:   API NUMBER
~CURVE INFORMATION
#MNEM.UNIT       API CODE    CURVE DESCRIPTION
#----------   ------------   ------------------------------
 DEPT.F                  :   
 GRR .GAPI   07 310 01 00:   GAMMA RAY FROM RES. LOG.
 ILD .OHMM   07 120 46 00:   INDUCTION LOG DEEP
 ILM .OHMM   07 120 44 00:   INDUCTION LOG MEDIUM
~PARAMETER INFORMATION
#MNEM.UNIT          VALUE    DESCRIPTION
#----------   ------------   ------------------------------
 PD  .                 GL:   PERMANENT DATUM
 EPD .F              5172:   ELEVATION PERMANENT DATUM
 LMF .                 KB:   LOG MEASURED FROM
 DAPD.F                 5:   FEET ABOVE PERMANENT DATUM
 DMF .                 KB:   DRILLING MEASURED FROM
 EKB .F              5177:   KELLING BUSHING
 EGL .F              5172:   GROUND LEVEL
 DATE.            6-13-88:   RUN DATE
 RUN .                  1:   RUN NUMBER
 DD  .F               490:   DEPTH DRILLER
 DL  .F               490:   DEPTH LOGGER
 BLI .F             481.5:   BOTTOM LOG INTERVAL
 TLI .F                40:   TOP LOG INTERVAL
 CS  .IN            8.625:   CASING SIZE
 CBD .F                40:   CASING BOTTOM DRILLER
 CBL .F                40:   CASING BOTTOM LOGGER
 BS  .IN            7.875:   BIT SIZE
 BSD .F               490:   BIT SIZE AT DEPTH
 DFT .                AIR:   DRILLING FLUID TYPE
 TLAB.HRS            2345:   TIME LOGGER AT BOTTOM
 MRT .F                70:   MAXIMUM RECORDED TEMPERATURE
 LUN .               7597:   LOGGING UNIT NUMBER
 LUL .           GILLETTE:   LOGGING UNIT LOCATION
 ENGI.          HUCKFELDT:   RECORDING ENGINEER
 WITN.             STRONG:   WITNESSED BY
 CLNT.            A2DTECH:   CLIENT CODE
 ORIG.       2", 5" PRINT:   ORIGIN OF DATA
 UWI .       490251121900:   UNIQUE WELL ID
 DICO. A2D Technologies, Inc.:   DIGITIZING COMPANY
~OTHER INFORMATION
~A    DEPT      GRR       ILD        ILM   
# ...
  275.0000   133.4754     7.0086     5.5864
  275.5000   127.1263     7.1177     6.1700
  276.0000   120.6759     7.5504     6.8936
  276.5000   119.5614     8.1999     7.7021
  277.0000   119.5406     9.1626     8.5268
  277.5000   119.0209    10.3085     9.1159
  278.0000   116.1252    11.3122     9.7452
  278.5000   113.5626    11.3122    10.5073
  279.0000   113.8969    11.3122    10.4905
  279.5000   115.5698    11.3122    10.4690
  280.0000   117.5946    11.3096    10.4455
  280.5000   119.6536    12.2735    10.4212
  281.0000   119.2449    13.1786    10.3998
  281.5000   116.9102    14.1478    11.2459
  282.0000   111.0644    15.1811    12.1367
  282.5000    99.0772    16.8281    13.8555
  283.0000    87.2856    18.6539    16.0039
  283.5000    75.5196    20.6776    18.4840
  284.0000    63.6606    22.9210    21.2494
  284.5000    58.5774    25.4077    23.6480
  285.0000    58.7401    28.0486    26.2272
  285.5000    60.0180    28.9299    27.9238
  286.0000    64.2243    29.6536    28.4849
  286.5000    68.4538    29.5752    28.5732
  287.0000    72.1314    29.4961    28.3097
  287.5000    75.1707    29.4203    27.5684
  288.0000    77.9409    29.3787    26.8791
  288.5000    78.7266    30.1648    26.7788
  289.0000    76.6582    30.8081    27.5297
  289.5000    72.7183    31.4651    28.5305
  290.0000    68.8256    32.1361    29.5675
  290.5000    65.7621    32.9330    30.6426
  291.0000    65.3507    33.7728    31.7525
  291.5000    65.0796    34.9086    32.8339
  292.0000    66.5276    37.0199    34.1994
  292.5000    68.1608    38.0619    35.5322
  293.0000    67.4728    38.5590    36.9169
  293.5000    66.4662    39.0621    37.6013
  294.0000    66.2475    39.5725    38.0697
  294.5000    67.2322    40.0903    38.5439
  295.0000    69.3298    40.6148    38.8162
  295.5000    71.0867    41.1461    38.8981
  296.0000    69.7920    41.6844    38.9803
  296.5000    68.4874    42.2298    39.0626
  297.0000    68.4075    42.7823    39.1452
  297.5000    69.6854    43.3407    39.4896
  298.0000    70.9405    44.1385    39.9815
  298.5000    71.5769    44.9510    40.4795
  299.0000    71.5497    45.7785    41.3678
  299.5000    72.8442    46.6212    42.8935
  300.0000    74.6859    47.5399    44.4753
  300.5000    74.8140    48.0350    46.2610
  301.0000    75.0313    46.6890    46.2610
  301.5000    75.7918    46.6993    44.5718
  302.0000    78.0247    44.5551    42.3615
  302.5000    80.7242    42.9558    41.4016
  303.0000    80.5996    42.8326    40.2415
  303.5000    79.0579    42.1671    40.2763
  304.0000    76.6138    40.5963    38.6327
  304.5000    74.7944    38.6850    37.3988
  305.0000    74.4172    36.8614    36.3569
  305.5000    75.8620    35.1237    34.3012
  306.0000    78.4852    33.4690    32.3981
  306.5000    79.9113    31.8920    30.6007
  307.0000    81.3327    30.4880    28.9030
  307.5000    82.7501    29.3514    27.7171
  308.0000    84.1720    28.1712    26.5511
  308.5000    85.5968    27.0349    25.3306
  309.0000    86.8690    26.0347    24.6842
  309.5000    86.6163    25.6645    24.1122
  310.0000    85.8487    25.3985    23.5208
  310.5000    84.5442    25.3247    23.2189
  311.0000    85.2283    25.2851    23.0639
  311.5000    86.0718    25.2456    22.9099
  312.0000    86.9231    25.2062    22.8760
  312.5000    86.4796    25.1669    23.2843
  313.0000    85.0200    25.1278    23.5208
  313.5000    84.0740    25.0988    23.7011
  314.0000    84.6298    25.2572    23.7398
  314.5000    85.8775    25.3890    23.7398
  315.0000    87.5689    25.5218    23.7398
  315.5000    88.9555    25.6550    24.1596
  316.0000    88.8488    25.7890    24.5627
  316.5000    87.0819    25.8044    25.0970
  317.0000    85.6427    25.8047    25.0296
  317.5000    86.5276    25.8044    24.8958
  318.0000    87.8163    25.8044    24.7628
  318.5000    88.8104    25.8048    24.6304
  319.0000    89.4585    25.8026    24.4988
  319.5000    90.1085    25.7972    24.3677
  320.0000    90.7563    25.8223    24.2396
  320.5000    91.3078    25.2395    24.0773
  321.0000    90.9367    24.9103    23.8092
  321.5000    90.5740    24.5855    23.5428
  322.0000    90.2152    24.2648    23.2794
  322.5000    89.4453    23.9608    23.0189
  323.0000    88.5280    23.7398    22.8760
  323.5000    87.8287    23.4655    22.3691
  324.0000    88.7459    23.2097    21.8974
  324.5000    89.6509    22.9450    21.5948
  325.0000    90.4366    22.6650    21.0945
  325.5000    88.5036    22.8131    20.6057
  326.0000    86.4579    22.9280    20.2799
  326.5000    85.2224    23.0435    21.2689
  327.0000    86.9725    23.1595    22.0499
  327.5000    89.0442    23.2761    22.6650
  328.0000    88.6463    23.5208    22.5976
  328.5000    87.0686    23.1395    22.5113
  329.0000    85.4640    22.8646    22.4556
  329.5000    85.6356    22.5930    22.0712
  330.0000    86.0440    22.3246    21.6891
  330.5000    86.4742    22.0594    21.3144
  331.0000    87.0201    21.7973    20.9464
  331.5000    88.5516    21.5383    20.5848
  332.0000    90.9267    21.2825    20.2294
  332.5000    92.8456    21.0296    19.9076
  333.0000    91.7055    20.8516    19.6466
  333.5000    90.6114    20.6266    19.4884
  334.0000    89.6955    20.4224    19.3315
  334.5000    89.7034    20.2203    19.1759
  335.0000    88.9883    20.0202    19.0218
  335.5000    87.1024    19.8221    18.8685
  336.0000    85.3098    19.6259    18.5964
  336.5000    86.7779    19.4115    18.2893
  337.0000    89.1306    19.0652    17.9874
  337.5000    90.8202    18.7240    17.6904
  338.0000    90.0906    18.3889    17.3987
  338.5000    89.9189    18.0608    17.1117
  339.0000    90.3567    17.8126    17.0062
  339.5000    90.8129    17.7573    17.0060
  340.0000    90.1488    17.6328    17.0061
  340.5000    89.0674    17.5093    17.0064
  341.0000    88.0850    17.3865    17.0077
  341.5000    88.6772    17.2647    17.0095
  342.0000    89.2956    17.1437    16.8133
  342.5000    89.3069    17.0236    16.6402
  343.0000    88.0576    16.9042    16.4622
  343.5000    86.9069    16.7858    16.1446
  344.0000    88.9023    16.6681    15.8582
  344.5000    89.4169    16.5513    15.5819
  345.0000    89.5589    16.4353    15.2943
  345.5000    89.6767    16.3202    15.0763
  346.0000    90.4295    16.2058    15.1164
  346.5000    91.3868    16.0924    15.1502
  347.0000    92.4765    15.9789    15.1840
  347.5000    93.5617    15.8406    15.2166
  348.0000    94.6478    15.6861    14.7301
  348.5000    95.7338    15.5336    14.5596
  349.0000    96.8262    15.3826    14.4391
  349.5000    97.7587    15.2331    14.3202
  350.0000    98.5447    15.2166    14.2611
  350.5000    99.3140    15.3744    14.3122
  351.0000    99.1276    15.4809    14.3598
  351.5000    97.1387    15.5882    14.4685
  352.0000    94.5085    15.6962    14.7224
  352.5000    92.0443    15.8049    14.9804
  353.0000    91.0191    15.9144    15.2173
  353.5000    90.0228    16.0247    15.5012
  354.0000    89.3593    16.1357    15.3962
  354.5000    89.5741    16.2372    15.3014
  355.0000    89.6233    16.0409    15.2072
  355.5000    89.2781    15.7641    15.1137
  356.0000    88.9353    15.4923    15.0211
  356.5000    89.4494    15.2254    14.9372
  357.0000    90.7519    14.9629    14.6177
  357.5000    92.0695    14.7055    14.2708
  358.0000    93.3836    14.3937    13.9320
  358.5000    94.4732    14.3493    13.6013
  359.0000    93.7553    14.2861    13.2785
  359.5000    93.0222    14.2233    13.0593
  360.0000    93.0404    14.1606    12.8591
  360.5000    93.1512    14.1294    12.6426
  361.0000    93.2752    14.2899    12.7051
  361.5000    94.0337    14.4146    12.7955
  362.0000    96.4498    14.6290    12.8782
  362.5000    98.6609    15.6818    13.1809
  363.0000    99.3454    17.0002    13.7239
  363.5000    97.9315    18.4503    14.6145
  364.0000    92.2432    20.2749    16.3549
  364.5000    86.0565    22.9313    19.0592
  365.0000    79.8299    25.9355    22.3108
  365.5000    76.0323    29.3319    26.1171
