~VERSION INFORMATION
 VERS.                2.0:   CWLS LOG ASCII STANDARD - VERSION 2.0
 WRAP.                 NO:   ONE LINE PER DEPTH STEP
~WELL INFORMATION
#MNEM.UNIT      DATA TYPE    INFORMATION
#----------   ------------   ------------------------------
 STRT.F            2.0000:   START DEPTH
 STOP.F          689.0000:   STOP DEPTH
 STEP.F            0.5000:   STEP LENGTH
 NULL.          -999.2500:   NO VALUE
 COMP. U S NAVY-INTEX OIL:   COMPANY
 WELL. RES 3 TEAPOT DOM #74S-34:   WELL
 FLD .             TEAPOT:   FIELD
 LOC .      S34 T39N R78W:   LOCATION
 CNTY.            NATRONA:   COUNTY
 STAT.            WYOMING:   STATE
 CTRY. UNITED STATES OF AMERICA:   COUNTRY
 SRVC.      NL McCullough:   SERVICE COMPANY
 DATE.        10-AUG-1961:   LOGDATE
 API .       490250653900:   API NUMBER
~CURVE INFORMATION
#MNEM.UNIT       API CODE    CURVE DESCRIPTION
#----------   ------------   ------------------------------
 DEPT.F                  :   
 GR  .GAPI   35 310 01 00:   GAMMA RAY
 NPHI.DEC    35 890 00 00:   NEUTRON POROSITY
~PARAMETER INFORMATION
#MNEM.UNIT          VALUE    DESCRIPTION
#----------   ------------   ------------------------------
 PD  .                 GL:   PERMANENT DATUM
 EPD .F              5044:   ELEVATION PERMANENT DATUM
 LMF .                 KB:   LOG MEASURED FROM
 DAPD.F                 5:   FEET ABOVE PERMANENT DATUM
 DMF .                 KB:   DRILLING MEASURED FROM
 EKB .F              5049:   KELLING BUSHING
 EGL .F              5044:   GROUND LEVEL
 DATE.        10-AUG-1961:   RUN DATE
 RUN .                  1:   RUN NUMBER
 DD  .F               690:   DEPTH DRILLER
 DL  .F             690.5:   DEPTH LOGGER
 BLI .F               689:   BOTTOM LOG INTERVAL
 BS  .IN            7.875:   BIT SIZE
 BSD .F               690:   BIT SIZE AT DEPTH
 DFT .       OIL EMULSION:   DRILLING FLUID TYPE
 DFD .                9.9:   DRILLING FLUID DENSITY
 TCS .HRS               1:   TIME CURCULATED STOPPED
 ENGI.            JACKSON:   RECORDING ENGINEER
 WITN.          JORGENSON:   WITNESSED BY
 CLNT.            A2DTECH:   CLIENT CODE
 ORIG.           2" PRINT:   ORIGIN OF DATA
 UWI .       490250653900:   UNIQUE WELL ID
 DICO. A2D Technologies, Inc.:   DIGITIZING COMPANY
~OTHER INFORMATION
~A    DEPT        GR     NPHI   
# ...
  366.5000     6.7694     0.2092
  367.0000     6.9314     0.2089
  367.5000     7.0696     0.2054
  368.0000     7.1224     0.2003
  368.5000     7.1878     0.1977
  369.0000     7.2569     0.1953
  369.5000     7.2906     0.1898
  370.0000     7.2934     0.1820
  370.5000     6.9238     0.1803
  371.0000     6.8381     0.1777
  371.5000     6.8318     0.1892
  372.0000     6.7278     0.1909
  372.5000     6.6944     0.1892
  373.0000     6.6817     0.1832
  373.5000     6.6674     0.1818
  374.0000     6.6096     0.1821
  374.5000     6.4506     0.1919
  375.0000     6.3431     0.1919
  375.5000     6.1745     0.1918
  376.0000     6.0701     0.1913
  376.5000     6.0867     0.1868
  377.0000     6.3152     0.1875
  377.5000     6.4808     0.1900
  378.0000     6.3808     0.1913
  378.5000     6.0402     0.1898
  379.0000     6.0038     0.1856
  379.5000     6.0264     0.1813
  380.0000     6.2602     0.1772
  380.5000     6.6003     0.1765
  381.0000     6.6755     0.1795
  381.5000     6.6846     0.1849
  382.0000     6.6704     0.1850
  382.5000     6.7089     0.1889
  383.0000     6.8183     0.1997
  383.5000     7.0298     0.2015
  384.0000     7.1727     0.2029
  384.5000     7.0068     0.2079
  385.0000     6.8937     0.2064
  385.5000     6.8786     0.2037
  386.0000     6.9766     0.2112
  386.5000     6.9751     0.2139
  387.0000     6.8433     0.2138
  387.5000     6.6900     0.2019
  388.0000     6.6433     0.2025
  388.5000     6.6222     0.2037
  389.0000     6.6146     0.2034
  389.5000     6.5875     0.2027
  390.0000     6.5015     0.2001
  390.5000     6.4103     0.1952
  391.0000     6.1621     0.1939
  391.5000     6.0943     0.2008
  392.0000     6.0701     0.2058
  392.5000     6.0113     0.2121
  393.0000     5.8934     0.2142
  393.5000     5.8228     0.2145
  394.0000     5.8756     0.2121
  394.5000     6.0166     0.2069
  395.0000     6.1923     0.2060
  395.5000     6.1018     0.2045
  396.0000     5.9042     0.1964
  396.5000     5.7710     0.1910
  397.0000     5.7247     0.1991
  397.5000     5.8963     0.1997
  398.0000     6.2637     0.1996
  398.5000     6.3431     0.1988
  399.0000     6.2557     0.1980
  399.5000     6.1621     0.1995
  400.0000     6.2526     0.2066
  400.5000     6.6373     0.2136
  401.0000     6.5413     0.2207
  401.5000     6.4940     0.2218
  402.0000     6.5543     0.2196
  402.5000     6.6063     0.2192
  403.0000     6.6523     0.2184
  403.5000     6.5995     0.2184
  404.0000     6.5758     0.2181
  404.5000     6.5345     0.2180
  405.0000     6.3356     0.2154
  405.5000     6.2753     0.2150
  406.0000     6.3908     0.2227
  406.5000     6.5226     0.2306
  407.0000     6.6523     0.2383
  407.5000     6.5984     0.2393
  408.0000     6.5197     0.2392
  408.5000     6.4186     0.2371
  409.0000     6.1143     0.2336
  409.5000     6.0077     0.2295
  410.0000     6.0113     0.2263
  410.5000     6.1639     0.2221
  411.0000     6.4654     0.2179
  411.5000     6.6539     0.2169
  412.0000     6.7579     0.2197
  412.5000     6.8126     0.2234
  413.0000     6.8333     0.2275
  413.5000     6.8107     0.2299
  414.0000     6.7766     0.2303
  414.5000     6.7139     0.2318
  415.0000     6.5769     0.2284
  415.5000     6.3496     0.2267
  416.0000     6.0478     0.2293
  416.5000     5.8303     0.2299
  417.0000     5.9585     0.2299
  417.5000     6.1852     0.2296
  418.0000     6.3718     0.2268
  418.5000     6.4713     0.2271
  419.0000     6.4932     0.2297
  419.5000     6.5910     0.2317
  420.0000     6.7428     0.2350
  420.5000     6.8961     0.2427
  421.0000     6.9540     0.2437
  421.5000     6.9540     0.2386
  422.0000     6.9291     0.2365
  422.5000     6.8443     0.2344
  423.0000     6.7020     0.2274
  423.5000     6.5090     0.2249
  424.0000     6.3573     0.2326
  424.5000     6.5526     0.2404
  425.0000     6.6750     0.2446
  425.5000     6.6856     0.2448
  426.0000     6.5934     0.2442
  426.5000     6.5392     0.2380
  427.0000     6.6190     0.2286
  427.5000     6.7123     0.2196
  428.0000     6.7428     0.2244
  428.5000     6.7428     0.2262
  429.0000     6.7428     0.2262
  429.5000     6.7512     0.2265
  430.0000     6.7805     0.2285
  430.5000     6.8031     0.2315
  431.0000     6.8333     0.2359
  431.5000     6.8258     0.2365
  432.0000     6.7647     0.2365
  432.5000     6.6718     0.2365
  433.0000     6.5468     0.2368
  433.5000     6.5543     0.2425
  434.0000     6.5571     0.2529
  434.5000     6.5624     0.2479
  435.0000     6.5769     0.2466
  435.5000     6.5385     0.2497
  436.0000     6.4689     0.2591
  436.5000     6.4412     0.2595
  437.0000     6.4219     0.2577
  437.5000     6.3035     0.2534
  438.0000     6.0490     0.2500
  438.5000     6.2533     0.2463
  439.0000     6.6002     0.2415
  439.5000     6.7135     0.2373
  440.0000     6.7730     0.2274
  440.5000     6.8733     0.2177
  441.0000     6.9691     0.2186
  441.5000     6.9087     0.2211
  442.0000     6.8436     0.2237
  442.5000     6.7881     0.2292
  443.0000     6.8861     0.2298
  443.5000     7.1111     0.2297
  444.0000     6.7696     0.2289
  444.5000     6.7278     0.2210
  445.0000     6.7353     0.2150
  445.5000     6.7518     0.2090
  446.0000     6.8253     0.2075
  446.5000     6.9238     0.2083
  447.0000     6.8761     0.2103
  447.5000     6.6976     0.2116
  448.0000     6.6900     0.2118
  448.5000     6.6900     0.2106
  449.0000     6.6976     0.2065
  449.5000     6.6976     0.2032
  450.0000     6.6976     0.2016
  450.5000     6.9413     0.2189
  451.0000     6.8961     0.2186
  451.5000     7.0090     0.2110
  452.0000     6.8133     0.2171
  452.5000     6.9789     0.2129
  453.0000     7.2123     0.2132
  453.5000     7.4383     0.2135
  454.0000     7.1822     0.2138
  454.5000     6.6852     0.2161
  455.0000     6.6476     0.2247
  455.5000     7.0090     0.2265
  456.0000     6.7380     0.2329
  456.5000     6.8093     0.2317
  457.0000     6.8434     0.2162
  457.5000     6.7078     0.2208
  458.0000     6.8358     0.2223
  458.5000     6.9726     0.2222
  459.0000     7.0166     0.2217
  459.5000     6.8509     0.2211
  460.0000     6.6702     0.2438
  460.5000     6.5557     0.2529
  461.0000     6.4367     0.2483
  461.5000     6.1130     0.2774
  462.0000     5.8117     0.2831
  462.5000     5.4277     0.2846
  463.0000     5.5482     0.2853
  463.5000     6.1732     0.2868
  464.0000     6.9639     0.2825
  464.5000     7.0919     0.2759
  465.0000     7.1220     0.2664
  465.5000     6.9413     0.2638
  466.0000     7.0994     0.2629
  466.5000     7.4081     0.2553
  467.0000     7.8298     0.2362
  467.5000     8.1009     0.2338
  468.0000     8.1913     0.2354
  468.5000     7.7244     0.2245
  469.0000     7.4705     0.2342
  469.5000     7.4232     0.2272
  470.0000     7.9202     0.2314
  470.5000     8.2590     0.2269
  471.0000     8.3193     0.2278
  471.5000     7.6943     0.2290
  472.0000     7.3855     0.2190
  472.5000     7.5512     0.2263
  473.0000     7.7271     0.2215
  473.5000     8.2139     0.2267
  474.0000     7.9804     0.2327
  474.5000     7.7018     0.2560
  475.0000     7.8599     0.2635
  475.5000     7.5286     0.2744
  476.0000     7.3931     0.2617
  476.5000     7.4834     0.2632
  477.0000     7.2048     0.2663
  477.5000     7.3931     0.2602
  478.0000     7.4383     0.2545
  478.5000     7.8373     0.2475
  479.0000     7.9804     0.2469
  479.5000     7.8223     0.2454
  480.0000     7.5361     0.2382
  480.5000     7.1596     0.2369
  481.0000     6.8133     0.2412
  481.5000     7.1464     0.2412
  482.0000     7.1521     0.2291
  482.5000     7.0768     0.2342
  483.0000     7.1295     0.2327
  483.5000     7.4268     0.2297
  484.0000     7.2801     0.2301
  484.5000     7.2123     0.2352
  485.0000     7.6190     0.2394
  485.5000     7.5964     0.2418
  486.0000     7.7093     0.2409
  486.5000     7.6491     0.2330
  487.0000     7.9804     0.2364
  487.5000     8.1762     0.2364
