~VERSION INFORMATION
 VERS.                2.0:   CWLS LOG ASCII STANDARD - VERSION 2.0
 WRAP.                 NO:   ONE LINE PER DEPTH STEP
~WELL INFORMATION
#MNEM.UNIT      DATA TYPE    INFORMATION
#----------   ------------   ------------------------------
 STRT.F           36.0000:   START DEPTH
 STOP.F          493.0000:   STOP DEPTH
 STEP.F            0.5000:   STEP LENGTH
 NULL.          -999.2500:   NO VALUE
 COMP.    FENIX & SCISSON:   COMPANY
 WELL.       NPR #68-S-10:   WELL
 FLD .             TEAPOT:   FIELD
 LOC .      S10 T38N R78W:   LOCATION
 CNTY.            NATRONA:   COUNTY
 STAT.            WYOMING:   STATE
 CTRY. UNITED STATES OF AMERICA:   COUNTRY
 SRVC.              Welex:   SERVICE COMPANY
 DATE.        18-APR-1977:   LOGDATE
 API .       490251033500:   API NUMBER
~CURVE INFORMATION
#MNEM.UNIT       API CODE    CURVE DESCRIPTION
#----------   ------------   ------------------------------
 DEPT.F                  :   
 SPR .MV     07 010 01 00:   SPONTANEOUS POTENTIAL
 ILD .OHMM   07 120 46 00:   INDUCTION LOG DEEP
 ILM .OHMM   07 120 44 00:   INDUCTION LOG MEDIUM
 SGRD.OHMM   07 221 05 00:   SHALLOW SHORT GUARD RESISTIVITY
 CALD.IN     45 280 60 00:   CALIPER FROM DENSITY LOG
 GRD .GAPI   45 310 01 00:   GAMMA RAY FROM DENSITY LOG
 CORR.G/C3   45 356 01 00:   DENSITY CORRECTION
 RHOB.G/C3   45 350 01 00:   BULK DENSITY
 DPHI.DEC    45 890 12 00:   DENSITY POROSITY SANDSTONE
~PARAMETER INFORMATION
#MNEM.UNIT          VALUE    DESCRIPTION
#----------   ------------   ------------------------------
 PD  .                 GL:   PERMANENT DATUM
 EPD .F              5198:   ELEVATION PERMANENT DATUM
 LMF .                 GL:   LOG MEASURED FROM
 DMF .                 GL:   DRILLING MEASURED FROM
 EGL .F              5198:   GROUND LEVEL
 DATE.        18-APR-1977:   RUN DATE
 RUN .                  1:   RUN NUMBER
 DD  .F               505:   DEPTH DRILLER
 DL  .F               492:   DEPTH LOGGER
 BLI .F               490:   BOTTOM LOG INTERVAL
 TLI .F                32:   TOP LOG INTERVAL
 CS  .IN            8.625:   CASING SIZE
 CBD .F                40:   CASING BOTTOM DRILLER
 CBL .F                42:   CASING BOTTOM LOGGER
 BS  .IN            7.875:   BIT SIZE
 BSD .F               505:   BIT SIZE AT DEPTH
 DFT .            KCL MUD:   DRILLING FLUID TYPE
 DFV .                 36:   DRILLING FLUID VISCOSITY
 MSS .           FLOWLINE:   MUD SAMPLE SOURCE
 RMS .OHMM           2.46:   RESISTIVITY MUD SAMPLE
 MST .F                52:   MUD SAMPLE TEMPERATURE
 RMF .OHMM           2.30:   RESISTIVITY MUD FILTRATE SAMPLE
 MFST.F                52:   MUD FILTRATE SAMPLE TEMPERATURE
 RMC .OHMM           2.66:   RESISTIVITY MUD CAKE
 MCST.F                52:   MUD CAKE SAMPLE TEMPERATURE
 MFSS.               MEAS:   MUD FILTRATE SAMPLE SOURCE
 MCSS.               MEAS:   MUD CAKE SAMPLE SOURCE
 RMB .OHMM           1.97:   RESISTIVITY MUD AT BHT
 BHT .F                65:   BOTTOM HOLE TEMPERATURE
 TCS .HRS            0400:   TIME CURCULATED STOPPED
 MRT .F                65:   MAXIMUM RECORDED TEMPERATURE
 LUN .               8611:   LOGGING UNIT NUMBER
 LUL .             CASPER:   LOGGING UNIT LOCATION
 ENGI.               DOAK:   RECORDING ENGINEER
 WITN.            R. LYON:   WITNESSED BY
 CLNT.            A2DTECH:   CLIENT CODE
 ORIG.           5" PRINT:   ORIGIN OF DATA
 UWI .       490251033500:   UNIQUE WELL ID
 DICO. A2D Technologies, Inc.:   DIGITIZING COMPANY
~OTHER INFORMATION
~A   DEPT      SPR        ILD        ILM       SGRD         CALD       GRD      CORR       RHOB       DPHI   
   36.0000  -999.2500  -999.2500  -999.2500  -999.2500     8.2879    65.7258  -999.2500  -999.2500  -999.2500
   36.5000  -999.2500  -999.2500  -999.2500  -999.2500     8.2293    69.3106    -0.0434     2.0786  -999.2500
   37.0000  -999.2500  -999.2500  -999.2500  -999.2500     8.1412    71.8582    -0.0147     2.1437  -999.2500
   37.5000  -999.2500  -999.2500  -999.2500  -999.2500     8.1575    74.1083     0.0184     2.2044  -999.2500
   38.0000  -999.2500  -999.2500  -999.2500  -999.2500     8.2780    76.2095     0.0575     2.2351  -999.2500
   38.5000  -999.2500  -999.2500  -999.2500  -999.2500     8.2496    78.0131     0.0817     2.2239     0.2506
   39.0000  -999.2500  -999.2500  -999.2500  -999.2500     8.1317    75.7988     0.0758     2.2135     0.2589
   39.5000  -999.2500  -999.2500  -999.2500  -999.2500     8.0284    73.5845     0.0654     2.2158     0.2604
   40.0000  -999.2500  -999.2500  -999.2500  -999.2500     8.3728    73.0027     0.0580     2.2248     0.2532
   40.5000  -999.2500  -999.2500  -999.2500  -999.2500     8.4189    77.9357     0.0476     2.2331     0.2481
   41.0000  -999.2500  -999.2500  -999.2500  -999.2500     8.4050    81.2274     0.0372     2.2406     0.2448
   41.5000  -999.2500  -999.2500  -999.2500  -999.2500     8.5706    85.7096     0.0313     2.2467     0.2372
   42.0000   -44.5420  -999.2500  -999.2500  -999.2500     8.6912    93.1679     0.0239     2.2759     0.2213
   42.5000   -45.1057     4.3841     6.4966     7.8882     8.6329   102.4120     0.0240     2.3186     0.2027
   43.0000   -45.6619     5.0362     6.6830     7.6232     8.5597   107.6382     0.0241     2.3486     0.1826
   43.5000   -46.0847     5.0746     6.9702     8.7551     8.4716   110.0370     0.0257     2.3808     0.1634
   44.0000   -46.5282     5.1843     7.2198     9.1918     8.4279   111.8406     0.0318     2.4085     0.1433
   44.5000   -46.7669     5.7934     7.2748     9.1950     8.3700   110.9656     0.0409     2.4302     0.1292
   45.0000   -47.1823     6.6551     7.0817     9.1982     8.3117   109.1978     0.0500     2.4505     0.1205
   45.5000   -47.3008     7.0863     6.9402     8.7070     8.2385   107.7275     0.0531     2.4588     0.1133
   46.0000   -47.7161     7.3388     6.8498     8.0730     8.1654   105.9597     0.0487     2.4521     0.1186
   46.5000   -47.9995     6.6230     6.7606     8.1882     8.0922   105.2291     0.0428     2.4364     0.1255
   47.0000   -48.3984     5.6943     6.7188     9.0223     8.0190   107.7812     0.0384     2.4200     0.1339
   47.5000   -48.5169     5.8576     6.7245     9.5380     8.0051   111.9657     0.0325     2.4074     0.1404
   48.0000   -48.7839     6.8224     6.9175     7.0904     8.0217   115.5550     0.0281     2.4059     0.1461
   48.5000   -48.7537     7.3148     7.3150     6.5284     8.0230   117.6562     0.0252     2.4082     0.1434
   49.0000   -48.8727     7.3692     7.7890     9.0349     8.0244   119.7574     0.0253     2.4120     0.1398
   49.5000   -48.9936     6.8839     8.1800     9.6175     8.0105   118.8824     0.0254     2.4188     0.1361
   50.0000   -49.2582     6.5639     8.2994    10.8575     8.0121   116.5193     0.0255     2.4241     0.1331
   50.5000   -49.5251     6.7058     8.2480    13.2274     7.9982   114.3051     0.0226     2.4294     0.1295
   51.0000   -49.7923     6.9459     8.0290    14.2819     7.9999   112.0908     0.0137     2.4160     0.1343
   51.5000   -49.9106     7.1452     7.9779    11.6188     8.0013   110.7694     0.0078     2.4041     0.1417
   52.0000   -49.8808     7.2996     8.2650     9.5836     8.0026   110.4852     0.0034     2.3854     0.1537
   52.5000   -49.8510     7.4574     8.4437    11.3978     8.0039   110.3542     0.0005     2.3735     0.1626
   53.0000   -49.8212     7.5142     8.1630    11.3279     8.0202   110.3766    -0.0009     2.3593     0.1722
   53.5000   -49.9407     7.5194     7.8374    11.0273     8.0215   110.3945    -0.0008     2.3504     0.1776
   54.0000   -50.0594     7.5246     7.7340    11.7435     8.0378   110.1147    -0.0022     2.3520     0.1805
   54.5000   -50.3253     7.5298     7.6861    12.3766     8.0391   109.5373    -0.0020     2.3670     0.1715
   55.0000   -50.2955     7.5350     7.7460    11.7613     8.0405   108.8112    -0.0004     2.3760     0.1646
   55.5000   -50.5624     7.5402     7.8590    12.2680     8.0266   108.0850     0.0012     2.3790     0.1595
   56.0000   -50.8294     7.5454     8.2535    12.7085     8.0282   106.9124     0.0028     2.3828     0.1565
   56.5000   -50.8785     7.6029     8.5491    13.0742     8.0594   105.2934    -0.0016     2.3896     0.1528
   57.0000   -51.2424     7.7138     8.7944    12.8158     8.0756   103.8231    -0.0030     2.3971     0.1477
   57.5000   -51.6320     7.6120     8.8004    12.3889     8.0770   102.5017     0.0061     2.4092     0.1402
   58.0000   -52.0059     7.6186     8.8675    11.8933     8.0482   104.4541     0.0167     2.4242     0.1324
   58.5000   -52.2885     7.6238     9.1850    11.6565     8.0200   107.2994     0.0228     2.4362     0.1255
   59.0000   -52.4231     7.6819     9.5139    11.6774     8.0214   109.4006     0.0259     2.4392     0.1236
   59.5000   -52.5577     7.7940     9.7869    12.1174     8.0078   109.8604     0.0275     2.4453     0.1197
   60.0000   -52.8402     8.0176     9.8597    12.7976     7.9942   109.4318     0.0306     2.4558     0.1152
   60.5000   -52.8269     8.1346     9.7313    12.6666     7.9803   109.6030     0.0337     2.4656     0.1095
   61.0000   -52.8136     8.1966     9.6710    11.8540     7.9668   110.3649     0.0354     2.4664     0.1058
   61.5000   -52.8003     8.2590     9.8818    12.2122     7.9685   112.1685     0.0369     2.4642     0.1091
   62.0000   -52.7870     8.2647    10.0260    13.0950     7.9698   113.2280     0.0341     2.4493     0.1169
   62.5000   -52.7736     8.2704     9.8954    13.5652     7.9711   114.5852     0.0326     2.4329     0.1252
   63.0000   -52.7604     8.2761     9.8325    13.7616     7.9725   115.6447     0.0283     2.4240     0.1291
   63.5000   -52.7470     8.3392     9.6393    12.8556     7.9738   115.3650     0.0239     2.4188     0.1330
   64.0000   -52.7338     8.3449     9.5780    12.5992     7.9752   113.7460     0.0180     2.4061     0.1398
   64.5000   -52.7198     8.4667     9.5862    12.8751     7.9765   115.5495     0.0106     2.3949     0.1488
   65.0000   -52.7071     8.5312     9.5928    13.1545     7.9778   116.7579     0.0047     2.3898     0.1527
   65.5000   -52.6938     8.5962     9.5995    13.2556     7.9792   116.4781     0.0032     2.3913     0.1535
   66.0000   -52.8291     8.6617     9.6726    13.3575     7.9954   115.0079     0.0018     2.3943     0.1526
   66.5000   -52.8125     8.7276     9.8817    13.2756     7.9968   112.3472     0.0035     2.3974     0.1502
   67.0000   -52.7992     8.7941     9.8885    12.9238     8.0279   109.6865     0.0066     2.4012     0.1463
   67.5000   -52.7860     8.8002     9.9638    12.6660     8.0441   107.3234     0.0112     2.4065     0.1423
   68.0000   -52.7727     8.8063     9.9706    13.4907     8.0455   105.8532     0.0158     2.4133     0.1393
   68.5000   -52.7595     8.8123     9.9089    14.8711     8.0316   103.4901     0.0189     2.4178     0.1384
   69.0000   -52.7462     8.8795     9.7123    14.0826     8.0031   101.4247     0.0175     2.4126     0.1396
   69.5000   -52.7329     8.8856     9.5861    12.7947     8.0048    99.8056     0.0161     2.4224     0.1336
   70.0000   -52.8709     8.8290     9.4610    12.6264     7.9909    98.3354     0.0177     2.4344     0.1272
   70.5000   -53.1502     8.8367     9.2101    12.6384     7.9777    97.0095     0.0238     2.4487     0.1209
   71.0000   -53.1370     8.7820     9.1528    13.2742     7.9790    99.8593     0.0254     2.4562     0.1143
   71.5000   -53.2749     8.6673     9.1593    13.6562     7.9804   102.7045     0.0210     2.4555     0.1125
   72.0000   -53.2584     8.5547     9.2291    13.7612     7.9817   105.6986     0.0166     2.4511     0.1193
