~VERSION INFORMATION
 VERS.                2.0:   CWLS LOG ASCII STANDARD - VERSION 2.0
 WRAP.                 NO:   ONE LINE PER DEPTH STEP
~WELL INFORMATION
#MNEM.UNIT      DATA TYPE    INFORMATION
#----------   ------------   ------------------------------
 STRT.F            7.5000:   START DEPTH
 STOP.F         2886.0000:   STOP DEPTH
 STEP.F            0.5000:   STEP LENGTH
 NULL.          -999.2500:   NO VALUE
 COMP. LAWRENCE/ALLISON INC:   COMPANY
 WELL.     16-1 AX #21-21:   WELL
 FLD .             TEAPOT:   FIELD
 LOC .      S21 T39N R78W:   LOCATION
 CNTY.            NATRONA:   COUNTY
 STAT.            WYOMING:   STATE
 CTRY. UNITED STATES OF AMERICA:   COUNTRY
 SRVC.      Dresser Atlas:   SERVICE COMPANY
 DATE.        05-DEC-1986:   LOGDATE
 API .       490251111900:   API NUMBER
~CURVE INFORMATION
#MNEM.UNIT       API CODE    CURVE DESCRIPTION
#----------   ------------   ------------------------------
 DEPT.F                  :   
 GRR .GAPI   07 310 01 00:   GAMMA RAY FROM RES. LOG.
 SPR .MV     07 010 01 00:   SPONTANEOUS POTENTIAL
 RFOC.OHMM   07 220 04 00:   RESISTIVITY FOCUSED LOG
 RILM.OHMM   07 120 44 00:   INDUCTION LOG MEDIUM RESISTIVITY
 RILD.OHMM   07 120 46 00:   INDUCTION LOG DEEP RESISTIVITY
 CALD.IN     45 280 60 00:   CALIPER
 DEN .G/C3   45 350 01 00:   BULK DENSITY
 CORR.G/C3   45 356 01 00:   DENSITY CORRECTION
 CNC .DEC    42 890 03 00:   NEUTRON POROSITY SANDSTONE
 PORD.DEC    45 890 12 00:   DENSITY POROSITY SANDSTONE
~PARAMETER INFORMATION
#MNEM.UNIT          VALUE    DESCRIPTION
#----------   ------------   ------------------------------
 PD  .                 GL:   PERMANENT DATUM
 EPD .F              4992:   ELEVATION PERMANENT DATUM
 LMF .                 KB:   LOG MEASURED FROM
 DAPD.F                12:   FEET ABOVE PERMANENT DATUM
 DMF .                 KB:   DRILLING MEASURED FROM
 EKB .F              5004:   KELLING BUSHING
 EGL .F              4992:   GROUND LEVEL
 DATE.            12-5-86:   RUN DATE
 RUN .                  1:   RUN NUMBER
 DD  .F              2905:   DEPTH DRILLER
 DL  .F              2890:   DEPTH LOGGER
 BLI .F              2884:   BOTTOM LOG INTERVAL
 TLI .F              2200:   TOP LOG INTERVAL
 CS  .IN            8.625:   CASING SIZE
 CBD .F               300:   CASING BOTTOM DRILLER
 CBL .F               300:   CASING BOTTOM LOGGER
 BS  .IN            7.875:   BIT SIZE
 BSD .F              2905:   BIT SIZE AT DEPTH
 DFT .        KCL POLYMER:   DRILLING FLUID TYPE
 DFD .                  9:   DRILLING FLUID DENSITY
 DFV .                 36:   DRILLING FLUID VISCOSITY
 DFPH.                9.5:   DRILLING FLUID PH
 DFL .               11.8:   DRILLING FLUID LOSS
 MSS .            MUDTANK:   MUD SAMPLE SOURCE
 RMS .OHMM            .43:   RESISTIVITY MUD SAMPLE
 MST .F                63:   MUD SAMPLE TEMPERATURE
 RMF .OHMM           .348:   RESISTIVITY MUD FILTRATE SAMPLE
 MFST.F                63:   MUD FILTRATE SAMPLE TEMPERATURE
 RMC .OHMM           .538:   RESISTIVITY MUD CAKE
 MCST.F                63:   MUD CAKE SAMPLE TEMPERATURE
 MFSS.               MEAS:   MUD FILTRATE SAMPLE SOURCE
 MCSS.               CALC:   MUD CAKE SAMPLE SOURCE
 RMB .OHMM           .233:   RESISTIVITY MUD AT BHT
 BHT .F               116:   BOTTOM HOLE TEMPERATURE
 TCS .HRS             3.5:   TIME CURCULATED STOPPED
 MRT .F               116:   MAXIMUM RECORDED TEMPERATURE
 LUN .            HL-6274:   LOGGING UNIT NUMBER
 LUL .           GILLETTE:   LOGGING UNIT LOCATION
 ENGI.             RAUTIO:   RECORDING ENGINEER
 WITN.             STRONG:   WITNESSED BY
 CLNT.            A2DTECH:   CLIENT CODE
 ORIG.       2", 5" PRINT:   ORIGIN OF DATA
 UWI .       490251111900:   UNIQUE WELL ID
 DICO. A2D Technologies, Inc.:   DIGITIZING COMPANY
~OTHER INFORMATION
~A    DEPT     GRR        SPR       RFOC       RILM       RILD       CALD        DEN       CORR        CNC       PORD   
# ...
 2520.0000    99.6047   -38.2531     8.3486     6.1385     5.6302     8.4699     2.5576     0.0370     0.2394     0.0554
 2520.5000   104.6638   -38.2530     7.8640     6.0307     5.7172     8.4733     2.5668     0.0507     0.2460     0.0506
 2521.0000   111.8640   -38.2530     7.2854     6.0149     5.8920     8.4637     2.5604     0.0773     0.2470     0.0558
 2521.5000   116.9429   -38.2533     6.7494     5.9997     6.0738     8.4550     2.5502     0.0748     0.2414     0.0625
 2522.0000   116.2704   -38.2534     6.5565     5.9783     6.2897     8.4451     2.5423     0.0566     0.2380     0.0657
 2522.5000   110.0596   -38.2384     7.5373     5.9713     6.5345     8.4349     2.5482     0.0404     0.2328     0.0630
 2523.0000   105.3581   -38.1222     8.1191     6.8327     6.7882     8.4427     2.5577     0.0458     0.2252     0.0540
 2523.5000   105.6609   -38.0055     8.0138     7.5174     7.0494     8.4510     2.5690     0.0518     0.2137     0.0481
 2524.0000   105.8997   -37.8890     7.9696     7.9747     7.3581     8.4592     2.5706     0.0447     0.2070     0.0492
 2524.5000    99.7644   -37.7727     9.0854     8.4674     7.7085     8.4675     2.5669     0.0253     0.2027     0.0515
 2525.0000    93.3162   -37.6564    10.0541     8.9098     8.0814     8.4746     2.5666     0.0176     0.1986     0.0518
 2525.5000    86.8079   -37.5420    10.6306     8.9098     8.3513     8.4635     2.5717     0.0454     0.1961     0.0476
 2526.0000    85.3240   -37.4376    10.6306     8.9098     8.5053     8.4544     2.5772     0.0676     0.2025     0.0446
 2526.5000    88.0324   -37.1648    10.3268     8.8777     8.5053     8.4546     2.5785     0.0715     0.2115     0.0433
 2527.0000    91.2842   -36.8821     9.9937     8.6423     8.3664     8.4545     2.5780     0.0490     0.2175     0.0441
 2527.5000    92.8279   -36.9555     9.5909     8.4132     8.1821     8.4545     2.5775     0.0428     0.2185     0.0449
 2528.0000    94.0645   -37.0829     9.1737     8.1890     8.0018     8.4545     2.5744     0.0591     0.2196     0.0472
 2528.5000    93.3635   -37.2117     8.4391     7.9703     7.8228     8.4545     2.5657     0.0515     0.2204     0.0517
 2529.0000    92.3856   -37.3388     8.1191     7.9914     7.7776     8.4545     2.5577     0.0446     0.2207     0.0558
 2529.5000    92.8014   -37.4371     8.2842     8.0162     7.7504     8.4543     2.5613     0.0485     0.2247     0.0553
 2530.0000    93.6835   -37.3090     8.4049     8.0398     7.8074     8.4629     2.5623     0.0522     0.2288     0.0536
 2530.5000    94.5000   -37.3882     8.7212     8.3362     7.8484     8.4733     2.5598     0.0406     0.2292     0.0549
 2531.0000    91.6961   -37.7986     9.0770     8.7079     7.8895     8.4691     2.5574     0.0280     0.2112     0.0571
 2531.5000    86.8741   -38.2035    10.0130     8.9986     7.8958     8.4622     2.5598     0.0290     0.1980     0.0552
 2532.0000    84.3020   -38.5169    11.0005     8.5228     7.8328     8.4541     2.5659     0.0308     0.1937     0.0513
 2532.5000    85.7425   -38.6717    11.7750     7.8947     7.6986     8.5124     2.5717     0.0399     0.1957     0.0474
 2533.0000    87.7888   -38.8298    11.1238     7.8095     7.5665     8.4761     2.5723     0.0543     0.2062     0.0472
 2533.5000    90.7377   -38.8846     9.4341     7.7310     7.4001     8.4397     2.5682     0.0642     0.2177     0.0497
 2534.0000    97.3937   -38.9198     8.0829     7.6705     7.4665     8.4252     2.5642     0.0737     0.2244     0.0523
 2534.5000   103.3028   -38.9547     6.8048     7.6424     7.3322     8.4411     2.5614     0.0839     0.2254     0.0550
 2535.0000   102.2121   -38.9899     6.9972     7.6077     7.1498     8.4925     2.5635     0.0882     0.2265     0.0546
 2535.5000    98.6468   -39.0255     8.1526     7.6840     6.9957     8.4857     2.5704     0.0629     0.2280     0.0490
 2536.0000    96.5549   -39.0543     9.5907     7.8052     7.0431     8.4752     2.5773     0.0355     0.2292     0.0450
 2536.5000    98.7426   -39.0416    10.0541     7.9597     7.3328     8.4747     2.5783     0.0180     0.2321     0.0429
 2537.0000   101.2524   -39.1728     9.1925     8.1191     7.6344     8.4747     2.5714     0.0025     0.2321     0.0476
 2537.5000   102.0433   -38.9328     8.6113     8.4070     7.9487     8.4746     2.5592    -0.0107     0.2226     0.0537
 2538.0000   100.7905   -38.6908     8.0668     8.7088     8.2762     8.4743     2.5480    -0.0213     0.2143     0.0600
 2538.5000    96.0842   -38.4488     7.9696     9.0770     8.7452     8.5100     2.5489     0.0156     0.2062     0.0631
 2539.0000    88.9036   -38.3183     9.3803     9.0535     8.7133     8.4953     2.5645     0.0544     0.1974     0.0550
 2539.5000    81.7155   -38.7357    11.9789     9.0252     8.6567     8.4938     2.5788     0.0862     0.1888     0.0454
 2540.0000    76.2781   -39.0785    13.1642     8.9930     8.5856     8.5144     2.5860     0.0852     0.1825     0.0395
 2540.5000    81.2434   -39.1487    12.2607     9.0123     8.6745     8.5150     2.5762     0.0760     0.1908     0.0419
 2541.0000    87.5385   -39.2235    10.7388     9.0345     8.8116     8.5152     2.5653     0.0600     0.2055     0.0501
 2541.5000    92.3707   -39.2988     9.7552     9.0566     8.9098     8.5152     2.5554     0.0218     0.2300     0.0559
 2542.0000    95.4070   -39.3742     9.6872     9.0770     8.7332     8.5152     2.5560     0.0306     0.2294     0.0572
 2542.5000    96.6524   -39.4496     9.6872     8.6541     8.4305     8.5152     2.5563     0.0519     0.2204     0.0574
 2543.0000    95.7342   -39.5251     9.6276     8.2890     8.1191     8.5152     2.5565     0.0286     0.2275     0.0569
 2543.5000    94.9486   -39.6005     9.4054     8.1180     8.0012     8.5152     2.5626     0.0057     0.2365     0.0536
 2544.0000    94.4239   -39.6760     9.1032     8.0145     7.8768     8.5152     2.5693    -0.0042     0.2351     0.0488
 2544.5000    94.1318   -39.7514     8.8099     7.9555     7.7923     8.5152     2.5668     0.0457     0.2334     0.0478
 2545.0000    95.8721   -39.8272     8.5745     7.9306     7.7382     8.5151     2.5566     0.0362     0.2330     0.0565
 2545.5000    98.9217   -39.8452     8.2714     7.9058     7.6844     8.5132     2.5472     0.0312     0.2308     0.0635
 2546.0000   102.0845   -39.7583     8.3296     7.8810     7.6311     8.5080     2.5427     0.0257     0.2334     0.0652
 2546.5000   100.8346   -39.6714     8.6713     7.8564     7.5781     8.5029     2.5417     0.0223     0.2346     0.0663
 2547.0000    98.5660   -39.5846     9.0888     7.8228     7.5373     8.4980     2.5461     0.0200     0.2325     0.0648
 2547.5000    98.6082   -39.4980     9.3336     7.8924     7.6382     8.5060     2.5522     0.0206     0.2314     0.0602
 2548.0000    99.1086   -39.4114     8.9429     8.0039     7.7220     8.5319     2.5583     0.0252     0.2316     0.0538
 2548.5000    99.4087   -39.3247     8.7462     8.1169     7.8220     8.5330     2.5572     0.0307     0.2268     0.0542
 2549.0000    98.6496   -39.2381     8.9059     8.2315     7.9338     8.5301     2.5503     0.0439     0.2190     0.0614
 2549.5000    97.5655   -39.1511     9.1688     8.3477     8.0466     8.5272     2.5433     0.0367     0.2119     0.0667
 2550.0000    97.6607   -39.0603     9.7776     8.4655     8.1610     8.5244     2.5404     0.0288     0.2135     0.0638
 2550.5000    99.0211   -38.9521     9.8310     8.5850     8.2776     8.5215     2.5519     0.0230     0.2192     0.0572
 2551.0000   100.1724   -38.8372     9.8799     8.7061     8.3922     8.5187     2.5623     0.0304     0.2163     0.0510
 2551.5000    99.0535   -38.7220     9.9291     8.8292     8.5707     8.5157     2.5710     0.0381     0.2116     0.0487
 2552.0000    96.6416   -38.6067    10.0771     8.9838     8.6945     8.5152     2.5696     0.0347     0.2099     0.0492
 2552.5000    94.2725   -38.4915    10.4150     9.1980     8.8201     8.5152     2.5698     0.0220     0.2200     0.0484
 2553.0000    94.2710   -38.3762    10.6306     9.4208     8.9475     8.5152     2.5721     0.0198     0.2292     0.0469
