~VERSION INFORMATION
 VERS.                2.0:   CWLS LOG ASCII STANDARD - VERSION 2.0
 WRAP.                 NO:   ONE LINE PER DEPTH STEP
~WELL INFORMATION
#MNEM.UNIT      DATA TYPE    INFORMATION
#----------   ------------   ------------------------------
 STRT.F           34.0000:   START DEPTH
 STOP.F          534.0000:   STOP DEPTH
 STEP.F            0.5000:   STEP LENGTH
 NULL.          -999.2500:   NO VALUE
 COMP.    FENIX & SCISSON:   COMPANY
 WELL.      33 SX 3 #33-3:   WELL
 FLD .             TEAPOT:   FIELD
 LOC .       S3 T38N R78W:   LOCATION
 CNTY.            NATRONA:   COUNTY
 STAT.            WYOMING:   STATE
 CTRY. UNITED STATES OF AMERICA:   COUNTRY
 SRVC.       Schlumberger:   SERVICE COMPANY
 DATE.        23-FEB-1977:   LOGDATE
 API .       490251028500:   API NUMBER
~CURVE INFORMATION
#MNEM.UNIT       API CODE    CURVE DESCRIPTION
#----------   ------------   ------------------------------
 DEPT.F                  :   
 SPR .MV     07 010 01 00:   SPONTANEOUS POTENTIAL
 LL8 .OHMM   07 220 08 00:   LATEROLOG-8 RES.
 ILD .OHMM   07 120 46 00:   INDUCTION LOG DEEP
 ILM .OHMM   07 120 44 00:   INDUCTION LOG MEDIUM
 CALD.IN     45 280 60 00:   CALIPER
 GRD .GAPI   45 310 01 00:   GAMMA RAY FROM DENSITY LOG
 RHOB.G/C3   45 350 01 00:   BULK DENSITY
 DPOR.DEC    45 890 12 00:   DENSITY POROSITY SANDSTONE
 CORR.G/C3   45 356 01 00:   DENSITY CORRECTION
~PARAMETER INFORMATION
#MNEM.UNIT          VALUE    DESCRIPTION
#----------   ------------   ------------------------------
 PD  .                 GL:   PERMANENT DATUM
 EPD .F              5170:   ELEVATION PERMANENT DATUM
 LMF .                 KB:   LOG MEASURED FROM
 DAPD.F                 5:   FEET ABOVE PERMANENT DATUM
 DMF .                 KB:   DRILLING MEASURED FROM
 EKB .F              5175:   KELLING BUSHING
 EGL .F              5170:   GROUND LEVEL
 DATE.            2-23-77:   RUN DATE
 RUN .                  1:   RUN NUMBER
 DD  .F               550:   DEPTH DRILLER
 DL  .F               535:   DEPTH LOGGER
 BLI .F               525:   BOTTOM LOG INTERVAL
 TLI .F                47:   TOP LOG INTERVAL
 CS  .IN            8.625:   CASING SIZE
 CBD .F                40:   CASING BOTTOM DRILLER
 CBL .F                47:   CASING BOTTOM LOGGER
 BS  .IN            7.875:   BIT SIZE
 BSD .F               550:   BIT SIZE AT DEPTH
 DFT .                KCL:   DRILLING FLUID TYPE
 DFD .                  9:   DRILLING FLUID DENSITY
 DFV .                 36:   DRILLING FLUID VISCOSITY
 MSS .            MUDTANK:   MUD SAMPLE SOURCE
 RMS .OHMM           .255:   RESISTIVITY MUD SAMPLE
 MST .F                74:   MUD SAMPLE TEMPERATURE
 RMF .OHMM           .246:   RESISTIVITY MUD FILTRATE SAMPLE
 MFST.F                74:   MUD FILTRATE SAMPLE TEMPERATURE
 RMC .OHMM            .38:   RESISTIVITY MUD CAKE
 MCST.F                74:   MUD CAKE SAMPLE TEMPERATURE
 MFSS.                  M:   MUD FILTRATE SAMPLE SOURCE
 MCSS.                  C:   MUD CAKE SAMPLE SOURCE
 RMB .OHMM            .34:   RESISTIVITY MUD AT BHT
 BHT .F                55:   BOTTOM HOLE TEMPERATURE
 TCS .HRS            0600:   TIME CURCULATED STOPPED
 TLAB.HRS            0730:   TIME LOGGER AT BOTTOM
 MRT .F                55:   MAXIMUM RECORDED TEMPERATURE
 LUN .               5642:   LOGGING UNIT NUMBER
 LUL .               CSPR:   LOGGING UNIT LOCATION
 ENGI.                FIX:   RECORDING ENGINEER
 WITN.         STUEBINGER:   WITNESSED BY
 CLNT.            A2DTECH:   CLIENT CODE
 ORIG.       2", 5" PRINT:   ORIGIN OF DATA
 UWI .       490251028500:   UNIQUE WELL ID
 DICO. A2D Technologies, Inc.:   DIGITIZING COMPANY
~OTHER INFORMATION
~A   DEPT      SPR        LL8        ILD        ILM       CALD         GRD      RHOB       DPOR       CORR   
# ...
  289.5000   -25.1002    13.2426    11.4431    12.6816     8.7535    91.8614     2.4680     0.1189     0.0182
  290.0000   -24.0070    16.3038    12.5906    14.5207     8.7502    81.0565     2.4531     0.1326     0.0295
  290.5000   -22.9889    20.5232    13.8194    16.6250     8.7461    73.0730     2.4278     0.1449     0.0210
  291.0000   -22.1339    27.5049    15.1682    19.0305     8.7420    59.8315     2.3904     0.1627     0.0422
  291.5000   -21.2743    27.0784    16.6485    20.9518     8.7378    50.2352     2.3378     0.1804     0.0342
  292.0000   -20.1661    26.0500    18.2734    22.6222     8.7330    50.2195     2.2863     0.2138     0.0158
  292.5000   -18.8275    25.0627    20.0569    24.3974     8.7563    54.5952     2.2529     0.2425     0.0104
  293.0000   -17.9778    24.1149    21.6321    26.3119     8.7873    59.1309     2.3293     0.2061     0.0398
  293.5000   -17.4119    23.7114    22.2652    27.2457     8.7611    63.7717     2.3406     0.1839     0.0332
  294.0000   -16.6238    25.4559    22.3096    27.4228     8.7395    68.5152     2.3572     0.1649     0.0500
  294.5000   -16.1708    26.5018    22.3541    27.6524     8.7831    69.3834     2.4065     0.1516     0.0425
  295.0000   -15.2381    26.3250    22.3981    27.7533     8.7770    66.5953     2.3934     0.1572     0.0225
  295.5000   -14.2502    26.2583    22.4489    29.0023     8.7484    63.3544     2.3869     0.1633     0.0054
  296.0000   -13.2640    30.3449    22.2381    30.3636     8.7190    63.4106     2.3932     0.1579     0.0205
  296.5000   -12.5099    31.6082    21.8712    31.0035     8.6918    64.1705     2.3976     0.1570     0.0158
  297.0000   -12.2544    29.8749    21.5102    31.2910     8.7175    64.3999     2.3967     0.1552     0.0268
  297.5000   -11.9913    28.1416    21.1543    30.2747     8.7480    66.0721     2.4208     0.1387     0.0494
  298.0000   -11.7222    26.5135    20.8043    28.4569     8.7797    68.7847     2.4059     0.1543     0.0382
  298.5000   -11.0435    24.9830    20.4601    26.7483     8.8120    73.7699     2.3990     0.1520     0.0245
  299.0000   -10.3618    23.5409    20.1216    25.1423     8.8284    76.5110     2.4070     0.1469     0.0201
  299.5000    -9.9060    22.8637    19.7887    24.1654     8.8448    76.6604     2.4146     0.1461     0.0189
  300.0000    -9.6740    23.6968    19.4613    24.7313     8.8678    77.1823     2.3971     0.1649     0.0209
  300.5000    -9.4349    24.6523    19.3643    25.3082     8.8974    74.5277     2.3854     0.1604     0.0280
  301.0000    -9.5212    25.5413    19.6901    26.0157     8.9128    70.8521     2.3965     0.1524     0.0415
  301.5000    -9.6336    24.4920    20.0925    26.0124     8.8968    68.0904     2.4024     0.1549     0.0486
  302.0000    -9.7441    23.5011    21.0345    29.0079     8.8743    67.9312     2.3815     0.1657     0.0316
  302.5000    -9.8250    27.5394    22.1525    31.3076     8.8517    66.5983     2.3716     0.1725     0.0154
  303.0000    -9.8190    33.0982    23.3299    33.7895     8.8290    65.8105     2.3875     0.1585     0.0041
  303.5000    -9.4822    32.3670    24.5698    36.0889     8.8064    64.6655     2.3992     0.1637     0.0221
  304.0000    -9.1045    31.0347    25.8757    37.6721     8.7838    62.6876     2.3575     0.1783     0.0095
  304.5000    -8.7259    30.1569    26.8705    39.3247     8.7602    61.0801     2.3192     0.1935     0.0230
  305.0000    -8.3357    31.1652    27.7488    40.8932     8.7536    61.8591     2.2816     0.2267     0.0108
  305.5000    -8.2362    32.1694    28.6559    40.3519     8.7537    64.3092     2.2606     0.2405     0.0197
  306.0000    -8.2328    31.2234    29.5926    40.1454     8.7626    67.2821     2.2717     0.2361     0.0255
  306.5000    -8.2327    30.1569    30.3213    40.9884     8.7714    69.2683     2.2854     0.2309     0.0106
  307.0000    -8.2355    32.3337    29.4207    41.7535     8.7802    71.0564     2.3113     0.2100     0.0211
  307.5000    -8.4319    33.2753    28.5467    42.8101     8.7889    71.4192     2.3405     0.1896     0.0305
  308.0000    -8.6526    34.5497    27.6988    41.9006     8.7977    70.0141     2.3365     0.1929     0.0145
  308.5000    -8.8734    38.3376    26.8760    40.9454     8.8063    68.4260     2.3424     0.1839     0.0137
  309.0000    -9.0940    39.7766    26.0171    39.2676     8.8136    66.8085     2.3684     0.1745     0.0152
  309.5000    -9.3142    33.6124    25.2199    37.0536     8.8226    65.9351     2.3716     0.1729     0.0108
  310.0000    -9.5347    29.9240    24.4813    34.9579     8.8321    68.2005     2.3977     0.1565     0.0318
  310.5000    -9.7603    28.5324    23.7643    32.9806     8.8414    70.7243     2.3810     0.1734     0.0437
  311.0000    -9.9025    27.9177    23.0684    31.1152     8.8507    71.4393     2.3586     0.1840     0.0215
  311.5000   -10.0208    27.2797    22.3928    29.6054     8.8601    72.5403     2.3449     0.1893     0.0133
  312.0000   -10.1358    26.6282    21.7370    28.9464     8.8694    73.7223     2.3657     0.1757     0.0278
  312.5000   -10.2008    25.9696    21.0997    28.0866     8.8788    74.9191     2.3921     0.1581     0.0514
  313.0000   -10.1265    25.3273    20.4807    27.2523     8.8881    75.2529     2.3777     0.1659     0.0357
  313.5000   -10.0562    24.7033    20.0905    26.4428     8.8975    75.1264     2.3711     0.1725     0.0355
  314.0000   -10.1311    24.0946    19.7241    25.7781     8.9068    75.1282     2.3688     0.1701     0.0493
  314.5000   -10.3521    23.7000    19.7250    25.5413     8.9162    77.2705     2.3541     0.1812     0.0128
  315.0000   -10.6616    23.6196    19.7250    25.3066     8.9258    78.8315     2.3636     0.1725     0.0204
  315.5000   -11.0112    23.5403    19.7250    25.5413     8.9354    80.1981     2.3733     0.1711     0.0296
  316.0000   -11.3623    23.3672    19.7250    25.4493     8.9450    79.8907     2.3818     0.1640     0.0342
  316.5000   -11.7123    22.9890    19.9079    25.3905     8.9546    78.7467     2.3779     0.1668     0.0169
  317.0000   -11.8040    22.6163    19.9079    25.3348     8.9641    79.4522     2.3729     0.1709     0.0047
  317.5000   -11.8069    22.2393    20.0751    25.3030     8.9724    80.2192     2.3825     0.1688     0.0192
  318.0000   -11.8104    22.2393    20.2946    25.7800     8.9682    80.3201     2.3740     0.1649     0.0086
  318.5000   -11.6152    22.8231    20.5166    25.7742     8.9639    78.5989     2.3617     0.1785     0.0049
  319.0000   -11.3461    23.3331    20.7411    26.5547     8.9597    78.8933     2.3665     0.1746     0.0165
  319.5000   -11.0753    23.8552    20.9679    27.1383     8.9555    79.1485     2.3708     0.1705     0.0316
  320.0000   -10.8044    24.3885    21.1973    27.7334     8.9513    78.7563     2.3645     0.1773     0.0119
  320.5000   -10.5334    24.6260    21.4333    28.3406     8.9471    75.9058     2.3506     0.1847     0.0180
  321.0000   -10.2625    24.6540    21.9772    28.9587     8.9429    76.1385     2.3428     0.1893     0.0260
  321.5000   -10.0214    24.6818    22.4263    29.6140     8.9388    76.4901     2.3465     0.1884     0.0249
  322.0000   -10.0188    24.7096    22.8846    29.2811     8.9342    76.8324     2.3529     0.1855     0.0242
  322.5000   -10.0202    24.7375    23.0784    28.5340     8.9209    77.6588     2.3622     0.1797     0.0379
  323.0000   -10.0821    24.7651    23.0748    28.6773     8.8791    77.8443     2.3714     0.1749     0.0486
  323.5000   -10.2054    24.7920    22.7812    28.9196     8.8387    76.8020     2.3777     0.1701     0.0604
  324.0000   -10.3308    24.8389    22.4891    29.0628     8.7984    76.7107     2.3596     0.1689     0.0468
  324.5000   -10.4929    24.8497    22.2002    28.3511     8.7577    77.1240     2.3480     0.1853     0.0337
  325.0000   -10.7749    24.3895    21.9151    27.7661     8.7155    77.5376     2.3827     0.1773     0.0573
  325.5000   -11.0505    23.8321    21.6337    27.1944     8.7133    77.9903     2.3797     0.1673     0.0478
