~VERSION INFORMATION
 VERS.                2.0:   CWLS LOG ASCII STANDARD - VERSION 2.0
 WRAP.                 NO:   ONE LINE PER DEPTH STEP
~WELL INFORMATION
#MNEM.UNIT      DATA TYPE    INFORMATION
#----------   ------------   ------------------------------
 STRT.F           30.0000:   START DEPTH
 STOP.F          732.0000:   STOP DEPTH
 STEP.F            0.5000:   STEP LENGTH
 NULL.          -999.2500:   NO VALUE
 COMP. FENIX & SCISSON INC:   COMPANY
 WELL.        31-S #31-14:   WELL
 FLD .             TEAPOT:   FIELD
 LOC .      S14 T38N R78W:   LOCATION
 CNTY.            NATRONA:   COUNTY
 STAT.            WYOMING:   STATE
 CTRY. UNITED STATES OF AMERICA:   COUNTRY
 SRVC.              Welex:   SERVICE COMPANY
 DATE.        16-FEB-1977:   LOGDATE
 API .       490251027300:   API NUMBER
~CURVE INFORMATION
#MNEM.UNIT       API CODE    CURVE DESCRIPTION
#----------   ------------   ------------------------------
 DEPT.F                  :   
 CALD.IN     45 280 60 00:   CALIPER FROM DENSITY LOG
 CORR.G/C3   45 356 01 00:   DENSITY CORRECTION
 DPHI.DEC    45 890 12 00:   DENSITY POROSITY SANDSTONE
 GRD .GAPI   45 310 01 00:   GAMMA RAY FROM DENSITY LOG
 RHOB.G/C3   45 350 01 00:   BULK DENSITY
 GURD.OHMM   07 270 05 00:   SHALLOW SHORT GUARD RESISTIVITY
 ILM .OHMM   07 120 44 00:   INDUCTION LOG MEDIUM
 ILD .OHMM   07 120 46 00:   INDUCTION LOG DEEP
 SPR .MV     07 010 01 00:   SPONTANEOUS POTENTIAL
~PARAMETER INFORMATION
#MNEM.UNIT          VALUE    DESCRIPTION
#----------   ------------   ------------------------------
 PD  .                 GL:   PERMANENT DATUM
 EPD .F              5186:   ELEVATION PERMANENT DATUM
 LMF .                 GL:   LOG MEASURED FROM
 DMF .                 GL:   DRILLING MEASURED FROM
 EKB .F              5195:   KELLING BUSHING
 EGL .F              5186:   GROUND LEVEL
 DATE.        16-FEB-1977:   RUN DATE
 RUN .                  1:   RUN NUMBER
 DD  .F               740:   DEPTH DRILLER
 DL  .F               736:   DEPTH LOGGER
 BLI .F               734:   BOTTOM LOG INTERVAL
 TLI .F                30:   TOP LOG INTERVAL
 CS  .IN            8.625:   CASING SIZE
 CBD .F                40:   CASING BOTTOM DRILLER
 CBL .F                44:   CASING BOTTOM LOGGER
 BS  .IN            7.875:   BIT SIZE
 BSD .F               740:   BIT SIZE AT DEPTH
 DFT .   OIL EMULSION MUD:   DRILLING FLUID TYPE
 DFD .                8.3:   DRILLING FLUID DENSITY
 DFV .                 48:   DRILLING FLUID VISCOSITY
 DFPH.               10.5:   DRILLING FLUID PH
 DFL .                7.5:   DRILLING FLUID LOSS
 MSS .           FLOWLINE:   MUD SAMPLE SOURCE
 RMS .OHMM           0.80:   RESISTIVITY MUD SAMPLE
 MST .F                64:   MUD SAMPLE TEMPERATURE
 RMF .OHMM           0.68:   RESISTIVITY MUD FILTRATE SAMPLE
 MFST.F                64:   MUD FILTRATE SAMPLE TEMPERATURE
 RMC .OHMM           1.01:   RESISTIVITY MUD CAKE
 MCST.F                63:   MUD CAKE SAMPLE TEMPERATURE
 MFSS.               MEAS:   MUD FILTRATE SAMPLE SOURCE
 MCSS.               MEAS:   MUD CAKE SAMPLE SOURCE
 RMB .OHMM           0.74:   RESISTIVITY MUD AT BHT
 BHT .F                69:   BOTTOM HOLE TEMPERATURE
 TCS .HRS               5:   TIME CURCULATED STOPPED
 MRT .F                69:   MAXIMUM RECORDED TEMPERATURE
 LUN .               8611:   LOGGING UNIT NUMBER
 LUL .           GILLETTE:   LOGGING UNIT LOCATION
 ENGI.           D.LAWSON:   RECORDING ENGINEER
 WITN.             K.JAPP:   WITNESSED BY
 CLNT.            A2DTECH:   CLIENT CODE
 ORIG.         2.5" PRINT:   ORIGIN OF DATA
 UWI .       490251027300:   UNIQUE WELL ID
 DICO. A2D Technologies, Inc.:   DIGITIZING COMPANY
~OTHER INFORMATION
~A   DEPT       CALD      CORR      DPHI         GRD        RHOB     GURD        ILM        ILD        SPR   
# ...
   66.5000     8.2356     0.2013     0.1904   111.1395     2.3190   769.1246     4.6857     3.5351   -46.6869
   67.0000     8.1964     0.1950     0.2053   111.5351     2.2759   756.5475     4.2866     2.9852   -46.6852
   67.5000     8.1627     0.1826     0.2256   109.6439     2.2389   737.1358     3.7669     2.7540   -46.6838
   68.0000     8.0993     0.1733     0.2424   108.7537     2.2299   711.1075     3.3557     2.6642   -46.6824
   68.5000     8.0254     0.1628     0.2407   107.8635     2.2407   667.6943     3.1822     2.6638   -46.6810
   69.0000     7.9952     0.1589     0.2068   107.2542     2.2944   616.8895     3.2068     2.7753   -46.6795
   69.5000     7.9650     0.1588     0.1783   106.6766     2.3726   599.2459     3.3429     2.8916   -46.6071
   70.0000     7.9347     0.1587     0.1617   106.7557     2.3950   721.4393     3.6313     3.0544   -46.3798
   70.5000     7.9341     0.1586     0.1489   108.5282     2.4024   784.0262     3.9990     3.3162   -46.2416
   71.0000     7.9335     0.1555     0.1481   111.6973     2.4039   778.0656     4.2960     3.5605   -46.0801
   71.5000     7.9433     0.1524     0.1499   114.0950     2.4070   771.9162     4.5546     3.7728   -45.7817
   72.0000     8.0055     0.1491     0.1496   115.5786     2.4102   765.6277     4.8073     3.9977   -45.7803
   72.5000     8.0800     0.1462     0.1463   116.1721     2.4133   759.3392     5.0193     4.2945   -45.4821
   73.0000     8.1092     0.1461     0.1433   115.2819     2.4165   751.8784     5.1692     4.5504   -45.4763
   73.5000     8.1383     0.1460     0.1398   113.7903     2.4197   743.7819     5.3486     4.7344   -45.1452
   74.0000     8.1673     0.1503     0.1362   112.5045     2.4234   739.3213     5.3507     4.8656   -44.8140
   74.5000     8.1668     0.1518     0.1332   110.9931     2.4264   742.3016     5.4268     5.0003   -44.4829
   75.0000     8.1662     0.1517     0.1314   110.1385     2.4235   757.2033     5.4289     5.0688   -44.2878
   75.5000     8.1656     0.1516     0.1309   110.3680     2.4205   763.1639     5.4311     5.1382   -44.1175
   76.0000     8.1650     0.1515     0.1317   110.9931     2.4160   757.0443     5.4166     5.1535   -43.9879
   76.5000     8.1644     0.1514     0.1344   111.7211     2.4114   750.7559     5.3366     5.2322   -43.6898
   77.0000     8.1637     0.1513     0.1380   111.7923     2.4079   744.4674     5.1862     5.1748   -43.6884
   77.5000     8.1631     0.1512     0.1415   111.1276     2.4032   738.1788     5.0400     5.0653   -43.6869
   78.0000     8.1626     0.1511     0.1445   110.5341     2.3991   727.4397     4.8766     4.9274   -43.6855
   78.5000     8.1620     0.1510     0.1493   110.2374     2.3940   712.4984     4.7464     4.7280   -43.6840
   79.0000     8.1318     0.1509     0.1547   110.5895     2.3881   700.5770     4.6197     4.4138   -43.6825
   79.5000     8.1609     0.1508     0.1603   111.5984     2.3821   688.6558     4.4952     4.1752   -43.6810
   80.0000     8.1602     0.1537     0.1646   112.8487     2.3747   679.7148     4.3685     3.9395   -43.6795
   80.5000     8.1596     0.1536     0.1683   113.9486     2.3687   670.6446     4.3040     3.7294   -43.6778
   81.0000     8.1590     0.1535     0.1715   113.5015     2.3625   667.7935     4.2030     3.6724   -43.6764
   81.5000     8.1880     0.1504     0.1712   112.6113     2.3600   668.5782     4.1477     3.6397   -43.6750
   82.0000     8.1875     0.1471     0.1659   112.9080     2.3713   674.8667     4.2071     3.6391   -43.6766
   82.5000     8.2166     0.1442     0.1528   113.2048     2.3948   688.5564     4.2669     3.7399   -43.9689
   83.0000     8.2467     0.1441     0.1415   114.1068     2.4180   715.4787     4.3874     3.8966   -43.9674
   83.5000     8.2748     0.1440     0.1325   113.3274     2.4344   739.3213     4.7009     4.0598   -43.9659
   84.0000     8.2742     0.1483     0.1272   111.1988     2.4433   760.1836     5.1151     4.3550   -43.9644
   84.5000     8.2736     0.1498     0.1276   109.8338     2.4419   763.1639     5.5829     4.6758   -43.6662
   85.0000     8.2730     0.1497     0.1303   109.3472     2.4328   760.0843     6.0706     4.9545   -43.6645
   85.5000     8.2723     0.1496     0.1341   109.5173     2.4222   757.2033     6.3482     5.2498   -43.6631
   86.0000     8.2717     0.1495     0.1349   110.8309     2.4182   754.2230     6.5932     5.6011   -43.3649
   86.5000     8.2712     0.1494     0.1303   111.7211     2.4243   758.2861     6.7341     5.8762   -43.0668
   87.0000     8.3003     0.1525     0.1273   113.5015     2.4329   767.3958     6.7367     5.9567   -43.0302
   87.5000     8.2997     0.1552     0.1255   115.8754     2.4403   784.0262     6.7393     5.8747   -42.6991
   88.0000     8.2991     0.1551     0.1273   118.9377     2.4272   778.0656     6.7419     5.5601   -42.3680
   88.5000     8.2985     0.1550     0.1300   120.1563     2.4109   769.1246     6.7391     5.2538   -42.0368
   89.0000     8.2915     0.1535     0.1368   120.6231     2.3872   757.2033     6.6397     4.8783   -41.8724
   89.5000     8.2677     0.1488     0.1484   120.1998     2.3661   742.0930     6.3400     4.4713   -42.1677
   90.0000     8.2670     0.1404     0.1641   119.7329     2.3459   722.8303     5.9530     4.0982   -42.1660
   90.5000     8.2367     0.1341     0.1863   120.3264     2.3283   698.4015     5.3848     3.7304   -42.1646
   91.0000     8.2065     0.1269     0.2050   122.1068     2.3018   679.5358     4.6658     3.2526   -42.1632
   91.5000     8.1758     0.1149     0.2175   124.7775     2.2799   657.6901     4.0135     2.8350   -42.4585
   92.0000     8.1460     0.1090     0.2276   126.8546     2.2674   637.1162     3.4524     2.4711   -42.4570
   92.5000     8.1454     0.1060     0.2318   128.3383     2.2744   614.1475     3.2692     2.2138   -42.7525
   93.0000     8.1448     0.1093     0.2281   127.5905     2.2938   599.2459     4.0411     2.0341   -42.7507
   93.5000     8.1442     0.1186     0.2068   125.0861     2.3250   673.7541     4.6489     1.9143   -43.0460
   94.0000     8.1435     0.1249     0.1718   119.8872     2.3564   736.4604     4.9620     1.7546   -43.0443
   94.5000     8.1429     0.1312     0.1518   113.2206     2.3765   751.2426     5.0114     1.5774   -43.3396
   95.0000     8.1721     0.1405     0.1474   110.2374     2.3900   750.5472     4.8737     1.4549   -43.3382
   95.5000     8.2012     0.1448     0.1445   109.9407     2.4015   743.2356     4.0825     1.7277   -43.6335
   96.0000     8.2026     0.1478     0.1421   110.8309     2.4134   732.0095     2.4577     3.1171   -43.9289
   96.5000     8.2297     0.1478     0.1398   112.6113     2.4228   727.4000     1.7445     4.9025   -44.2242
   97.0000     8.2588     0.1478     0.1380   115.0089     2.4263   727.4000     2.1738     5.2501   -44.3220
   97.5000     8.2582     0.1478     0.1355   116.8843     2.4278   733.3607     3.9214     5.4776   -44.6501
   98.0000     8.2576     0.1507     0.1336   118.3205     2.4308   742.3016     4.7490     5.6216   -44.8131
   98.5000     8.2569     0.1537     0.1318   117.7468     2.4323   748.2722     5.2388     5.6985   -45.4048
   99.0000     8.2266     0.1567     0.1309   117.0623     2.4338   751.2426     5.9214     5.7764   -45.4034
   99.5000     8.2296     0.1597     0.1312   118.1543     2.4320   743.9507     5.9697     5.6969   -45.6988
  100.0000     8.2255     0.1597     0.1326   120.3264     2.4289   730.3804     5.8550     5.4662   -45.6973
  100.5000     8.2277     0.1537     0.1362   119.2378     2.4237   701.5903     5.7772     5.2450   -45.6958
  101.0000     8.2323     0.1519     0.1404   117.0806     2.4151   668.4886     5.6232     5.0768   -45.6944
  101.5000     8.2369     0.1499     0.1463   114.9233     2.4057   652.8322     5.4720     4.8491   -45.9898
  102.0000     8.2415     0.1478     0.1525   112.9141     2.3939   784.0262     5.1659     4.6213   -45.9881
  102.5000     8.2461     0.1458     0.1588   112.6187     2.3805   791.7252     4.7954     4.4193   -45.9866
