~VERSION INFORMATION
 VERS.                2.0:   CWLS LOG ASCII STANDARD - VERSION 2.0
 WRAP.                 NO:   ONE LINE PER DEPTH STEP
~WELL INFORMATION
#MNEM.UNIT      DATA TYPE    INFORMATION
#----------   ------------   ------------------------------
 STRT.F           24.5000:   START DEPTH
 STOP.F          750.0000:   STOP DEPTH
 STEP.F            0.5000:   STEP LENGTH
 NULL.          -999.2500:   NO VALUE
 COMP. FENIX & SCISSON INC:   COMPANY
 WELL.    NPR 3 SX #35-11:   WELL
 FLD .          N.P.R. #3:   FIELD
 LOC .      S11 T38N R78W:   LOCATION
 CNTY.            NATRONA:   COUNTY
 STAT.            WYOMING:   STATE
 CTRY. UNITED STATES OF AMERICA:   COUNTRY
 SRVC.            Unknown:   SERVICE COMPANY
 DATE.        23-FEB-1978:   LOGDATE
 API .       490251027200:   API NUMBER
~CURVE INFORMATION
#MNEM.UNIT       API CODE    CURVE DESCRIPTION
#----------   ------------   ------------------------------
 DEPT.F                  :   
 ILM .OHMM   07 120 44 00:   INDUCTION LOG MEDIUM
 ILD .OHMM   07 120 46 00:   INDUCTION LOG DEEP
 LL8 .OHMM   07 220 08 00:   LATEROLOG-8 RES.
 SPR .MV     07 010 01 00:   SPONTANEOUS POTENTIAL
 CALD.IN     45 280 60 00:   CALIPER FROM DENSITY LOG
 CORR.G/C3   45 356 01 00:   DENSITY CORRECTION
 DPHI.DEC    45 890 12 00:   DENSITY POROSITY SANDSTONE
 GRD .GAPI   45 310 01 00:   GAMMA RAY FROM DENSITY LOG
 RHOB.G/C3   45 350 01 00:   BULK DENSITY
 IL  .OHMM   05 120 40 00:   INDUCTION RESISTIVITY
 SN  .OHMM   05 040 16 00:   SHORT NORMAL 16"
 SPR1.MV     05 010 01 00:   SPONTANEOUS POTENTIAL INDUCTION ELECTRICAL LOG
~PARAMETER INFORMATION
#MNEM.UNIT          VALUE    DESCRIPTION
#----------   ------------   ------------------------------
 PD  .                 GL:   PERMANENT DATUM
 EPD .F              5204:   ELEVATION PERMANENT DATUM
 LMF .                 KB:   LOG MEASURED FROM
 DAPD.F                 4:   FEET ABOVE PERMANENT DATUM
 DMF .                 KB:   DRILLING MEASURED FROM
 EKB .F              5208:   KELLING BUSHING
 EGL .F              5204:   GROUND LEVEL
 DATE.        23-FEB-1978:   RUN DATE
 RUN .                  1:   RUN NUMBER
 DD  .F               755:   DEPTH DRILLER
 DL  .F               751:   DEPTH LOGGER
 BLI .F               745:   BOTTOM LOG INTERVAL
 TLI .F                45:   TOP LOG INTERVAL
 CS  .IN            8.625:   CASING SIZE
 CBD .F                40:   CASING BOTTOM DRILLER
 CBL .F                40:   CASING BOTTOM LOGGER
 BS  .IN            7.875:   BIT SIZE
 BSD .F               755:   BIT SIZE AT DEPTH
 DFT .         LIGNO SULF:   DRILLING FLUID TYPE
 DFD .                8.7:   DRILLING FLUID DENSITY
 DFV .                 33:   DRILLING FLUID VISCOSITY
 DFPH.                 10:   DRILLING FLUID PH
 DFL .                  4:   DRILLING FLUID LOSS
 MSS .           FLOWLINE:   MUD SAMPLE SOURCE
 RMS .OHMM            2.0:   RESISTIVITY MUD SAMPLE
 MST .F                60:   MUD SAMPLE TEMPERATURE
 RMF .OHMM            1.9:   RESISTIVITY MUD FILTRATE SAMPLE
 MFST.F                62:   MUD FILTRATE SAMPLE TEMPERATURE
 RMC .OHMM            3.5:   RESISTIVITY MUD CAKE
 MCST.F                60:   MUD CAKE SAMPLE TEMPERATURE
 MFSS.               MEAS:   MUD FILTRATE SAMPLE SOURCE
 RMB .OHMM           1.69:   RESISTIVITY MUD AT BHT
 BHT .F                71:   BOTTOM HOLE TEMPERATURE
 TCS .HRS               3:   TIME CURCULATED STOPPED
 MRT .F                71:   MAXIMUM RECORDED TEMPERATURE
 CLNT.            A2DTECH:   CLIENT CODE
 ORIG.           5" PRINT:   ORIGIN OF DATA
 UWI .       490251027200:   UNIQUE WELL ID
 DICO. A2D Technologies, Inc.:   DIGITIZING COMPANY
~OTHER INFORMATION
~A   DEPT      ILM        ILD        LL8        SPR       CALD       CORR       DPHI         GRD      RHOB         IL         SN       SPR1   
# ...
  472.5000     8.4000     8.1758     8.5751   -29.5937     8.2089     0.0173     0.1020   116.2514     2.4806     2.5235     2.8912   -34.8509
  473.0000     8.2348     8.0707     8.5233   -29.7207     8.2113     0.0095     0.1291   117.6146     2.4549     2.4896     2.8726   -34.9853
  473.5000     8.0172     7.9642     8.4134   -29.8519     8.2286     0.0130     0.1345   119.2754     2.4348     2.5091     2.8539   -35.1197
  474.0000     7.7518     7.7541     8.3625   -29.8276     8.2310     0.0212     0.1278   120.0374     2.4320     2.7327     2.8551   -35.1003
  474.5000     7.5470     7.2922     8.2443   -29.6596     8.2334     0.0190     0.1235   113.5197     2.4442     3.0427     2.9781   -34.7485
  475.0000     7.1969     7.0974     7.8092   -29.6401     8.2358     0.0200     0.1202   111.1627     2.4511     3.4353     3.5705   -34.7742
  475.5000     7.0555     7.0062     7.4926   -29.3235     8.2379     0.0216     0.1228   110.7342     2.4452     4.0543     3.9951   -35.0011
  476.0000     6.8219     6.4985     7.0010   -28.8583     8.2551     0.0187     0.1291   115.8237     2.4370     4.4340     4.5223   -35.4401
  476.5000     6.1988     5.9862     6.5826   -28.2445     8.2579     0.0158     0.1360   118.0797     2.4296     4.8558     5.6350   -35.8276
  477.0000     5.3670     5.2542     6.2435   -27.6307     8.2599     0.0197     0.1324   117.0620     2.4229     5.2105     5.9934   -36.1684
  477.5000     4.6468     4.5687     5.7888   -27.4666     8.2625     0.0266     0.1254   116.0443     2.4328     5.3220     6.1589   -36.6074
  478.0000     3.7810     4.0479     5.3717   -27.2987     8.2647     0.0222     0.1540   114.1337     2.3976     5.4358     6.1614   -36.8683
  478.5000     3.3192     3.3621     4.9182   -26.9822     8.2675     0.0186     0.1690   112.2231     2.3721     5.4377     6.1640   -36.7883
  479.0000     3.0785     3.0970     4.5627   -27.1120     8.2694     0.0217     0.1855   110.6101     2.3526     5.3274     6.1665   -36.6180
  479.5000     2.8368     2.8138     3.7902   -27.0783     8.2723     0.0271     0.2002   109.4435     2.3204     5.1834     6.1687   -36.4477
  480.0000     2.5248     2.5741     3.4440   -26.6270     8.2592     0.0250     0.2345   108.8722     2.2783     5.0432     6.1712   -36.2774
  480.5000     2.4581     2.4208     2.8413   -26.0074     8.2466     0.0372     0.2495   108.1521     2.2446     4.9409     6.1313   -36.0347
  481.0000     2.4093     2.4225     2.4096   -24.8034     8.2198     0.0682     0.2474   107.1344     2.2444     4.8741     5.6817   -35.7872
  481.5000     2.4622     2.4749     2.4451   -24.1916     8.2039     0.0608     0.2516   106.1166     2.2509     4.8085     5.4137   -35.5392
  482.0000     2.6586     2.6535     2.6040   -23.5778     8.1769     0.0398     0.2386   106.7358     2.2411     4.7769     5.3405   -35.1362
  482.5000     2.8906     2.9247     3.1183   -23.8555     8.1519     0.0257     0.2102   113.9026     2.2774     4.7458     5.2688   -34.8272
  483.0000     3.3211     3.2910     4.1991   -24.8762     8.1394     0.0212     0.1704   119.2837     2.3129     4.7475     5.2350   -34.7425
  483.5000     3.6611     3.8333     5.3878   -25.4511     8.1419     0.0229     0.1396   121.2421     2.3891     4.7822     5.2371   -34.7246
  484.0000     4.4451     4.3733     6.4520   -26.0260     8.1741     0.0147     0.1405   122.0101     2.4163     4.8508     5.2759   -34.7974
  484.5000     4.8664     4.9895     7.1123   -26.4524     8.1870     0.0096     0.1374   122.0340     2.4195     4.9545     5.5804   -34.9318
  485.0000     5.5146     5.4994     7.0679   -27.0273     8.2091     0.0082     0.1281   122.0580     2.4226     5.1324     5.7005   -35.2582
  485.5000     5.9957     6.0614     7.0251   -27.6070     8.2259     0.0084     0.1244   122.9747     2.4355     5.3171     5.9461   -35.4012
  486.0000     6.4740     6.5893     6.9346   -28.0285     8.2134     0.0100     0.1310   124.7844     2.4341     5.5085     6.4220   -35.4845
  486.5000     6.6607     6.6384     6.7050   -28.1625     8.2158     0.0146     0.1319   126.7428     2.4252     5.7530     6.9360   -35.6189
  487.0000     6.3959     6.4458     6.7584   -28.4354     8.2182     0.0212     0.1222   126.3532     2.4344     6.0702     7.4391   -35.9663
  487.5000     6.1828     6.2332     6.8581   -28.7180     8.2206     0.0288     0.1146   124.0079     2.4556     6.3305     7.8139   -36.2962
  488.0000     6.0612     5.9922     6.9592   -28.6936     8.2230     0.0301     0.1116   122.1528     2.4700     6.6019     7.9267   -36.4711
  488.5000     5.8931     5.6701     7.1107   -28.8276     8.2254     0.0483     0.1130   121.6242     2.4653     6.7431     7.9301   -36.3767
  489.0000     5.5684     5.3299     7.3158   -28.9568     8.2278     0.0362     0.1027   122.5893     2.4868     6.7924     7.8782   -36.2064
  489.5000     5.1271     5.0204     7.4750   -28.9325     8.2152     0.0297     0.1174   124.0794     2.4591     6.7948     7.8816   -36.4515
  490.0000     4.7722     4.8164     7.5836   -28.7644     8.2177     0.0298     0.1301   125.5953     2.4404     6.7971     7.8309   -36.8830
  490.5000     4.6149     4.6291     5.6814   -28.5964     8.2046     0.0367     0.1363   126.7936     2.4239     6.7051     7.7798   -36.4162
  491.0000     4.4937     4.4750     3.9164   -27.9826     8.2076     0.0414     0.1544   127.3986     2.3962     6.6155     7.7282   -35.5004
  491.5000     4.3776     4.2978     4.1430   -26.9230     8.2098     0.0272     0.1793   124.4323     2.3707     6.5266     7.6245   -35.1833
  492.0000     4.2903     4.2420     6.0189   -27.6465     8.2122     0.0175     0.1844   117.3275     2.3497     6.4388     7.4707   -35.1657
  492.5000     4.2655     4.2450     5.4692   -28.5186     8.1993     0.0139     0.1615   115.1192     2.3770     6.3522     7.3697   -35.4474
  493.0000     4.5113     4.4275     5.1786   -29.0984     8.2023     0.0163     0.1551   114.6964     2.3937     6.2668     7.3216   -35.7292
  493.5000     4.7714     4.6820     5.7892   -29.3761     8.2047     0.0217     0.1427   118.8873     2.4051     6.1825     7.1740   -36.0109
  494.0000     5.0813     5.0548     6.8851   -29.6539     8.2218     0.0203     0.1345   123.3756     2.4202     6.0994     6.9799   -36.4423
  494.5000     5.4114     5.4197     6.5658   -29.9267     8.2241     0.0159     0.1258   126.8221     2.4324     5.8934     6.7439   -36.8738
  495.0000     5.8431     5.7313     6.5713   -29.9073     8.2265     0.0221     0.1221   127.8877     2.4431     5.5384     6.5339   -37.3052
  495.5000     6.2227     6.2304     6.6682   -29.8878     8.2292     0.0192     0.1275   129.1021     2.4357     5.2048     6.3396   -37.4373
  496.0000     6.4911     6.4983     7.4905   -29.5712     8.2316     0.0223     0.1160   129.7213     2.4403     4.9942     6.1252   -37.4191
  496.5000     6.9128     6.7311     8.1200   -29.0822     8.2337     0.0269     0.1087   128.5547     2.4750     4.8582     5.9181   -37.4012
  497.0000     7.2610     6.9722     8.3353   -28.1753     8.2364     0.0158     0.1159   126.7929     2.4646     4.7254     5.7580   -37.3740
  497.5000     7.4704     7.3224     8.4718   -27.7340     8.2239     0.0197     0.1120   124.7335     2.4723     4.6604     5.6407   -37.2037
  498.0000     7.6859     7.5847     8.8344   -27.7147     8.2263     0.0236     0.1059   122.8229     2.4844     4.6014     5.4886   -37.0334
  498.5000     7.7992     7.6955     9.0149   -27.6958     8.2287     0.0237     0.1128   121.6564     2.4710     4.6355     5.3774   -36.8803
  499.0000     7.9142     7.7008     8.9575   -27.8249     8.2156     0.0208     0.1052   121.0791     2.4734     4.7019     5.4551   -36.8623
  499.5000     7.8647     7.7061     8.8449   -28.2512     8.2031     0.0202     0.1112   124.2340     2.4675     4.8359     5.6114   -36.8889
  500.0000     7.7100     7.6309     8.7011   -28.0832     8.2204     0.0211     0.1181   125.8936     2.4578     5.0344     5.9767   -37.1287
