~VERSION INFORMATION
 VERS.                2.0:   CWLS LOG ASCII STANDARD - VERSION 2.0
 WRAP.                 NO:   ONE LINE PER DEPTH STEP
~WELL INFORMATION
#MNEM.UNIT      DATA TYPE    INFORMATION
#----------   ------------   ------------------------------
 STRT.F           28.0000:   START DEPTH
 STOP.F          494.0000:   STOP DEPTH
 STEP.F            0.5000:   STEP LENGTH
 NULL.          -999.2500:   NO VALUE
 COMP.    FENIX & SCISSON:   COMPANY
 WELL.        67-S-3 #3-3:   WELL
 FLD .             TEAPOT:   FIELD
 LOC .       S3 T38N R78W:   LOCATION
 CNTY.            NATRONA:   COUNTY
 STAT.            WYOMING:   STATE
 CTRY. UNITED STATES OF AMERICA:   COUNTRY
 SRVC.           BIRDWELL:   SERVICE COMPANY
 DATE.        15-OCT-1978:   LOGDATE
 API .       490251072100:   API NUMBER
~CURVE INFORMATION
#MNEM.UNIT       API CODE    CURVE DESCRIPTION
#----------   ------------   ------------------------------
 DEPT.F                  :   
 ILD .OHMM   05 120 46 00:   INDUCTION LOG DEEP
 SN  .OHMM   05 040 16 00:   SHORT NORMAL 16"
 SPR .MV     05 010 01 00:   SPONTANEOUS POTENTIAL FROM RES.
 CALD.IN     45 280 60 00:   CALIPER FROM DENSITY LOG
 CORR.G/C3   45 356 01 00:   DENSITY CORRECTION
 DPHI.DEC    45 890 12 00:   DENSITY POROSITY SANDSTONE
 GRD .GAPI   45 310 01 00:   GAMMA RAY FROM DENSITY LOG
 RHOB.G/C3   45 350 01 00:   BULK DENSITY
~PARAMETER INFORMATION
#MNEM.UNIT          VALUE    DESCRIPTION
#----------   ------------   ------------------------------
 PD  .                 GL:   PERMANENT DATUM
 EPD .F              5173:   ELEVATION PERMANENT DATUM
 LMF .                 KB:   LOG MEASURED FROM
 DAPD.F                 4:   FEET ABOVE PERMANENT DATUM
 DMF .                 KB:   DRILLING MEASURED FROM
 EKB .F              5177:   KELLING BUSHING
 EGL .F              5173:   GROUND LEVEL
 DATE.        15-OCT-1978:   RUN DATE
 RUN .                  1:   RUN NUMBER
 DD  .F               492:   DEPTH DRILLER
 DL  .F               494:   DEPTH LOGGER
 BLI .F               488:   BOTTOM LOG INTERVAL
 TLI .F                46:   TOP LOG INTERVAL
 CS  .IN            8.625:   CASING SIZE
 CBD .F                40:   CASING BOTTOM DRILLER
 BS  .IN            7.875:   BIT SIZE
 BSD .F               492:   BIT SIZE AT DEPTH
 DFT .                KCL:   DRILLING FLUID TYPE
 DFD .                8.7:   DRILLING FLUID DENSITY
 DFV .                 35:   DRILLING FLUID VISCOSITY
 DFPH.                  9:   DRILLING FLUID PH
 LUN .               2958:   LOGGING UNIT NUMBER
 LUL .               CASP:   LOGGING UNIT LOCATION
 ENGI.             MILLER:   RECORDING ENGINEER
 WITN.           DINSMORE:   WITNESSED BY
 CLNT.            A2DTECH:   CLIENT CODE
 ORIG.           5" PRINT:   ORIGIN OF DATA
 UWI .       490251072100:   UNIQUE WELL ID
 DICO. A2D Technologies, Inc.:   DIGITIZING COMPANY
~OTHER INFORMATION
~A   DEPT      ILD         SN        SPR       CALD       CORR       DPHI         GRD      RHOB   
# ...
  352.0000    15.0564    11.7955   -13.4328     7.9857     0.0074     0.1426    86.1194     2.4543
  352.5000    16.5893    12.1276   -12.2388     7.9858     0.0089     0.1487    87.0149     2.4466
  353.0000    18.1520    12.6662   -11.6418     7.9860     0.0119     0.1627    85.8209     2.4303
  353.5000    20.1390    13.3634   -11.0448     7.9712     0.0134     0.1840    84.0001     2.3891
  354.0000    22.2203    14.1248   -10.7463     7.9713     0.0179     0.2193    81.7910     2.3418
  354.5000    24.7892    14.9295   -10.3682     7.9566     0.0194     0.2343    80.0000     2.3163
  355.0000    27.3129    15.5635    -9.8507     7.9717     0.0194     0.2331    78.0597     2.2969
  355.5000    29.6796    16.0018    -9.5522     7.9569     0.0194     0.2271    72.0896     2.3051
  356.0000    30.5133    16.4524    -8.9552     7.9570     0.0193     0.2259    69.2537     2.3089
  356.5000    30.3027    16.6991    -8.3582     7.9721     0.0178     0.2259    69.1045     2.3126
  357.0000    30.3027    17.0359    -8.3582     7.9573     0.0178     0.2259    68.9552     2.3118
  357.5000    30.3027    17.0381    -8.3582     7.9575     0.0193     0.2259    69.1045     2.3126
  358.0000    30.5416    17.0404    -8.3582     7.9427     0.0223     0.2259    71.4925     2.3141
  358.5000    31.3703    17.0427    -8.3582     7.9279     0.0238     0.2259    72.8358     2.3126
  359.0000    31.8078    16.9276    -8.3582     7.9281     0.0253     0.2259    74.3284     2.3088
  359.5000    31.8078    16.9299    -8.3582     7.9133     0.0252     0.2259    75.8209     2.3081
  360.0000    31.8078    16.9321    -8.3582     7.8985     0.0282     0.2223    76.2687     2.3156
  360.5000    31.3703    16.9345    -8.3582     7.8837     0.0314     0.2175    75.2538     2.3238
  361.0000    31.3703    16.9372    -8.3582     7.8839     0.0372     0.2178    69.7015     2.3268
  361.5000    31.8373    16.7065    -8.3582     7.8841     0.0537     0.2182    68.5075     2.3261
  362.0000    33.1573    16.5942    -8.3582     7.8842     0.0672     0.2163    69.5522     2.3253
  362.5000    33.1573    16.4816    -8.3582     7.8694     0.0747     0.2116    71.1940     2.3283
  363.0000    32.2514    16.4844    -7.6119     7.8546     0.0747     0.2079    70.8955     2.3363
  363.5000    29.6796    16.3730    -6.7164     7.8563     0.0717     0.2070    70.2985     2.3411
  364.0000    27.6939    16.2625    -6.8955     7.8549     0.0671     0.2052    70.1493     2.3426
  364.5000    28.0801    16.2652    -9.1045     7.8551     0.0641     0.2016    70.2985     2.3463
  365.0000    28.8688    16.2674    -9.2537     7.8702     0.0611     0.1978    71.4925     2.3531
  365.5000    29.7071    16.2695    -9.4030     7.8852     0.0605     0.1907    73.4328     2.3651
  366.0000    30.5133    16.2717    -9.5522     7.8854     0.0596     0.1825    73.7313     2.3816
  366.5000    30.0936    16.2739    -9.5522     7.9005     0.0580     0.1807    73.8806     2.3891
  367.0000    28.4717    16.2761    -9.7662     7.9006     0.0565     0.1816    75.2687     2.3921
  367.5000    28.0801    16.2782    -9.8507     7.9007     0.0550     0.1855    77.4627     2.3868
  368.0000    28.0801    16.2805    -9.8507     7.9009     0.0610     0.1951    77.6119     2.3636
  368.5000    28.0801    16.2831   -10.0000     7.9160     0.0730     0.1954    74.6269     2.3598
  369.0000    28.4982    16.2853   -10.1493     7.9311     0.1075     0.1884    71.9403     2.3681
  369.5000    29.6796    16.0634   -10.1493     7.9461     0.1330     0.1822    71.6194     2.3757
  370.0000    29.0694    15.7360   -10.1493     7.9463     0.1315     0.1708    73.7313     2.3981
  370.5000    27.6939    15.4152   -10.1493     7.9464     0.1210     0.1702    74.0747     2.4100
  371.0000    27.3129    15.2062   -10.1493     7.9466     0.0865     0.1789    76.2687     2.4078
  371.5000    26.5667    14.9995   -10.1493     7.9467     0.0489     0.1984    77.4627     2.3928
  372.0000    26.2013    14.7962   -10.1493     7.9469     0.0412     0.1990    80.0000     2.3508
  372.5000    26.2013    14.6962   -10.1493     7.9470     0.0489     0.1924    80.2985     2.3546
  373.0000    26.5667    14.5965   -10.1493     7.9621     0.0549     0.1879    80.2985     2.3662
  373.5000    26.5667    14.3981   -10.1493     7.9627     0.0533     0.1864    79.3955     2.3801
  374.0000    26.0205    14.3009   -10.1493     7.9773     0.0488     0.1912    79.2537     2.3771
  374.5000    25.3096    14.2047   -10.1493     7.9775     0.0428     0.1972    79.8507     2.3658
  375.0000    24.4483    14.0117   -10.1493     7.9926     0.0383     0.2019    79.8507     2.3523
  375.5000    23.9456    14.0137   -10.2662     7.9777     0.0368     0.2019    80.1493     2.3501
  376.0000    23.9456    13.8231   -10.2985     7.9779     0.0475     0.1972    80.2985     2.3501
  376.5000    23.7803    13.8254   -10.2985     7.9781     0.0608     0.1903    78.8060     2.3532
  377.0000    23.2914    13.7316   -10.4478     7.9782     0.0698     0.1879    76.0895     2.3778
  377.5000    22.8125    13.6393   -10.4478     7.9784     0.0728     0.1876    75.6716     2.3808
  378.0000    22.4987    13.5472   -10.4478     7.9935     0.0622     0.1915    77.4627     2.3771
  378.5000    22.1892    13.2711   -10.7463     7.9936     0.0547     0.1963    79.1045     2.3658
  379.0000    21.8840    13.0006   -10.9055     8.0087     0.0487     0.2004    77.4627     2.3591
  379.5000    21.4341    12.9128   -11.0448     8.0088     0.0547     0.1999    76.5672     2.3523
  380.0000    20.9934    12.8256   -11.3433     8.0090     0.0622     0.1963    76.8657     2.3575
  380.5000    20.7046    12.7390   -11.6418     8.0091     0.0667     0.1777    77.5298     2.3868
  381.0000    20.7046    12.5658   -11.7910     8.0242     0.0681     0.1711    78.8060     2.3973
  381.5000    20.4198    12.3950   -11.9403     8.0094     0.0651     0.1684    83.7313     2.4055
  382.0000    20.4198    12.2269   -11.9403     8.0096     0.0544     0.1711    93.2836     2.4078
  382.5000    20.2789    12.0608   -12.2388     8.0097     0.0336     0.1879   100.2985     2.4003
  383.0000    20.2789    11.8968   -12.8358     8.0099     0.0155     0.1969   100.4627     2.3747
  383.5000    20.1390    11.8988   -13.1343     8.0100     0.0125     0.1987    98.3208     2.3603
  384.0000    20.1390    11.7367   -13.1343     8.0102     0.0125     0.1996    95.8209     2.3538
  384.5000    19.8620    11.6578   -13.2836     8.0103     0.0110     0.1984    95.6716     2.3531
  385.0000    19.5888    11.5787   -13.4328     8.0105     0.0095     0.1962    95.5224     2.3591
  385.5000    18.7915    11.4214   -13.4328     8.0106     0.0064     0.1900    95.9701     2.3673
  386.0000    18.2782    11.3446   -13.4328     8.0107     0.0064     0.1756    96.4975     2.3778
  386.5000    17.7788    11.2680   -13.4328     8.0109     0.0079     0.1699    97.7612     2.3929
  387.0000    17.2931    11.2699   -13.5821     8.0111     0.0109     0.1687    98.3582     2.4040
  387.5000    16.8206    11.1934   -13.5821     8.0112     0.0124     0.1711    93.2836     2.4018
  388.0000    16.3460    11.1178   -13.5821     8.0114     0.0154     0.1717    85.9701     2.3988
  388.5000    15.9141    11.1197   -13.5821     8.0115     0.0184     0.1704    79.7015     2.3988
  389.0000    15.4793    11.1212   -13.7313     8.0116     0.0183     0.1696    76.2687     2.4010
  389.5000    15.3725    11.0460   -13.7313     8.0118     0.0183     0.1687    75.3731     2.4040
  390.0000    15.2664    10.8959   -13.7313     7.9963     0.0138     0.1576    76.1194     2.4117
  390.5000    15.2664    10.6738   -14.0299     7.9822     0.0123     0.1567    78.0000     2.4228
  391.0000    15.1610    10.5287   -14.0299     7.9674     0.0123     0.1579    80.4478     2.4258
  391.5000    15.0495    10.3856   -14.1791     7.9527     0.0123     0.1585    81.0448     2.4228
  392.0000    14.8493    10.3158   -14.3284     7.9528     0.0107     0.1555    80.8955     2.4250
