~VERSION INFORMATION
 VERS.                2.0:   CWLS LOG ASCII STANDARD - VERSION 2.0
 WRAP.                 NO:   ONE LINE PER DEPTH STEP
~WELL INFORMATION
#MNEM.UNIT      DATA TYPE    INFORMATION
#----------   ------------   ------------------------------
 STRT.F           70.0000:   START DEPTH
 STOP.F         1043.0000:   STOP DEPTH
 STEP.F            0.5000:   STEP LENGTH
 NULL.          -999.2500:   NO VALUE
 COMP. U S NAVY/INTEX OIL CO:   COMPANY
 WELL.       NPR 3 #54S-2:   WELL
 FLD .             TEAPOT:   FIELD
 LOC .       S2 T38N R78W:   LOCATION
 CNTY.            NATRONA:   COUNTY
 STAT.            WYOMING:   STATE
 CTRY. UNITED STATES OF AMERICA:   COUNTRY
 SRVC.         Lane Wells:   SERVICE COMPANY
 DATE.        14-JUN-1960:   LOGDATE
 API .       490250643300:   API NUMBER
~CURVE INFORMATION
#MNEM.UNIT       API CODE    CURVE DESCRIPTION
#----------   ------------   ------------------------------
 DEPT.F                  :   
 CILD.MMHO   05 110 46 00:   CONDUCTIVITY INDUCTION LOG DEEP
 ILD .OHMM   05 120 46 00:   INDUCTION LOG DEEP
 ASN .OHMM   05 041 16 00:   AMPLIFIED SHORT NORMAL 16"
 SPR .MV     05 010 01 00:   SPONTANEOUS POTENTIAL FROM RES.
~PARAMETER INFORMATION
#MNEM.UNIT          VALUE    DESCRIPTION
#----------   ------------   ------------------------------
 PD  .                 GL:   PERMANENT DATUM
 EPD .F              6164:   ELEVATION PERMANENT DATUM
 LMF .                 KB:   LOG MEASURED FROM
 DAPD.F                 5:   FEET ABOVE PERMANENT DATUM
 DMF .                 KB:   DRILLING MEASURED FROM
 EKB .F              6169:   KELLING BUSHING
 EGL .F              6164:   GROUND LEVEL
 DATE.            6-14-60:   RUN DATE
 RUN .                  1:   RUN NUMBER
 DD  .F              1045:   DEPTH DRILLER
 DL  .F              1045:   DEPTH LOGGER
 BLI .F              1043:   BOTTOM LOG INTERVAL
 TLI .F                70:   TOP LOG INTERVAL
 CS  .IN            8.625:   CASING SIZE
 CBD .F                12:   CASING BOTTOM DRILLER
 BS  .IN            7.875:   BIT SIZE
 BSD .F              1045:   BIT SIZE AT DEPTH
 DFT .   GEL/OIL EMULSION:   DRILLING FLUID TYPE
 DFD .                9.7:   DRILLING FLUID DENSITY
 DFV .                 45:   DRILLING FLUID VISCOSITY
 DFPH.                  8:   DRILLING FLUID PH
 DFL .               11.6:   DRILLING FLUID LOSS
 MSS .          FLOW LINE:   MUD SAMPLE SOURCE
 RMS .OHMM            1.6:   RESISTIVITY MUD SAMPLE
 MST .F                62:   MUD SAMPLE TEMPERATURE
 RMF .OHMM            1.4:   RESISTIVITY MUD FILTRATE SAMPLE
 MFST.F                60:   MUD FILTRATE SAMPLE TEMPERATURE
 RMC .OHMM           1.75:   RESISTIVITY MUD CAKE
 MCST.F                60:   MUD CAKE SAMPLE TEMPERATURE
 MFSS.                MUD:   MUD FILTRATE SAMPLE SOURCE
 MCSS.              PRESS:   MUD CAKE SAMPLE SOURCE
 RMB .OHMM            1.4:   RESISTIVITY MUD AT BHT
 BHT .F                72:   BOTTOM HOLE TEMPERATURE
 MRT .F                72:   MAXIMUM RECORDED TEMPERATURE
 LUN .             C-4474:   LOGGING UNIT NUMBER
 LUL .             CASPER:   LOGGING UNIT LOCATION
 ENGI.      NELSON/GRIGGS:   RECORDING ENGINEER
 WITN.   JORGENSEN/HUDSON:   WITNESSED BY
 CLNT.            A2DTECH:   CLIENT CODE
 ORIG.       2", 5" PRINT:   ORIGIN OF DATA
 UWI .       490250643300:   UNIQUE WELL ID
 DICO. A2D Technologies, Inc.:   DIGITIZING COMPANY
~OTHER INFORMATION
~A   DEPT     CILD          ILD        ASN      SPR   
# ...
  873.0000   108.8307     8.6279     9.4624   -41.5071
  873.5000   107.3359     8.7530     9.5195   -41.6971
  874.0000   105.8411     8.8868     9.6081   -41.7721
  874.5000   104.5024     9.1279     9.7341   -41.8601
  875.0000    99.7651     9.3626     9.8962   -42.4320
  875.5000    95.4757     9.5965    11.1873   -42.6590
  876.0000    91.1863     9.8637    11.6814   -42.4094
  876.5000    86.8969    10.4349    12.5116   -42.7854
  877.0000    82.2707    11.0806    13.4782   -43.6288
  877.5000    77.2880    11.7587    14.4517   -43.9577
  878.0000    72.3054    12.3589    15.4140   -44.3051
  878.5000    66.6825    12.8971    16.3743   -45.0849
  879.0000    62.2859    13.6513    17.0739   -45.9502
  879.5000    57.2410    14.3434    17.6501   -46.1597
  880.0000    52.1961    15.0187    18.2166   -46.4310
  880.5000    50.4739    15.8049    18.8649   -47.0290
  881.0000    50.1096    16.3327    19.3152   -47.5674
  881.5000    49.7646    16.3946    19.4052   -48.1902
  882.0000    49.4197    16.3511    19.8408   -48.6032
  882.5000    49.0747    16.2001    20.1896   -49.1200
  883.0000    48.6730    16.1641    20.5384   -49.6509
  883.5000    48.6730    16.1673    20.7790   -50.1973
  884.0000    48.6730    16.2167    20.9748   -50.5708
  884.5000    48.6730    16.2462    21.1023   -50.4103
  885.0000    48.6730    16.3047    21.0005   -49.7896
  885.5000    48.6730    16.3088    20.9602   -48.7094
  886.0000    46.9939    16.6242    21.1438   -48.3098
  886.5000    45.6142    17.2037    21.2133   -48.3235
  887.0000    44.4384    17.6098    21.2125   -48.1938
  887.5000    42.8786    17.7647    21.6543   -48.0340
  888.0000    41.3189    18.2610    22.1582   -48.1210
  888.5000    39.7591    19.0315    22.7969   -48.5116
  889.0000    37.8673    19.5596    23.4321   -48.9627
  889.5000    37.8673    19.9852    24.0814   -48.5281
  890.0000    37.8673    20.4249    24.4187   -48.2691
  890.5000    37.8673    20.7865    24.9646   -48.5384
  891.0000    37.8673    20.8276    25.1071   -49.1372
  891.5000    37.8673    20.7910    25.2480   -49.3661
  892.0000    38.1045    20.7027    25.0957   -49.2726
  892.5000    38.4138    20.2034    24.9639   -49.0434
  893.0000    38.7231    19.7406    24.5914   -48.6700
  893.5000    39.0323    19.2434    24.3000   -48.0898
  894.0000    39.3416    19.0229    24.0151   -48.5280
  894.5000    39.6683    19.0120    23.7427   -49.5624
  895.0000    40.0530    18.9539    23.4714   -49.4286
  895.5000    40.4607    18.9156    23.2383   -49.0732
  896.0000    40.8683    18.8731    23.0046   -48.9488
  896.5000    41.2760    18.7794    22.7699   -49.3582
  897.0000    42.0834    18.2780    22.2882   -49.7040
  897.5000    43.9716    17.8718    21.7052   -49.6550
  898.0000    45.8597    17.3108    21.1195   -49.4577
  898.5000    47.7479    16.6904    20.5672   -49.3541
  899.0000    49.6290    16.0991    20.0652   -48.9439
  899.5000    51.5125    15.5628    19.1586   -48.2469
  900.0000    53.3956    15.1371    18.6005   -47.0533
  900.5000    55.2814    14.6587    17.9946   -45.7036
  901.0000    56.7935    14.3773    17.5258   -45.6006
  901.5000    58.1440    14.2669    17.1700   -45.8243
  902.0000    59.4971    14.1483    16.9871   -45.5242
  902.5000    60.8474    14.0770    16.7980   -45.3774
  903.0000    61.4701    14.0469    16.6166   -45.8559
  903.5000    61.8687    14.0186    16.5993   -46.3652
  904.0000    62.2673    13.9893    16.5792   -46.5723
  904.5000    62.6660    13.9603    16.5593   -46.7275
  905.0000    63.0646    13.9311    16.5405   -46.6372
  905.5000    63.4632    13.9017    16.5235   -47.1999
  906.0000    63.8618    13.8724    16.5002   -47.1995
  906.5000    64.2157    13.8431    16.4774   -47.0351
  907.0000    64.5972    13.8136    16.4564   -46.9850
  907.5000    64.9916    13.7845    16.4277   -47.3186
  908.0000    61.2175    13.7547    16.3447   -47.7778
  908.5000    61.8579    13.7299    16.2576   -47.9698
  909.0000    62.4773    13.6925    16.1717   -47.8511
  909.5000    63.0895    13.6537    16.0851   -47.7802
  910.0000    63.6926    13.6135    15.9941   -47.6794
  910.5000    64.2908    13.5773    15.9646   -47.5255
  911.0000    64.8887    13.5054    15.9487   -47.1246
  911.5000    65.4866    13.3878    15.9236   -47.2418
  912.0000    66.0845    13.2737    15.9116   -46.8734
  912.5000    66.6825    13.1564    15.8275   -46.9311
  913.0000    67.0841    13.0421    15.6517   -47.9937
  913.5000    67.4856    12.9237    15.4833   -48.2880
  914.0000    67.8872    12.8296    15.3098   -48.0504
  914.5000    68.2891    12.7783    15.1395   -48.1067
  915.0000    68.6908    12.7330    14.9667   -48.4764
  915.5000    69.0923    12.6893    14.7981   -48.5656
  916.0000    69.4937    12.6441    14.6455   -48.5987
  916.5000    69.8951    12.5675    14.5066   -48.6801
  917.0000    70.2967    12.4952    14.3693   -48.5324
  917.5000    70.6983    12.4244    14.2335   -48.0251
  918.0000    71.0999    12.3504    14.0939   -47.7986
  918.5000    71.5015    12.2942    13.9616   -47.6830
  919.0000    71.9031    12.2911    13.8119   -48.1084
  919.5000    72.3046    12.2914    13.7039   -48.4508
  920.0000    72.7062    12.2914    13.6563   -48.4936
  920.5000    73.1078    12.2917    13.5921   -48.1729
  921.0000    73.5094    12.2915    13.5387   -47.7796
  921.5000    73.9110    12.2925    13.4753   -47.5102
  922.0000    74.3126    12.2864    13.4809   -47.5551
  922.5000    74.7141    12.2078    13.5125   -47.7880
  923.0000    75.1157    12.1130    13.5492   -47.9521
  923.5000    75.5173    12.0206    13.4880   -48.2009
  924.0000    75.9189    11.9281    13.3643   -48.4597
  924.5000    76.3205    11.8339    13.2638   -48.1986
  925.0000    76.7221    11.7507    13.1528   -47.9420
  925.5000    77.1237    11.6590    13.0476   -47.6754
  926.0000    77.5142    11.5524    12.9389   -47.7705
  926.5000    77.5414    11.4495    12.8328   -47.7309
  927.0000    79.3522    11.3441    12.7236   -47.6253
  927.5000    81.2132    11.2412    12.6192   -47.5072
  928.0000    83.0342    11.1345    12.4817   -47.3720
  928.5000    83.0285    11.0344    12.3904   -47.2425
  929.0000    85.5070    10.9187    12.3226   -47.1219
  929.5000    87.3583    10.8296    12.2481   -47.2229
  930.0000    90.0948    10.6851    12.1770   -47.2988
  930.5000    90.2082    10.5232    12.1040   -47.2267
  931.0000    90.4558    10.3651    12.0268   -46.7916
  931.5000    90.7034    10.3031    11.9624   -46.3438
  932.0000    90.9510    10.3007    11.8936   -45.9245
  932.5000    91.1986    10.2816    11.8245   -45.8606
  933.0000    91.4462    10.2697    11.7556   -45.9361
  933.5000    91.6959    10.2540    11.6864   -46.0460
  934.0000    91.9415    10.2403    11.6177   -46.1822
  934.5000    92.1891    10.2258    11.5480   -46.0702
  935.0000    92.4367    10.2179    11.4830   -45.5819
  935.5000    92.6843    10.1962    11.4439   -45.4407
  936.0000    92.9319    10.1712    11.4086   -45.9640
  936.5000    93.1796    10.1473    11.3725   -46.2448
  937.0000    93.4272    10.1229    11.3367   -46.2338
  937.5000    93.6748    10.0988    11.3007   -46.3574
  938.0000    93.9224    10.0745    11.2650   -46.5203
  938.5000    94.1700    10.0502    11.2289   -46.3638
  939.0000    94.4176    10.0260    11.1934   -46.0100
  939.5000    94.6652    10.0017    11.1568   -45.9885
  940.0000    94.9129     9.9775    11.1239   -46.3570
  940.5000    95.1605     9.9533    11.1194   -46.5311
  941.0000    95.4081     9.9291    11.1128   -46.2722
  941.5000    95.6557     9.9047    11.1056   -45.9711
  942.0000    95.9033     9.8808    11.0989   -45.2657
  942.5000    96.1509     9.8572    11.0919   -44.5758
  943.0000    96.3986     9.8210    11.0851   -44.7617
  943.5000    96.6462     9.7871    11.0782   -44.8894
  944.0000    96.8938     9.7533    11.0714   -44.9093
  944.5000    97.1414     9.7194    11.0645   -44.9765
  945.0000    97.3890     9.6855    11.0576   -44.9987
  945.5000    97.6366     9.6516    11.0507   -44.9994
