~VERSION INFORMATION
 VERS.                2.0:   CWLS LOG ASCII STANDARD - VERSION 2.0
 WRAP.                 NO:   ONE LINE PER DEPTH STEP
~WELL INFORMATION
#MNEM.UNIT      DATA TYPE    INFORMATION
#----------   ------------   ------------------------------
 STRT.F           15.0000:   START DEPTH
 STOP.F          692.0000:   STOP DEPTH
 STEP.F            0.5000:   STEP LENGTH
 NULL.          -999.2500:   NO VALUE
 COMP.    FENIX & SCISSON:   COMPANY
 WELL. S 15 NPR #3 #73-15:   WELL
 FLD .             TEAPOT:   FIELD
 LOC .      S15 T38N R78W:   LOCATION
 CNTY.            NATRONA:   COUNTY
 STAT.            WYOMING:   STATE
 CTRY. UNITED STATES OF AMERICA:   COUNTRY
 SRVC.              Welex:   SERVICE COMPANY
 DATE.        23-FEB-1977:   LOGDATE
 API .       490251057900:   API NUMBER
~CURVE INFORMATION
#MNEM.UNIT       API CODE    CURVE DESCRIPTION
#----------   ------------   ------------------------------
 DEPT.F                  :   
 SPR .MV     07 010 01 00:   SPONTANEOUS POTENTIAL
 SGRD.OHMM   07 220 05 00:   SHALLOW GUARD RESISTIVITY
 ILD .OHMM   07 120 46 00:   INDUCTION LOG DEEP
 ILM .OHMM   07 120 44 00:   INDUCTION LOG MEDIUM
 CALD.IN     45 280 60 00:   CALIPER
 GRD .GAPI   45 310 01 00:   GAMMA RAY FROM DENSITY LOG
 CORR.G/C3   45 356 01 00:   DENSITY CORRECTION
 DPHI.DEC    45 890 10 00:   DENSITY POROSITY SANDSTONE
 RHOB.G/C3   45 350 01 00:   BULK DENSITY
~PARAMETER INFORMATION
#MNEM.UNIT          VALUE    DESCRIPTION
#----------   ------------   ------------------------------
 PD  .                 GL:   PERMANENT DATUM
 EPD .F              5251:   ELEVATION PERMANENT DATUM
 LMF .                 GL:   LOG MEASURED FROM
 DMF .                 GL:   DRILLING MEASURED FROM
 EGL .F              5251:   GROUND LEVEL
 DATE.            2-23-77:   RUN DATE
 RUN .                  1:   RUN NUMBER
 DD  .F               686:   DEPTH DRILLER
 DL  .F               695:   DEPTH LOGGER
 BLI .F               693:   BOTTOM LOG INTERVAL
 TLI .F                42:   TOP LOG INTERVAL
 CS  .IN            8.625:   CASING SIZE
 CBD .F                42:   CASING BOTTOM DRILLER
 CBL .F                42:   CASING BOTTOM LOGGER
 BS  .IN            7.875:   BIT SIZE
 BSD .F               686:   BIT SIZE AT DEPTH
 DFT .           CHEM GEL:   DRILLING FLUID TYPE
 DFD .                8.8:   DRILLING FLUID DENSITY
 DFV .                 33:   DRILLING FLUID VISCOSITY
 DFPH.                  7:   DRILLING FLUID PH
 DFL .               11.2:   DRILLING FLUID LOSS
 MSS .          FLOW LINE:   MUD SAMPLE SOURCE
 RMS .OHMM            .32:   RESISTIVITY MUD SAMPLE
 MST .F                68:   MUD SAMPLE TEMPERATURE
 RMF .OHMM            .28:   RESISTIVITY MUD FILTRATE SAMPLE
 MFST.F                68:   MUD FILTRATE SAMPLE TEMPERATURE
 RMC .OHMM            .61:   RESISTIVITY MUD CAKE
 MCST.F                68:   MUD CAKE SAMPLE TEMPERATURE
 MFSS.           MEASURED:   MUD FILTRATE SAMPLE SOURCE
 MCSS.           MEASURED:   MUD CAKE SAMPLE SOURCE
 RMB .OHMM           .410:   RESISTIVITY MUD AT BHT
 BHT .F                53:   BOTTOM HOLE TEMPERATURE
 TCS .HRS               2:   TIME CURCULATED STOPPED
 MRT .F                53:   MAXIMUM RECORDED TEMPERATURE
 LUN .               8611:   LOGGING UNIT NUMBER
 LUL .           GILLETTE:   LOGGING UNIT LOCATION
 ENGI.            C. DOAK:   RECORDING ENGINEER
 WITN.         STUEBINGER:   WITNESSED BY
 CLNT.            A2DTECH:   CLIENT CODE
 ORIG. 1", 2.5", 5" PRINT:   ORIGIN OF DATA
 UWI .       490251057900:   UNIQUE WELL ID
 DICO. A2D Technologies, Inc.:   DIGITIZING COMPANY
~OTHER INFORMATION
~A   DEPT      SPR       SGRD        ILD        ILM       CALD         GRD      CORR       DPHI       RHOB   
# ...
  270.5000   -46.0580    10.6473     7.1297     9.3979     8.2913   134.2039     0.0710     0.0768     2.5168
  271.0000   -46.0724    10.6761     7.1565     9.4557     8.2879   134.0783     0.0719     0.0746     2.5179
  271.5000   -46.0868    10.7051     7.1829     9.5137     8.2846   133.9203     0.0695     0.0784     2.5127
  272.0000   -46.1012    10.7340     7.2085     9.5720     8.2812   133.8581     0.0671     0.0826     2.5068
  272.5000   -46.1157    10.7631     7.2345     9.6307     8.2778   131.6734     0.0648     0.0868     2.5008
  273.0000   -46.1301    10.7923     7.2607     9.6898     8.2744   128.5818     0.0624     0.0910     2.4949
  273.5000   -46.1442    10.8215     7.2869     9.7493     8.2711   124.6832     0.0600     0.0936     2.4902
  274.0000   -46.1586    10.8508     7.3132     9.8095     8.2676   119.4597     0.0576     0.0936     2.4905
  274.5000   -46.1729    10.8802     7.3396     9.8693     8.2643   120.6041     0.0567     0.0871     2.4991
  275.0000   -46.1865    10.9097     7.3661     9.9179     8.2610   123.3821     0.0579     0.0857     2.5041
  275.5000   -46.2021    10.9393     7.3927     9.9489     8.2573   124.8895     0.0589     0.0894     2.4981
  276.0000   -46.2150    10.9689     7.4194     9.9748     8.2543   126.9162     0.0600     0.0931     2.4923
  276.5000   -46.2262    10.9985     7.4463    10.0008     8.2519   128.7435     0.0611     0.0935     2.4891
  277.0000   -46.2829    11.0281     7.4732    10.0269     8.2663   130.5520     0.0621     0.0921     2.4931
  277.5000   -46.4857    11.0579     7.5002    10.0531     8.2804   129.6629     0.0632     0.0906     2.4959
  278.0000   -46.6879    11.0791     7.5194    10.0793     8.2951   128.1306     0.0643     0.0891     2.4968
  278.5000   -46.8859    10.9515     7.4457    10.1027     8.3094   127.3942     0.0646     0.0881     2.4990
  279.0000   -47.0888    10.8108     7.3648     9.9807     8.3247   127.9286     0.0645     0.0868     2.5009
  279.5000   -47.3113    10.6719     7.2847     9.8721     8.3288   128.7453     0.0647     0.0854     2.5030
  280.0000   -47.3394    10.5348     7.2055     9.7647     8.3229   127.8309     0.0650     0.0840     2.5051
  280.5000   -47.0458    10.3994     7.1271     9.6585     8.3179   127.2487     0.0714     0.0825     2.5068
  281.0000   -46.7689    10.2658     7.0496     9.5534     8.3129   129.8597     0.0769     0.0811     2.5107
  281.5000   -46.5046    10.1339     6.9729     9.4495     8.3077   132.2402     0.0829     0.0781     2.5162
  282.0000   -46.2489    10.0036     6.8970     9.3467     8.3027   134.5101     0.0892     0.0725     2.5307
  282.5000   -46.3824     9.8751     6.8220     9.2450     8.2976   136.5264     0.0928     0.0702     2.5312
  283.0000   -46.5165     9.7482     6.7477     9.1444     8.2926   134.9880     0.0916     0.0736     2.5237
  283.5000   -46.6518     9.5585     6.6743     9.0449     8.2875   130.8864     0.0900     0.0769     2.5163
  284.0000   -46.7417     9.6215     6.6080     8.9465     8.2824   131.6870     0.0885     0.0796     2.5165
  284.5000   -46.8337     9.7539     6.6643     8.8782     8.2773   134.7331     0.0869     0.0776     2.5179
  285.0000   -46.9263     9.8882     6.7166     8.9038     8.2723   137.4534     0.0854     0.0767     2.5176
  285.5000   -47.0178    10.0244     6.7693     8.9540     8.2672   139.5345     0.0831     0.0789     2.5159
  286.0000   -47.1098    10.1624     6.8229     9.0045     8.2621   141.0229     0.0799     0.0811     2.5141
  286.5000   -47.2015    10.3023     6.8880     9.0553     8.2572   141.2533     0.0767     0.0833     2.5070
  287.0000   -47.2932    10.4441     6.9747     9.1064     8.2522   138.0495     0.0735     0.0893     2.4952
  287.5000   -47.3848    10.5879     7.0627     9.1578     8.2574   134.7392     0.0702     0.0971     2.4830
  288.0000   -47.4770    10.7337     7.1518     9.2095     8.2660   132.8681     0.0670     0.1024     2.4758
  288.5000   -47.5679    10.8768     7.2420     9.2614     8.2745   131.0560     0.0638     0.1017     2.4781
  289.0000   -47.6603    10.7029     7.3333     9.3137     8.2829   129.8763     0.0606     0.1057     2.4744
  289.5000   -47.7542    10.4826     7.3833     9.3837     8.2913   130.3847     0.0575     0.1088     2.4696
  290.0000   -47.8043    10.5392     7.4114     9.3641     8.2999   129.9842     0.0566     0.1103     2.4653
  290.5000   -47.7524    10.7471     7.4377     9.3348     8.3082   127.5710     0.0565     0.1030     2.4823
  291.0000   -47.7037    10.9591     7.4641     9.3057     8.3167   126.1870     0.0584     0.0954     2.5001
  291.5000   -47.6529    11.1753     7.4906     9.2767     8.3257   129.0575     0.0631     0.0878     2.5066
  292.0000   -47.6013    11.4961     7.5188     9.2477     8.3312   131.9416     0.0677     0.0820     2.5131
  292.5000   -47.5520    11.3885     7.4816     9.2189     8.3306   134.8589     0.0725     0.0789     2.5171
  293.0000   -47.5014    11.1960     7.4427     9.2837     8.3307   133.2176     0.0767     0.0757     2.5197
  293.5000   -47.4453    11.0068     7.4040     9.3782     8.3308   129.6732     0.0838     0.0746     2.5220
  294.0000   -47.4429    10.8207     7.3802     9.4738     8.3307   123.9064     0.0839     0.0752     2.5206
  294.5000   -47.5154    10.6779     7.3652     9.5703     8.3307   118.6776     0.0828     0.0767     2.5171
  295.0000   -47.5816    10.6779     7.3504     9.6678     8.3307   120.2830     0.0814     0.0787     2.5137
  295.5000   -47.6483    10.7095     7.3347     9.7663     8.3307   124.4014     0.0802     0.0807     2.5104
  296.0000   -47.7163    10.8357     7.3183     9.8658     8.3307   128.4911     0.0789     0.0827     2.5070
  296.5000   -47.7829    10.9635     7.3028     9.9663     8.3309   132.6885     0.0776     0.0849     2.5059
  297.0000   -47.8499    11.0794     7.2886    10.0679     8.3306   134.5765     0.0765     0.0849     2.5057
  297.5000   -47.9185    11.0095     7.2724    10.1704     8.3301   131.9244     0.0750     0.0880     2.5033
  298.0000   -47.9833    10.7905     7.2569    10.2741     8.3163   129.7129     0.0737     0.0923     2.4981
  298.5000   -48.0530    10.5759     7.2468    10.3787     8.3010   126.4760     0.0724     0.0966     2.4902
  299.0000   -48.1238    10.4826     7.3818    10.4845     8.2848   127.4768     0.0710     0.0984     2.4839
  299.5000   -48.1703    11.1929     7.4964    10.5913     8.2701   129.8784     0.0696     0.0960     2.4861
  300.0000   -48.3984    11.9284     7.6476    10.6779     8.2522   131.0707     0.0692     0.0928     2.4919
  300.5000   -48.7607    11.9662     7.8018    10.8379     8.2525   127.9039     0.0721     0.0897     2.4973
  301.0000   -48.9819    12.0134     7.9591    10.9735     8.2557   129.8796     0.0750     0.0866     2.5035
  301.5000   -48.8701    12.0608     8.1191    11.1108     8.2597   125.6527     0.0766     0.0849     2.5038
  302.0000   -48.7715    12.1084     8.2832    11.2498     8.2632   121.9597     0.0756     0.0865     2.5021
  302.5000   -48.6621    12.1506     8.4504    11.3905     8.2668   118.2962     0.0748     0.0865     2.5036
  303.0000   -48.5541    12.5122     8.6208    11.5330     8.2704   119.3810     0.0740     0.0843     2.5079
  303.5000   -48.4462    12.8450     8.7946    11.6773     8.2740   121.9939     0.0730     0.0825     2.5066
  304.0000   -48.3437    13.1867     8.9719    11.7818     8.2777   120.8872     0.0733     0.0881     2.5029
  304.5000   -48.2192    13.4097     9.1009    11.8749     8.2812   120.2954     0.0756     0.0853     2.5058
  305.0000   -48.2530    13.5513     9.1969    11.9688     8.2848   121.8724     0.0779     0.0803     2.5141
  305.5000   -48.3484    13.6943     9.2940    12.0635     8.2887   123.0317     0.0801     0.0746     2.5199
  306.0000   -48.4457    13.8264     9.3921    12.1589     8.2910   123.6561     0.0824     0.0760     2.5167
  306.5000   -48.5398    14.0868     9.4913    12.2550     8.2907   121.1706     0.0847     0.0785     2.5189
