~VERSION INFORMATION
 VERS.                2.0:   CWLS LOG ASCII STANDARD - VERSION 2.0
 WRAP.                 NO:   ONE LINE PER DEPTH STEP
~WELL INFORMATION
#MNEM.UNIT      DATA TYPE    INFORMATION
#----------   ------------   ------------------------------
 STRT.F           20.0000:   START DEPTH
 STOP.F          678.0000:   STOP DEPTH
 STEP.F            0.5000:   STEP LENGTH
 NULL.          -999.2500:   NO VALUE
 COMP. FENIX & SCISSON INC:   COMPANY
 WELL. 27-42 SX 11 WO #27-11:   WELL
 FLD .        TEAPOT DOME:   FIELD
 LOC .      S11 T38N R78W:   LOCATION
 CNTY.            NATRONA:   COUNTY
 STAT.            WYOMING:   STATE
 CTRY. UNITED STATES OF AMERICA:   COUNTRY
 SRVC.      Dresser Atlas:   SERVICE COMPANY
 DATE.        13-AUG-1985:   LOGDATE
 API .       490251083800:   API NUMBER
~CURVE INFORMATION
#MNEM.UNIT       API CODE    CURVE DESCRIPTION
#----------   ------------   ------------------------------
 DEPT.F                  :   
 RHOB.G/C3   45 350 01 00:   BULK DENSITY
 CORR.G/C3   45 356 01 00:   DENSITY CORRECTION
 CALD.IN     45 280 60 00:   CALIPER
 GRD .GAPI   45 310 01 00:   GAMMA RAY FROM DENSITY LOG
 DPOR.DEC    45 890 12 00:   DENSITY POROSITY SANDSTONE
 NPOR.DEC    42 890 03 00:   NEUTRON POROSITY SANDSTONE
 SPR .MV     07 010 01 00:   SPONTANEOUS POTENTIAL
 SFL .OHMM   07 220 01 00:   SHALLOW FOCUSED LOG RESISTIVITY
 ILD .OHMM   07 120 46 00:   INDUCTION LOG DEEP
 ILM .OHMM   07 120 44 00:   INDUCTION LOG MEDIUM
~PARAMETER INFORMATION
#MNEM.UNIT          VALUE    DESCRIPTION
#----------   ------------   ------------------------------
 PD  .                 GL:   PERMANENT DATUM
 EPD .F              5188:   ELEVATION PERMANENT DATUM
 LMF .                 KB:   LOG MEASURED FROM
 DAPD.F                 5:   FEET ABOVE PERMANENT DATUM
 DMF .                 KB:   DRILLING MEASURED FROM
 EKB .F              5193:   KELLING BUSHING
 EGL .F              5188:   GROUND LEVEL
 DATE.          8-13-1985:   RUN DATE
 RUN .                  8:   RUN NUMBER
 DD  .F               632:   DEPTH DRILLER
 BLI .F               598:   BOTTOM LOG INTERVAL
 TLI .F               303:   TOP LOG INTERVAL
 CBL .F               303:   CASING BOTTOM LOGGER
 BS  .IN              .75:   BIT SIZE
 BSD .F               632:   BIT SIZE AT DEPTH
 DFT .          KCL WATER:   DRILLING FLUID TYPE
 LUN .            HL-6274:   LOGGING UNIT NUMBER
 LUL .           GILLETTE:   LOGGING UNIT LOCATION
 ENGI.             RAUTIO:   RECORDING ENGINEER
 WITN.            SCHULTE:   WITNESSED BY
 CLNT.            A2DTECH:   CLIENT CODE
 ORIG.           2" PRINT:   ORIGIN OF DATA
 UWI .       490251083800:   UNIQUE WELL ID
 DICO. A2D Technologies, Inc.:   DIGITIZING COMPANY
~OTHER INFORMATION
~A   DEPT     RHOB       CORR       CALD        GRD       DPOR       NPOR        SPR        SFL        ILD          ILM 
# ...
  187.5000     2.4890     0.0378     9.0080   123.5572     0.1164     0.3307    -7.8964     8.1894     7.2663     7.0795
  188.0000     2.4823     0.0320     9.0080   120.6070     0.1208     0.3299    -7.7500     8.2504     7.3388     7.1485
  188.5000     2.4740     0.0260     9.0080   118.5786     0.1271     0.3239    -7.6024     8.3118     7.4120     7.2180
  189.0000     2.4619     0.0194     9.0080   119.5621     0.1375     0.3190    -7.4450     8.3737     7.4860     7.2881
  189.5000     2.4546     0.0156     9.0080   120.6248     0.1349     0.3196    -7.3634     8.4360     7.5607     7.3590
  190.0000     2.4633     0.0162     9.0080   117.9845     0.1295     0.3242    -7.3733     8.4986     7.6361     7.4305
  190.5000     2.4627     0.0191     9.0079   115.4855     0.1338     0.3283    -7.4534     8.5214     7.7123     7.5027
  191.0000     2.4565     0.0215     9.0080   113.2033     0.1383     0.3324    -7.5452     8.5214     7.7892     7.5756
  191.5000     2.4513     0.0238     9.0081   116.7628     0.1384     0.3365    -7.6406     8.5214     7.8669     7.6493
  192.0000     2.4535     0.0239     9.0101   117.9037     0.1327     0.3387    -7.7358     8.6300     7.9454     7.7236
  192.5000     2.4565     0.0241     9.0118   118.7252     0.1346     0.3320    -7.7708     8.8359     8.0247     7.7987
  193.0000     2.4597     0.0235     9.0137   117.6061     0.1359     0.3291    -7.7688     9.0467     8.1047     7.8745
  193.5000     2.4628     0.0272     9.0156   114.7824     0.1319     0.3259    -7.7674     9.3401     8.1856     7.9184
  194.0000     2.4618     0.0295     9.0174   114.4198     0.1319     0.3173    -7.7699     9.3196     8.2144     7.9184
  194.5000     2.4645     0.0312     9.0193   116.8647     0.1280     0.3011    -7.7698     9.2400     8.2144     7.9184
  195.0000     2.4720     0.0311     9.0211   118.5748     0.1266     0.2814    -7.7611     9.1611     8.2021     7.9184
  195.5000     2.4603     0.0219     9.0230   118.5921     0.1375     0.2803    -7.8763     9.0829     8.1845     7.9188
  196.0000     2.4536     0.0128     9.0248   119.6519     0.1355     0.2834    -8.1481     9.0036     8.1670     7.9188
  196.5000     2.4639     0.0126     9.0267   122.2463     0.1293     0.3056    -8.4174     9.0036     8.1495     7.9188
  197.0000     2.4692     0.0187     9.0285   120.1705     0.1271     0.3148    -8.5709     9.0036     8.1321     7.9201
  197.5000     2.4806     0.0261     9.0304   118.6476     0.1222     0.3235    -8.3933     9.0769     8.1146     7.9215
  198.0000     2.4918     0.0335     9.0322   120.8743     0.1142     0.3189    -8.2208     9.1562     8.0973     7.9188
  198.5000     2.5036     0.0412     9.0341   123.3953     0.1062     0.3121    -8.2088     9.1203     8.0799     7.9115
  199.0000     2.5161     0.0484     9.0359   123.6586     0.1000     0.3053    -8.3718     9.0489     8.0651     7.9317
  199.5000     2.5240     0.0522     9.0378   126.9190     0.0952     0.3036    -8.5291     9.0036     8.0651     7.5738
  200.0000     2.5189     0.0515     9.0396   130.2704     0.0952     0.3119    -8.6875     9.0036     7.7014     7.2838
  200.5000     2.5172     0.0481     9.0415   130.3759     0.0935     0.3204    -8.8488     8.5441     7.3446     7.0050
  201.0000     2.5260     0.0459     9.0433   126.9800     0.0954     0.3249    -8.9637     8.1775     7.0043     6.7368
  201.5000     2.5099     0.0373     9.0452   125.3836     0.1059     0.3179    -8.9631     7.8267     6.6798     6.4789
  202.0000     2.4902     0.0218     9.0472   125.8720     0.1196     0.3132    -8.9655     7.4909     6.4666     6.2309
  202.5000     2.4703     0.0152     9.0468   125.7903     0.1311     0.3180    -8.9649     7.2243     6.4745     6.1247
  203.0000     2.4589     0.0188     9.0446   126.3489     0.1232     0.3266    -8.9644     7.2243     6.4687     6.1247
  203.5000     2.4881     0.0263     9.0426   127.7157     0.1131     0.3331    -8.9646     7.2243     6.5484     6.1584
  204.0000     2.4987     0.0336     9.0406   129.0746     0.1030     0.3311    -8.9643     7.2243     6.6275     6.3068
  204.5000     2.5128     0.0359     9.0385   129.5768     0.0992     0.3286    -8.9642     7.2243     6.7072     6.4584
  205.0000     2.5079     0.0330     9.0365   129.6912     0.1059     0.3275    -8.9641     7.5496     6.7875     6.6136
  205.5000     2.4985     0.0298     9.0345   127.5611     0.1160     0.3264    -8.9641     7.9170     6.8687     6.7726
  206.0000     2.4868     0.0269     9.0324   124.7583     0.1139     0.3235    -8.9641     8.5214     6.9507     6.9663
  206.5000     2.4911     0.0240     9.0304   118.9447     0.1088     0.3205    -8.9641     8.4124     7.0337     6.9627
  207.0000     2.4955     0.0238     9.0284   116.4370     0.1126     0.3242    -8.9641     8.1759     7.1178     6.9658
  207.5000     2.4910     0.0254     9.0263   115.2088     0.1133     0.3275    -8.9641     8.0651     7.2028     6.9296
  208.0000     2.4928     0.0286     9.0243   113.8653     0.1112     0.3238    -8.9641     8.1475     7.2243     6.8641
  208.5000     2.4982     0.0316     9.0223   113.6925     0.1092     0.3205    -8.9641     8.2589     7.2170     6.7992
  209.0000     2.5018     0.0351     9.0202   114.8276     0.1096     0.3172    -8.9641     8.3665     7.1810     6.7349
  209.5000     2.4955     0.0325     9.0182   115.5639     0.1133     0.3148    -8.9640     8.2912     7.1453     6.6712
  210.0000     2.4857     0.0263     9.0162   115.6572     0.1200     0.3212    -8.9640     8.2199     7.1100     6.6081
  210.5000     2.4766     0.0205     9.0142   115.6783     0.1264     0.3220    -8.9638     8.1492     7.0752     6.5455
  211.0000     2.4692     0.0160     9.0123   117.1885     0.1184     0.3220    -8.9635     8.0791     7.0410     6.4821
  211.5000     2.4781     0.0170     9.0100   119.6145     0.1209     0.3243    -8.9640     8.0651     7.0072     6.4695
  212.0000     2.4768     0.0196     9.0076   120.5920     0.1303     0.3275    -8.9631     8.0651     6.9587     6.5439
  212.5000     2.4675     0.0220     8.9954   120.4809     0.1268     0.3275    -8.9622     8.0651     6.9692     6.6620
  213.0000     2.4674     0.0248     8.9827   118.0387     0.1193     0.3255    -8.9902     8.0651     7.0981     6.7825
  213.5000     2.4840     0.0279     8.9696   117.9233     0.1160     0.3225    -9.1045     8.0639     7.1406     6.9053
  214.0000     2.4890     0.0320     8.9563   119.8329     0.1202     0.3196    -9.2171     8.1185     7.1917     7.0303
  214.5000     2.4784     0.0238     8.9442   119.4648     0.1257     0.3204    -9.3320     8.2594     7.2431     7.1572
  215.0000     2.4683     0.0165     8.9294   119.1322     0.1319     0.3204    -9.4467     8.4026     7.2950     7.2243
  215.5000     2.4612     0.0085     8.9357   120.2729     0.1275     0.3180    -9.5611     8.5484     7.3471     7.1998
  216.0000     2.4660     0.0087     8.9444   121.0249     0.1234     0.3218    -9.6753     8.6751     7.3997     7.1197
  216.5000     2.4709     0.0176     8.9540   120.1320     0.1224     0.3212    -9.7901     8.4420     7.4526     7.0405
  217.0000     2.4749     0.0234     8.9630   118.8443     0.1260     0.3204    -9.9053     8.3634     7.4944     6.9623
  217.5000     2.4700     0.0190     8.9721   120.7195     0.1295     0.3237   -10.0169     8.3665     7.4944     6.8849
  218.0000     2.4640     0.0127     8.9813   119.4597     0.1303     0.3224   -10.1318     8.3665     7.2243     6.8083
  218.5000     2.4609     0.0187     8.9905   118.6327     0.1238     0.3068   -10.0979     8.3374     7.2243     6.7326
  219.0000     2.4723     0.0261     8.9997   118.9791     0.1167     0.3086   -10.0103     8.2810     7.2243     6.7132
  219.5000     2.4881     0.0338     9.0088   119.7319     0.1096     0.3148    -9.9232     8.2144     7.2243     6.7822
  220.0000     2.5038     0.0409     9.0180   120.6630     0.1036     0.3172    -9.8384     8.2144     7.2243     6.8542
  220.5000     2.5151     0.0476     9.0272   122.4281     0.0991     0.3163    -9.7522     8.3310     7.2243     6.9641
