~VERSION INFORMATION
 VERS.                2.0:   CWLS LOG ASCII STANDARD - VERSION 2.0
 WRAP.                 NO:   ONE LINE PER DEPTH STEP
~WELL INFORMATION
#MNEM.UNIT      DATA TYPE    INFORMATION
#----------   ------------   ------------------------------
 STRT.F            0.0000:   START DEPTH
 STOP.F         2838.0000:   STOP DEPTH
 STEP.F            0.5000:   STEP LENGTH
 NULL.          -999.2500:   NO VALUE
 COMP. INTEX OIL CO U S NAVY:   COMPANY
 WELL. NAVAL PETROLEUM RESERVE 3 29 #NPR #3 (204A29)-29:   WELL
 FLD .                N/A:   FIELD
 LOC .      S29 T39N R78W:   LOCATION
 CNTY.            NATRONA:   COUNTY
 STAT.            WYOMING:   STATE
 CTRY. UNITED STATES OF AMERICA:   COUNTRY
 SRVC.      NL McCullough:   SERVICE COMPANY
 DATE.        24-JUN-1965:   LOGDATE
 API .       490251021700:   API NUMBER
~CURVE INFORMATION
#MNEM.UNIT       API CODE    CURVE DESCRIPTION
#----------   ------------   ------------------------------
 DEPT.F                  :   
 GR  .GAPI   30 310 01 00:   GAMMA RAY
 HD  .IN     70 280 01 00:   DAIMETER
~PARAMETER INFORMATION
#MNEM.UNIT          VALUE    DESCRIPTION
#----------   ------------   ------------------------------
 PD  .                 GL:   PERMANENT DATUM
 LMF .                 GL:   LOG MEASURED FROM
 EDF .F              5016:   DRILLING FLOOR
 DATE.        24-JUN-1965:   RUN DATE
 RUN .                  1:   RUN NUMBER
 DD  .F              2838:   DEPTH DRILLER
 DL  .F              2838:   DEPTH LOGGER
 BLI .F              2836:   BOTTOM LOG INTERVAL
 TLI .F              2400:   TOP LOG INTERVAL
 CS  .IN            6.625:   CASING SIZE
 CBD .F              2820:   CASING BOTTOM DRILLER
 BSD .F              2838:   BIT SIZE AT DEPTH
 LUN .               1497:   LOGGING UNIT NUMBER
 ENGI.         COWLTHORPE:   RECORDING ENGINEER
 WITN.         MR. HUDSON:   WITNESSED BY
 CLNT.            A2DTECH:   CLIENT CODE
 ORIG.           5" PRINT:   ORIGIN OF DATA
 UWI .       490251021700:   UNIQUE WELL ID
 DICO. A2D Technologies, Inc.:   DIGITIZING COMPANY
~OTHER INFORMATION
~A    DEPT      GR           HD 
# ...
 1944.0000  -999.2500     6.5808
 1944.5000  -999.2500     6.5811
 1945.0000  -999.2500     6.5662
 1945.5000  -999.2500     6.5515
 1946.0000  -999.2500     6.5518
 1946.5000  -999.2500     6.5521
 1947.0000  -999.2500     6.5524
 1947.5000  -999.2500     6.5678
 1948.0000  -999.2500     6.5681
 1948.5000  -999.2500     6.5835
 1949.0000  -999.2500     6.6139
 1949.5000  -999.2500     6.6443
 1950.0000  -999.2500     6.6597
 1950.5000  -999.2500     6.6600
 1951.0000  -999.2500     6.6602
 1951.5000  -999.2500     6.6605
 1952.0000  -999.2500     6.6608
 1952.5000  -999.2500     6.6577
 1953.0000  -999.2500     6.6423
 1953.5000  -999.2500     6.6269
 1954.0000  -999.2500     6.6114
 1954.5000  -999.2500     6.6021
 1955.0000  -999.2500     6.6024
 1955.5000  -999.2500     6.6027
 1956.0000  -999.2500     6.6030
 1956.5000  -999.2500     6.6033
 1957.0000  -999.2500     6.5885
 1957.5000  -999.2500     6.5889
 1958.0000  -999.2500     6.5892
 1958.5000  -999.2500     6.5744
 1959.0000  -999.2500     6.5747
 1959.5000  -999.2500     6.5599
 1960.0000  -999.2500     6.5451
 1960.5000  -999.2500     6.5154
 1961.0000  -999.2500     6.5157
 1961.5000  -999.2500     6.5009
 1962.0000  -999.2500     6.5012
 1962.5000  -999.2500     6.5317
 1963.0000  -999.2500     6.5470
 1963.5000  -999.2500     6.5473
 1964.0000  -999.2500     6.5325
 1964.5000  -999.2500     6.5027
 1965.0000  -999.2500     6.4880
 1965.5000  -999.2500     6.4883
 1966.0000  -999.2500     6.4735
 1966.5000  -999.2500     6.4888
 1967.0000  -999.2500     6.4892
 1967.5000  -999.2500     6.5046
 1968.0000  -999.2500     6.5049
 1968.5000  -999.2500     6.5202
 1969.0000  -999.2500     6.5205
 1969.5000  -999.2500     6.5208
 1970.0000  -999.2500     6.5211
 1970.5000  -999.2500     6.5063
 1971.0000  -999.2500     6.5066
 1971.5000  -999.2500     6.5069
 1972.0000  -999.2500     6.4922
 1972.5000  -999.2500     6.4925
 1973.0000  -999.2500     6.4928
 1973.5000  -999.2500     6.5082
 1974.0000  -999.2500     6.4934
 1974.5000  -999.2500     6.4937
 1975.0000  -999.2500     6.4940
 1975.5000  -999.2500     6.5093
 1976.0000  -999.2500     6.5096
 1976.5000  -999.2500     6.5099
 1977.0000  -999.2500     6.5102
 1977.5000  -999.2500     6.5105
 1978.0000  -999.2500     6.5108
 1978.5000  -999.2500     6.5111
 1979.0000  -999.2500     6.5114
 1979.5000  -999.2500     6.5118
 1980.0000  -999.2500     6.5121
 1980.5000  -999.2500     6.5274
 1981.0000  -999.2500     6.5266
 1981.5000  -999.2500     6.5129
 1982.0000  -999.2500     6.5133
 1982.5000  -999.2500     6.5136
 1983.0000  -999.2500     6.4988
 1983.5000  -999.2500     6.4690
 1984.0000  -999.2500     6.4542
 1984.5000  -999.2500     6.4545
 1985.0000  -999.2500     6.4548
 1985.5000  -999.2500     6.4551
 1986.0000  -999.2500     6.4554
 1986.5000  -999.2500     6.4708
 1987.0000  -999.2500     6.4711
 1987.5000  -999.2500     6.4865
 1988.0000  -999.2500     6.4868
 1988.5000  -999.2500     6.5021
 1989.0000  -999.2500     6.5024
 1989.5000  -999.2500     6.5178
 1990.0000  -999.2500     6.5181
 1990.5000  -999.2500     6.5184
 1991.0000  -999.2500     6.5187
 1991.5000  -999.2500     6.5190
 1992.0000  -999.2500     6.5193
 1992.5000  -999.2500     6.5196
 1993.0000  -999.2500     6.5350
 1993.5000  -999.2500     6.5353
 1994.0000  -999.2500     6.5204
 1994.5000  -999.2500     6.5359
 1995.0000  -999.2500     6.5361
 1995.5000  -999.2500     6.5364
 1996.0000  -999.2500     6.5367
 1996.5000  -999.2500     6.5371
 1997.0000  -999.2500     6.5374
 1997.5000  -999.2500     6.5400
 1998.0000  -999.2500     6.5441
 1998.5000  -999.2500     6.5482
 1999.0000  -999.2500     6.5524
 1999.5000  -999.2500     6.5565
 2000.0000  -999.2500     6.5606
 2000.5000  -999.2500     6.5647
 2001.0000  -999.2500     6.5689
 2001.5000  -999.2500     6.5757
 2002.0000  -999.2500     6.5835
 2002.5000  -999.2500     6.5913
 2003.0000  -999.2500     6.6135
 2003.5000  -999.2500     6.6285
 2004.0000  -999.2500     6.6735
 2004.5000  -999.2500     6.6733
 2005.0000  -999.2500     6.6581
 2005.5000  -999.2500     6.6279
 2006.0000  -999.2500     6.6277
 2006.5000  -999.2500     6.6276
 2007.0000  -999.2500     6.6298
 2007.5000  -999.2500     6.6574
 2008.0000  -999.2500     6.6572
 2008.5000  -999.2500     6.6420
 2009.0000  -999.2500     6.5816
 2009.5000  -999.2500     6.5363
 2010.0000  -999.2500     6.5211
 2010.5000  -999.2500     6.5059
 2011.0000  -999.2500     6.5055
 2011.5000  -999.2500     6.4905
 2012.0000  -999.2500     6.5054
 2012.5000  -999.2500     6.5052
 2013.0000  -999.2500     6.5202
 2013.5000  -999.2500     6.5351
 2014.0000  -999.2500     6.5500
 2014.5000  -999.2500     6.5649
 2015.0000  -999.2500     6.5798
 2015.5000  -999.2500     6.5947
 2016.0000  -999.2500     6.6096
 2016.5000  -999.2500     6.6246
 2017.0000  -999.2500     6.6545
 2017.5000  -999.2500     6.6543
 2018.0000  -999.2500     6.6693
 2018.5000  -999.2500     6.6691
 2019.0000  -999.2500     6.6690
 2019.5000  -999.2500     6.6839
 2020.0000  -999.2500     6.6837
 2020.5000  -999.2500     6.6685
 2021.0000  -999.2500     6.6662
 2021.5000  -999.2500     6.6531
 2022.0000  -999.2500     6.6379
 2022.5000  -999.2500     6.6378
 2023.0000  -999.2500     6.6376
 2023.5000  -999.2500     6.6375
 2024.0000  -999.2500     6.6524
 2024.5000  -999.2500     6.6590
 2025.0000  -999.2500     6.6672
 2025.5000  -999.2500     6.6670
 2026.0000  -999.2500     6.6819
 2026.5000  -999.2500     6.6667
 2027.0000  -999.2500     6.6515
 2027.5000  -999.2500     6.6212
 2028.0000  -999.2500     6.6060
 2028.5000  -999.2500     6.5908
 2029.0000  -999.2500     6.5906
 2029.5000  -999.2500     6.5754
 2030.0000  -999.2500     6.5602
 2030.5000  -999.2500     6.5601
 2031.0000  -999.2500     6.5599
 2031.5000  -999.2500     6.5447
 2032.0000  -999.2500     6.5446
 2032.5000  -999.2500     6.5444
 2033.0000  -999.2500     6.5443
 2033.5000  -999.2500     6.5441
 2034.0000  -999.2500     6.5439
 2034.5000  -999.2500     6.5438
 2035.0000  -999.2500     6.5437
 2035.5000  -999.2500     6.5435
 2036.0000  -999.2500     6.5434
 2036.5000  -999.2500     6.5432
 2037.0000  -999.2500     6.5431
 2037.5000  -999.2500     6.5580
 2038.0000  -999.2500     6.5578
 2038.5000  -999.2500     6.5577
 2039.0000  -999.2500     6.5575
 2039.5000  -999.2500     6.5574
 2040.0000  -999.2500     6.5572
 2040.5000  -999.2500     6.5571
 2041.0000  -999.2500     6.5569
 2041.5000  -999.2500     6.5718
 2042.0000  -999.2500     6.5717
 2042.5000  -999.2500     6.5565
 2043.0000  -999.2500     6.5413
 2043.5000  -999.2500     6.5411
 2044.0000  -999.2500     6.5409
 2044.5000  -999.2500     6.5408
 2045.0000  -999.2500     6.5406
 2045.5000  -999.2500     6.5405
 2046.0000  -999.2500     6.5404
 2046.5000  -999.2500     6.5553
 2047.0000  -999.2500     6.5555
 2047.5000  -999.2500     6.5786
 2048.0000  -999.2500     6.5849
 2048.5000  -999.2500     6.5848
 2049.0000  -999.2500     6.5846
 2049.5000  -999.2500     6.5845
 2050.0000  -999.2500     6.5843
 2050.5000  -999.2500     6.5842
 2051.0000  -999.2500     6.5690
 2051.5000  -999.2500     6.5839
 2052.0000  -999.2500     6.6139
 2052.5000  -999.2500     6.6438
 2053.0000  -999.2500     6.6436
 2053.5000  -999.2500     6.6586
 2054.0000  -999.2500     6.6584
 2054.5000  -999.2500     6.6583
 2055.0000  -999.2500     6.6732
 2055.5000  -999.2500     6.6446
 2056.0000  -999.2500     6.6145
 2056.5000  -999.2500     6.5994
 2057.0000  -999.2500     6.5994
 2057.5000  -999.2500     6.5994
 2058.0000  -999.2500     6.5994
 2058.5000  -999.2500     6.6145
 2059.0000  -999.2500     6.6169
 2059.5000  -999.2500     6.6295
 2060.0000  -999.2500     6.6145
 2060.5000  -999.2500     6.6145
 2061.0000  -999.2500     6.5994
 2061.5000  -999.2500     6.5843
 2062.0000  -999.2500     6.5843
 2062.5000  -999.2500     6.5693
 2063.0000  -999.2500     6.5675
 2063.5000  -999.2500     6.5542
 2064.0000  -999.2500     6.5542
 2064.5000  -999.2500     6.5392
 2065.0000  -999.2500     6.5392
