~VERSION INFORMATION
 VERS.                2.0:   CWLS LOG ASCII STANDARD - VERSION 2.0
 WRAP.                 NO:   ONE LINE PER DEPTH STEP
~WELL INFORMATION
#MNEM.UNIT      DATA TYPE    INFORMATION
#----------   ------------   ------------------------------
 STRT.F           38.0000:   START DEPTH
 STOP.F          663.5000:   STOP DEPTH
 STEP.F            0.5000:   STEP LENGTH
 NULL.          -999.2500:   NO VALUE
 COMP. FENIX & SCISSON INC:   COMPANY
 WELL.   NPR SX #3 #35-34:   WELL
 FLD .             TEAPOT:   FIELD
 LOC .      S34 T39N R78W:   LOCATION
 CNTY.            NATRONA:   COUNTY
 STAT.            WYOMING:   STATE
 CTRY. UNITED STATES OF AMERICA:   COUNTRY
 SRVC.       Schlumberger:   SERVICE COMPANY
 DATE.        21-MAR-1977:   LOGDATE
 API .       490251031500:   API NUMBER
~CURVE INFORMATION
#MNEM.UNIT       API CODE    CURVE DESCRIPTION
#----------   ------------   ------------------------------
 DEPT.F                  :   
 SPR .MV     07 010 01 00:   SPONTANEOUS POTENTIAL
 LL8 .OHMM   07 220 08 00:   LATEROLOG-8 RES.
 ILD .OHMM   07 120 46 00:   INDUCTION LOG DEEP
 ILM .OHMM   07 120 44 00:   INDUCTION LOG MEDIUM
 CALD.IN     45 280 60 00:   CALIPER
 RHOB.G/C3   45 350 01 00:   BULK DENSITY
 DPHI.DEC    45 890 12 00:   DENSITY POROSITY SANDSTONE
 CORR.G/C3   45 356 01 00:   DENSITY CORRECTION
 GRD .GAPI   45 310 01 00:   GAMMA RAY FROM DENSITY LOG
~PARAMETER INFORMATION
#MNEM.UNIT          VALUE    DESCRIPTION
#----------   ------------   ------------------------------
 PD  .                 GL:   PERMANENT DATUM
 EPD .F              5081:   ELEVATION PERMANENT DATUM
 LMF .                 GL:   LOG MEASURED FROM
 DMF .                 KB:   DRILLING MEASURED FROM
 EKB .F              5086:   KELLING BUSHING
 EGL .F              5081:   GROUND LEVEL
 DATE.          3-21-1977:   RUN DATE
 RUN .                  1:   RUN NUMBER
 DD  .F               670:   DEPTH DRILLER
 DL  .F               665:   DEPTH LOGGER
 BLI .F               659:   BOTTOM LOG INTERVAL
 TLI .F                40:   TOP LOG INTERVAL
 CS  .IN            8.625:   CASING SIZE
 CBD .F                40:   CASING BOTTOM DRILLER
 CBL .F                40:   CASING BOTTOM LOGGER
 BS  .IN            7.875:   BIT SIZE
 BSD .F               670:   BIT SIZE AT DEPTH
 DFT .           CHEM GEL:   DRILLING FLUID TYPE
 DFV .                 33:   DRILLING FLUID VISCOSITY
 MSS .           MUD TANK:   MUD SAMPLE SOURCE
 RMS .OHMM           4.98:   RESISTIVITY MUD SAMPLE
 MST .F                53:   MUD SAMPLE TEMPERATURE
 RMF .OHMM           4.94:   RESISTIVITY MUD FILTRATE SAMPLE
 MFST.F                53:   MUD FILTRATE SAMPLE TEMPERATURE
 RMC .OHMM            2.5:   RESISTIVITY MUD CAKE
 MCST.F                53:   MUD CAKE SAMPLE TEMPERATURE
 MFSS.                  M:   MUD FILTRATE SAMPLE SOURCE
 MCSS.                  C:   MUD CAKE SAMPLE SOURCE
 RMB .OHMM              4:   RESISTIVITY MUD AT BHT
 BHT .F                65:   BOTTOM HOLE TEMPERATURE
 TCS .HRS            1000:   TIME CURCULATED STOPPED
 TLAB.HRS            1400:   TIME LOGGER AT BOTTOM
 MRT .F                65:   MAXIMUM RECORDED TEMPERATURE
 LUN .               7742:   LOGGING UNIT NUMBER
 LUL .                GLT:   LOGGING UNIT LOCATION
 ENGI.               LANE:   RECORDING ENGINEER
 WITN.              BURKE:   WITNESSED BY
 CLNT.            A2DTECH:   CLIENT CODE
 ORIG.       2", 5" PRINT:   ORIGIN OF DATA
 UWI .       490251031500:   UNIQUE WELL ID
 DICO. A2D Technologies, Inc.:   DIGITIZING COMPANY
~OTHER INFORMATION
~A   DEPT      SPR        LL8        ILD        ILM       CALD       RHOB       DPHI       CORR         GRD  
# ...
  439.5000   -57.1840     9.6031     8.6865     6.2278     8.1444     2.4808     0.1015     0.0130   127.5818
  440.0000   -57.2261     9.3756     8.7099     6.1813     8.1451     2.4707     0.1071     0.0094   133.4647
  440.5000   -57.3427     8.9627     8.7333     6.1352     8.1459     2.4683     0.1111     0.0156   139.3912
  441.0000   -57.4603     8.5682     8.7580     6.1070     8.1466     2.4660     0.1110     0.0218   139.4349
  441.5000   -57.5777     8.1911     8.7877     6.1902     8.1474     2.4836     0.1003     0.0281   137.7217
  442.0000   -57.6949     8.1295     8.8175     6.2509     8.1481     2.5044     0.0896     0.0345   135.9238
  442.5000   -57.8122     8.6240     8.8474     6.3123     8.1489     2.5085     0.0833     0.0303   130.9760
  443.0000   -57.9295     9.0429     8.8774     6.3742     8.1496     2.5059     0.0869     0.0247   125.9919
  443.5000   -58.0466     9.4822     8.9153     6.4367     8.1500     2.4951     0.0961     0.0174   124.0524
  444.0000   -58.1638     9.9427     8.3909     6.4999     8.1500     2.4780     0.1098     0.0012   130.2794
  444.5000   -58.3039    10.4257     7.7335     6.5749     8.1500     2.4639     0.1133     0.0083   136.8290
  445.0000   -58.4631    10.9321     7.1276     6.0852     8.1500     2.4564     0.1168     0.0206   143.4310
  445.5000   -58.6224    11.2286     6.5693     5.3522     8.1500     2.4379     0.1258     0.0321   148.7093
  446.0000   -58.7822     7.9268     5.9953     4.7076     8.1500     2.4069     0.1503     0.0264   144.1799
  446.5000   -58.9374     5.2678     6.0162     4.3012     8.1500     2.3681     0.1748     0.0159   136.2452
  447.0000   -58.7632     3.9947     6.0392     4.3357     8.1500     2.3511     0.1812     0.0011   128.2988
  447.5000   -57.9043     5.4537     6.0630     4.9695     8.1500     2.3992     0.1542    -0.0031   120.3057
  448.0000   -57.0532     8.2065     6.0993     5.6049     8.1500     2.4501     0.1215    -0.0049   116.2075
  448.5000   -56.2167    11.3327     6.0974     6.2432     8.1500     2.4604     0.1154     0.0024   116.3641
  449.0000   -55.6368    11.3417     6.9412     6.6229     8.1500     2.4688     0.1050     0.0106   114.5854
  449.5000   -55.0695    11.3625     7.7159     7.0278     8.1500     2.4728     0.1083     0.0177   111.5210
  450.0000   -54.5011    11.3833     8.9217     7.4577     8.1500     2.4713     0.1087     0.0113   110.7493
  450.5000   -53.9326    11.4042     9.9912     7.7716     8.1500     2.4777     0.1037     0.0180   112.8462
  451.0000   -53.3640    11.4251    10.5384     7.8382     8.1500     2.4864     0.0986     0.0293   114.1636
  451.5000   -52.7954    11.4378    10.5679     7.9054     8.1500     2.4953     0.0935     0.0370   114.1665
  452.0000   -52.2268    11.0171    10.6044     7.9732     8.1500     2.4952     0.0954     0.0248   113.6041
  452.5000   -51.6585    10.7248    10.7860     8.0415     8.1500     2.4899     0.0989     0.0283   112.6689
  453.0000   -51.0906    10.5262    11.1446     8.1105     8.1500     2.4764     0.1044     0.0158   102.9298
  453.5000   -50.5298    10.6244    11.5151     8.3583     8.1500     2.4661     0.1150     0.0300    81.2032
  454.0000   -49.5270    10.9220    11.8980     8.6841     8.1500     2.4621     0.1093     0.0623    59.2120
  454.5000   -48.4181    13.6162    13.3120     9.0226     8.1500     2.4880     0.0994     0.0880    37.3854
  455.0000   -47.3077    17.0190    15.2022     9.8015     8.1500     2.4522     0.1217     0.0426    28.1449
  455.5000   -46.1982    21.2720    17.3609    10.7452     8.1441     2.4244     0.1437     0.0145    22.3691
  456.0000   -45.0889    25.9964    19.3607    11.5503     8.1376     2.3960     0.1575     0.0114    24.1789
  456.5000   -43.9796    29.0824    20.5378    11.9084     8.1311     2.3714     0.1725     0.0020    25.2812
  457.0000   -42.8703    30.7008    21.7735    12.2777     8.1246     2.3446     0.1884     0.0276    24.3303
  457.5000   -41.7609    28.1760    23.0849    12.6584     8.1181     2.3082     0.2042     0.0365    23.9715
  458.0000   -40.6516    25.1113    24.6144    13.0510     8.1114     2.2721     0.2423     0.0263    24.0998
  458.5000   -39.5418    22.3799    24.6007    13.4557     8.1100     2.2537     0.2395     0.0268    29.2808
  459.0000   -38.4305    19.9447    24.2126    13.8729     8.1100     2.2660     0.2313     0.0239    37.8907
  459.5000   -37.3302    17.9777    23.0800    14.2732     8.1100     2.2905     0.2191     0.0128    46.5879
  460.0000   -36.7627    17.6375    22.0027    14.2732     8.1100     2.3201     0.2088     0.0219    51.5975
  460.5000   -36.2786    20.5957    20.9757    13.0020     8.1100     2.3499     0.1850     0.0370    54.9507
  461.0000   -35.9827    23.1876    19.9967    12.1765     8.1100     2.3784     0.1659     0.0503    56.3300
  461.5000   -35.7303    24.6241    18.8256    11.8590     8.1100     2.3710     0.1732     0.0345    55.8318
  462.0000   -35.4790    23.2567    19.2307    13.2222     8.1100     2.3508     0.1859     0.0177    52.5650
  462.5000   -35.2269    21.8208    19.9977    14.3948     8.1100     2.3472     0.1845     0.0050    49.7845
  463.0000   -34.9748    21.0300    20.4558    15.6666     8.1100     2.3480     0.1847     0.0134    48.8903
  463.5000   -34.7227    21.4055    20.3955    17.0481     8.1099     2.3515     0.1815     0.0215    48.0920
  464.0000   -34.4706    21.6805    20.3532    18.5526     8.1052     2.3493     0.1808     0.0140    47.2766
  464.5000   -34.2184    22.0413    20.3109    19.1763     8.1002     2.3421     0.1880     0.0188    46.4729
  465.0000   -33.9663    22.0464    20.2687    18.8696     8.0952     2.3349     0.1923     0.0173    45.5917
  465.5000   -33.7142    20.6609    20.2267    17.1975     8.0903     2.3277     0.1966     0.0186    44.9108
  466.0000   -33.4626    18.8066    20.1847    15.6736     8.0853     2.3185     0.2013     0.0301    47.0756
  466.5000   -33.2194    17.1333    20.1428    14.1328     8.0804     2.3073     0.2096     0.0411    49.6513
  467.0000   -32.6974    15.6084    20.1010    14.3942     8.0754     2.3019     0.2145     0.0502    52.2572
  467.5000   -32.1288    15.0858    19.9118    14.8207     8.0702     2.3070     0.2104     0.0437    54.9164
  468.0000   -31.5595    16.2338    19.6012    15.2521     8.0713     2.3120     0.2064     0.0278    53.8445
  468.5000   -30.9911    17.1813    19.2954    15.5092     8.0731     2.3170     0.2012     0.0222    51.9588
  469.0000   -30.4227    17.4973    18.9944    15.0329     8.0750     2.3221     0.2031     0.0523    49.9061
  469.5000   -29.8542    16.0928    18.6980    14.3105     8.0768     2.3229     0.2000     0.0457    49.6274
  470.0000   -29.2858    14.7879    18.4063    13.6228     8.0786     2.2928     0.2184     0.0359    50.7988
  470.5000   -28.7174    14.0122    18.1192    12.9682     8.0804     2.2857     0.2241     0.0261    53.9970
  471.0000   -28.1490    14.9175    17.8365    12.3450     8.0822     2.3008     0.2141     0.0197    57.4499
  471.5000   -27.5806    15.3825    17.5583    11.7517     8.0841     2.3206     0.2045     0.0347    59.5820
  472.0000   -27.0105    13.9123    17.2843    11.1255     8.0859     2.3274     0.1948     0.0365    58.4143
  472.5000   -26.4410    12.2010    17.0147    11.6459     8.0877     2.3116     0.2100     0.0303    56.6525
  473.0000   -25.9440    12.4966    16.7493    12.2610     8.0895     2.3066     0.2101     0.0240    58.1701
  473.5000   -26.0093    13.0667    16.4880    12.6597     8.0914     2.3126     0.2067     0.0174    58.2413
  474.0000   -26.0612    13.8835    16.2307    12.3476     8.0932     2.3188     0.2033     0.0295    53.5905
  474.5000   -26.1151    13.5550    15.9446    12.0408     8.0950     2.3199     0.2004     0.0433    49.2189
  475.0000   -26.2942    13.1168    16.1813    11.7417     8.0968     2.3078     0.2093     0.0494    50.1621
  475.5000   -26.8911    12.6928    16.4580    11.5438     8.0987     2.2991     0.2152     0.0279    56.0358
