~VERSION INFORMATION
 VERS.                2.0:   CWLS LOG ASCII STANDARD - VERSION 2.0
 WRAP.                 NO:   ONE LINE PER DEPTH STEP
~WELL INFORMATION
#MNEM.UNIT      DATA TYPE    INFORMATION
#----------   ------------   ------------------------------
 STRT.F            0.0000:   START DEPTH
 STOP.F          384.0000:   STOP DEPTH
 STEP.F            0.5000:   STEP LENGTH
 NULL.          -999.2500:   NO VALUE
 COMP. DEPARTMENT OF ENERGY:   COMPANY
 WELL. NPR 3 #65-15 SX3 C4:   WELL
 FLD .        TEAPOT EAST:   FIELD
 LOC .       S3 T38N R78W:   LOCATION
 CNTY.            NATRONA:   COUNTY
 STAT.            WYOMING:   STATE
 CTRY. UNITED STATES OF AMERICA:   COUNTRY
 SRVC.      Dresser Atlas:   SERVICE COMPANY
 DATE.        02-JUL-1985:   LOGDATE
 API .       490251134600:   API NUMBER
~CURVE INFORMATION
#MNEM.UNIT       API CODE    CURVE DESCRIPTION
#----------   ------------   ------------------------------
 DEPT.F                  :   
 CALD.IN     45 280 60 00:   CALIPER FROM DENSITY LOG
 CORR.G/C3   45 356 01 00:   DENSITY CORRECTION
 DEN .G/C3   45 350 01 00:   COMPENSATED BULK DENSTIY
 NPOR.DEC    42 890 03 00:   NEUTRON POROSITY SANDSTONE
 PORD.DEC    45 890 12 00:   POROSITY DENSITY SANDSTONE
 GRR .GAPI   07 310 01 00:   GAMMA RAY
 RILD.OHMM   07 120 46 00:   INDUCTION LOG DEEP RESISTIVITY
 RILM.OHMM   07 120 44 00:   RESITIVITY LONG MEDIUM
~PARAMETER INFORMATION
#MNEM.UNIT          VALUE    DESCRIPTION
#----------   ------------   ------------------------------
 PD  .                 GL:   PERMANENT DATUM
 EPD .F              5162:   ELEVATION PERMANENT DATUM
 LMF .                 GL:   LOG MEASURED FROM
 DMF .                 GL:   DRILLING MEASURED FROM
 EGL .F              5162:   GROUND LEVEL
 DATE.        02-JUL-1985:   RUN DATE
 RUN .                  1:   RUN NUMBER
 DD  .F               399:   DEPTH DRILLER
 DL  .F               388:   DEPTH LOGGER
 BLI .F               380:   BOTTOM LOG INTERVAL
 CS  .IN                7:   CASING SIZE
 CBD .F                80:   CASING BOTTOM DRILLER
 CBL .F                68:   CASING BOTTOM LOGGER
 BS  .IN            4.875:   BIT SIZE
 BSD .F               399:   BIT SIZE AT DEPTH
 DFT .                OIL:   DRILLING FLUID TYPE
 TCS .HRS               4:   TIME CURCULATED STOPPED
 MRT .F               158:   MAXIMUM RECORDED TEMPERATURE
 LUN .               6274:   LOGGING UNIT NUMBER
 LUL .           GILLETTE:   LOGGING UNIT LOCATION
 ENGI.             RAUTIO:   RECORDING ENGINEER
 WITN.            SCHULTE:   WITNESSED BY
 CLNT.            A2DTECH:   CLIENT CODE
 ORIG.           5" PRINT:   ORIGIN OF DATA
 UWI .       490251134600:   UNIQUE WELL ID
 DICO. A2D Technologies, Inc.:   DIGITIZING COMPANY
~OTHER INFORMATION
~A    DEPT    CALD       CORR        DEN       NPOR       PORD         GRR      RILD       RILM   
# ...
  202.5000    10.0791     0.1132     1.9994     0.2462     0.4896   139.4706     5.5045     5.7408
  203.0000    10.2302     0.1164     2.0002     0.2456     0.4706   139.8323     5.7807     5.9461
  203.5000    10.2458     0.1825     2.0010     0.2465     0.4340   136.7729     6.1131     6.1588
  204.0000     9.5700     0.2818     2.0026     0.2447     0.4090   134.0444     6.5097     6.3790
  204.5000     9.7361     0.4095     2.0056     0.2456     0.3866   131.8858     7.0290     6.5614
  205.0000     9.7444     0.4203     2.0981     0.2489     0.2981   130.1508     7.3306     6.7490
  205.5000     9.0598     0.3353     2.3325     0.2543     0.1497   131.0784     7.3842     6.9420
  206.0000     8.9564     0.3003     2.4911     0.2601     0.0805   135.0326     7.3867     6.9933
  206.5000     8.9874     0.2884     2.5708     0.2643     0.0461   137.7747     7.3892     6.8835
  207.0000     9.2437     0.2900     2.5539     0.2667     0.0509   138.6987     7.2814     6.3510
  207.5000     9.3798     0.2961     2.4694     0.2670     0.0923   138.4068     7.1419     6.0942
  208.0000     9.4106     0.3082     2.4274     0.2654     0.1282   136.9101     6.9976     6.0539
  208.5000     9.4264     0.3294     2.4049     0.2610     0.1505   135.1068     6.8081     6.0145
  209.0000     9.4421     0.4452     2.3959     0.2585     0.1530   133.9095     6.6238     6.0175
  209.5000     9.4430     0.4632     2.4117     0.2534     0.1297   133.0152     6.3556     5.9777
  210.0000     9.5629     0.3523     2.4425     0.2443     0.1257   132.7270     6.0982     5.8976
  210.5000     9.9558     0.2968     2.4155     0.2410     0.1735   132.7889     5.8108     5.6598
  211.0000     9.9565     0.3600     2.2698     0.2446     0.2254   134.5786     5.5369     5.4310
  211.5000     9.9873     0.3902     2.2481     0.2531     0.2411   138.2298     5.0959     4.9868
  212.0000    10.0783     0.3557     2.2894     0.2567     0.2158   141.2749     4.6899     4.4552
  212.5000    10.4700     0.3093     2.3420     0.2580     0.1870   142.1988     4.4047     3.9235
  213.0000    10.5177     0.2853     2.3188     0.2678     0.2260   141.9069     4.2830     3.6872
  213.5000    10.4263     0.3246     2.2181     0.2718     0.2612   140.4103     4.2009     3.5382
  214.0000    10.2226     0.3337     2.1198     0.2660     0.2997   139.2130     4.1733     3.4423
  214.5000     9.8565     0.2918     1.9996     0.2551     0.4220   137.4097     4.2041     4.0126
  215.0000    10.0227     0.2814     1.9989     0.2693     0.4993   135.6063     4.2056     4.3330
  215.5000    10.5798     0.2920     1.9997     0.2905     0.5337   132.8818     4.2658     4.6144
  216.0000     9.9790     0.3252     2.0020     0.2923     0.4869   130.1495     4.3571     4.9483
  216.5000     7.9645     0.3914     2.0959     0.2703     0.2981   129.2872     4.6721     5.0898
  217.0000     8.7624     0.4981     2.2740     0.2605     0.1736   130.2148     5.1154     5.2013
  217.5000     8.9887     0.3811     2.3687     0.2602     0.1697   133.8660     5.4852     5.3534
  218.0000     9.1747     0.2761     2.3465     0.2617     0.2274   141.1535     5.8006     5.5012
  218.5000     9.3362     0.3093     2.1962     0.2584     0.2825   142.6835     6.0147     5.6194
  219.0000     9.4873     0.3604     2.0089     0.2542     0.3696   140.5771     6.2294     5.7400
  219.5000     9.5180     0.4491     2.0015     0.2596     0.4134   137.8647     6.3558     5.8227
  220.0000     8.7820     0.4372     2.0098     0.2687     0.2998   136.3607     6.4023     5.9066
  220.5000     7.9557     0.3578     2.2660     0.2795     0.1947   140.6216     6.3161     5.9495
  221.0000     7.7459     0.2928     2.4546     0.2823     0.1070   140.3334     6.1879     5.8298
  221.5000     7.6113     0.2859     2.5103     0.2816     0.0786   137.8879     6.0624     5.7517
  222.0000     7.5970     0.2891     2.5555     0.2714     0.0608   135.4263     5.9808     5.6747
  222.5000     7.7633     0.2682     2.5592     0.2662     0.0541   134.0143     5.9414     5.6377
  223.0000     7.7941     0.2548     2.5449     0.2620     0.0596   134.9419     5.9023     5.6401
  223.5000     7.7948     0.2579     2.5021     0.2590     0.0843   137.3810     5.8634     5.6033
  224.0000     7.8106     0.3286     2.4120     0.2571     0.1410   136.4867     5.7845     5.5667
  224.5000     7.8113     0.3768     2.4211     0.2599     0.1387   134.6797     5.6672     5.4922
  225.0000     7.8271     0.3106     2.4977     0.2692     0.0937   136.8194     5.5845     5.4186
  225.5000     7.7978     0.2389     2.5384     0.2713     0.0658   139.2585     5.4779     5.3833
  226.0000     7.6283     0.2495     2.5382     0.2707     0.0670   139.3212     5.3668     5.3482
  226.5000     7.5736     0.3487     2.5114     0.2607     0.0764   136.8639     5.3310     5.2766
  227.0000     8.0257     0.4044     2.4047     0.2523     0.1214   135.6626     5.3332     5.2064
  227.5000     8.1618     0.4721     2.3326     0.2517     0.1815   134.7724     5.3722     5.1367
  228.0000     8.2978     0.4772     2.3259     0.2592     0.1936   136.9121     5.3364     5.0679
  228.5000     8.3737     0.3692     2.4289     0.2628     0.1325   140.5633     5.2286     5.0000
  229.0000     8.4045     0.3043     2.5093     0.2616     0.0866   141.4835     5.0518     4.8655
  229.5000     8.4053     0.3179     2.5206     0.2583     0.0772   140.5930     4.8137     4.6365
  230.0000     8.3910     0.3285     2.5083     0.2542     0.0917   138.1835     4.4922     4.3573
  230.5000     8.3767     0.3031     2.4388     0.2510     0.1237   134.8650     4.1874     3.6897
  231.0000     8.2573     0.2987     2.4073     0.2559     0.1434   136.3950     4.0179     3.3725
  231.5000     7.9572     0.3724     2.3991     0.2761     0.1497   144.2886     3.9139     3.3502
  232.0000     7.7023     0.3891     2.4021     0.2891     0.1497   149.4550     3.8345     3.5189
  232.5000     7.3722     0.3710     2.4119     0.3026     0.1475   149.7828     3.7567     3.6448
  233.0000     7.2826     0.3773     2.4255     0.2999     0.1436   143.9496     3.6805     3.6717
  233.5000     7.4338     0.4420     2.4300     0.2957     0.1336   140.3667     3.5561     3.5959
  234.0000     7.5106     0.4947     2.3640     0.2806     0.1684   139.2150     3.3885     3.3491
  234.5000     7.5408     0.4978     2.2979     0.2830     0.2106   138.9231     3.1185     2.8631
  235.0000     7.4964     0.4574     2.2964     0.3002     0.2134   138.6386     2.8901     2.5102
  235.5000     7.4369     0.4495     2.3693     0.3101     0.1889   138.9565     2.7348     2.2785
  236.0000     7.4978     0.4846     2.4715     0.3186     0.1136   140.1834     2.6241     2.1862
  236.5000     7.7091     0.4091     2.4212     0.3162     0.1218   143.2285     2.5339     2.2962
  237.0000     7.8000     0.2642     2.2342     0.2848     0.2997   145.6676     2.4811     2.3619
  237.5000     8.0414     0.2447     2.0013     0.2796     0.3897   143.2582     2.4169     2.3793
  238.0000     8.1173     0.3320     2.0201     0.2881     0.4079   139.9397     2.4008     2.4136
  238.5000     7.3787     0.4567     2.3320     0.2971     0.2601   134.4959     2.4695     2.4654
  239.0000     7.3821     0.4914     2.4785     0.2956     0.1030   133.9088     2.5754     2.5718
  239.5000     7.3979     0.4931     2.5018     0.2899     0.0945   136.1000     2.6860     2.6861
  240.0000     7.3986     0.4852     2.5560     0.2890     0.0902   137.2755     2.8012     2.8564
  240.5000     7.3843     0.4512     2.5973     0.2892     0.0434   136.9835     2.9012     2.9177
  241.0000     7.3850     0.4153     2.6259     0.2892     0.0156   136.6953     2.9224     2.9189
  241.5000     7.3857     0.3523     2.6320     0.2892     0.0111   140.3502     2.7847     2.8599
  242.0000     7.3865     0.2999     2.6275     0.2892     0.0129   141.2704     2.5275     2.6877
  242.5000     7.3872     0.2880     2.6230     0.2895     0.0162   135.2284     2.2274     2.4396
