~VERSION INFORMATION
 VERS.                2.0:   CWLS LOG ASCII STANDARD - VERSION 2.0
 WRAP.                 NO:   ONE LINE PER DEPTH STEP
~WELL INFORMATION
#MNEM.UNIT      DATA TYPE    INFORMATION
#----------   ------------   ------------------------------
 STRT.F           12.5000:   START DEPTH
 STOP.F          688.0000:   STOP DEPTH
 STEP.F            0.5000:   STEP LENGTH
 NULL.          -999.2500:   NO VALUE
 COMP. FENIX & SCISSON INC:   COMPANY
 WELL. 26-66 SX 11 WO #26-11:   WELL
 FLD .             TEAPOT:   FIELD
 LOC .      S11 T38N R78W:   LOCATION
 CNTY.            NATRONA:   COUNTY
 STAT.            WYOMING:   STATE
 CTRY. UNITED STATES OF AMERICA:   COUNTRY
 SRVC.      Dresser Atlas:   SERVICE COMPANY
 DATE.        28-AUG-1980:   LOGDATE
 API .       490251084700:   API NUMBER
~CURVE INFORMATION
#MNEM.UNIT       API CODE    CURVE DESCRIPTION
#----------   ------------   ------------------------------
 DEPT.F                  :   
 SFL .OHMM   07 220 01 00:   SHALLOW FOCUSED LOG RESISTIVITY
 ILD .OHMM   07 120 46 00:   INDUCTION LOG DEEP
 ILM .OHMM   07 120 44 00:   INDUCTION LOG MEDIUM
 SPR .MV     07 010 01 00:   SPONTANEOUS POTENTIAL
 CORR.G/C3   45 356 01 00:   DENSITY CORRECTION
 RHOB.G/C3   45 350 01 00:   BULK DENSITY
 DPOR.DEC    45 890 12 00:   DENSITY POROSITY SANDSTONE
 NPOR.DEC    42 890 03 00:   NEUTRON POROSITY SANDSTONE
 GRD .GAPI   45 310 01 00:   GAMMA RAY FROM DENSITY LOG
~PARAMETER INFORMATION
#MNEM.UNIT          VALUE    DESCRIPTION
#----------   ------------   ------------------------------
 PD  .                 GL:   PERMANENT DATUM
 EPD .F              5194:   ELEVATION PERMANENT DATUM
 LMF .                 KB:   LOG MEASURED FROM
 DAPD.F                 5:   FEET ABOVE PERMANENT DATUM
 DMF .                 KB:   DRILLING MEASURED FROM
 EKB .F              5199:   KELLING BUSHING
 EGL .F              5194:   GROUND LEVEL
 DATE.          8-28-1980:   RUN DATE
 RUN .                  1:   RUN NUMBER
 DD  .F               700:   DEPTH DRILLER
 DL  .F               689:   DEPTH LOGGER
 BLI .F               688:   BOTTOM LOG INTERVAL
 TLI .F                14:   TOP LOG INTERVAL
 BS  .IN             8.75:   BIT SIZE
 BSD .F               700:   BIT SIZE AT DEPTH
 DFT .                KCL:   DRILLING FLUID TYPE
 DFD .                8.8:   DRILLING FLUID DENSITY
 DFV .                 55:   DRILLING FLUID VISCOSITY
 DFPH.                 11:   DRILLING FLUID PH
 DFL .                  8:   DRILLING FLUID LOSS
 MSS .           FLOWLINE:   MUD SAMPLE SOURCE
 RMS .OHMM            .72:   RESISTIVITY MUD SAMPLE
 MST .F                66:   MUD SAMPLE TEMPERATURE
 RMF .OHMM            .21:   RESISTIVITY MUD FILTRATE SAMPLE
 MFST.F                66:   MUD FILTRATE SAMPLE TEMPERATURE
 RMC .OHMM           1.24:   RESISTIVITY MUD CAKE
 MCST.F                66:   MUD CAKE SAMPLE TEMPERATURE
 MFSS.               MEAS:   MUD FILTRATE SAMPLE SOURCE
 MCSS.               MEAS:   MUD CAKE SAMPLE SOURCE
 BHT .F               100:   BOTTOM HOLE TEMPERATURE
 TCS .HRS               2:   TIME CURCULATED STOPPED
 MRT .F               100:   MAXIMUM RECORDED TEMPERATURE
 LUN .               6240:   LOGGING UNIT NUMBER
 LUL .               RYTN:   LOGGING UNIT LOCATION
 ENGI.           J. GETTY:   RECORDING ENGINEER
 WITN.              FIVAS:   WITNESSED BY
 CLNT.            A2DTECH:   CLIENT CODE
 ORIG.      1" 2.5" PRINT:   ORIGIN OF DATA
 UWI .       490251084700:   UNIQUE WELL ID
 DICO. A2D Technologies, Inc.:   DIGITIZING COMPANY
~OTHER INFORMATION
~A   DEPT      SFL        ILD        ILM        SPR       CORR       RHOB       DPOR         NPOR      GRD   
# ...
  487.0000     8.7210     9.0746     8.6771   -73.0516     0.0364     2.4929     0.1108     0.2890   130.5425
  487.5000     8.6959     9.0987     8.7972   -73.1480     0.0520     2.5005     0.1002     0.2809   130.2472
  488.0000     8.6709     9.1228     8.9190   -73.1183     0.0668     2.5323     0.0826     0.2904   129.9888
  488.5000     8.6460     9.1471     9.0424   -72.5328     0.0839     2.5760     0.0630     0.2975   128.8585
  489.0000     8.6211     9.1714     9.1834   -72.0535     0.0749     2.5694     0.0708     0.3163   127.7468
  489.5000     8.5963     9.3015     9.1834   -71.5303     0.0535     2.5435     0.0894     0.3036   127.8003
  490.0000     8.5669     9.5390     9.1834   -70.9857     0.0341     2.5066     0.1147     0.2882   128.2420
  490.5000     8.5406     9.7824     9.5242   -70.6733     0.0136     2.4867     0.1128     0.2698   130.6131
  491.0000     8.5196    10.3225    10.1072   -70.7032     0.0111     2.4955     0.1100     0.2558   128.3970
  491.5000     9.0898    11.1333    10.7258   -70.6922     0.0077     2.4805     0.1213     0.2469   124.1343
  492.0000    10.4560    12.0077    11.3823   -70.6719     0.0093     2.4581     0.1320     0.2414   120.6853
  492.5000    12.0285    12.9508    12.0790   -70.2249     0.0395     2.4449     0.1371     0.2422   107.6815
  493.0000    13.5426    13.9680    12.8183   -69.7878     0.0785     2.4464     0.1395     0.2506    91.1293
  493.5000    13.8109    15.0651    13.6029   -69.3169     0.0843     2.4316     0.1512     0.2647    89.5867
  494.0000    14.0603    16.2483    14.4355   -69.0602     0.0676     2.4022     0.1675     0.2717    90.6922
  494.5000    13.8962    17.5245    15.3191   -69.1583     0.0672     2.3703     0.1853     0.2682    93.4446
  495.0000    13.7243    18.2764    16.2567   -69.2381     0.0767     2.3584     0.1909     0.2653    91.5559
  495.5000    13.5547    18.3521    17.2442   -69.3055     0.0854     2.3465     0.1973     0.2785    89.1754
  496.0000    14.3510    18.4272    17.1714   -69.3715     0.0958     2.3349     0.2089     0.2932    88.9768
  496.5000    15.1867    18.5023    17.0994   -69.4554     0.0946     2.3277     0.2066     0.2932    88.9066
  497.0000    16.0098    18.5781    17.0278   -69.0971     0.0742     2.3369     0.2006     0.2830    88.1474
  497.5000    15.9549    18.6551    16.9276   -68.6587     0.0619     2.3489     0.1968     0.2722    87.2907
  498.0000    15.9014    18.7332    17.0447   -68.2135     0.0600     2.3432     0.2013     0.2614    87.3224
  498.5000    15.8480    18.8121    17.5681   -67.7651     0.0570     2.2948     0.2202     0.2535    90.4450
  499.0000    15.7949    18.9184    17.8953   -67.3173     0.0674     2.2770     0.2398     0.2465    89.1183
  499.5000    15.7182    18.8364    17.3874   -67.0579     0.0782     2.2861     0.2347     0.2414    85.4271
  500.0000    16.2687    18.5532    16.9045   -67.2324     0.0906     2.3008     0.2213     0.2447    84.1216
  500.5000    17.2442    18.2743    16.4349   -67.3974     0.0968     2.3151     0.2080     0.2442    84.3667
  501.0000    16.6666    17.9995    15.9784   -67.5635     0.0951     2.3256     0.2080     0.2410    86.2226
  501.5000    16.1342    17.7289    15.5345   -67.7327     0.0812     2.3252     0.2120     0.2390    88.1650
  502.0000    15.6331    17.4623    15.1030   -67.9015     0.0696     2.3245     0.2120     0.2483    90.2280
  502.5000    15.1464    17.1999    14.6835   -68.0703     0.0566     2.3429     0.1968     0.2642    92.4190
  503.0000    14.5996    16.9417    14.2756   -68.2347     0.0446     2.3681     0.1761     0.2709    94.8593
  503.5000    14.7842    16.6877    13.9334   -68.4045     0.0328     2.3821     0.1778     0.2532    97.0950
  504.0000    15.0046    16.5737    13.5524   -68.5884     0.0323     2.3732     0.1824     0.2382    96.4495
  504.5000    15.2268    16.5126    13.6792   -68.5088     0.0318     2.3635     0.1873     0.2287    93.1775
  505.0000    15.4375    16.4519    13.8917   -68.2136     0.0320     2.3682     0.1814     0.2348    91.3191
  505.5000    15.4202    16.3910    14.1075   -67.9265     0.0234     2.3786     0.1779     0.2443    89.4347
  506.0000    15.1654    16.3215    14.3266   -67.9087     0.0120     2.3808     0.1865     0.2538    87.4396
  506.5000    14.9150    16.6471    14.5484   -68.0519     0.0014     2.3467     0.2043     0.2637    87.9423
  507.0000    14.6065    16.6870    14.7747   -68.1970    -0.0110     2.3306     0.2044     0.2434    91.8906
  507.5000    15.7812    16.7264    15.0043   -67.3486    -0.0119     2.3492     0.1949     0.2219    95.8756
  508.0000    17.8732    16.7659    15.2372   -66.4607    -0.0129     2.3600     0.1878     0.2120    98.7871
  508.5000    19.2732    16.8060    15.4738   -65.5451    -0.0040     2.3485     0.2030     0.2233    96.0901
  509.0000    18.4218    16.8470    15.7140   -64.6320     0.0181     2.3364     0.2040     0.2388    93.4124
  509.5000    17.6262    16.8885    15.9821   -63.7191     0.0393     2.3484     0.1919     0.2466    93.7332
  510.0000    16.8650    16.9288    15.9286   -62.8077     0.0559     2.3688     0.1825     0.2510    95.1945
  510.5000    16.3117    17.1029    15.8242   -62.1057     0.0565     2.3710     0.1857     0.2743    96.8017
  511.0000    16.2778    17.2736    15.7197   -62.1564     0.0660     2.3737     0.1738     0.2834    97.3632
  511.5000    16.2157    17.4461    15.6160   -62.2597     0.0752     2.4009     0.1570     0.2815    97.2589
  512.0000    16.1539    17.6202    15.5129   -62.4190     0.0669     2.4171     0.1570     0.2797    96.7831
  512.5000    16.0923    17.7961    15.3741   -62.5799     0.0578     2.3861     0.1953     0.2768    96.2333
  513.0000    16.0309    17.8953    15.0800   -64.0454     0.0483     2.3547     0.1931     0.2671    95.2480
  513.5000    15.8214    17.5090    14.7915   -65.3417     0.0393     2.3578     0.1889     0.2526    92.9376
  514.0000    15.5504    17.1546    14.5086   -66.5463     0.0288     2.3622     0.1937     0.2605    90.9931
  514.5000    15.2841    16.8074    14.2293   -66.4404     0.0239     2.3550     0.2008     0.2571    90.8958
  515.0000    15.0223    16.4671    13.9567   -66.3659     0.0254     2.3461     0.1941     0.2392    93.1331
  515.5000    14.7650    16.1338    13.6896   -66.2351     0.0416     2.3605     0.1802     0.2183    96.4211
  516.0000    14.5121    15.8072    13.5502   -67.0777     0.0564     2.3810     0.1663     0.2304   100.0359
  516.5000    14.2636    15.4073    13.5736   -68.5530     0.0622     2.4018     0.1628     0.2559   100.7251
  517.0000    14.0193    14.9880    13.6400   -68.6126     0.0532     2.4095     0.1669     0.2900   101.5418
  517.5000    13.8059    14.3272    13.7068   -68.6601     0.0457     2.3986     0.1710     0.2854   102.1053
  518.0000    13.8283    14.3497    13.7742   -68.6602     0.0380     2.3901     0.1752     0.2785   103.5156
  518.5000    13.8485    14.4242    13.8411   -68.4454     0.0302     2.3838     0.1793     0.2766   105.3180
  519.0000    13.8688    14.4995    13.9083   -68.0372     0.0240     2.3761     0.1834     0.2869   103.1701
  519.5000    13.8891    14.5753    13.9759   -67.6636     0.0243     2.3684     0.1857     0.2843    97.9558
  520.0000    13.9094    14.6513    14.0438   -66.7119     0.0251     2.3691     0.1817     0.2740    95.5266
  520.5000    13.9297    14.7274    14.1120   -65.1395     0.0397     2.3801     0.1761     0.2645    96.9966
  521.0000    13.9499    14.8037    14.1805   -64.2473     0.0512     2.3843     0.1769     0.2587   101.2128
  521.5000    13.9704    14.8802    14.2494   -63.7647     0.0640     2.3817     0.1779     0.2518   103.4534
  522.0000    13.9908    14.9571    14.3179   -63.2508     0.0605     2.3788     0.1825     0.2478   103.2703
  522.5000    14.0114    15.0344    14.3870   -63.4137     0.0536     2.3670     0.1936     0.2518   102.6884
  523.0000    14.0317    15.1448    14.4564   -65.4814     0.0468     2.3552     0.1944     0.2495   101.4587
