~VERSION INFORMATION
 VERS.                2.0:   CWLS LOG ASCII STANDARD - VERSION 2.0
 WRAP.                 NO:   ONE LINE PER DEPTH STEP
~WELL INFORMATION
#MNEM.UNIT      DATA TYPE    INFORMATION
#----------   ------------   ------------------------------
 STRT.F          566.5000:   START DEPTH
 STOP.F         2065.5000:   STOP DEPTH
 STEP.F            0.5000:   STEP LENGTH
 NULL.          -999.2500:   NO VALUE
 COMP. LAWRENCE/ALLISON INC:   COMPANY
 WELL.      NPR 3 #25-X-3:   WELL
 FLD .             TEAPOT:   FIELD
 LOC .       S3 T38N R78W:   LOCATION
 CNTY.            NATRONA:   COUNTY
 STAT.            WYOMING:   STATE
 CTRY. UNITED STATES OF AMERICA:   COUNTRY
 SRVC.            Unknown:   SERVICE COMPANY
 DATE.        26-SEP-1987:   LOGDATE
 API .       490251119000:   API NUMBER
~CURVE INFORMATION
#MNEM.UNIT       API CODE    CURVE DESCRIPTION
#----------   ------------   ------------------------------
 DEPT.F                  :   
 ROP .MIN/FT 91 810 01 00:   RATE OF DRILLING PENETRATION
 TGAS.UNITS  91 830 01 00:   TOTAL GAS FROM HOTWIRE
~PARAMETER INFORMATION
#MNEM.UNIT          VALUE    DESCRIPTION
#----------   ------------   ------------------------------
 DATE.        26-SEP-1987:   RUN DATE
 RUN .                  1:   RUN NUMBER
 DD  .F              2066:   DEPTH DRILLER
 TLI .F               566:   TOP LOG INTERVAL
 WITN. R. HUSK/R. PETERSON:   WITNESSED BY
 CLNT.            A2DTECH:   CLIENT CODE
 ORIG.           5" PRINT:   ORIGIN OF DATA
 UWI .       490251119000:   UNIQUE WELL ID
 DICO. A2D Technologies, Inc.:   DIGITIZING COMPANY
~OTHER INFORMATION
~A   DEPT        ROP       TGAS 
  566.5000     0.5567     5.8469
  567.0000     0.5671     5.8469
  567.5000     0.5772     5.8469
  568.0000     0.5875     5.8469
  568.5000     0.5872     5.8469
  569.0000     0.5662     5.8469
  569.5000     0.5659     5.8469
  570.0000     0.5553     5.8469
  570.5000     0.5238     5.8469
  571.0000     0.5131     5.8469
  571.5000     0.4712     5.8469
  572.0000     0.4292     5.8469
  572.5000     0.3872     5.8469
  573.0000     0.3557     5.8469
  573.5000     0.3451     5.8469
  574.0000     0.3135     5.8469
  574.5000     0.3133     5.8469
  575.0000     0.3131     5.8469
  575.5000     0.3547     5.8469
  576.0000     0.4275     5.8469
  576.5000     0.5004     5.8469
  577.0000     0.4584     5.8469
  577.5000     0.4269     5.8469
  578.0000     0.3849     5.8469
  578.5000     0.3743     5.8469
  579.0000     0.3532     5.8469
  579.5000     0.3426     5.8469
  580.0000     0.3423     5.8469
  580.5000     0.3421     5.8469
  581.0000     0.3420     5.8469
  581.5000     0.3417     5.8469
  582.0000     0.3311     5.8469
  582.5000     0.3414     5.8469
  583.0000     0.3411     5.8469
  583.5000     0.3513     5.8469
  584.0000     0.3825     5.8469
  584.5000     0.4240     5.8469
  585.0000     0.4656     5.8469
  585.5000     0.5071     5.8469
  586.0000     0.5382     5.8469
  586.5000     0.5485     5.8469
  587.0000     0.5587     5.8469
  587.5000     0.5584     5.8469
  588.0000     0.5582     5.8469
  588.5000     0.5476     5.8469
  589.0000     0.5160     5.8469
  589.5000     0.4845     5.8469
  590.0000     0.4530     5.8469
  590.5000     0.4110     5.8469
  591.0000     0.3795     5.8469
  591.5000     0.3480     5.8469
  592.0000     0.3478     5.8469
  592.5000     0.3476     5.8469
  593.0000     0.3682     5.8469
  593.5000     0.3785     5.8469
  594.0000     0.3783     5.8469
  594.5000     0.3781     5.8469
  595.0000     0.3883     5.8469
  595.5000     0.3881     5.8469
  596.0000     0.3879     5.8469
  596.5000     0.3877     5.8469
  597.0000     0.3874     5.8469
  597.5000     0.3768     5.8469
  598.0000     0.3766     5.8469
  598.5000     0.3764     5.8469
  599.0000     0.3762     5.8469
  599.5000     0.3655     5.8469
  600.0000     0.3653     5.8469
  600.5000     0.3651     5.8469
  601.0000     0.3754     5.8469
  601.5000     0.3751     5.8469
  602.0000     0.3749     5.8469
  602.5000     0.3747     5.8469
  603.0000     0.3745     5.8469
  603.5000     0.3743     5.8469
  604.0000     0.3741     5.8469
  604.5000     0.3739     5.8469
  605.0000     0.3737     5.8469
  605.5000     0.3734     5.8469
  606.0000     0.3732     5.8469
  606.5000     0.3730     5.8469
  607.0000     0.3728     5.8469
  607.5000     0.3831     5.8469
  608.0000     0.3829     5.8469
  608.5000     0.3827     5.8469
  609.0000     0.3824     5.8469
  609.5000     0.3822     5.8469
  610.0000     0.3820     5.8469
  610.5000     0.3923     5.8469
  611.0000     0.3921     5.8469
  611.5000     0.4023     5.8469
  612.0000     0.4021     5.8469
  612.5000     0.3914     5.8469
  613.0000     0.3808     5.8469
  613.5000     0.3806     5.8469
  614.0000     0.3908     5.8469
  614.5000     0.3801     5.8469
  615.0000     0.3799     5.8469
  615.5000     0.3797     5.8469
  616.0000     0.3795     5.8469
  616.5000     0.3793     5.8469
  617.0000     0.3791     5.8469
  617.5000     0.3789     5.8469
  618.0000     0.3996     5.8469
  618.5000     0.3994     5.8469
  619.0000     0.3992     5.8469
  619.5000     0.3989     5.8469
  620.0000     0.3987     5.8469
  620.5000     0.3985     5.8469
  621.0000     0.3983     5.8469
  621.5000     0.3981     5.8469
  622.0000     0.4084     5.8469
  622.5000     0.4081     5.8469
  623.0000     0.4079     5.8469
  623.5000     0.4077     5.8469
  624.0000     0.4075     5.8469
  624.5000     0.4073     5.8469
  625.0000     0.4071     5.8469
  625.5000     0.4069     5.8469
  626.0000     0.4066     5.8469
  626.5000     0.4064     5.8469
  627.0000     0.4062     5.8469
  627.5000     0.4060     5.8469
  628.0000     0.4058     5.8469
  628.5000     0.4056     5.8469
  629.0000     0.4054     5.8469
  629.5000     0.4052     5.8469
  630.0000     0.4259     5.8469
  630.5000     0.4570     5.8469
  631.0000     0.4985     5.8469
  631.5000     0.5296     5.8469
  632.0000     0.5607     5.8469
  632.5000     0.5396     5.8469
  633.0000     0.4872     5.8469
  633.5000     0.4453     5.8469
  634.0000     0.4033     5.8469
  634.5000     0.3927     5.8469
  635.0000     0.3820     5.8469
  635.5000     0.3923     5.8469
  636.0000     0.4025     5.8469
  636.5000     0.4023     5.8469
  637.0000     0.4021     5.8469
  637.5000     0.4018     5.8469
  638.0000     0.4016     5.8469
  638.5000     0.4014     5.8469
  639.0000     0.4117     5.8469
  639.5000     0.4115     5.8469
  640.0000     0.4112     5.8469
  640.5000     0.4111     5.8469
  641.0000     0.4108     5.8469
  641.5000     0.4002     5.8469
  642.0000     0.4000     5.8469
  642.5000     0.3998     5.8469
  643.0000     0.3996     5.8469
  643.5000     0.3993     5.8469
  644.0000     0.3991     5.8469
  644.5000     0.3989     5.8469
  645.0000     0.3883     5.8469
  645.5000     0.3672     5.8469
  646.0000     0.3670     5.8469
  646.5000     0.3668     5.8469
  647.0000     0.3561     5.8469
  647.5000     0.3559     5.8469
  648.0000     0.3557     5.8469
  648.5000     0.3451     5.8469
  649.0000     0.3240     5.8469
  649.5000     0.3238     5.8469
  650.0000     0.3131     5.8469
  650.5000     0.3129  -999.2500
  651.0000     0.3232  -999.2500
  651.5000     0.3229  -999.2500
  652.0000     0.3437  -999.2500
  652.5000     0.3539  -999.2500
  653.0000     0.3641  -999.2500
  653.5000     0.3638  -999.2500
  654.0000     0.3636  -999.2500
  654.5000     0.3634   805.2189
  655.0000     0.3632   805.1208
  655.5000     0.3630   805.0228
  656.0000     0.3628   804.9247
  656.5000     0.3626   804.8266
  657.0000     0.3624   804.7285
  657.5000     0.3622   804.6305
  658.0000     0.3620   804.5324
  658.5000     0.3513   804.4343
  659.0000     0.3616   804.3362
  659.5000     0.3613   804.2382
  660.0000     0.3611   804.1401
  660.5000     0.3819   804.0420
  661.0000     0.3921   803.9439
  661.5000     0.3918   803.8458
  662.0000     0.3916   803.7477
  662.5000     0.3914   803.6497
  663.0000     0.3912   803.5516
  663.5000     0.3910   803.4536
  664.0000     0.3908   803.3555
  664.5000     0.3906   803.2574
  665.0000     0.3904   803.1593
  665.5000     0.3902   803.0612
  666.0000     0.3900   802.9631
  666.5000     0.3897   802.8651
  667.0000     0.3891   802.7670
  667.5000     0.3885   802.6689
  668.0000     0.3879   802.5709
  668.5000     0.3873   802.4728
  669.0000     0.3867   802.3747
  669.5000     0.3861   802.2766
  670.0000     0.3855   802.1785
  670.5000     0.3849   802.0804
  671.0000     0.3843   801.9824
  671.5000     0.3837   801.8843
  672.0000     0.3831   801.7863
  672.5000     0.3825   801.6882
  673.0000     0.3819   801.5901
  673.5000     0.3813   801.4920
  674.0000     0.3807   801.3939
  674.5000     0.3801   801.2958
  675.0000     0.3795   801.1978
  675.5000     0.3789   801.0997
  676.0000     0.3783   801.0016
  676.5000     0.3777   800.9036
  677.0000     0.3771   800.8055
  677.5000     0.3765   800.7074
  678.0000     0.3759   800.6093
  678.5000     0.3753   800.5112
  679.0000     0.3747   800.4131
  679.5000     0.3741   800.3151
  680.0000     0.3735   800.2170
  680.5000     0.3729   800.1190
  681.0000     0.3723   800.0209
  681.5000     0.3717   799.9228
  682.0000     0.3711   799.8247
  682.5000     0.3705   799.7266
  683.0000     0.3699   799.6285
  683.5000     0.3693   799.5305
  684.0000     0.3687   799.4324
  684.5000     0.3681   799.3343
  685.0000     0.3675   799.2363
  685.5000     0.3669   799.1382
  686.0000     0.3663   799.0401
  686.5000     0.3657   798.9420
  687.0000     0.3651   798.8439
  687.5000     0.3645   798.7458
