~VERSION INFORMATION
 VERS.                2.0:   CWLS LOG ASCII STANDARD - VERSION 2.0
 WRAP.                 NO:   ONE LINE PER DEPTH STEP
~WELL INFORMATION
#MNEM.UNIT      DATA TYPE    INFORMATION
#----------   ------------   ------------------------------
 STRT.F            2.0000:   START DEPTH
 STOP.F          508.0000:   STOP DEPTH
 STEP.F            0.1000:   STEP LENGTH
 NULL.          -999.2500:   NO VALUE
 COMP. LAWRENCE/ALLISON INC:   COMPANY
 WELL.      48-41 SX #3-3:   WELL
 FLD .             TEAPOT:   FIELD
 LOC .       S3 T38N R78W:   LOCATION
 CNTY.            NATRONA:   COUNTY
 STAT.            WYOMING:   STATE
 CTRY. UNITED STATES OF AMERICA:   COUNTRY
 SRVC.           Gearhart:   SERVICE COMPANY
 DATE.        09-JUL-1988:   LOGDATE
 API .       490251123300:   API NUMBER
~CURVE INFORMATION
#MNEM.UNIT       API CODE    CURVE DESCRIPTION
#----------   ------------   ------------------------------
 DEPT.F                  :   
 GRR .GAPI   07 310 01 00:   GAMMA RAY
 RILD.OHMM   07 120 46 00:   INDUCTION LOG DEEP RESISTIVITY
 RILM.OHMM   07 120 44 00:   INDUCTION LOG MEDIUM RESISTIVITY
~PARAMETER INFORMATION
#MNEM.UNIT          VALUE    DESCRIPTION
#----------   ------------   ------------------------------
 PD  .                 GL:   PERMANENT DATUM
 EPD .F              5200:   ELEVATION PERMANENT DATUM
 LMF .                 KB:   LOG MEASURED FROM
 DAPD.F                 5:   FEET ABOVE PERMANENT DATUM
 DMF .                 KB:   DRILLING MEASURED FROM
 EKB .F              5205:   KELLING BUSHING
 EDF .F              5204:   DRILLING FLOOR
 EGL .F              5200:   GROUND LEVEL
 DATE.        09-JUL-1988:   RUN DATE
 RUN .                  1:   RUN NUMBER
 DD  .F               510:   DEPTH DRILLER
 DL  .F               516:   DEPTH LOGGER
 BLI .F               508:   BOTTOM LOG INTERVAL
 TLI .F               1.5:   TOP LOG INTERVAL
 CS  .IN            9.625:   CASING SIZE
 CBD .F                40:   CASING BOTTOM DRILLER
 CBL .F                45:   CASING BOTTOM LOGGER
 BS  .IN             8.75:   BIT SIZE
 BSD .F               510:   BIT SIZE AT DEPTH
 DFT .                AIR:   DRILLING FLUID TYPE
 TCS .HRS            1800:   TIME CURCULATED STOPPED
 TLAB.HRS            1843:   TIME LOGGER AT BOTTOM
 MRT .F                70:   MAXIMUM RECORDED TEMPERATURE
 LUN .               7597:   LOGGING UNIT NUMBER
 LUL .           GILLETTE:   LOGGING UNIT LOCATION
 ENGI.         WEATHERMON:   RECORDING ENGINEER
 WITN.              FIVAS:   WITNESSED BY
 CLNT.            A2DTECH:   CLIENT CODE
 ORIG.           5" PRINT:   ORIGIN OF DATA
 UWI .       490251123300:   UNIQUE WELL ID
 DICO. A2D Technologies, Inc.:   DIGITIZING COMPANY
~OTHER INFORMATION
~A    DEPT      GRR      RILD       RILM   
# ...
  220.4000   127.5465     7.0389     6.6963
  220.5000   127.7526     7.0799     6.7484
  220.6000   128.0039     7.1289     6.7870
  220.7000   128.1532     7.1961     6.8343
  220.8000   128.2052     7.2543     6.9126
  220.9000   128.4573     7.2965     6.9921
  221.0000   128.4585     7.3390     7.0724
  221.1000   128.8554     7.3822     7.1299
  221.2000   129.2106     7.4247     7.1859
  221.3000   129.4620     7.4679     7.2683
  221.4000   129.7135     7.5114     7.3563
  221.5000   129.9729     7.5551     7.3961
  221.6000   130.2162     7.6063     7.4698
  221.7000   130.4675     7.6982     7.5329
  221.8000   130.7188     7.6987     7.5759
  221.9000   130.8826     7.7661     7.6236
  222.0000   130.9201     7.8316     7.7210
  222.1000   131.1868     7.8771     7.7602
  222.2000   131.1879     7.9168     7.8350
  222.3000   131.3725     7.9173     7.9249
  222.4000   131.4920     7.9602     8.0042
  222.5000   131.3321     8.0065     8.0499
  222.6000   130.8621     8.0531     8.1039
  222.7000   130.5908     8.0854     8.1423
  222.8000   129.6814     8.0858     8.1888
  222.9000   128.5060     8.0863     8.2357
  223.0000   127.3806     8.0867     8.2828
  223.1000   126.4540     8.1195     8.3309
  223.2000   125.7048     8.1438     8.3308
  223.3000   124.8665     8.1443     8.3307
  223.4000   123.9861     8.1447     8.3306
  223.5000   123.3242     8.1453     8.3305
  223.6000   122.7073     8.1457     8.3304
  223.7000   122.0902     8.1461     8.3302
  223.8000   121.8557     8.1466     8.2863
  223.9000   122.4605     8.1352     8.2725
  224.0000   122.8878     8.0912     8.2724
  224.1000   123.2278     8.0917     8.2723
  224.2000   123.5896     8.0531     8.2685
  224.3000   124.0910     8.0367     8.2150
  224.4000   124.5852     8.0172     8.2149
  224.5000   124.8811     7.9820     8.1841
  224.6000   124.8821     7.9825     8.1580
  224.7000   124.8833     7.9279     8.1471
  224.8000   124.8845     7.9282     8.1005
  224.9000   124.8857     7.9287     8.0454
  225.0000   124.8869     7.9108     8.0453
  225.1000   124.8881     7.8747     8.0178
  225.2000   124.8893     7.8752     7.9895
  225.3000   124.8905     7.8756     7.9815
  225.4000   124.8917     7.8407     7.9342
  225.5000   124.8929     7.8221     7.9340
  225.6000   124.8942     7.8059     7.9001
  225.7000   124.8953     7.7615     7.8550
  225.8000   125.2792     7.7158     7.8246
  225.9000   125.6410     7.7162     7.8194
  226.0000   125.8925     7.7166     7.7704
  226.1000   126.1438     7.6927     7.7303
  226.2000   126.4097     7.6491     7.6862
  226.3000   126.6464     7.6056     7.6423
  226.4000   126.7137     7.5595     7.6102
  226.5000   126.8478     7.5195     7.6076
  226.6000   127.0178     7.4769     7.5575
  226.7000   126.9893     7.4345     7.5210
  226.8000   126.7187     7.4056     7.4781
  226.9000   126.7198     7.4014     7.4353
  227.0000   126.7210     7.3553     7.3928
  227.1000   126.5968     7.3176     7.3505
  227.2000   126.4217     7.3053     7.3504
  227.3000   126.4004     7.2851     7.3173
  227.4000   126.1226     7.2437     7.2518
  227.5000   126.1237     7.2059     7.1841
  227.6000   126.1249     7.2064     7.1430
  227.7000   126.1261     7.1347     7.0998
  227.8000   126.1273     7.1079     7.0616
  227.9000   126.1437     7.0894     7.0213
  228.0000   126.4315     7.0492     6.9607
  228.1000   126.8603     7.0071     6.8934
  228.2000   127.1995     6.9152     6.8504
  228.3000   127.5620     6.8820     6.7632
  228.4000   128.0040     6.8180     6.7291
  228.5000   128.2554     6.7404     6.6652
  228.6000   128.5504     6.6637     6.6066
  228.7000   128.7582     6.5887     6.5688
  228.8000   128.8543     6.5444     6.5299
  228.9000   128.8555     6.4836     6.4427
  229.0000   128.8568     6.4324     6.3526
  229.1000   128.8586     6.3959     6.2662
  229.2000   129.1100     6.3523     6.1808
  229.3000   129.3615     6.2795     6.0885
  229.4000   129.4648     6.2086     6.0530
  229.5000   129.5626     6.1381     5.9857
  229.6000   129.7689     6.0683     5.9177
  229.7000   129.7702     6.0122     5.8688
  229.8000   129.7713     5.9780     5.8239
  229.9000   129.7726     5.9428     5.7576
  230.0000   129.9146     5.8777     5.6867
  230.1000   130.0766     5.8617     5.6273
  230.2000   130.0779     5.8620     5.5857
  230.3000   130.0791     5.8507     5.5382
  230.4000   130.0803     5.8221     5.4840
  230.5000   130.0815     5.8225     5.4526
  230.6000   129.9491     5.8228     5.4172
  230.7000   129.7822     5.8231     5.3642
  230.8000   129.7528     5.8235     5.3228
  230.9000   129.4831     5.8238     5.2923
  231.0000   129.0256     5.8241     5.2621
  231.1000   128.7042     5.8245     5.2316
  231.2000   128.3290     5.8247     5.1604
  231.3000   127.9047     5.8250     5.1603
  231.4000   127.6325     5.8420     5.1429
  231.5000   127.0771     5.8662     5.1246
  231.6000   126.8561     5.8665     5.1295
  231.7000   126.6071     5.8669     5.1601
  231.8000   126.3581     5.8672     5.1884
  231.9000   126.1767     5.8675     5.2403
  232.0000   126.1620     5.8836     5.3005
  232.1000   125.8777     5.9090     5.3613
  232.2000   125.8788     5.9112     5.4194
  232.3000   125.8800     5.9508     5.4536
  232.4000   125.8812     5.9802     5.5098
  232.5000   125.8824     6.0150     5.5732
  232.6000   125.8835     6.0500     5.6372
  232.7000   125.8850     6.0934     5.7018
  232.8000   126.3012     6.1632     5.7672
  232.9000   126.9587     6.2055     5.8441
  233.0000   127.6058     6.2351     5.9005
  233.1000   128.1603     6.2937     5.9900
  233.2000   128.9119     6.3518     6.0788
  233.3000   129.8138     6.3963     6.1485
  233.4000   130.2155     6.4707     6.2195
  233.5000   130.5681     6.5458     6.2906
  233.6000   130.8195     6.5917     6.3915
  233.7000   131.1166     6.6525     6.4806
  233.8000   131.6296     6.7150     6.5551
  233.9000   131.8754     6.7609     6.6303
  234.0000   132.1267     6.8419     6.7113
  234.1000   132.3781     6.9190     6.7472
  234.2000   132.6294     6.9994     6.8140
  234.3000   132.8421     7.0580     6.8720
  234.4000   132.5418     7.1135     6.9233
  234.5000   132.3056     7.1960     7.0027
  234.6000   132.0567     7.2847     7.0930
  234.7000   131.8077     7.3245     7.1286
  234.8000   131.5588     7.3983     7.1968
  234.9000   131.3099     7.4615     7.2794
  235.0000   131.0408     7.5049     7.3527
  235.1000   131.0419     7.5537     7.3960
  235.2000   130.8646     7.6493     7.4964
  235.3000   130.7427     7.6898     7.5315
  235.4000   130.7439     7.7346     7.5746
  235.5000   130.7208     7.8021     7.6353
  235.6000   130.4448     7.8793     7.7065
  235.7000   130.4458     7.9252     7.7064
  235.8000   130.4471     7.9768     7.7493
  235.9000   130.4483     7.9772     7.7936
  236.0000   130.3811     8.0086     7.8382
  236.1000   130.1320     8.0553     7.8830
  236.2000   129.8487     8.0898     7.9280
  236.3000   129.8498     8.0930     7.9773
  236.4000   129.6869     8.1471     7.9771
  236.5000   129.5505     8.1475     7.9770
  236.6000   129.5517     8.1479     7.9994
  236.7000   129.5432     8.1691     8.0323
  236.8000   129.2527     8.2055     8.0353
  236.9000   129.0453     8.2059     8.0878
  237.0000   128.7964     8.2065     8.1275
  237.1000   128.5475     8.2068     8.1438
  237.2000   128.2985     8.2365     8.1437
  237.3000   128.0494     8.2649     8.1539
  237.4000   127.7517     8.2653     8.2001
  237.5000   127.5516     8.2658     8.1999
  237.6000   127.4522     8.3139     8.1998
  237.7000   127.3552     8.3242     8.1998
  237.8000   127.1061     8.3246     8.1996
  237.9000   126.8525     8.3251     8.1995
  238.0000   126.8537     8.3256     8.1994
  238.1000   126.6611     8.3260     8.1993
  238.2000   126.5545     8.3265     8.1992
  238.3000   126.5556     8.3269     8.1991
  238.4000   126.5964     8.3274     8.1989
  238.5000   126.8598     8.3279     8.1988
