~VERSION INFORMATION
 VERS.                2.0:   CWLS LOG ASCII STANDARD - VERSION 2.0
 WRAP.                 NO:   ONE LINE PER DEPTH STEP
~WELL INFORMATION
#MNEM.UNIT      DATA TYPE    INFORMATION
#----------   ------------   ------------------------------
 STRT.F           17.0000:   START DEPTH
 STOP.F          592.0000:   STOP DEPTH
 STEP.F            0.5000:   STEP LENGTH
 NULL.          -999.2500:   NO VALUE
 COMP.   FLUOR DANIEL INC:   COMPANY
 WELL. NAVAL PETROLEUM RESERVE SX-1 87 #2-10:   WELL
 FLD .             TEAPOT:   FIELD
 LOC .      S10 T38N R78W:   LOCATION
 CNTY.            NATRONA:   COUNTY
 STAT.            WYOMING:   STATE
 CTRY. UNITED STATES OF AMERICA:   COUNTRY
 SRVC.      Western Atlas:   SERVICE COMPANY
 DATE.        20-JUL-1995:   LOGDATE
 API .       490252274200:   API NUMBER
~CURVE INFORMATION
#MNEM.UNIT       API CODE    CURVE DESCRIPTION
#----------   ------------   ------------------------------
 DEPT.F                  :   
 GRR .GAPI   07 310 01 00:   GAMMA RAY FROM RES. LOG.
 RILD.OHMM   07 120 46 00:   INDUCTION LOG DEEP RESISTIVITY
 RILM.OHMM   07 120 44 00:   INDUCTION LOG MEDIUM RESISTIVITY
~PARAMETER INFORMATION
#MNEM.UNIT          VALUE    DESCRIPTION
#----------   ------------   ------------------------------
 PD  .                 GL:   PERMANENT DATUM
 EPD .F              5221:   ELEVATION PERMANENT DATUM
 LMF .                 KB:   LOG MEASURED FROM
 DAPD.F                10:   FEET ABOVE PERMANENT DATUM
 DMF .                 KB:   DRILLING MEASURED FROM
 EKB .F              5231:   KELLING BUSHING
 EDF .F              5230:   DRILLING FLOOR
 EGL .F              5221:   GROUND LEVEL
 DATE.            7-20-95:   RUN DATE
 RUN .                  1:   RUN NUMBER
 DD  .F               599:   DEPTH DRILLER
 DL  .F               600:   DEPTH LOGGER
 BLI .F               592:   BOTTOM LOG INTERVAL
 TLI .F                54:   TOP LOG INTERVAL
 CS  .IN            9.625:   CASING SIZE
 CBD .F                54:   CASING BOTTOM DRILLER
 CBL .F                54:   CASING BOTTOM LOGGER
 BS  .IN             8.75:   BIT SIZE
 BSD .F               599:   BIT SIZE AT DEPTH
 DFT .                AIR:   DRILLING FLUID TYPE
 BHT .F                98:   BOTTOM HOLE TEMPERATURE
 MRT .F                98:   MAXIMUM RECORDED TEMPERATURE
 LUN .            HL 6539:   LOGGING UNIT NUMBER
 LUL .          RK. SPGS.:   LOGGING UNIT LOCATION
 ENGI.               RALL:   RECORDING ENGINEER
 WITN.             STRONG:   WITNESSED BY
 CLNT.            A2DTECH:   CLIENT CODE
 ORIG.        2" 5" PRINT:   ORIGIN OF DATA
 UWI .       490252274200:   UNIQUE WELL ID
 DICO. A2D Technologies, Inc.:   DIGITIZING COMPANY
~OTHER INFORMATION
~A   DEPT       GRR      RILD       RILM   
# ...
  108.0000   137.4285     7.9333     8.3192
  108.5000   139.7691     7.7856     8.1630
  109.0000   142.0962     7.6324     7.9996
  109.5000   140.8117     7.5755     7.9996
  110.0000   138.9815     7.5150     7.9996
  110.5000   137.1291     7.4903     7.9996
  111.0000   138.6646     7.6733     7.9996
  111.5000   136.2953     7.8292     8.0739
  112.0000   135.7512     7.9884     8.2446
  112.5000   129.6810     8.1507     8.4189
  113.0000   125.8934     8.3164     8.5969
  113.5000   124.6675     8.4855     8.7786
  114.0000   126.5229     8.6579     8.9642
  114.5000   127.8782     8.8339     9.1538
  115.0000   124.6728     9.0135     9.3473
  115.5000   121.5281     9.1967     9.5449
  116.0000   119.0892     9.2977     9.6539
  116.5000   118.0920     9.2456     9.5600
  117.0000   113.5469     9.1380     9.4532
  117.5000   108.9236     9.0317     9.3477
  118.0000   108.8151     8.9266     9.2433
  118.5000   117.0173     8.8227     9.1397
  119.0000   123.9619     8.7200     9.0389
  119.5000   131.0493     8.6186     9.1039
  120.0000   133.2802     8.5180     9.1840
  120.5000   133.9677     8.4625     9.2108
  121.0000   133.5264     8.5484     9.2108
  121.5000   134.0940     8.6155     9.2108
  122.0000   134.7577     8.6829     9.2108
  122.5000   132.8930     8.7510     9.2108
  123.0000   128.2395     8.8196     9.2108
  123.5000   119.0965     8.8888     9.2108
  124.0000   115.5555     8.9547     9.2108
  124.5000   118.4454     8.9485     9.2108
  125.0000   122.0841     8.9421     9.2108
  125.5000   125.2072     8.9359     9.2108
  126.0000   124.8795     8.9298     9.2108
  126.5000   122.9950     8.9237     9.2108
  127.0000   120.0179     8.9175     9.2108
  127.5000   123.9035     8.9114     9.2108
  128.0000   130.4328     8.9053     9.2108
  128.5000   127.9165     8.8991     9.2108
  129.0000   128.4732     8.8930     9.2108
  129.5000   124.3875     8.8869     9.2106
  130.0000   124.8143     8.8809     9.2119
  130.5000   130.4065     8.8745     9.2146
  131.0000   130.6926     8.8540     9.2935
  131.5000   131.8929     8.8095     9.2338
  132.0000   134.0243     8.7653     9.1822
  132.5000   135.2822     8.7213     9.1297
  133.0000   129.7992     8.6775     9.0776
  133.5000   123.1047     8.6339     9.0257
  134.0000   120.9244     8.5905     8.9742
  134.5000   129.1536     8.5473     8.9229
  135.0000   131.6351     8.5044     8.8710
  135.5000   131.0566     8.4617     8.8140
  136.0000   132.5421     8.4192     8.7564
  136.5000   135.7161     8.3769     8.6991
  137.0000   135.3031     8.3348     8.6422
  137.5000   132.8489     8.2930     8.5857
  138.0000   130.3746     8.2513     8.5295
  138.5000   131.8074     8.2097     8.4738
  139.0000   133.7342     8.1687     8.4183
  139.5000   135.4141     8.1511     8.3845
  140.0000   135.7293     8.1514     8.4356
  140.5000   137.0119     8.1514     8.4725
  141.0000   138.7349     8.2098     8.5097
  141.5000   139.6726     8.3001     8.5436
  142.0000   137.3312     8.3913     8.6943
  142.5000   134.8901     8.4836     8.8349
  143.0000   133.7889     8.5769     8.9777
  143.5000   132.0108     8.6712     9.1229
  144.0000   129.3184     8.7666     9.2977
  144.5000   128.1145     8.8630     9.2644
  145.0000   129.2838     8.9547     9.2244
  145.5000   130.0860     8.8848     9.1839
  146.0000   129.8035     8.8192     9.1438
  146.5000   130.7658     8.7542     9.1039
  147.0000   131.7020     8.6896     9.0641
  147.5000   130.8765     8.6255     9.0246
  148.0000   129.4470     8.5619     8.9852
  148.5000   128.0136     8.4988     8.9547
  149.0000   126.5789     8.4361     9.0995
  149.5000   125.1385     8.3738     9.2108
  150.0000   123.7224     8.3061     8.8757
  150.5000   122.7845     8.2513     8.5748
  151.0000   125.8472     8.1910     8.3778
  151.5000   130.9795     8.1312     8.3585
  152.0000   136.1031     8.0717     8.3393
  152.5000   140.1255     8.0128     8.3201
  153.0000   140.3111     7.9542     8.3009
  153.5000   138.3762     7.9248     8.2818
  154.0000   135.6618     7.8899     8.2626
  154.5000   132.8882     7.8507     8.2438
  155.0000   130.0377     7.9260     8.2286
  155.5000   127.1360     8.0043     8.2857
  156.0000   124.2735     8.0834     8.3338
  156.5000   123.1162     8.1632     8.3823
  157.0000   128.0512     8.2439     8.4313
  157.5000   131.4701     8.3253     8.5252
  158.0000   132.1330     8.4076     8.7087
  158.5000   133.3705     8.4907     8.8961
  159.0000   135.3446     8.5745     9.0876
  159.5000   137.2895     8.6593     9.2832
  160.0000   135.8108     8.7448     9.3855
  160.5000   131.3631     8.8312     9.0378
  161.0000   127.0454     8.8709     9.0845
  161.5000   123.0921     8.8296     9.1668
  162.0000   125.9990     8.7992     9.2474
  162.5000   130.9771     8.7688     9.3903
  163.0000   132.1180     8.7385     9.3286
  163.5000   129.3153     8.7084     9.2625
  164.0000   126.4479     8.6783     9.1968
  164.5000   125.8888     8.6484     9.1315
  165.0000   128.5406     8.6244     9.0668
  165.5000   129.0100     8.6390     9.0025
  166.0000   124.8584     8.6513     8.9547
  166.5000   121.9545     8.6636     9.0456
  167.0000   126.0940     8.6760     9.1189
  167.5000   130.0726     8.6882     9.1927
  168.0000   133.4207     8.7007     9.2672
  168.5000   135.5721     8.7683     9.3423
  169.0000   136.9405     8.9268     9.4439
  169.5000   134.8582     9.1001     9.5805
  170.0000   129.6972     9.2768     9.7435
  170.5000   124.7738     9.4569     9.9264
  171.0000   121.9936     9.6405    10.1149
  171.5000   125.6885     9.8277    10.3065
  172.0000   129.1781    10.0185    10.5018
  172.5000   129.1011    10.2130    10.7007
  173.0000   122.1777    10.4112    10.9035
  173.5000   118.7565    10.6133    11.1100
  174.0000   119.5928    10.8194    11.3205
  174.5000   115.6959    11.0294    11.5413
  175.0000   110.4500    11.2436    11.7070
  175.5000   108.1079    11.4619    11.9240
  176.0000   110.5035    11.6564    12.1449
  176.5000   114.2371    11.8384    12.3699
  177.0000   116.0493    12.0231    12.5991
  177.5000   113.6804    12.2108    12.8031
  178.0000   109.6206    12.4014    12.8357
  178.5000   108.9856    12.4425    12.8684
  179.0000   112.2369    12.4425    12.9013
  179.5000   114.1037    12.4425    12.9192
  180.0000   110.5274    12.3444    12.8402
  180.5000   108.9103    12.2013    12.6797
  181.0000   112.5142    12.0600    12.5201
  181.5000   117.4833    11.9203    12.3629
  182.0000   120.0146    11.7822    12.2078
  182.5000   121.9838    11.6457    12.0546
  183.0000   122.4665    11.5108    11.9034
  183.5000   121.1918    11.3775    11.7537
  184.0000   120.7980    11.2457    11.6071
  184.5000   121.3640    11.1154    11.5092
  185.0000   119.5295    11.0115    11.4333
  185.5000   114.3062    11.0115    11.4771
  186.0000   109.1188    11.1605    11.5490
  186.5000   107.1067    11.2146    11.6213
  187.0000   109.3891    11.2690    11.6943
  187.5000   112.1699    11.3237    11.7679
  188.0000   114.9079    11.3787    11.8713
  188.5000   116.6518    11.4333    11.8044
  189.0000   113.6103    11.2900    11.6923
  189.5000   109.3993    11.1499    11.5813
  190.0000   106.5546    11.0115    11.4712
  190.5000   110.5265    10.8748    11.3623
  191.0000   114.3926    10.7398    11.2543
  191.5000   116.0694    10.6052    11.1474
  192.0000   112.3965    10.4568    11.0416
  192.5000   110.0938    10.3090    10.9367
  193.0000   110.5664    10.1630    10.8328
  193.5000   111.0463    10.1182    10.7299
  194.0000   111.0357    10.1182    10.6280
  194.5000   111.0046    10.0993    10.5270
  195.0000   112.3427     9.9799    10.4270
  195.5000   114.0200     9.8626    10.2967
  196.0000   115.6859     9.7465    10.1606
  196.5000   115.8750     9.6319    10.0262
  197.0000   114.3696     9.5186     9.8936
  197.5000   112.8718     9.4066     9.7628
  198.0000   111.6624     9.2959     9.6337
  198.5000   113.5074     9.1861     9.5064
