~VERSION INFORMATION
 VERS.                2.0:   CWLS LOG ASCII STANDARD - VERSION 2.0
 WRAP.                 NO:   ONE LINE PER DEPTH STEP
~WELL INFORMATION
#MNEM.UNIT      DATA TYPE    INFORMATION
#----------   ------------   ------------------------------
 STRT.F           97.0000:   START DEPTH
 STOP.F          756.0000:   STOP DEPTH
 STEP.F            0.5000:   STEP LENGTH
 NULL.          -999.2500:   NO VALUE
 COMP.   FLUOR DANIEL INC:   COMPANY
 WELL. NAVAL PETROLEUM RESERVE 3 61-1 #1-34:   WELL
 FLD .             TEAPOT:   FIELD
 LOC .      S34 T39N R78W:   LOCATION
 CNTY.            NATRONA:   COUNTY
 STAT.            WYOMING:   STATE
 CTRY. UNITED STATES OF AMERICA:   COUNTRY
 SRVC.            Unknown:   SERVICE COMPANY
 DATE.        25-OCT-1994:   LOGDATE
 API .       490252266500:   API NUMBER
~CURVE INFORMATION
#MNEM.UNIT       API CODE    CURVE DESCRIPTION
#----------   ------------   ------------------------------
 DEPT.F                  :   
 GR  .GAPI   35 310 01 00:   GAMMA RAY
 NEUT.NAPI   35 330 01 00:   NEUTRON
~PARAMETER INFORMATION
#MNEM.UNIT          VALUE    DESCRIPTION
#----------   ------------   ------------------------------
 PD  .                 GL:   PERMANENT DATUM
 EPD .F              5031:   ELEVATION PERMANENT DATUM
 LMF .                 KB:   LOG MEASURED FROM
 DAPD.F                10:   FEET ABOVE PERMANENT DATUM
 DMF .                 KB:   DRILLING MEASURED FROM
 EKB .F              5041:   KELLING BUSHING
 EGL .F              5031:   GROUND LEVEL
 DATE.           10-25-94:   RUN DATE
 RUN .                  1:   RUN NUMBER
 DD  .F              2440:   DEPTH DRILLER
 DL  .F               764:   DEPTH LOGGER
 BLI .F               756:   BOTTOM LOG INTERVAL
 DFT .              WATER:   DRILLING FLUID TYPE
 TCS .HRS            1000:   TIME CURCULATED STOPPED
 TLAB.HRS            1030:   TIME LOGGER AT BOTTOM
 LUN .                509:   LOGGING UNIT NUMBER
 LUL .           GILLETTE:   LOGGING UNIT LOCATION
 ENGI.            T. FINK:   RECORDING ENGINEER
 WITN.           S. HARDY:   WITNESSED BY
 CLNT.            A2DTECH:   CLIENT CODE
 ORIG.           5" PRINT:   ORIGIN OF DATA
 UWI .       490252266500:   UNIQUE WELL ID
 DICO. A2D Technologies, Inc.:   DIGITIZING COMPANY
~OTHER INFORMATION
~A   DEPT        GR       NEUT  
# ...
  340.0000   138.7258   244.0974
  340.5000   141.9939   239.1232
  341.0000   145.1999   233.7856
  341.5000   146.7916   231.5750
  342.0000   144.7291   236.4384
  342.5000   142.7358   237.0043
  343.0000   140.7688   239.3435
  343.5000   139.6046   243.5288
  344.0000   141.1723   241.9993
  344.5000   134.9480   237.6654
  345.0000   142.5648   235.8220
  345.5000   150.6186   237.7337
  346.0000   142.3933   236.3194
  346.5000   141.9247   233.7628
  347.0000   147.4893   233.3319
  347.5000   149.5975   231.0869
  348.0000   142.6058   229.0533
  348.5000   141.6088   231.6556
  349.0000   139.9533   240.5615
  349.5000   134.0547   249.3649
  350.0000   134.4204   258.2505
  350.5000   135.5143   262.3664
  351.0000   134.2620   258.2030
  351.5000   138.3483   252.9093
  352.0000   146.4309   257.2505
  352.5000   151.9711   263.0177
  353.0000   150.2611   258.8272
  353.5000   150.5030   251.6713
  354.0000   153.1311   248.0396
  354.5000   154.8321   250.2596
  355.0000   153.9139   252.1183
  355.5000   151.7326   250.3976
  356.0000   149.5250   248.7033
  356.5000   150.8820   247.0195
  357.0000   152.5312   246.5943
  357.5000   154.2536   247.6515
  358.0000   153.3020   245.6637
  358.5000   151.4291   247.6689
  359.0000   146.3185   248.8162
  359.5000   143.0573   244.1569
  360.0000   141.5435   248.1135
  360.5000   140.0572   252.0166
  361.0000   139.3461   252.0935
  361.5000   142.4044   249.1803
  362.0000   146.4036   249.3825
  362.5000   149.8474   254.0602
  363.0000   147.3204   249.6480
  363.5000   144.6540   247.8933
  364.0000   142.0111   255.5629
  364.5000   139.6405   260.8759
  365.0000   143.8566   265.3099
  365.5000   146.6474   265.9132
  366.0000   143.3991   266.8936
  366.5000   139.2390   271.1809
  367.0000   137.3026   273.5477
  367.5000   138.2949   269.3715
  368.0000   135.1734   265.2973
  368.5000   131.2889   264.6643
  369.0000   134.0843   263.1313
  369.5000   137.5065   272.7432
  370.0000   140.9639   275.8789
  370.5000   144.4191   264.5894
  371.0000   147.9156   260.3970
  371.5000   148.3671   259.3961
  372.0000   144.6761   260.0085
  372.5000   141.0986   260.5931
  373.0000   140.1202   261.7183
  373.5000   140.3160   263.1765
  374.0000   141.1691   264.1437
  374.5000   142.0439   262.7266
  375.0000   141.8000   263.2842
  375.5000   142.0392   267.0305
  376.0000   145.6680   270.9043
  376.5000   149.2176   265.4632
  377.0000   148.9070   273.1936
  377.5000   140.9895   283.7256
  378.0000   143.8076   271.4520
  378.5000   143.4740   264.5399
  379.0000   141.9046   268.4462
  379.5000   143.2681   270.7137
  380.0000   144.7569   267.4411
  380.5000   144.9948   268.0361
  381.0000   144.6267   266.9409
  381.5000   143.7151   263.3878
  382.0000   142.8136   263.9200
  382.5000   141.9136   265.5863
  383.0000   141.4036   267.3149
  383.5000   142.3094   268.5207
  384.0000   138.3719   264.8441
  384.5000   140.1995   264.5536
  385.0000   140.4236   266.3044
  385.5000   137.7383   268.1090
  386.0000   145.0831   269.9123
  386.5000   142.9201   271.6980
  387.0000   140.7128   273.6091
  387.5000   142.0103   278.1717
  388.0000   143.3267   281.6596
  388.5000   139.1556   274.7643
  389.0000   134.5751   273.5279
  389.5000   130.2045   275.8616
  390.0000   131.7519   278.2094
  390.5000   129.3792   279.8253
  391.0000   126.2865   280.8423
  391.5000   125.1202   288.1662
  392.0000   123.9540   292.2487
  392.5000   122.7850   294.7902
  393.0000   121.5976   297.3247
  393.5000   119.8900   299.8853
  394.0000   117.5304   301.8600
  394.5000   115.4995   295.9479
  395.0000   117.0213   294.1056
  395.5000   118.5703   292.7187
  396.0000   120.1054   289.7851
  396.5000   121.6207   297.1760
  397.0000   121.9296   304.6591
  397.5000   122.0680   291.1750
  398.0000   122.2366   296.6269
  398.5000   122.9154   303.5015
  399.0000   123.4532   301.8686
  399.5000   120.9079   300.2032
  400.0000   117.5041   295.6063
  400.5000   114.9760   290.2259
  401.0000   116.1436   287.1117
  401.5000   118.4193   280.5923
  402.0000   120.6884   275.7078
  402.5000   122.9650   275.2018
  403.0000   125.2416   275.8951
  403.5000   127.6318   279.1823
  404.0000   127.5577   282.7635
  404.5000   126.7338   286.2932
  405.0000   124.3265   282.2535
  405.5000   125.0311   280.0880
  406.0000   129.0976   277.9139
  406.5000   131.3610   281.7181
  407.0000   120.2019   281.6174
  407.5000   120.4329   285.7654
  408.0000   126.4148   288.9718
  408.5000   120.9161   285.0208
  409.0000   129.6462   295.9773
  409.5000   127.2722   309.5730
  410.0000   124.2262   308.5379
  410.5000   126.9660   304.4372
  411.0000   127.6682   296.3199
  411.5000   124.7001   284.5597
  412.0000   127.1940   290.7632
  412.5000   131.5186   290.0894
  413.0000   137.1867   283.2162
  413.5000   130.0503   279.2192
  414.0000   129.1667   277.6128
  414.5000   128.1991   278.1282
  415.0000   129.6892   276.1502
  415.5000   131.4416   271.6650
  416.0000   135.4714   265.5246
  416.5000   140.0250   259.7524
  417.0000   134.4963   266.5309
  417.5000   129.2562   264.1318
  418.0000   124.3673   264.5659
  418.5000   127.4263   266.7642
  419.0000   129.7241   261.2638
  419.5000   128.6010   264.8839
  420.0000   128.7439   258.7754
  420.5000   130.6217   254.0774
  421.0000   132.4519   251.7960
  421.5000   133.8849   249.6231
  422.0000   130.9137   249.6950
  422.5000   129.2419   253.6351
  423.0000   134.0601   257.6262
  423.5000   131.1219   255.1447
  424.0000   126.8059   249.8338
  424.5000   127.2989   247.8351
  425.0000   136.3031   250.2226
  425.5000   130.2437   255.0849
  426.0000   129.6949   255.1501
  426.5000   132.2785   259.8900
  427.0000   131.7985   264.5912
  427.5000   131.2168   265.9114
  428.0000   130.5937   263.5284
  428.5000   132.5112   261.1776
  429.0000   132.6203   259.7113
  429.5000   131.0905   262.0802
  430.0000   130.7162   264.9431
  430.5000   130.4136   267.0424
  431.0000   129.8561   265.0187
  431.5000   128.4680   267.7343
  432.0000   127.1276   262.7658
  432.5000   125.8086   266.0241
  433.0000   124.5355   271.1050
  433.5000   125.1546   272.6195
  434.0000   123.9298   271.4348
  434.5000   120.9372   269.1060
  435.0000   124.4210   266.8820
  435.5000   128.7780   265.5507
  436.0000   130.7519   263.5583
  436.5000   132.2723   260.5718
  437.0000   129.8703   257.5883
  437.5000   126.6126   254.8713
  438.0000   125.0634   254.2914
  438.5000   131.8005   257.3073
  439.0000   138.5595   264.1932
  439.5000   138.1987   264.0625
  440.0000   137.2722   260.7221
  440.5000   137.0852   257.3996
  441.0000   141.7319   251.9105
  441.5000   132.4503   247.0683
  442.0000   137.1192   247.1999
  442.5000   131.4872   248.3985
  443.0000   128.2411   253.3469
  443.5000   126.5084   257.0830
  444.0000   128.1121   248.9061
  444.5000   129.7862   244.9330
  445.0000   132.1608   249.0989
  445.5000   134.9021   249.4829
  446.0000   136.9204   249.3969
  446.5000   143.0411   252.3249
  447.0000   143.0591   255.5391
  447.5000   135.9730   244.0901
  448.0000   130.8401   240.2520
  448.5000   129.4148   239.2205
  449.0000   130.1349   235.4020
  449.5000   133.2456   239.3803
  450.0000   132.4015   241.8441
  450.5000   129.5487   235.7241
  451.0000   131.4495   237.7160
  451.5000   135.6968   236.2507
  452.0000   137.2703   234.7381
  452.5000   138.8892   237.9822
  453.0000   140.8544   241.8273
  453.5000   142.6559   242.6348
  454.0000   142.5222   239.5314
  454.5000   140.5261   237.8040
  455.0000   136.7519   239.9989
  455.5000   129.5069   242.1141
  456.0000   125.9025   244.2686
  456.5000   129.1057   243.9387
  457.0000   131.9288   241.6835
  457.5000   125.2103   239.8366
  458.0000   124.9374   239.7315
  458.5000   130.2840   240.5690
  459.0000   132.6205   237.9561
  459.5000   135.2675   236.2304
  460.0000   138.1994   239.2276
  460.5000   139.2948   243.5807
  461.0000   137.5610   238.1744
