~VERSION INFORMATION
 VERS.                2.0:   CWLS LOG ASCII STANDARD - VERSION 2.0
 WRAP.                 NO:   ONE LINE PER DEPTH STEP
~WELL INFORMATION
#MNEM.UNIT      DATA TYPE    INFORMATION
#----------   ------------   ------------------------------
 STRT.F            0.0000:   START DEPTH
 STOP.F          700.0000:   STOP DEPTH
 STEP.F            0.5000:   STEP LENGTH
 NULL.          -999.2500:   NO VALUE
 COMP. FENIX & SCISSON INC:   COMPANY
 WELL. 37-11 SX 11 WP #11-11:   WELL
 FLD .             TEAPOT:   FIELD
 LOC .      S11 T38N R78W:   LOCATION
 CNTY.            NATRONA:   COUNTY
 STAT.            WYOMING:   STATE
 CTRY. UNITED STATES OF AMERICA:   COUNTRY
 SRVC.      Dresser Atlas:   SERVICE COMPANY
 DATE.        21-AUG-1980:   LOGDATE
 API .       490251084200:   API NUMBER
~CURVE INFORMATION
#MNEM.UNIT       API CODE    CURVE DESCRIPTION
#----------   ------------   ------------------------------
 DEPT.F                  :   
 SPR .MV     07 010 01 00:   SPONTANEOUS POTENTIAL
 RFOC.OHMM   07 220 04 00:   RESISTIVITY FOCUSED LOG
 RILD.OHMM   07 120 46 00:   INDUCTION LOG DEEP RESISTIVITY
 RILM.OHMM   07 120 44 00:   INDUCTION LOG MEDIUM RESISTIVITY
 GRD .GAPI   45 310 01 00:   GAMMA RAY FROM DENSITY LOG
 CALD.IN     45 280 60 00:   CALIPER
 RHOB.G/C3   45 350 01 00:   BULK DENSITY
 CORR.G/C3   45 356 01 00:   DENSITY CORRECTION
 CNC .DEC    42 890 03 00:   NEUTRON POROSITY SANDSTONE
 PORD.DEC    45 890 12 00:   POROSITY DENSITY SANDSTONE
~PARAMETER INFORMATION
#MNEM.UNIT          VALUE    DESCRIPTION
#----------   ------------   ------------------------------
 PD  .                 GL:   PERMANENT DATUM
 EPD .F              5194:   ELEVATION PERMANENT DATUM
 LMF .                 KB:   LOG MEASURED FROM
 DAPD.F                 5:   FEET ABOVE PERMANENT DATUM
 DMF .                 KB:   DRILLING MEASURED FROM
 EKB .F              5199:   KELLING BUSHING
 EDF .F              5198:   DRILLING FLOOR
 EGL .F              5194:   GROUND LEVEL
 DATE.            8-21-80:   RUN DATE
 RUN .                  1:   RUN NUMBER
 DD  .F               695:   DEPTH DRILLER
 DL  .F               700:   DEPTH LOGGER
 BLI .F               699:   BOTTOM LOG INTERVAL
 BS  .IN            7.875:   BIT SIZE
 BSD .F               695:   BIT SIZE AT DEPTH
 DFT .      DISPERSED KCL:   DRILLING FLUID TYPE
 DFD .               2.68:   DRILLING FLUID DENSITY
 DFV .                 50:   DRILLING FLUID VISCOSITY
 DFPH.                 14:   DRILLING FLUID PH
 DFL .                 18:   DRILLING FLUID LOSS
 MSS .           FLOWLINE:   MUD SAMPLE SOURCE
 RMS .OHMM           .256:   RESISTIVITY MUD SAMPLE
 MST .F                70:   MUD SAMPLE TEMPERATURE
 RMF .OHMM           .393:   RESISTIVITY MUD FILTRATE SAMPLE
 MFST.F                66:   MUD FILTRATE SAMPLE TEMPERATURE
 RMC .OHMM           .858:   RESISTIVITY MUD CAKE
 MCST.F                66:   MUD CAKE SAMPLE TEMPERATURE
 MFSS.               MEAS:   MUD FILTRATE SAMPLE SOURCE
 MCSS.               MEAS:   MUD CAKE SAMPLE SOURCE
 RMB .OHMM            .53:   RESISTIVITY MUD AT BHT
 BHT .F                99:   BOTTOM HOLE TEMPERATURE
 TCS .HRS               3:   TIME CURCULATED STOPPED
 MRT .F                99:   MAXIMUM RECORDED TEMPERATURE
 LUN .               9369:   LOGGING UNIT NUMBER
 LUL .       ROCK SPRINGS:   LOGGING UNIT LOCATION
 ENGI.            PAULSON:   RECORDING ENGINEER
 WITN.              SCOTT:   WITNESSED BY
 CLNT.            A2DTECH:   CLIENT CODE
 ORIG.       2", 5" PRINT:   ORIGIN OF DATA
 UWI .       490251084200:   UNIQUE WELL ID
 DICO. A2D Technologies, Inc.:   DIGITIZING COMPANY
~OTHER INFORMATION
~A    DEPT     SPR       RFOC       RILD       RILM        GRD       CALD       RHOB       CORR        CNC         PORD 
# ...
  435.5000   -69.6837     7.5245     5.9772     6.5240   102.3424     8.0262     2.5010     0.0553     0.3215     0.1012
  436.0000   -70.4578     7.7191     6.1580     6.7593   103.7764     8.0262     2.5152     0.0608     0.3107     0.0944
  436.5000   -71.6029     7.8701     6.2753     6.7761   104.2465     8.0262     2.5038     0.0662     0.3231     0.0952
  437.0000   -72.7515     8.0258     6.3276     6.7928   103.7088     8.0262     2.5023     0.0685     0.3139     0.1040
  437.5000   -73.8998     8.0587     6.3979     6.8096   102.2497     8.0262     2.5166     0.0709     0.2998     0.1107
  438.0000   -75.0350     8.0587     6.4689     6.8196   101.6714     8.0262     2.5197     0.0736     0.2850     0.1161
  438.5000   -75.3772     8.0587     6.5106     6.7008   102.8346     8.0262     2.5085     0.0641     0.2842     0.1185
  439.0000   -74.5333     7.9774     6.3996     6.6178   103.9809     8.0262     2.4968     0.0573     0.2901     0.1282
  439.5000   -73.4566     7.8498     6.3101     6.5198   104.8174     8.0262     2.4860     0.0518     0.2943     0.1414
  440.0000   -72.7631     7.7241     6.2213     6.4065   105.5238     8.0262     2.4838     0.0474     0.2985     0.1440
  440.5000   -73.0109     7.6005     6.1231     6.2947   105.2515     8.0262     2.4751     0.0439     0.3007     0.1253
  441.0000   -73.2534     7.4789     5.9893     6.1581   103.7853     8.0262     2.4529     0.0272     0.2993     0.1214
  441.5000   -73.1254     7.3580     5.8596     6.0412   102.6914     8.0262     2.4357     0.0246     0.2894     0.1283
  442.0000   -72.0004     7.2757     5.7299     5.9117   104.0341     8.0262     2.4379     0.0359     0.2720     0.1364
  442.5000   -70.7964     7.2775     5.4875     5.7061   106.6642     8.0262     2.4756     0.0506     0.2749     0.1364
  443.0000   -69.5372     7.2770     5.1578     5.3465   109.2426     8.0262     2.4742     0.0549     0.2824     0.1356
  443.5000   -68.1565     7.2769     4.8480     5.0095   110.4300     8.0262     2.4569     0.0534     0.2985     0.1413
  444.0000   -66.6834     7.2758     4.5567     4.6938   108.0286     8.0262     2.4488     0.0431     0.3133     0.1558
  444.5000   -65.1545     7.2748     4.2830     4.3979   104.8458     8.0278     2.4497     0.0388     0.3268     0.1802
  445.0000   -65.5320     7.0735     4.1674     4.1207   104.0848     8.0296     2.4449     0.0377     0.3403     0.1868
  445.5000   -66.8911     5.5135     4.1457     3.9090   105.9401     8.0314     2.4239     0.0311     0.3598     0.1767
  446.0000   -68.1007     4.4437     4.1327     4.1215   108.5916     8.0331     2.3894     0.0341     0.3556     0.1586
  446.5000   -66.8078     4.5729     4.2748     4.4054   114.1820     8.0349     2.3654     0.0407     0.3114     0.1317
  447.0000   -65.0977     5.1607     4.3972     4.7088   114.9521     8.0366     2.3656     0.0474     0.2825     0.1273
  447.5000   -63.3804     6.2798     4.5347     5.0332   113.7786     8.0384     2.4063     0.0509     0.2719     0.1232
  448.0000   -62.4993     7.3296     4.7288     5.3799   111.8210     8.0402     2.4396     0.0518     0.2680     0.1189
  448.5000   -61.7834     7.5444     5.0568     5.7505   110.0398     8.0420     2.4598     0.0423     0.2726     0.1033
  449.0000   -61.5306     7.7654     5.4933     6.0473   108.4340     8.0437     2.4683     0.0371     0.2798     0.1021
  449.5000   -61.7205     7.8376     5.9617     6.3082   106.0252     8.0453     2.4759     0.0317     0.2839     0.0984
  450.0000   -62.0600     7.7022     6.2867     6.4878   103.8800     8.0384     2.4952     0.0396     0.2851     0.0838
  450.5000   -62.4092     7.6121     6.3176     6.6305   104.3830     8.0220     2.5054     0.0491     0.2994     0.0669
  451.0000   -62.9780     7.7898     6.3516     6.7583   106.4706     8.0057     2.5090     0.0566     0.3036     0.0673
  451.5000   -63.6441     7.9758     6.3860     6.7579   107.9185     7.9894     2.5229     0.0626     0.3003     0.0808
  452.0000   -63.5197     8.1663     6.4205     6.7567   106.0725     7.9729     2.5529     0.0687     0.2970     0.0897
  452.5000   -62.8338     8.2096     6.4552     6.7566   104.0645     7.9739     2.5629     0.0636     0.2962     0.0949
  453.0000   -62.5582     8.2096     6.4902     6.7566   104.3296     7.9884     2.5450     0.0520     0.2931     0.1000
  453.5000   -63.0554     8.2096     6.5106     6.7567   106.5066     8.0032     2.5300     0.0393     0.2786     0.1008
  454.0000   -63.6145     8.2096     6.4898     6.7566   108.7679     8.0097     2.5215     0.0301     0.2724     0.0977
  454.5000   -64.1152     8.2096     6.4729     6.7572   110.0894     8.0144     2.5157     0.0233     0.2746     0.0948
  455.0000   -63.7487     8.3122     6.4554     6.7379   106.4672     8.0188     2.5097     0.0195     0.2768     0.0948
  455.5000   -62.4490     8.4324     6.4137     6.7099   104.0817     8.0229     2.5102     0.0205     0.2864     0.0952
  456.0000   -60.5307     8.5549     6.3605     6.6820   104.9619     8.0047     2.5142     0.0214     0.2997     0.0927
  456.5000   -59.9744     8.6794     6.3077     6.6542   106.3091     8.0057     2.5184     0.0223     0.2939     0.0787
  457.0000   -59.8582     8.7614     6.2616     6.6265   107.0249     8.0061     2.5197     0.0231     0.2883     0.0677
  457.5000   -59.8560     8.4214     6.2266     6.5988   108.0628     8.0061     2.5199     0.0247     0.2874     0.0685
  458.0000   -59.8577     8.1338     6.1919     6.5713   108.4242     8.0061     2.5304     0.0332     0.2868     0.0820
  458.5000   -59.8599     8.1795     6.1583     6.5902   108.5442     8.0061     2.5521     0.0495     0.2870     0.0929
  459.0000   -59.8479     8.2260     6.2021     6.6099   109.8737     8.0061     2.5678     0.0642     0.2859     0.1073
  459.5000   -59.7246     8.2727     6.2462     6.6295   113.2848     8.0061     2.5544     0.0626     0.2772     0.1129
  460.0000   -58.2773     8.3197     6.2906     6.6325   115.3928     8.0061     2.5404     0.0519     0.2660     0.1058
  460.5000   -56.3092     8.3631     6.3319     6.6325   115.1788     8.0047     2.5205     0.0378     0.2760     0.0940
  461.0000   -54.4544     8.3106     6.2882     6.6325   113.2317     7.9954     2.4954     0.0232     0.2871     0.0851
  461.5000   -54.0083     8.2611     6.2389     6.5596   111.2221     7.9869     2.4899     0.0117     0.2901     0.0866
  462.0000   -53.6479     8.2094     6.1905     6.4572   110.9123     7.9590     2.5096     0.0194     0.2927     0.0967
  462.5000   -53.3465     8.3335     6.0803     6.3564   110.5122     7.9625     2.5272     0.0310     0.3068     0.1147
  463.0000   -53.3482     8.5076     5.8584     6.1272   107.5590     7.9897     2.5365     0.0332     0.3257     0.1287
  463.5000   -53.6848     8.6795     5.6464     5.9063   104.4123     8.0062     2.5299     0.0259     0.3333     0.1307
  464.0000   -54.1734     7.7396     5.5317     5.6126   104.4049     8.0060     2.5051     0.0129     0.3187     0.0999
  464.5000   -54.6406     6.8904     5.4640     5.6234   107.8470     8.0061     2.4728     0.0034     0.3040     0.0758
  465.0000   -55.1054     6.4434     5.3955     5.6413   111.3335     8.0061     2.4612     0.0060     0.2954     0.0922
  465.5000   -55.5752     6.7990     5.2689     5.6589   114.1254     8.0061     2.4774     0.0203     0.2866     0.1165
  466.0000   -55.8737     7.1588     5.0756     5.6712   116.0437     8.0061     2.5276     0.0460     0.2833     0.1262
  466.5000   -56.1556     7.5353     4.8894     5.2578   117.8897     8.0061     2.5533     0.0547     0.2963     0.1189
  467.0000   -55.8026     7.9307     4.7101     4.9241   119.2207     8.0062     2.5147     0.0261     0.3149     0.1165
  467.5000   -55.2841     8.2861     4.5373     4.6116   118.9325     8.0012     2.4723    -0.0005     0.3211     0.1217
  468.0000   -54.7667     7.4414     4.4854     4.2493   117.3477     7.9944     2.4729    -0.0060     0.3107     0.1291
  468.5000   -54.4496     6.0941     4.4704     4.3180   114.9419     7.9874     2.4832     0.0045     0.3020     0.1291
