~VERSION INFORMATION
 VERS.                2.0:   CWLS LOG ASCII STANDARD - VERSION 2.0
 WRAP.                 NO:   ONE LINE PER DEPTH STEP
~WELL INFORMATION
#MNEM.UNIT      DATA TYPE    INFORMATION
#----------   ------------   ------------------------------
 STRT.F            0.0000:   START DEPTH
 STOP.F         1027.0000:   STOP DEPTH
 STEP.F            0.1000:   STEP LENGTH
 NULL.          -999.2500:   NO VALUE
 COMP.       F D SERV INC:   COMPANY
 WELL.   77-1 X 27 #77-27:   WELL
 FLD .             TEAPOT:   FIELD
 LOC .      S27 T39N R78W:   LOCATION
 CNTY.            NATRONA:   COUNTY
 STAT.            WYOMING:   STATE
 CTRY. UNITED STATES OF AMERICA:   COUNTRY
 SRVC.      Western Atlas:   SERVICE COMPANY
 DATE.        04-NOV-1991:   LOGDATE
 API .       490252248600:   API NUMBER
~CURVE INFORMATION
#MNEM.UNIT       API CODE    CURVE DESCRIPTION
#----------   ------------   ------------------------------
 DEPT.F                  :   
 GRR .GAPI   07 310 01 00:   GAMMA RAY
 RILD.OHMM   07 120 46 00:   INDUCTION LOG DEEP RESISTIVITY
 RFOC.OHMM   07 220 04 00:   RESISTIVITY FOCUSED LOG
 RILM.OHMM   07 120 44 00:   INDUCTION LOG MEDIUM RESISTIVITY
 SPR .MV     07 010 01 00:   SPONTANEOUS POTENTIAL
~PARAMETER INFORMATION
#MNEM.UNIT          VALUE    DESCRIPTION
#----------   ------------   ------------------------------
 PD  .                 GL:   PERMANENT DATUM
 EPD .F              5077:   ELEVATION PERMANENT DATUM
 LMF .                 KB:   LOG MEASURED FROM
 DAPD.F                10:   FEET ABOVE PERMANENT DATUM
 DMF .                 KB:   DRILLING MEASURED FROM
 EKB .F              5087:   KELLING BUSHING
 EDF .F              5086:   DRILLING FLOOR
 EGL .F              5077:   GROUND LEVEL
 DATE.        04-NOV-1991:   RUN DATE
 RUN .                  1:   RUN NUMBER
 DD  .F              1030:   DEPTH DRILLER
 DL  .F              1030:   DEPTH LOGGER
 BLI .F              1027:   BOTTOM LOG INTERVAL
 CS  .IN            9.625:   CASING SIZE
 CBD .F                50:   CASING BOTTOM DRILLER
 CBL .F                52:   CASING BOTTOM LOGGER
 BS  .IN             8.75:   BIT SIZE
 BSD .F              1030:   BIT SIZE AT DEPTH
 DFT .          KCL WATER:   DRILLING FLUID TYPE
 MSS .           FLOWLINE:   MUD SAMPLE SOURCE
 RMS .OHMM            .24:   RESISTIVITY MUD SAMPLE
 MST .F                72:   MUD SAMPLE TEMPERATURE
 RMB .OHMM            .19:   RESISTIVITY MUD AT BHT
 BHT .F                90:   BOTTOM HOLE TEMPERATURE
 TCS .HRS               2:   TIME CURCULATED STOPPED
 MRT .F                90:   MAXIMUM RECORDED TEMPERATURE
 LUN .            HL-6274:   LOGGING UNIT NUMBER
 LUL .             CASPER:   LOGGING UNIT LOCATION
 ENGI.             RAUTIO:   RECORDING ENGINEER
 WITN.             STRONG:   WITNESSED BY
 CLNT.            A2DTECH:   CLIENT CODE
 ORIG.           5" PRINT:   ORIGIN OF DATA
 UWI .       490252248600:   UNIQUE WELL ID
 DICO. A2D Technologies, Inc.:   DIGITIZING COMPANY
~OTHER INFORMATION
~A    DEPT      GRR      RILD       RFOC       RILM        SPR   
# ...
  817.4000    68.2264    19.5035    18.0553    19.5200   -11.6270
  817.5000    66.4183    19.4729    18.6378    19.5200   -11.3697
  817.6000    64.7752    19.4423    19.2872    19.5200   -11.2507
  817.7000    63.6305    19.4116    19.8791    19.5200   -11.1266
  817.8000    62.2152    19.3810    20.3520    19.6113   -11.0026
  817.9000    60.6548    19.3504    20.9949    19.6560   -10.8786
  818.0000    59.1287    19.3198    21.3246    19.6560   -10.7545
  818.1000    58.0122    19.2891    21.4363    19.6560   -10.6158
  818.2000    56.2614    19.2696    21.3783    19.6560   -10.5064
  818.3000    55.3613    19.2694    21.2253    19.6560   -10.4644
  818.4000    54.5873    19.2691    20.9734    19.6560   -10.4079
  818.5000    54.1068    19.2688    20.4205    19.6560   -10.2839
  818.6000    53.7718    19.2686    20.1334    19.6560   -10.1623
  818.7000    53.5820    19.2683    19.8608    19.6440   -10.1612
  818.8000    53.4083    19.2680    19.6354    19.5200   -10.1605
  818.9000    53.2266    19.2678    19.4125    19.5200   -10.0871
  819.0000    53.2396    19.2675    19.1848    19.5200   -10.0090
  819.1000    53.3699    19.2672    18.9745    19.4682    -9.9887
  819.2000    53.3911    19.2670    18.7593    19.3571    -9.8574
  819.3000    53.6011    19.2667    18.4903    19.2467    -9.8566
  819.4000    53.9304    19.2664    18.1763    19.1178    -9.8557
  819.5000    54.3033    19.2662    17.8779    19.0278    -9.8548
  819.6000    54.8439    19.2658    17.6528    18.9193    -9.8539
  819.7000    55.5866    19.2656    17.6528    18.8115    -9.8530
  819.8000    56.3338    19.2654    17.5851    18.6846    -9.8520
  819.9000    57.4376    19.2239    17.4851    18.4657    -9.7448
  820.0000    58.1888    19.1317    17.4096    18.3635    -9.7006
  820.1000    59.0063    19.1314    17.4069    18.2588    -9.6997
  820.2000    59.7489    19.0278    17.2893    18.0987    -9.6988
  820.3000    60.5223    18.9192    17.2094    17.8595    -9.6979
  820.4000    61.4948    18.8111    17.1698    17.5552    -9.6970
  820.5000    62.2014    18.7037    17.1326    17.2275    -9.6961
  820.6000    63.0803    18.6067    17.0256    17.0508    -9.6952
  820.7000    63.9113    18.6064    16.8713    16.8570    -9.6943
  820.8000    64.8815    18.6061    16.7170    16.7104    -9.6934
  820.9000    66.2776    18.6059    16.5626    16.6399    -9.6925
  821.0000    66.9031    18.6056    16.4083    16.6446    -9.6916
  821.1000    67.7179    18.6054    16.2539    16.7558    -9.6907
  821.2000    68.6455    18.6051    16.0996    16.7558    -9.7505
  821.3000    69.5730    18.6048    15.9453    16.7558    -9.8386
  821.4000    70.4571    18.6046    15.7909    16.7950    -9.8453
  821.5000    71.1961    18.6043    15.6366    16.8913    -9.9864
  821.6000    71.8623    18.6041    15.4822    16.9900   -10.0899
  821.7000    72.6098    18.6038    15.3279    16.9900   -10.2121
  821.8000    73.4282    18.6036    15.1736    17.1401   -10.3343
  821.9000    74.1708    18.6033    15.0500    17.2822   -10.4811
  822.0000    74.8234    18.5242    15.1547    17.3813   -10.7305
  822.1000    75.0213    18.4742    15.3261    17.4810   -10.9720
  822.2000    75.3747    18.4406    15.5707    17.5900   -11.2174
  822.3000    75.4765    18.3460    15.7391    17.6821   -11.3947
  822.4000    75.3838    18.3457    15.8599    17.7835   -11.5585
  822.5000    75.2020    18.3455    16.0417    17.8358   -11.7889
  822.6000    74.9377    18.3453    16.2431    17.8358   -11.9227
  822.7000    73.6931    18.3450    16.4122    17.8358   -12.1450
  822.8000    72.8872    18.3448    16.6007    17.8358   -12.3054
  822.9000    71.7219    18.3408    16.8836    17.8358   -12.4277
  823.0000    70.5133    18.2174    17.2210    17.8358   -12.5499
  823.1000    69.4498    18.2172    17.4274    17.8358   -12.6721
  823.2000    68.5316    18.2170    17.8993    17.8358   -12.8154
  823.3000    67.6493    18.2167    18.0697    17.8358   -12.9167
  823.4000    67.3553    18.2354    18.4067    17.8358   -12.9635
  823.5000    66.7716    18.3430    18.7881    17.8358   -13.0115
  823.6000    66.1730    18.3427    19.0920    17.8358   -13.1115
  823.7000    65.8643    18.3425    19.3183    17.8358   -13.1105
  823.8000    65.8681    18.3422    19.2122    17.8220   -13.1096
  823.9000    66.2199    18.3420    19.0217    17.7125   -13.1087
  824.0000    66.7275    18.3417    18.8059    17.7125   -13.1078
  824.1000    67.1903    18.3414    18.5590    17.7125   -13.1069
  824.2000    67.5632    18.3412    18.2436    17.7125   -13.1060
  824.3000    67.9518    18.3409    17.8993    17.7125   -13.1050
  824.4000    68.5818    18.3407    17.6300    17.6988   -13.1042
  824.5000    69.0673    18.3404    17.3310    17.4683   -13.1033
  824.6000    69.9888    18.3402    17.0368    17.4683   -13.1024
  824.7000    70.9381    18.3399    16.7474    17.3411   -13.0717
  824.8000    71.6807    18.2528    16.4652    17.1439   -12.9509
  824.9000    72.4234    18.2127    16.2431    16.9900   -12.9498
  825.0000    73.1664    18.2124    16.0201    16.9900   -12.8493
  825.1000    73.7616    18.2122    15.8548    16.8932   -12.7253
  825.2000    74.3194    18.2119    15.7307    16.8725   -12.6012
  825.3000    74.8090    18.2116    15.5810    16.8725   -12.4771
  825.4000    75.1534    18.1322    15.5810    16.8725   -12.3467
  825.5000    75.3527    18.0853    15.5810    16.8725   -12.2290
  825.6000    75.5294    18.0850    15.6464    16.8725   -12.1952
  825.7000    75.7174    18.0848    15.7359    16.8725   -12.1307
  825.8000    75.8111    18.0845    15.8534    16.8725   -12.0437
  825.9000    75.7595    18.0843    16.0193    16.8725   -12.0322
  826.0000    75.5926    18.0124    16.0193    16.8725   -11.8921
  826.1000    75.5964    17.9588    16.0992    16.8725   -11.8913
  826.2000    75.4389    17.9038    16.1913    16.8725   -11.8904
  826.3000    75.3777    17.7054    16.2840    16.8725   -11.8895
  826.4000    75.2191    17.5882    16.3561    16.8725   -11.8886
  826.5000    74.8525    17.5880    16.3569    16.8725   -11.8877
  826.6000    74.4829    17.5249    16.4505    16.8725   -11.8868
  826.7000    73.7465    17.4660    16.4700    16.8725   -11.8859
  826.8000    73.3036    17.4458    16.4700    16.8725   -11.8850
  826.9000    72.8299    17.3448    16.4700    16.7959   -11.8841
  827.0000    72.2784    17.3445    16.4700    16.7558   -11.8832
  827.1000    71.7547    17.2679    16.4700    16.7206   -11.8823
  827.2000    71.3643    17.1693    16.4700    16.6251   -11.9960
  827.3000    71.0214    17.1049    16.4700    16.5248   -12.1183
  827.4000    70.6548    17.0917    16.4232    16.5248   -12.1790
  827.5000    70.3818    16.9862    16.3297    16.5248   -12.1781
  827.6000    70.2000    16.9860    16.2368    16.4764   -12.1856
  827.7000    70.0322    16.9175    16.1308    16.3824   -12.3259
  827.8000    70.0361    16.8681    16.0526    16.2889   -12.4301
  827.9000    70.0388    16.8411    15.9037    16.1843   -12.4739
  828.0000    70.0419    16.7449    15.7232    16.1037   -12.5769
  828.1000    70.0451    16.6350    15.5447    16.0723   -12.7969
  828.2000    70.0482    16.6348    15.3664    16.0723   -12.9203
  828.3000    70.0513    16.5742    15.0238    16.0510   -13.0414
  828.4000    70.0545    16.4795    14.8147    15.9612   -13.1636
  828.5000    70.0576    16.3853    14.6467    15.9612   -13.2859
  828.6000    70.0608    16.2914    14.4804    15.9612   -13.4082
  828.7000    70.0639    16.2911    14.3263    15.9073   -13.5304
  828.8000    70.0671    16.2183    14.2377    15.8508   -13.6634
  828.9000    70.0704    16.1781    14.1638    15.8508   -13.7749
  829.0000    69.9012    16.1450    14.1393    15.8508   -13.8972
  829.1000    69.7194    16.0658    14.1393    15.7648   -14.0787
  829.2000    69.5377    16.0656    14.1393    15.6749   -14.2587
  829.3000    69.3560    15.9804    14.1434    15.6323   -14.2640
  829.4000    69.1742    15.9541    14.2377    15.6323   -14.4064
  829.5000    68.9668    15.9539    14.3057    15.6323   -14.5085
