~VERSION INFORMATION
 VERS.                2.0:   CWLS LOG ASCII STANDARD - VERSION 2.0
 WRAP.                 NO:   ONE LINE PER DEPTH STEP
~WELL INFORMATION
#MNEM.UNIT      DATA TYPE    INFORMATION
#----------   ------------   ------------------------------
 STRT.F            8.0000:   START DEPTH
 STOP.F          866.5000:   STOP DEPTH
 STEP.F            0.5000:   STEP LENGTH
 NULL.          -999.2500:   NO VALUE
 COMP. LAWRENCE/ALLISON INC:   COMPANY
 WELL.    42-11 SX #11-11:   WELL
 FLD .              NPR 3:   FIELD
 LOC .      S11 T38N R78W:   LOCATION
 CNTY.            NATRONA:   COUNTY
 STAT.            WYOMING:   STATE
 CTRY. UNITED STATES OF AMERICA:   COUNTRY
 SRVC.           Gearhart:   SERVICE COMPANY
 DATE.        17-MAY-1987:   LOGDATE
 API .       490251112700:   API NUMBER
~CURVE INFORMATION
#MNEM.UNIT       API CODE    CURVE DESCRIPTION
#----------   ------------   ------------------------------
 DEPT.F                  :   
 GRR .GAPI   07 310 01 00:   GAMMA RAY FROM RES. LOG.
 RILD.OHMM   07 120 46 00:   INDUCTION LOG DEEP RESISTIVITY
 RILM.OHMM   07 120 44 00:   INDUCTION LOG MEDIUM RESISTIVITY
~PARAMETER INFORMATION
#MNEM.UNIT          VALUE    DESCRIPTION
#----------   ------------   ------------------------------
 PD  .                 GL:   PERMANENT DATUM
 EPD .F              5166:   ELEVATION PERMANENT DATUM
 LMF .                 KB:   LOG MEASURED FROM
 DAPD.F                 8:   FEET ABOVE PERMANENT DATUM
 DMF .                 KB:   DRILLING MEASURED FROM
 EKB .F              5174:   KELLING BUSHING
 EDF .F              5174:   DRILLING FLOOR
 EGL .F              5166:   GROUND LEVEL
 DATE.            5-17-87:   RUN DATE
 RUN .                  1:   RUN NUMBER
 DD  .F               891:   DEPTH DRILLER
 DL  .F               874:   DEPTH LOGGER
 BLI .F               865:   BOTTOM LOG INTERVAL
 TLI .F                44:   TOP LOG INTERVAL
 CS  .IN            8.625:   CASING SIZE
 CBD .F                49:   CASING BOTTOM DRILLER
 CBL .F                44:   CASING BOTTOM LOGGER
 BS  .IN            7.875:   BIT SIZE
 BSD .F               891:   BIT SIZE AT DEPTH
 DFT .           AIR FOAM:   DRILLING FLUID TYPE
 TCS .HRS            0300:   TIME CURCULATED STOPPED
 TLAB.HRS            1255:   TIME LOGGER AT BOTTOM
 MRT .F                80:   MAXIMUM RECORDED TEMPERATURE
 LUN .               7597:   LOGGING UNIT NUMBER
 LUL .           GILLETTE:   LOGGING UNIT LOCATION
 ENGI.            WANGLER:   RECORDING ENGINEER
 WITN.             STRONG:   WITNESSED BY
 CLNT.            A2DTECH:   CLIENT CODE
 ORIG.       2", 5" PRINT:   ORIGIN OF DATA
 UWI .       490251112700:   UNIQUE WELL ID
 DICO. A2D Technologies, Inc.:   DIGITIZING COMPANY
~OTHER INFORMATION
~A    DEPT      GRR      RILD       RILM   
# ...
  190.0000    79.4658     3.0608     3.8816
  190.5000    83.3515     2.6517     3.1555
  191.0000    91.2606     2.4447     2.5652
  191.5000    98.3993     2.2348     2.1862
  192.0000   103.2397     2.1116     1.9395
  192.5000   104.6874     2.1508     1.9032
  193.0000   104.7562     2.1930     1.8853
  193.5000   103.5002     2.3237     1.9395
  194.0000    97.5460     2.6462     2.2441
  194.5000    90.3489     3.2167     2.5994
  195.0000    83.3189     3.9101     3.2407
  195.5000    77.5016     4.7531     4.0088
  196.0000    74.2689     5.7778     4.9595
  196.5000    73.3552     7.0233     6.1360
  197.0000    73.2418     8.2281     7.5892
  197.5000    73.9517     9.1842     9.2273
  198.0000    75.1756     9.6647     9.9858
  198.5000    75.6137     9.5221    10.5210
  199.0000    75.4490     8.9787    10.6208
  199.5000    75.3764     8.3740    10.3587
  200.0000    77.0198     7.3727     9.4826
  200.5000    78.9632     6.1951     7.9366
  201.0000    81.8661     5.7477     6.5184
  201.5000    85.4128     5.5242     5.3535
  202.0000    94.8844     5.3062     4.4537
  202.5000   104.8324     5.2792     4.1295
  203.0000   106.0578     5.2335     4.5615
  203.5000    99.6423     5.1201     5.2250
  204.0000    90.3453     5.1179     5.9813
  204.5000    81.4435     6.7293     6.7046
  205.0000    78.9520     7.5733     7.3256
  205.5000    78.3971     8.5261     8.0042
  206.0000    78.4498     9.4092     8.7457
  206.5000    79.3042    10.0986     9.5558
  207.0000    80.1307    10.3698    10.0262
  207.5000    79.8237    10.6483    10.3034
  208.0000    78.1001    10.9342    10.5870
  208.5000    77.2436    11.2279    10.8786
  209.0000    79.6547    11.5294    11.1786
  209.5000    82.0424    11.8390    11.4868
  210.0000    84.3540    12.1570    11.8035
  210.5000    84.4541    12.3363    12.0396
  211.0000    82.4187    12.4690    12.1245
  211.5000    79.5434    12.6031    12.2101
  212.0000    76.6758    12.7387    12.3524
  212.5000    73.8039    12.8757    12.5232
  213.0000    71.8890    13.0142    12.6964
  213.5000    72.0266    13.1542    12.8720
  214.0000    75.7877    13.2957    13.0500
  214.5000    79.8674    13.4500    13.2305
  215.0000    81.7274    13.6254    13.4137
  215.5000    81.8920    13.8183    13.5989
  216.0000    80.1398    13.9690    13.7065
  216.5000    81.3398    13.9680    13.5421
  217.0000    83.4353    13.9681    13.3862
  217.5000    84.9319    13.9680    13.2320
  218.0000    84.6877    13.9676    13.1983
  218.5000    84.0752    13.9636    13.4730
  219.0000    81.8341    14.0909    13.6734
  219.5000    79.0587    14.2771    13.8768
  220.0000    78.3617    14.4657    14.0063
  220.5000    78.1534    14.5638    14.0754
  221.0000    78.2172    14.7078    14.1448
  221.5000    80.5612    14.8533    14.2146
  222.0000    82.7125    15.1172    14.2344
  222.5000    82.6917    15.5551    14.7080
  223.0000    80.4685    16.0943    15.2074
  223.5000    77.7464    17.2366    16.4110
  224.0000    75.9089    18.4416    17.8556
  224.5000    74.4204    19.7983    19.4275
  225.0000    72.3080    20.9673    22.1359
  225.5000    69.9803    22.1901    25.5896
  226.0000    68.0733    22.8279    29.5610
  226.5000    68.7181    23.0446    31.7728
  227.0000    71.2726    22.4206    30.3987
  227.5000    74.1306    21.7219    27.0079
  228.0000    77.0144    20.6139    22.5599
  228.5000    78.9398    19.5049    19.7861
  229.0000    77.0116    18.4543    18.1634
  229.5000    75.1159    17.5944    16.9176
  230.0000    73.2161    16.8183    15.7886
  230.5000    72.3947    16.1644    14.9183
  231.0000    74.3451    15.6426    14.9228
  231.5000    77.3958    15.3165    14.9228
  232.0000    79.3485    15.0673    14.9228
  232.5000    78.5312    14.8221    14.9224
  233.0000    77.7315    14.6078    14.9239
  233.5000    77.3748    14.5526    14.8571
  234.0000    81.6731    14.4976    14.7968
  234.5000    85.3534    14.4433    14.7361
  235.0000    87.0818    14.3876    14.6767
  235.5000    86.8382    14.2460    14.5825
  236.0000    84.9448    14.0539    14.4536
  236.5000    84.2045    13.7065    14.3041
  237.0000    85.9835    12.7305    14.1112
  237.5000    89.0628    11.6799    13.7389
  238.0000    90.6737    10.5596    12.6352
  238.5000    89.7949     9.8785    11.1855
  239.0000    89.2386     9.2620     9.9021
  239.5000    91.2650     8.4528     8.7660
  240.0000    97.5983     7.7126     7.9161
  240.5000   103.9044     7.3200     7.5891
  241.0000   105.5893     7.0776     7.2756
  241.5000   102.5545     6.8432     7.0443
  242.0000   100.5709     6.6226     6.8776
  242.5000   100.4324     6.6899     6.8776
  243.0000   100.7545     6.7489     6.8776
  243.5000   101.0892     6.7342     6.8776
  244.0000   101.4382     6.7210     6.8776
  244.5000   101.7366     6.7078     6.8775
  245.0000   103.9241     6.6946     6.8779
  245.5000   106.1559     6.6658     6.8536
  246.0000   106.9099     6.5305     6.7761
  246.5000   105.3668     6.3783     6.6855
  247.0000   105.0769     6.4679     6.7187
  247.5000   105.9258     6.5350     6.7725
  248.0000   106.7808     6.6025     6.8267
  248.5000   106.2558     6.6706     6.8813
  249.0000   104.7264     6.7344     6.9364
  249.5000   103.3671     6.7975     6.9919
  250.0000   106.5938     6.8611     7.0753
  250.5000   110.7114     6.9429     7.0406
  251.0000   109.9130     6.8787     6.9729
  251.5000   106.0416     6.7913     6.9059
  252.0000   102.0831     6.7051     6.8396
  252.5000   101.9830     6.6199     6.7738
  253.0000   102.6796     6.5359     6.7088
  253.5000   103.3683     6.4529     6.6443
  254.0000   104.2386     6.3770     6.5805
  254.5000   105.1194     6.3770     6.5604
  255.0000   103.6135     6.4629     6.6507
  255.5000   100.2547     6.5423     6.7341
  256.0000    99.3278     6.6227     6.8187
  256.5000   102.3348     6.7040     6.9043
  257.0000   105.0954     6.7863     6.9909
  257.5000   102.6932     6.8697     7.0787
  258.0000    99.0475     6.9540     7.1676
  258.5000    97.7433     7.0394     7.2575
  259.0000    98.7408     7.1259     7.3486
  259.5000   102.3906     7.2134     7.4409
  260.0000   102.9573     7.3020     7.5343
  260.5000    99.6458     7.3917     7.6288
  261.0000    96.3137     7.4825     7.7246
  261.5000    94.7685     7.5744     7.8216
  262.0000    94.7979     7.6674     7.9198
  262.5000    97.3062     7.7615     8.0192
  263.0000    99.1140     7.8501     8.1524
  263.5000    96.9423     7.9246     8.0953
  264.0000    94.8401     7.8501     8.0092
  264.5000    92.8292     7.7653     7.9251
  265.0000    92.7790     7.6739     7.8418
  265.5000    93.6192     7.5835     7.7594
  266.0000    94.5001     7.4943     7.6779
  266.5000    94.6330     7.4061     7.5973
  267.0000    94.1696     7.3189     7.5175
  267.5000    94.1827     7.2328     7.4385
  268.0000    95.0533     7.1476     7.3604
  268.5000    97.6495     7.0635     7.2831
  269.0000   100.2907     6.9804     7.2066
  269.5000   101.5862     6.9429     7.1425
  270.0000   101.5178     6.9557     7.1720
  270.5000   100.5768     6.9901     7.1977
  271.0000   100.4516     7.0249     7.2235
  271.5000   101.0630     7.0598     7.2494
  272.0000   101.8139     7.0949     7.2754
  272.5000   102.5842     7.1301     7.3014
  273.0000   101.8765     7.1655     7.3276
  273.5000   100.9762     7.2010     7.3538
  274.0000   100.0748     7.2259     7.3802
  274.5000    99.1772     7.2471     7.4066
  275.0000    98.2774     7.2683     7.4331
  275.5000    97.3688     7.2896     7.4598
  276.0000    96.5880     7.3110     7.4865
  276.5000    97.6955     7.3324     7.5133
  277.0000    98.8371     7.3539     7.5402
  277.5000    99.7981     7.3754     7.5672
  278.0000    97.5002     7.3970     7.5943
  278.5000    94.9618     7.4187     7.6215
  279.0000    94.4765     7.4405     7.6488
  279.5000    95.7932     7.4622     7.6762
  280.0000    97.8804     7.4876     7.7032
  280.5000    99.3032     7.4011     7.6257
