~VERSION INFORMATION
 VERS.                2.0:   CWLS LOG ASCII STANDARD - VERSION 2.0
 WRAP.                 NO:   ONE LINE PER DEPTH STEP
~WELL INFORMATION
#MNEM.UNIT      DATA TYPE    INFORMATION
#----------   ------------   ------------------------------
 STRT.F          648.0000:   START DEPTH
 STOP.F         2443.0000:   STOP DEPTH
 STEP.F            0.5000:   STEP LENGTH
 NULL.          -999.2500:   NO VALUE
 COMP.    FENIX & SCISSON:   COMPANY
 WELL.  NPR #3 SHX-11 #22:   WELL
 FLD .             TEAPOT:   FIELD
 LOC .      S11 T38N R78W:   LOCATION
 CNTY.            NATRONA:   COUNTY
 STAT.            WYOMING:   STATE
 CTRY. UNITED STATES OF AMERICA:   COUNTRY
 SRVC.           BIRDWELL:   SERVICE COMPANY
 DATE.        23-APR-1978:   LOGDATE
 API .       490251061300:   API NUMBER
~CURVE INFORMATION
#MNEM.UNIT       API CODE    CURVE DESCRIPTION
#----------   ------------   ------------------------------
 DEPT.F                  :   
 CALD.IN     45 280 60 00:   CALIPER FROM DENSITY LOG
 CORR.G/C3   45 356 01 00:   DENSITY CORRECTION
 DPHI.DEC    45 890 12 00:   DENSITY POROSITY SANDSTONE
 GRD .GAPI   45 310 01 00:   GAMMA RAY FROM DENSITY LOG
 RHOB.G/C3   45 350 01 00:   BULK DENSITY
~PARAMETER INFORMATION
#MNEM.UNIT          VALUE    DESCRIPTION
#----------   ------------   ------------------------------
 PD  .                 GL:   PERMANENT DATUM
 EPD .F              5166:   ELEVATION PERMANENT DATUM
 LMF .                 KB:   LOG MEASURED FROM
 DMF .                 KB:   DRILLING MEASURED FROM
 EKB .F              5176:   KELLING BUSHING
 EGL .F              5166:   GROUND LEVEL
 DATE.        23-APR-1978:   RUN DATE
 RUN .                  1:   RUN NUMBER
 DD  .F              2450:   DEPTH DRILLER
 DL  .F              2450:   DEPTH LOGGER
 BLI .F              2443:   BOTTOM LOG INTERVAL
 TLI .F               670:   TOP LOG INTERVAL
 CS  .IN            9.625:   CASING SIZE
 CBD .F               660:   CASING BOTTOM DRILLER
 CBL .F               670:   CASING BOTTOM LOGGER
 BS  .IN             8.75:   BIT SIZE
 BSD .F              2450:   BIT SIZE AT DEPTH
 DFT .               MIST:   DRILLING FLUID TYPE
 LUN .               2958:   LOGGING UNIT NUMBER
 LUL .             CASPER:   LOGGING UNIT LOCATION
 ENGI.             MILLER:   RECORDING ENGINEER
 WITN.          MC GINLEY:   WITNESSED BY
 CLNT.            A2DTECH:   CLIENT CODE
 ORIG.           5" PRINT:   ORIGIN OF DATA
 UWI .       490251061300:   UNIQUE WELL ID
 DICO. A2D Technologies, Inc.:   DIGITIZING COMPANY
~OTHER INFORMATION
~A   DEPT     CALD       CORR       DPHI        GRD       RHOB   
# ...
 1929.0000     9.0602     0.0158     0.0470   220.3416     2.4559
 1929.5000     9.0752     0.0142     0.0500   220.1789     2.4594
 1930.0000     9.0602     0.0142     0.0562   220.7627     2.4556
 1930.5000     9.0602     0.0141     0.0597   220.9031     2.4495
 1931.0000     9.0752     0.0140     0.0609   219.6878     2.4442
 1931.5000     9.0752     0.0154     0.0606   215.1110     2.4374
 1932.0000     9.0809     0.0153     0.0597   203.4672     2.4344
 1932.5000     9.0902     0.0152     0.0573   199.7064     2.4343
 1933.0000     9.0974     0.0151     0.0549   200.1434     2.4433
 1933.5000     9.1053     0.0196     0.0525   210.5167     2.4425
 1934.0000     9.1053     0.0210     0.0485   219.9049     2.4515
 1934.5000     9.1053     0.0209     0.0450   224.6929     2.4574
 1935.0000     9.1203     0.0240     0.0432   224.8301     2.4597
 1935.5000     9.1285     0.0252     0.0417   225.7500     2.4551
 1936.0000     9.1353     0.0176     0.0430   229.7458     2.4716
 1936.5000     9.1353     0.0145     0.0466   233.7811     2.4700
 1937.0000     9.1504     0.0144     0.0508   234.0714     2.4632
 1937.5000     9.1504     0.0143     0.0544   233.7556     2.4602
 1938.0000     9.1504     0.0142     0.0584   233.5930     2.4586
 1938.5000     9.1504     0.0141     0.0638   235.5261     2.4496
 1939.0000     9.1605     0.0155     0.0668   240.0111     2.4337
 1939.5000     9.1654     0.0185     0.0686   242.9969     2.4277
 1940.0000     9.1654     0.0199     0.0692   244.0336     2.4246
 1940.5000     9.1805     0.0198     0.0683   238.3206     2.4261
 1941.0000     9.1955     0.0197     0.0674   215.9690     2.4276
 1941.5000     9.1955     0.0136     0.0671   192.8678     2.4290
 1942.0000     9.1955     0.0029     0.0668   181.1577     2.4320
 1942.5000     9.1955     0.0013     0.0666   171.2500     2.4274
 1943.0000     9.1955     0.0028     0.0663   166.8894     2.4259
 1943.5000     9.1955     0.0042     0.0658   172.5738     2.4273
 1944.0000     9.1955     0.0056     0.0640   178.2340     2.4265
 1944.5000     9.1805     0.0070     0.0616   185.4387     2.4317
 1945.0000     9.1805     0.0099     0.0583   191.5729     2.4340
 1945.5000     9.1805     0.0129     0.0514   190.3608     2.4426
 1946.0000     9.1955     0.0158     0.0481   185.0885     2.4630
 1946.5000     9.2105     0.0217     0.0445   183.1358     2.4608
 1947.0000     9.2256     0.0246     0.0367   178.9251     2.4622
 1947.5000     9.2256     0.0245     0.0301   169.1673     2.4802
 1948.0000     9.1805     0.0214     0.0289   153.6154     2.5028
 1948.5000     9.1504     0.0210     0.0310   140.2031     2.4960
 1949.0000     9.1053     0.0204     0.0311   134.4932     2.4944
 1949.5000     9.0902     0.0199     0.0268   137.6289     2.4936
 1950.0000     9.0929     0.0211     0.0242   148.4108     2.5064
 1950.5000     9.1101     0.0210     0.0226   156.1910     2.5094
 1951.0000     9.1177     0.0194     0.0206   155.4286     2.5138
 1951.5000     9.1182     0.0193     0.0194   150.0186     2.5281
 1952.0000     9.1186     0.0207     0.0170   145.6580     2.5266
 1952.5000     9.1190     0.0206     0.0149   127.3513     2.5205
 1953.0000     9.1195     0.0205     0.0130   123.5904     2.5212
 1953.5000     9.1349     0.0204     0.0191   122.3815     2.5212
 1954.0000     9.1354     0.0189     0.0213   143.3551     2.5204
 1954.5000     9.1358     0.0187     0.0216   151.2852     2.5091
 1955.0000     9.1512     0.0202     0.0201   152.6218     2.5083
 1955.5000     9.1667     0.0201     0.0183   161.3047     2.5113
 1956.0000     9.1671     0.0200     0.0231   166.6893     2.5090
 1956.5000     9.1825     0.0214     0.0270   168.0259     2.5030
 1957.0000     9.1830     0.0228     0.0271   164.8615     2.5007
 1957.5000     9.1834     0.0227     0.0277   160.6509     2.4999
 1958.0000     9.1989     0.0242     0.0304   157.7896     2.4991
 1958.5000     9.1993     0.0302     0.0268   157.0272     2.4999
 1959.0000     9.2147     0.0315     0.0202   160.3097     2.5037
 1959.5000     9.2151     0.0284     0.0169   162.3991     2.5118
 1960.0000     9.2455     0.0253     0.0136   161.7835     2.5178
 1960.5000     9.3359     0.0177     0.0157   159.3416     2.5185
 1961.0000     9.2164     0.0131     0.0175   155.9078     2.5200
 1961.5000     9.2319     0.0100     0.0193   151.8470     2.5162
 1962.0000     9.2324     0.0099     0.0215   150.1852     2.5132
 1962.5000     9.2478     0.0098     0.0233   150.1724     2.5131
 1963.0000     9.2483     0.0157     0.0242   149.7067     2.5086
 1963.5000     9.2487     0.0217     0.0245   147.5950     2.5025
 1964.0000     9.2491     0.0231     0.0221   142.6348     2.5048
 1964.5000     9.2496     0.0170     0.0188   139.9234     2.5115
 1965.0000     9.2650     0.0169     0.0173   138.5582     2.5153
 1965.5000     9.2654     0.0168     0.0161   136.4465     2.5160
 1966.0000     9.2659     0.0167     0.0174   131.1864     2.5182
 1966.5000     9.2664     0.0166     0.0174   126.2261     2.5197
 1967.0000     9.2668     0.0150     0.0186   123.9613     2.5181
 1967.5000     9.2672     0.0134     0.0282   123.3489     2.5128
 1968.0000     9.2678     0.0118     0.0337   125.4351     2.5053
 1968.5000     9.2532     0.0147     0.0322   136.6668     2.4925
 1969.0000     9.2536     0.0225     0.0285   140.0780     2.4970
 1969.5000     9.2541     0.0311     0.0295   143.6846     2.5007
 1970.0000     9.2545     0.0461     0.0367   144.5746     2.4930
 1970.5000     9.2401     0.0580     0.0376   143.6592     2.4856
 1971.0000     9.2405     0.0686     0.0283   141.6374     2.4818
 1971.5000     9.2258     0.0729     0.0344   135.8344     2.4901
 1972.0000     9.2113     0.0532     0.0603   129.5248     2.5126
 1972.5000     9.1969     0.0727     0.0398   125.5197     2.4810
 1973.0000     9.2273     0.0742     0.0299   118.7716     2.4419
 1973.5000     9.2427     0.0319     0.0186   114.2625     2.5080
 1974.0000     9.2581     0.0228     0.0206   116.6499     2.4898
 1974.5000     9.2436     0.0212     0.0260   120.8364     2.5083
 1975.0000     9.2141     0.0211     0.0278   121.7246     2.5139
 1975.5000     9.1696     0.0225     0.0285   122.0102     2.5018
 1976.0000     9.1402     0.0239     0.0279   123.1983     2.4988
 1976.5000     9.1255     0.0268     0.0270   123.7894     2.4988
 1977.0000     9.1110     0.0313     0.0267   123.0204     2.4987
 1977.5000     9.1115     0.0327     0.0258   123.1613     2.5002
 1978.0000     9.1270     0.0266     0.0231   124.0495     2.5047
 1978.5000     9.1424     0.0189     0.0249   127.3364     2.5114
 1979.0000     9.1578     0.0264     0.0319   127.6551     2.4976
 1979.5000     9.1882     0.0405     0.0343   128.1153     2.4851
 1980.0000     9.1886     0.0578     0.0346   132.3969     2.5016
 1980.5000     9.1892     0.0547     0.0371   135.6839     2.4925
 1981.0000     9.1896     0.0550     0.0307   135.5226     2.4872
 1981.5000     9.1749     0.0726     0.0151   134.1619     2.4917
 1982.0000     9.1605     0.0544     0.0094   131.2991     2.5285
 1982.5000     9.1609     0.0303     0.0118   126.0403     2.5225
 1983.0000     9.1615     0.0166     0.0169   125.5792     2.5284
 1983.5000     9.1619     0.0075     0.0215   125.5678     2.5141
 1984.0000     9.1472     0.0059     0.0239   125.3963     2.4991
 1984.5000     9.1478     0.0073     0.0254   121.3443     2.4998
 1985.0000     9.1632     0.0117     0.0251   113.9866     2.5028
 1985.5000     9.1786     0.0133     0.0227   113.3783     2.5059
 1986.0000     9.1940     0.0176     0.0206   116.9623     2.5125
 1986.5000     9.1945     0.0175     0.0188   119.4390     2.5200
 1987.0000     9.1949     0.0189     0.0191   121.7343     2.5267
 1987.5000     9.2103     0.0203     0.0204   123.0723     2.5199
 1988.0000     9.2108     0.0233     0.0201   124.1132     2.5071
 1988.5000     9.2113     0.0292     0.0177   122.4374     2.4943
 1989.0000     9.2117     0.0306     0.0156   114.4896     2.4890
 1989.5000     9.2121     0.0320     0.0144   111.9295     2.5010
