~VERSION INFORMATION
 VERS.                2.0:   CWLS LOG ASCII STANDARD - VERSION 2.0
 WRAP.                 NO:   ONE LINE PER DEPTH STEP
~WELL INFORMATION
#MNEM.UNIT      DATA TYPE    INFORMATION
#----------   ------------   ------------------------------
 STRT.F           31.0000:   START DEPTH
 STOP.F         1450.0000:   STOP DEPTH
 STEP.F            0.5000:   STEP LENGTH
 NULL.          -999.2500:   NO VALUE
 COMP. FENIX & SCISSON INC:   COMPANY
 WELL.    NPR-3 SX #86-14:   WELL
 FLD .             TEAPOT:   FIELD
 LOC .      S14 T38N R78W:   LOCATION
 CNTY.            NATRONA:   COUNTY
 STAT.            WYOMING:   STATE
 CTRY. UNITED STATES OF AMERICA:   COUNTRY
 SRVC.            Unknown:   SERVICE COMPANY
 DATE.        05-APR-1978:   LOGDATE
 API .       490251060800:   API NUMBER
~CURVE INFORMATION
#MNEM.UNIT       API CODE    CURVE DESCRIPTION
#----------   ------------   ------------------------------
 DEPT.F                  :   
 CALD.IN     45 280 60 00:   CALIPER
 GRD .GAPI   45 310 01 00:   GAMMA RAY FROM DENSITY LOG
 RHOB.G/C3   45 350 01 00:   BULK DENSITY
 CORR.G/C3   45 356 01 00:   DENSITY CORRECTION
 DPHI.DEC    45 890 12 00:   DENSITY POROSITY SANDSTONE
 SPR .MV     05 010 01 00:   SPONTANEOUS POTENTIAL FROM RES.
 SN  .OHMM   05 040 16 00:   SHORT NORMAL 16"
 ILD .OHMM   05 120 46 00:   INDUCTION LOG DEEP
~PARAMETER INFORMATION
#MNEM.UNIT          VALUE    DESCRIPTION
#----------   ------------   ------------------------------
 PD  .                 GL:   PERMANENT DATUM
 EPD .F              5367:   ELEVATION PERMANENT DATUM
 LMF .                 KB:   LOG MEASURED FROM
 DMF .                 KB:   DRILLING MEASURED FROM
 EKB .F              5371:   KELLING BUSHING
 EGL .F              5369:   GROUND LEVEL
 DATE.           4-5-1978:   RUN DATE
 RUN .                  1:   RUN NUMBER
 DD  .F              1455:   DEPTH DRILLER
 DL  .F              1446:   DEPTH LOGGER
 BLI .F              1440:   BOTTOM LOG INTERVAL
 TLI .F               100:   TOP LOG INTERVAL
 CS  .IN            8.625:   CASING SIZE
 CBD .F                40:   CASING BOTTOM DRILLER
 BS  .IN            7.875:   BIT SIZE
 BSD .F              1455:   BIT SIZE AT DEPTH
 DFT .                KCL:   DRILLING FLUID TYPE
 DFD .                8.6:   DRILLING FLUID DENSITY
 DFV .                 31:   DRILLING FLUID VISCOSITY
 DFPH.                 10:   DRILLING FLUID PH
 DFL .                8.4:   DRILLING FLUID LOSS
 MSS .           FLOWLINE:   MUD SAMPLE SOURCE
 RMS .OHMM            .95:   RESISTIVITY MUD SAMPLE
 MST .F                54:   MUD SAMPLE TEMPERATURE
 RMF .OHMM            .95:   RESISTIVITY MUD FILTRATE SAMPLE
 MFST.F                62:   MUD FILTRATE SAMPLE TEMPERATURE
 RMC .OHMM             .8:   RESISTIVITY MUD CAKE
 MCST.F                62:   MUD CAKE SAMPLE TEMPERATURE
 MFSS.               MEAS:   MUD FILTRATE SAMPLE SOURCE
 RMB .OHMM            .66:   RESISTIVITY MUD AT BHT
 BHT .F                78:   BOTTOM HOLE TEMPERATURE
 TCS .HRS               6:   TIME CURCULATED STOPPED
 MRT .F                78:   MAXIMUM RECORDED TEMPERATURE
 LUN .               2958:   LOGGING UNIT NUMBER
 LUL .               CASP:   LOGGING UNIT LOCATION
 ENGI.             MILLER:   RECORDING ENGINEER
 WITN.           MCGINLEY:   WITNESSED BY
 CLNT.            A2DTECH:   CLIENT CODE
 ORIG.        2" 5" PRINT:   ORIGIN OF DATA
 UWI .       490251060800:   UNIQUE WELL ID
 DICO. A2D Technologies, Inc.:   DIGITIZING COMPANY
~OTHER INFORMATION
~A   DEPT     CALD         GRD      RHOB       CORR       DPHI        SPR         SN        ILD   
# ...
  233.5000     8.1578    85.4291     2.3948     0.0079     0.1528   -15.2554     7.7527     6.9385
  234.0000     8.1514    85.7100     2.3877     0.0119     0.1520   -15.2194     7.7148     6.8874
  234.5000     8.1512    85.0717     2.3863     0.0115     0.1529   -15.1847     7.6533     6.8271
  235.0000     8.1529    83.8660     2.3859     0.0054     0.1597   -15.1497     7.5632     6.7674
  235.5000     8.1547    82.6585     2.3794    -0.0006     0.1665   -15.1147     7.3848     6.7294
  236.0000     8.1564    81.4659     2.3705    -0.0060     0.1695   -15.0774     7.1981     6.6865
  236.5000     8.1581    80.8532     2.3587    -0.0008     0.1653   -15.1215     7.2590     6.7222
  237.0000     8.1598    81.8756     2.3594     0.0043     0.1591   -15.1934     7.3351     6.7617
  237.5000     8.1615    82.2097     2.3773     0.0023     0.1626   -15.2658     7.2277     6.8113
  238.0000     8.1632    81.4256     2.3636    -0.0011     0.1691   -15.3382     7.1999     6.6332
  238.5000     8.1650    81.3702     2.3616    -0.0040     0.1707   -15.4105     7.2768     6.4260
  239.0000     8.1667    81.4805     2.3495     0.0007     0.1672   -15.4828     7.3339     6.3264
  239.5000     8.1684    81.5980     2.3597     0.0080     0.1637   -15.5553     7.4027     6.2674
  240.0000     8.1699    81.6762     2.3760     0.0070     0.1603   -15.6270     7.3762     6.2674
  240.5000     8.1673    81.3285     2.3723     0.0055     0.1625   -15.6520     7.3329     6.2674
  241.0000     8.1647    80.0463     2.3722     0.0041     0.1651   -15.5650     7.2900     6.2748
  241.5000     8.1621    78.2248     2.3652     0.0062     0.1638   -15.4805     7.2668     6.2916
  242.0000     8.1595    78.0265     2.3681     0.0086     0.1610   -15.3962     7.3059     6.3085
  242.5000     8.1569    78.6551     2.3732     0.0111     0.1581   -15.3118     7.3343     6.3254
  243.0000     8.1543    79.2955     2.3726     0.0136     0.1552   -15.2694     7.2904     6.3424
  243.5000     8.1517    79.8965     2.3826     0.0138     0.1503   -15.2694     7.2503     6.3594
  244.0000     8.1510    82.7525     2.3980     0.0131     0.1559   -15.2694     7.1999     6.3765
  244.5000     8.1540    84.4764     2.3864     0.0124     0.1548   -15.2695     7.2281     6.3844
  245.0000     8.1570    84.2564     2.3788     0.0130     0.1528   -15.2694     7.2666     6.3543
  245.5000     8.1600    84.0069     2.3853     0.0154     0.1507   -15.2695     7.3052     6.3320
  246.0000     8.1630    83.7570     2.4013     0.0177     0.1487   -15.2688     7.3441     6.3098
  246.5000     8.1659    83.4563     2.3888     0.0186     0.1477   -15.3301     7.3832     6.2876
  247.0000     8.1689    82.0277     2.3920     0.0190     0.1487   -15.4307     7.4225     6.2656
  247.5000     8.1719    80.8210     2.3943     0.0195     0.1491   -15.5318     7.4620     6.2435
  248.0000     8.1749    80.8949     2.3931     0.0199     0.1468   -15.6344     7.5017     6.2217
  248.5000     8.1778    81.0826     2.4015     0.0199     0.1447   -15.6512     7.5416     6.2097
  249.0000     8.1808    80.8222     2.4071     0.0184     0.1468   -15.6262     7.5818     6.2743
  249.5000     8.1838    80.5749     2.3950     0.0167     0.1460   -15.6002     7.6385     6.3730
  250.0000     8.1868    80.1032     2.4054     0.0149     0.1421   -15.5743     7.7378     6.4733
  250.5000     8.1899    76.2100     2.4151     0.0131     0.1379   -15.5484     7.8384     6.5752
  251.0000     8.1864    72.4038     2.4200     0.0114     0.1401   -15.5226     7.9402     6.6652
  251.5000     8.1813    68.6530     2.4248     0.0106     0.1425   -15.4964     8.0434     6.7436
  252.0000     8.1762    68.4655     2.4109     0.0138     0.1451   -15.4704     8.1951     6.8230
  252.5000     8.1711    78.0178     2.3988     0.0169     0.1457   -15.4194     8.1454     6.8746
  253.0000     8.1660    80.9796     2.3974     0.0160     0.1507   -15.3298     8.0562     6.8627
  253.5000     8.1609    85.8174     2.3905     0.0124     0.1636   -15.2966     7.9679     6.8418
  254.0000     8.1558    83.7211     2.3609     0.0117     0.1671   -15.3800     7.8841     6.8210
  254.5000     8.1507    80.2173     2.3588     0.0155     0.1551   -15.4613     7.8152     6.8002
  255.0000     8.1515    79.8909     2.3768     0.0181     0.1483   -15.5430     7.7470     6.7795
  255.5000     8.1533    80.7997     2.3911     0.0143     0.1526   -15.6245     7.6814     6.7588
  256.0000     8.1552    81.6751     2.3843     0.0106     0.1567   -15.7065     7.7087     6.7382
  256.5000     8.1570    82.3143     2.3833     0.0109     0.1587   -15.7894     7.7525     6.7177
  257.0000     8.1588    81.3877     2.3770     0.0120     0.1582   -15.8603     7.7331     6.6970
  257.5000     8.1606    79.6304     2.3759     0.0131     0.1566   -15.6843     7.7028     6.6866
  258.0000     8.1624    77.8613     2.3793     0.0141     0.1559   -15.4972     7.6814     6.7183
  258.5000     8.1642    77.3642     2.3791     0.0150     0.1558   -15.5014     7.7351     6.7401
  259.0000     8.1661    78.9817     2.3850     0.0160     0.1576   -15.5407     7.7769     6.7619
  259.5000     8.1679    78.9996     2.3721     0.0135     0.1549   -15.5806     7.8190     6.7837
  260.0000     8.1701    79.5365     2.3594     0.0089     0.1546   -15.6201     7.8614     6.8057
  260.5000     8.1561    83.6934     2.3918     0.0082     0.1561   -15.6596     7.9119     6.8907
  261.0000     8.1393    83.6844     2.3813     0.0082     0.1550   -15.6990     8.0085     6.9990
  261.5000     8.1331    81.2876     2.3767     0.0082     0.1561   -15.7385     8.1062     7.1091
  262.0000     8.1399    78.7004     2.3847     0.0082     0.1611   -15.7780     8.2051     7.2208
  262.5000     8.1467    75.2674     2.3715     0.0082     0.1567   -15.8176     8.3054     7.3343
  263.0000     8.1505    74.8931     2.4010     0.0092     0.1533   -15.8608     8.4059     7.4496
  263.5000     8.1517    74.6896     2.3891     0.0126     0.1497   -15.7579     8.5877     7.5667
  264.0000     8.1528    73.8551     2.3867     0.0159     0.1460   -15.6040     8.7910     7.6857
  264.5000     8.1540    73.0908     2.4022     0.0161     0.1426   -15.4488     8.9526     7.8065
  265.0000     8.1551    73.6587     2.4004     0.0162     0.1450   -15.2943     9.0727     7.9292
  265.5000     8.1562    73.7435     2.3935     0.0165     0.1484   -15.1385     9.0422     8.0539
  266.0000     8.1573    73.5017     2.4015     0.0180     0.1489   -15.0994     9.0072     8.1951
  266.5000     8.1585    73.4511     2.4085     0.0159     0.1494   -15.1491     8.9720     8.1624
  267.0000     8.1596    74.2763     2.4061     0.0123     0.1499   -15.2002     8.9373     8.1097
  267.5000     8.1607    78.1902     2.4093     0.0087     0.1516   -15.2515     8.8987     8.0588
  268.0000     8.1619    80.4032     2.3863     0.0086     0.1565   -15.3027     8.8353     7.9547
  268.5000     8.1630    81.7580     2.3795     0.0095     0.1595   -15.3538     8.7716     7.8248
  269.0000     8.1641    80.7550     2.3733     0.0102     0.1602   -15.4050     8.6917     7.6743
  269.5000     8.1652    78.4534     2.3712     0.0102     0.1614   -15.4561     8.3653     7.4713
  270.0000     8.1664    76.8275     2.3694     0.0102     0.1668   -15.5073     8.0450     7.2523
  270.5000     8.1675    78.9162     2.3606     0.0101     0.1701   -15.5585     7.7009     7.0330
  271.0000     8.1686    81.4854     2.3530     0.0124     0.1721   -15.6101     7.4935     6.8203
  271.5000     8.1699    83.0864     2.3611     0.0153     0.1585   -15.6637     7.3124     6.6141
  272.0000     8.1670    80.0346     2.3743     0.0182     0.1620   -15.5811     7.2105     6.4141
  272.5000     8.1633    78.1904     2.3692     0.0147     0.1637   -15.4771     7.1265     6.2201
  273.0000     8.1595    77.5302     2.3671     0.0122     0.1631   -15.3726     7.0962     6.0959
  273.5000     8.1557    77.3055     2.3693     0.0140     0.1618   -15.2683     7.0661     6.0959
