~VERSION INFORMATION
 VERS.                2.0:   CWLS LOG ASCII STANDARD - VERSION 2.0
 WRAP.                 NO:   ONE LINE PER DEPTH STEP
~WELL INFORMATION
#MNEM.UNIT      DATA TYPE    INFORMATION
#----------   ------------   ------------------------------
 STRT.F           38.0000:   START DEPTH
 STOP.F          663.5000:   STOP DEPTH
 STEP.F            0.5000:   STEP LENGTH
 NULL.          -999.2500:   NO VALUE
 COMP. FENIX & SCISSON INC:   COMPANY
 WELL.   NPR SX #3 #35-34:   WELL
 FLD .             TEAPOT:   FIELD
 LOC .      S34 T39N R78W:   LOCATION
 CNTY.            NATRONA:   COUNTY
 STAT.            WYOMING:   STATE
 CTRY. UNITED STATES OF AMERICA:   COUNTRY
 SRVC.       Schlumberger:   SERVICE COMPANY
 DATE.        21-MAR-1977:   LOGDATE
 API .       490251031500:   API NUMBER
~CURVE INFORMATION
#MNEM.UNIT       API CODE    CURVE DESCRIPTION
#----------   ------------   ------------------------------
 DEPT.F                  :   
 SPR .MV     07 010 01 00:   SPONTANEOUS POTENTIAL
 LL8 .OHMM   07 220 08 00:   LATEROLOG-8 RES.
 ILD .OHMM   07 120 46 00:   INDUCTION LOG DEEP
 ILM .OHMM   07 120 44 00:   INDUCTION LOG MEDIUM
 CALD.IN     45 280 60 00:   CALIPER
 RHOB.G/C3   45 350 01 00:   BULK DENSITY
 DPHI.DEC    45 890 12 00:   DENSITY POROSITY SANDSTONE
 CORR.G/C3   45 356 01 00:   DENSITY CORRECTION
 GRD .GAPI   45 310 01 00:   GAMMA RAY FROM DENSITY LOG
~PARAMETER INFORMATION
#MNEM.UNIT          VALUE    DESCRIPTION
#----------   ------------   ------------------------------
 PD  .                 GL:   PERMANENT DATUM
 EPD .F              5081:   ELEVATION PERMANENT DATUM
 LMF .                 GL:   LOG MEASURED FROM
 DMF .                 KB:   DRILLING MEASURED FROM
 EKB .F              5086:   KELLING BUSHING
 EGL .F              5081:   GROUND LEVEL
 DATE.          3-21-1977:   RUN DATE
 RUN .                  1:   RUN NUMBER
 DD  .F               670:   DEPTH DRILLER
 DL  .F               665:   DEPTH LOGGER
 BLI .F               659:   BOTTOM LOG INTERVAL
 TLI .F                40:   TOP LOG INTERVAL
 CS  .IN            8.625:   CASING SIZE
 CBD .F                40:   CASING BOTTOM DRILLER
 CBL .F                40:   CASING BOTTOM LOGGER
 BS  .IN            7.875:   BIT SIZE
 BSD .F               670:   BIT SIZE AT DEPTH
 DFT .           CHEM GEL:   DRILLING FLUID TYPE
 DFV .                 33:   DRILLING FLUID VISCOSITY
 MSS .           MUD TANK:   MUD SAMPLE SOURCE
 RMS .OHMM           4.98:   RESISTIVITY MUD SAMPLE
 MST .F                53:   MUD SAMPLE TEMPERATURE
 RMF .OHMM           4.94:   RESISTIVITY MUD FILTRATE SAMPLE
 MFST.F                53:   MUD FILTRATE SAMPLE TEMPERATURE
 RMC .OHMM            2.5:   RESISTIVITY MUD CAKE
 MCST.F                53:   MUD CAKE SAMPLE TEMPERATURE
 MFSS.                  M:   MUD FILTRATE SAMPLE SOURCE
 MCSS.                  C:   MUD CAKE SAMPLE SOURCE
 RMB .OHMM              4:   RESISTIVITY MUD AT BHT
 BHT .F                65:   BOTTOM HOLE TEMPERATURE
 TCS .HRS            1000:   TIME CURCULATED STOPPED
 TLAB.HRS            1400:   TIME LOGGER AT BOTTOM
 MRT .F                65:   MAXIMUM RECORDED TEMPERATURE
 LUN .               7742:   LOGGING UNIT NUMBER
 LUL .                GLT:   LOGGING UNIT LOCATION
 ENGI.               LANE:   RECORDING ENGINEER
 WITN.              BURKE:   WITNESSED BY
 CLNT.            A2DTECH:   CLIENT CODE
 ORIG.       2", 5" PRINT:   ORIGIN OF DATA
 UWI .       490251031500:   UNIQUE WELL ID
 DICO. A2D Technologies, Inc.:   DIGITIZING COMPANY
~OTHER INFORMATION
~A   DEPT      SPR        LL8        ILD        ILM       CALD       RHOB       DPHI       CORR         GRD  
# ...
  585.5000   -47.6071    13.0156    13.7367     9.7772     8.1878     2.4498     0.1196     0.0259    94.1558
  586.0000   -47.8562    13.0739    13.7209     9.8619     8.1889     2.4571     0.1142     0.0284    94.5412
  586.5000   -48.1067    13.1287    13.7052    10.0327     8.1863     2.4518     0.1200     0.0205    95.3612
  587.0000   -48.2601    13.1837    13.6896    10.2388     8.1837     2.4426     0.1250     0.0126    96.1093
  587.5000   -48.3615    13.2575    13.6739    10.2238     8.1810     2.4370     0.1279     0.0080    95.6336
  588.0000   -48.4622    13.1521    13.6582    10.2060     8.1783     2.4338     0.1327     0.0084    95.5939
  588.5000   -48.5629    12.9950    13.6426    10.1877     8.1757     2.4350     0.1324     0.0111    97.1791
  589.0000   -48.6638    12.8397    13.6166    10.1695     8.1730     2.4359     0.1265     0.0137    98.2663
  589.5000   -48.7646    12.6863    13.5375    10.1512     8.1704     2.4467     0.1196     0.0164    97.7479
  590.0000   -48.8655    12.6597    13.4592    10.1277     8.1677     2.4463     0.1158     0.0141    96.0781
  590.5000   -48.9663    12.6598    13.3813    10.1006     8.1651     2.4420     0.1252     0.0086    94.4147
  591.0000   -49.0672    12.6597    13.3039    10.0737     8.1624     2.4376     0.1322     0.0030    95.4353
  591.5000   -49.1680    12.6590    13.2269    10.0516     8.1597     2.4347     0.1339     0.0076    99.0763
  592.0000   -49.2689    12.6597    13.1504     9.9891     8.1571     2.4452     0.1245     0.0107   100.7057
  592.5000   -49.3697    12.5542    13.0743     9.9261     8.1544     2.4557     0.1169     0.0064    99.1333
  593.0000   -49.4706    12.4487    12.9987     9.8635     8.1518     2.4661     0.1103     0.0196    96.8744
  593.5000   -49.5714    12.3114    12.9234     9.8013     8.1491     2.4727     0.1084     0.0346    93.3344
  594.0000   -49.6722    12.1755    12.8484     9.7395     8.1465     2.4765     0.1066     0.0368    91.3592
  594.5000   -49.7730    12.0412    12.7771     9.6781     8.1438     2.4813     0.1030     0.0317    89.8597
  595.0000   -49.8736    11.8678    12.7991     9.6003     8.1412     2.4802     0.1045     0.0251    90.5567
  595.5000   -49.9725    12.0981    12.8203     9.7374     8.1385     2.4767     0.1118     0.0091    92.9760
  596.0000   -50.2469    12.4384    12.8416     9.8507     8.1358     2.4738     0.1087     0.0114    94.6348
  596.5000   -50.5759    12.7882    12.8630     9.9602     8.1332     2.4820     0.1032     0.0185    95.6138
  597.0000   -50.9058    13.1479    12.8846    10.0710     8.1305     2.4946     0.0978     0.0233    93.6390
  597.5000   -51.2044    13.5176    12.8947    10.2388     8.1300     2.4990     0.0923     0.0311    90.8709
  598.0000   -51.2749    13.6297    12.8272    10.1681     8.1300     2.5015     0.0901     0.0436    88.1328
  598.5000   -51.3396    13.5125    12.7810    10.0309     8.1300     2.4871     0.0998     0.0378    87.5895
  599.0000   -51.4047    13.1913    12.7350     9.8956     8.1300     2.4892     0.0974     0.0376    90.0006
  599.5000   -51.4701    12.8777    12.6891     9.7621     8.1300     2.4848     0.1003     0.0406    92.4505
  600.0000   -51.5354    12.5716    12.6434     9.6305     8.1300     2.4772     0.1056     0.0297    97.3918
  600.5000   -51.6008    12.3077    12.5978     9.5006     8.1300     2.4663     0.1109     0.0185   102.2148
  601.0000   -51.6661    12.2621    12.5525     9.3724     8.1300     2.4608     0.1134     0.0134   106.5027
  601.5000   -51.7315    12.2167    12.4567     9.2506     8.1300     2.4581     0.1165     0.0085   109.7498
  602.0000   -51.7968    12.1714    12.3493     9.2506     8.1300     2.4463     0.1266     0.0037   112.1379
  602.5000   -51.8622    12.1263    12.2428     9.2506     8.1300     2.4393     0.1303     0.0036   111.2820
  603.0000   -51.9273    12.0599    12.1372     9.2506     8.1300     2.4423     0.1257     0.0070   109.3858
  603.5000   -51.9889    11.8850    12.0325     9.2506     8.1300     2.4504     0.1221     0.0105   108.6439
  604.0000   -52.1774    11.7131    11.9287     9.1768     8.1300     2.4580     0.1190     0.0138   106.5922
  604.5000   -52.3872    11.5436    11.8258     9.0886     8.1300     2.4530     0.1214     0.0080   102.8024
  605.0000   -52.5972    11.3766    11.7349     9.0013     8.1299     2.4496     0.1239     0.0056    99.2162
  605.5000   -52.8068    11.2121    11.6639     8.9148     8.1275     2.4506     0.1213     0.0039   102.3877
  606.0000   -53.0164    11.0499    11.5957     8.8292     8.1249     2.4579     0.1172     0.0034   106.3715
  606.5000   -53.2261    10.8901    11.5413     8.7444     8.1224     2.4686     0.1132     0.0183   107.3296
  607.0000   -53.4357    10.7325    11.1774     8.6614     8.1199     2.4742     0.1091     0.0190   105.5524
  607.5000   -53.6447    10.5773    10.8525     8.5923     8.1174     2.4773     0.1050     0.0237   108.6683
  608.0000   -53.8546    10.4296    10.5372     8.3989     8.1149     2.4656     0.1129     0.0155   112.4961
  608.5000   -54.0891    10.1858    10.1893     8.2081     8.1124     2.4505     0.1229     0.0068   112.1591
  609.0000   -54.4340     9.9556     9.8315     8.0216     8.1099     2.4392     0.1303     0.0058   111.4673
  609.5000   -54.7690     9.7306     9.4862     7.8349     8.1074     2.4416     0.1251     0.0133   111.4344
  610.0000   -55.1040     9.5107     9.1528     7.7615     8.1049     2.4536     0.1204     0.0172   108.0930
  610.5000   -55.4446     9.2957     8.8376     7.6869     8.1024     2.4563     0.1200     0.0202   103.9188
  611.0000   -55.8687     9.0856     8.3218     7.6210     8.0999     2.4505     0.1239     0.0235   108.8573
  611.5000   -56.3933     8.8803     7.6634     6.7736     8.0974     2.4441     0.1278     0.0313   119.8751
  612.0000   -56.9146     8.1155     7.0529     5.9556     8.0949     2.4323     0.1354     0.0300   131.5777
  612.5000   -57.2859     6.6738     6.4911     5.2661     8.0922     2.3989     0.1535     0.0212   139.7532
  613.0000   -57.4492     5.4882     5.8316     4.8122     8.0906     2.3913     0.1577     0.0113   142.5542
  613.5000   -57.6014     4.3049     5.9226     4.5410     8.1056     2.4185     0.1429     0.0181   138.0824
  614.0000   -57.1009     5.4974     6.1022     5.1469     8.1208     2.4643     0.1093     0.0293   124.6287
  614.5000   -56.5486     7.6031     6.2873     5.7418     8.1361     2.4936     0.0950     0.0227   109.1992
  615.0000   -55.9956    10.9285     6.4780     6.2929     8.1488     2.4914     0.1003     0.0199   103.0963
  615.5000   -55.4322     9.9575     6.9523     6.5700     8.1234     2.4769     0.1020     0.0209    97.3288
  616.0000   -55.1468     9.9681     7.7685     6.8593     8.0978     2.4834     0.1000     0.0221    92.9031
  616.5000   -54.8690     9.9629     8.6805     7.1613     8.0723     2.4849     0.1020     0.0224    95.8192
  617.0000   -54.5885    10.0321     9.6995     7.4787     8.0470     2.4802     0.1066     0.0179   100.8728
  617.5000   -54.3077    10.1983    10.0812     7.8325     8.0215     2.4983     0.0927     0.0200   104.1858
  618.0000   -54.0270    10.3673    10.1422     7.8891     8.0093     2.5189     0.0793     0.0297   106.7001
  618.5000   -53.7462    10.5390    10.2036     7.9599     8.0063     2.5088     0.0859     0.0271   110.0162
  619.0000   -53.4655    10.7136    10.2653     8.0334     8.0037     2.4915     0.0935     0.0188   113.5352
  619.5000   -53.1847    10.8910    10.3274     8.1076     8.0011     2.4734     0.1030     0.0156   117.0857
  620.0000   -52.9040    11.0714    10.4892     8.3396     7.9984     2.4855     0.0983     0.0238   118.5840
  620.5000   -52.6233    11.2548    10.6649     8.6490     7.9957     2.4938     0.0946     0.0244   117.0010
  621.0000   -52.3478    11.4413    10.8436     8.8497     7.9931     2.4906     0.0998     0.0246   115.3251
  621.5000   -52.1464    11.6308    11.0253     8.8910     7.9904     2.4956     0.0927     0.0258   114.4130
