~VERSION INFORMATION
 VERS.                2.0:   CWLS LOG ASCII STANDARD - VERSION 2.0
 WRAP.                 NO:   ONE LINE PER DEPTH STEP
~WELL INFORMATION
#MNEM.UNIT      DATA TYPE    INFORMATION
#----------   ------------   ------------------------------
 STRT.F           46.0000:   START DEPTH
 STOP.F         2100.0000:   STOP DEPTH
 STEP.F            0.5000:   STEP LENGTH
 NULL.          -999.2500:   NO VALUE
 COMP. LAWRENCE/ALLISON INC:   COMPANY
 WELL.    58-21 SX #10-10:   WELL
 FLD .             TEAPOT:   FIELD
 LOC .      S10 T38N R78W:   LOCATION
 CNTY.            NATRONA:   COUNTY
 STAT.            WYOMING:   STATE
 CTRY. UNITED STATES OF AMERICA:   COUNTRY
 SRVC.           Gearhart:   SERVICE COMPANY
 DATE.        06-JUL-1987:   LOGDATE
 API .       490251114400:   API NUMBER
~CURVE INFORMATION
#MNEM.UNIT       API CODE    CURVE DESCRIPTION
#----------   ------------   ------------------------------
 DEPT.F                  :   
 GR  .GAPI   81 310 01 00:   GAMMA RAY
 TGAS.UNITS  91 830 01 00:   TOTAL GAS FROM HOTWIRE
 ROP .MIN/FT 91 810 01 00:   RAT OF DRILLING PENETRATION
~PARAMETER INFORMATION
#MNEM.UNIT          VALUE    DESCRIPTION
#----------   ------------   ------------------------------
 PD  .                 GL:   PERMANENT DATUM
 EPD .F              5219:   ELEVATION PERMANENT DATUM
 LMF .                 KB:   LOG MEASURED FROM
 DAPD.F                 8:   FEET ABOVE PERMANENT DATUM
 DMF .                 KB:   DRILLING MEASURED FROM
 EKB .F              5227:   KELLING BUSHING
 EDF .F              5225:   DRILLING FLOOR
 EGL .F              5219:   GROUND LEVEL
 DATE.             7-6-87:   RUN DATE
 RUN .                  1:   RUN NUMBER
 DD  .F               610:   DEPTH DRILLER
 DL  .F             531.5:   DEPTH LOGGER
 BLI .F               526:   BOTTOM LOG INTERVAL
 TLI .F                50:   TOP LOG INTERVAL
 BS  .IN            7.875:   BIT SIZE
 BSD .F               610:   BIT SIZE AT DEPTH
 DFT .              WATER:   DRILLING FLUID TYPE
 LUN .               6084:   LOGGING UNIT NUMBER
 LUL .           GILLETTE:   LOGGING UNIT LOCATION
 ENGI.                COX:   RECORDING ENGINEER
 WITN.               LOWE:   WITNESSED BY
 CLNT.            A2DTECH:   CLIENT CODE
 ORIG.           5" PRINT:   ORIGIN OF DATA
 UWI .       490251114400:   UNIQUE WELL ID
 DICO. A2D Technologies, Inc.:   DIGITIZING COMPANY
~OTHER INFORMATION
~A   DEPT        GR      TGAS        ROP   
# ...
  683.0000  -999.2500     1.7549     0.3188
  683.5000  -999.2500     1.7549     0.3178
  684.0000  -999.2500     1.7549     0.3311
  684.5000  -999.2500     1.7549     0.3755
  685.0000  -999.2500     1.7549     0.4357
  685.5000  -999.2500     1.7549     0.4962
  686.0000  -999.2500     1.7549     0.5566
  686.5000  -999.2500     1.7549     0.6170
  687.0000  -999.2500     1.7549     0.6774
  687.5000  -999.2500     1.7549     0.7378
  688.0000  -999.2500     1.7549     0.7982
  688.5000  -999.2500     1.7549     0.8586
  689.0000  -999.2500     1.7549     0.9190
  689.5000  -999.2500     1.7549     0.9792
  690.0000  -999.2500     1.7549     1.0399
  690.5000  -999.2500     1.7549     1.0682
  691.0000  -999.2500     1.7549     1.0633
  691.5000  -999.2500     1.7549     1.0453
  692.0000  -999.2500     1.7549     1.0274
  692.5000  -999.2500     1.7549     0.9936
  693.0000  -999.2500     1.7549     0.9444
  693.5000  -999.2500     1.7549     0.8945
  694.0000  -999.2500     1.7549     0.8226
  694.5000  -999.2500     1.7549     0.7405
  695.0000  -999.2500     1.7549     0.6576
  695.5000  -999.2500     1.7549     0.5730
  696.0000  -999.2500     1.7549     0.5689
  696.5000  -999.2500     1.7549     0.5553
  697.0000  -999.2500     1.7549     0.5564
  697.5000  -999.2500     1.7549     0.5563
  698.0000  -999.2500     1.7549     0.5562
  698.5000  -999.2500     1.7549     0.5562
  699.0000  -999.2500     1.7549     0.5562
  699.5000  -999.2500     1.7549     0.5562
  700.0000  -999.2500     1.7549     0.5562
  700.5000  -999.2500     1.7549     0.5562
  701.0000  -999.2500     1.7549     0.5563
  701.5000  -999.2500     1.7549     0.5562
  702.0000  -999.2500     1.7549     0.5563
  702.5000  -999.2500     1.7549     0.5356
  703.0000  -999.2500     1.7549     0.4947
  703.5000  -999.2500     1.7549     0.4538
  704.0000  -999.2500     1.7549     0.4128
  704.5000  -999.2500     1.7549     0.3719
  705.0000  -999.2500     1.7549     0.3203
  705.5000  -999.2500     1.7549     0.2876
  706.0000  -999.2500     1.7549     0.2530
  706.5000  -999.2500     1.7549     0.2331
  707.0000  -999.2500     1.7549     0.2374
  707.5000  -999.2500     1.7549     0.2421
  708.0000  -999.2500     1.7549     0.2468
  708.5000  -999.2500     1.7549     0.2515
  709.0000  -999.2500     1.7549     0.2562
  709.5000  -999.2500     1.7549     0.2609
  710.0000  -999.2500     1.7549     0.2655
  710.5000  -999.2500     1.7549     0.2688
  711.0000  -999.2500     1.7476     0.2687
  711.5000  -999.2500     1.7349     0.2678
  712.0000  -999.2500     1.7221     0.2645
  712.5000  -999.2500     1.7094     0.2613
  713.0000  -999.2500     1.6966     0.2581
  713.5000  -999.2500     1.6839     0.2549
  714.0000  -999.2500     1.6711     0.2517
  714.5000  -999.2500     1.6583     0.2485
  715.0000  -999.2500     1.6456     0.2453
  715.5000  -999.2500     1.6328     0.2445
  716.0000  -999.2500     1.6200     0.2458
  716.5000  -999.2500     1.6073     0.2472
  717.0000  -999.2500     1.5945     0.2486
  717.5000  -999.2500     1.5817     0.2500
  718.0000  -999.2500     1.5690     0.2513
  718.5000  -999.2500     1.5562     0.2527
  719.0000  -999.2500     1.5434     0.2541
  719.5000  -999.2500     1.5307     0.2555
  720.0000  -999.2500     1.5179     0.2569
  720.5000  -999.2500     1.5052     0.2582
  721.0000  -999.2500     1.4924     0.2596
  721.5000  -999.2500     1.4796     0.2610
  722.0000  -999.2500     1.4669     0.2623
  722.5000  -999.2500     1.4541     0.2637
  723.0000  -999.2500     1.4413     0.2651
  723.5000  -999.2500     1.4286     0.2664
  724.0000  -999.2500     1.4158     0.2681
  724.5000  -999.2500     1.4030     0.2849
  725.0000  -999.2500     1.3903     0.3333
  725.5000  -999.2500     1.3775     0.3815
  726.0000  -999.2500     1.3648     0.4293
  726.5000  -999.2500     1.3520     0.4316
  727.0000  -999.2500     1.3392     0.4313
  727.5000  -999.2500     1.3265     0.4313
  728.0000  -999.2500     1.3137     0.4313
  728.5000  -999.2500     1.3009     0.4313
  729.0000  -999.2500     1.2881     0.4313
  729.5000  -999.2500     1.2752     0.4313
  730.0000  -999.2500     1.2629     0.4313
  730.5000  -999.2500     1.2701     0.4313
  731.0000  -999.2500     1.3429     0.4313
  731.5000  -999.2500     1.4129     0.4313
  732.0000  -999.2500     1.4827     0.4313
  732.5000  -999.2500     1.5526     0.4313
  733.0000  -999.2500     1.6224     0.4313
  733.5000  -999.2500     1.6923     0.4313
  734.0000  -999.2500     1.7621     0.4313
  734.5000  -999.2500     1.8320     0.4313
  735.0000  -999.2500     1.9018     0.4313
  735.5000  -999.2500     1.9717     0.4313
  736.0000  -999.2500     2.0415     0.4313
  736.5000  -999.2500     2.1114     0.4312
  737.0000  -999.2500     2.1818     0.4312
  737.5000  -999.2500     2.2528     0.4316
  738.0000  -999.2500     2.2463     0.4406
  738.5000  -999.2500     2.2345     0.4439
  739.0000  -999.2500     2.2230     0.4418
  739.5000  -999.2500     2.2116     0.4396
  740.0000  -999.2500     2.2002     0.4375
  740.5000  -999.2500     2.1888     0.4355
  741.0000  -999.2500     2.1775     0.4334
  741.5000  -999.2500     2.1661     0.4313
  742.0000  -999.2500     2.1547     0.4292
  742.5000  -999.2500     2.1433     0.4271
  743.0000  -999.2500     2.1320     0.4250
  743.5000  -999.2500     2.1206     0.4229
  744.0000  -999.2500     2.1092     0.4209
  744.5000  -999.2500     2.0978     0.4197
  745.0000  -999.2500     2.0865     0.3825
  745.5000  -999.2500     2.0751     0.3367
  746.0000  -999.2500     2.0637     0.2898
  746.5000  -999.2500     2.0523     0.2813
  747.0000  -999.2500     2.0409     0.2811
  747.5000  -999.2500     2.0296     0.2812
  748.0000  -999.2500     2.0182     0.2812
  748.5000  -999.2500     2.0068     0.2812
  749.0000  -999.2500     1.9954     0.2812
  749.5000  -999.2500     1.9841     0.2812
  750.0000  -999.2500     1.9727     0.2812
  750.5000  -999.2500     1.9613     0.2812
  751.0000  -999.2500     1.9499     0.2812
  751.5000  -999.2500     1.9385     0.2812
  752.0000  -999.2500     1.9272     0.2812
  752.5000  -999.2500     1.9158     0.2812
  753.0000  -999.2500     1.9044     0.2812
  753.5000  -999.2500     1.8930     0.2812
  754.0000  -999.2500     1.8816     0.2812
  754.5000  -999.2500     1.8703     0.2812
  755.0000  -999.2500     1.8589     0.2812
  755.5000  -999.2500     1.8475     0.2812
  756.0000  -999.2500     1.8361     0.2812
  756.5000  -999.2500     1.8248     0.2812
  757.0000  -999.2500     1.8134     0.2812
  757.5000  -999.2500     1.8020     0.2812
  758.0000  -999.2500     1.7906     0.2812
  758.5000  -999.2500     1.7793     0.2812
  759.0000  -999.2500     1.7678     0.2812
  759.5000  -999.2500     1.7564     0.2812
  760.0000  -999.2500     1.7548     0.2812
  760.5000  -999.2500     1.7547     0.2812
  761.0000  -999.2500     1.7587     0.2812
  761.5000  -999.2500     1.7631     0.2812
  762.0000  -999.2500     1.7676     0.2812
  762.5000  -999.2500     1.7720     0.2812
  763.0000  -999.2500     1.7764     0.2812
  763.5000  -999.2500     1.7809     0.2812
  764.0000  -999.2500     1.7853     0.2812
  764.5000  -999.2500     1.7897     0.2812
  765.0000  -999.2500     1.7942     0.2812
  765.5000  -999.2500     1.7986     0.2812
  766.0000  -999.2500     1.8030     0.2812
  766.5000  -999.2500     1.8075     0.2812
  767.0000  -999.2500     1.8119     0.2812
  767.5000  -999.2500     1.8163     0.2812
  768.0000  -999.2500     1.8208     0.2812
  768.5000  -999.2500     1.8252     0.2812
  769.0000  -999.2500     1.8296     0.2812
  769.5000  -999.2500     1.8341     0.2812
  770.0000  -999.2500     1.8385     0.2812
  770.5000  -999.2500     1.8429     0.2812
  771.0000  -999.2500     1.8474     0.2812
  771.5000  -999.2500     1.8518     0.2812
  772.0000  -999.2500     1.8562     0.2812
  772.5000  -999.2500     1.8607     0.2812
  773.0000  -999.2500     1.8651     0.2812
  773.5000  -999.2500     1.8695     0.2812
