~VERSION INFORMATION
 VERS.                2.0:   CWLS LOG ASCII STANDARD - VERSION 2.0
 WRAP.                 NO:   ONE LINE PER DEPTH STEP
~WELL INFORMATION
#MNEM.UNIT      DATA TYPE    INFORMATION
#----------   ------------   ------------------------------
 STRT.F            2.0000:   START DEPTH
 STOP.F          547.0000:   STOP DEPTH
 STEP.F            0.5000:   STEP LENGTH
 NULL.          -999.2500:   NO VALUE
 COMP. LAWRENCE/ALLISON INC:   COMPANY
 WELL. NPR # #3 68-61-SX-10:   WELL
 FLD .             TEAPOT:   FIELD
 LOC .      S10 T38N R78W:   LOCATION
 CNTY.            NATRONA:   COUNTY
 STAT.            WYOMING:   STATE
 CTRY. UNITED STATES OF AMERICA:   COUNTRY
 SRVC.           Gearhart:   SERVICE COMPANY
 DATE.        24-JUN-1987:   LOGDATE
 API .       490251114500:   API NUMBER
~CURVE INFORMATION
#MNEM.UNIT       API CODE    CURVE DESCRIPTION
#----------   ------------   ------------------------------
 DEPT.F                  :   
 GRR .GAPI   07 310 01 00:   GAMMA RAY FROM RES. LOG.
 RILD.OHMM   07 120 46 00:   INDUCTION LOG DEEP RESISTIVITY
 RILM.OHMM   07 120 44 00:   INDUCTION LOG MEDIUM RESISTIVITY
~PARAMETER INFORMATION
#MNEM.UNIT          VALUE    DESCRIPTION
#----------   ------------   ------------------------------
 PD  .                 GL:   PERMANENT DATUM
 EPD .F              5203:   ELEVATION PERMANENT DATUM
 LMF .                 KB:   LOG MEASURED FROM
 DAPD.F                 8:   FEET ABOVE PERMANENT DATUM
 DMF .                 KB:   DRILLING MEASURED FROM
 EKB .F              5211:   KELLING BUSHING
 EDF .F              5209:   DRILLING FLOOR
 EGL .F              5203:   GROUND LEVEL
 DATE.            6-24-87:   RUN DATE
 RUN .                  1:   RUN NUMBER
 DD  .F               565:   DEPTH DRILLER
 DL  .F               557:   DEPTH LOGGER
 BLI .F               549:   BOTTOM LOG INTERVAL
 TLI .F                48:   TOP LOG INTERVAL
 CS  .IN            8.625:   CASING SIZE
 CBD .F                50:   CASING BOTTOM DRILLER
 CBL .F                48:   CASING BOTTOM LOGGER
 BS  .IN             7.87:   BIT SIZE
 BSD .F               565:   BIT SIZE AT DEPTH
 DFT .                AIR:   DRILLING FLUID TYPE
 TCS .HRS            0715:   TIME CURCULATED STOPPED
 TLAB.HRS            0904:   TIME LOGGER AT BOTTOM
 LUN .               7597:   LOGGING UNIT NUMBER
 LUL .           GILLETTE:   LOGGING UNIT LOCATION
 ENGI.           JOHNSTON:   RECORDING ENGINEER
 CLNT.            A2DTECH:   CLIENT CODE
 ORIG.       2", 5" PRINT:   ORIGIN OF DATA
 UWI .       490251114500:   UNIQUE WELL ID
 DICO. A2D Technologies, Inc.:   DIGITIZING COMPANY
~OTHER INFORMATION
~A    DEPT      GRR      RILD       RILM   
# ...
   93.0000   110.4698     9.2665     8.9782
   93.5000   111.8855     9.4282     9.0854
   94.0000   113.4061     9.4265     9.1025
   94.5000   112.3641     9.5145     9.1181
   95.0000   111.1290     9.5145     9.1337
   95.5000   109.9099     9.5145     9.1493
   96.0000   108.8110     9.5145     9.1704
   96.5000   109.0412     9.5145     9.1620
   97.0000   109.4897     9.5143     9.1470
   97.5000   109.6983     9.5145     9.1319
   98.0000   110.1846     9.4633     9.1169
   98.5000   111.5811     9.3908     9.1019
   99.0000   112.9009     9.3188     9.0854
   99.5000   113.8009     9.2473     9.0854
  100.0000   113.4803     9.1764     8.9852
  100.5000   113.1957     9.1060     8.8950
  101.0000   112.5487     9.0362     8.8057
  101.5000   111.5371     8.9669     8.7174
  102.0000   110.4590     8.8897     8.6299
  102.5000   111.8213     8.7943     8.5433
  103.0000   114.1143     8.7000     8.4576
  103.5000   114.6420     8.6066     8.3727
  104.0000   113.6629     8.5143     8.2887
  104.5000   112.4977     8.4229     8.2055
  105.0000   113.2215     8.3613     8.1330
  105.5000   114.5326     8.4001     8.0548
  106.0000   115.3223     8.4304     8.0573
  106.5000   114.8052     8.5197     8.2168
  107.0000   113.1869     8.6332     8.3605
  107.5000   111.1849     8.7481     8.5170
  108.0000   109.3842     8.8645     8.5866
  108.5000   110.6646     8.9818     8.6621
  109.0000   112.5804     9.0930     8.7382
  109.5000   113.5008     9.1404     8.8149
  110.0000   114.4355     9.1895     8.8924
  110.5000   114.8892     9.2387     8.9705
  111.0000   113.5702     9.2881     9.0493
  111.5000   110.1733     9.3405     9.0854
  112.0000   108.2921     9.3587     9.0854
  112.5000   107.7004     9.3920     9.0854
  113.0000   107.1668     9.4269     9.0855
  113.5000   105.8248     9.4066     9.0852
  114.0000   104.3256     9.3847     9.0754
  114.5000   106.3990     9.3630     9.0649
  115.0000   108.7116     9.3413     9.0544
  115.5000   110.7703     9.3198     9.0440
  116.0000   111.1745     9.2982     9.0335
  116.5000   111.3618     9.2768     9.0232
  117.0000   110.7589     9.2547     9.0128
  117.5000   110.1630     9.3240     9.0020
  118.0000   109.5544     9.3960     9.0527
  118.5000   109.6344     9.4686     9.1191
  119.0000   109.6995     9.5420     9.1854
  119.5000   108.7852     9.6350     9.2547
  120.0000   107.4071     9.8193     9.4494
  120.5000   105.2029    10.0070     9.6537
  121.0000   103.2964    10.1984     9.8475
  121.5000   102.9705    10.3934    10.0218
  122.0000   104.1436    10.5921    10.1991
  122.5000   105.5878    10.7946    10.3796
  123.0000   106.9774    11.0010    10.5635
  123.5000   106.7423    11.2114    10.7481
  124.0000   104.8866    11.4257    10.9261
  124.5000   102.6814    11.6442    11.1816
  125.0000   101.4143    11.8669    11.4431
  125.5000   100.7229    12.0938    11.7108
  126.0000   100.5163    12.3250    11.9846
  126.5000   100.4138    12.5608    12.2649
  127.0000   100.3215    12.8008    12.5518
  127.5000   100.1138    13.0456    12.6982
  128.0000    97.4288    13.1979    12.8536
  128.5000    95.2907    13.2898    13.0110
  129.0000    94.2237    13.3822    13.1702
  129.5000    94.6853    13.5111    13.2640
  130.0000    95.6276    13.4468    13.1397
  130.5000    97.2105    13.3406    13.0187
  131.0000    98.2082    13.2361    12.8989
  131.5000    98.9018    13.1326    12.7802
  132.0000    98.5266    13.0299    12.6625
  132.5000    98.2932    12.9280    12.5460
  133.0000    98.5314    12.8269    12.4305
  133.5000    98.7631    12.7266    12.3161
  134.0000    99.0258    12.6270    12.2027
  134.5000    99.8401    12.5283    12.0946
  135.0000   100.5226    12.4344    12.2263
  135.5000    98.9705    12.4809    12.2569
  136.0000    97.3775    12.5270    12.2875
  136.5000    96.1856    12.5729    12.3183
  137.0000    96.8764    12.6189    12.3491
  137.5000    97.5747    12.6650    12.3800
  138.0000    96.9927    12.7113    12.4110
  138.5000    95.7847    12.7817    12.4342
  139.0000    95.7674    12.6237    12.2670
  139.5000    96.0113    12.4817    12.1106
  140.0000    95.1715    12.3346    11.9559
  140.5000    94.5559    12.1903    11.8034
  141.0000    94.6563    12.0478    11.6527
  141.5000    97.5299    11.9070    11.5040
  142.0000   100.7820    11.7679    11.3572
  142.5000   101.8259    11.6304    11.2525
  143.0000   101.4614    11.4944    11.1547
  143.5000   100.0328    11.3601    11.0578
  144.0000    98.4439    11.2272    10.9618
  144.5000    97.0095    11.0962    10.8666
  145.0000    97.0114    11.0093    10.7722
  145.5000    95.8942    10.9705    10.6786
  146.0000    94.6566    10.9316    10.5859
  146.5000    93.8479    10.8616    10.4939
  147.0000    95.7282    10.7880    10.4028
  147.5000    98.1086    10.7149    10.3270
  148.0000    99.6218    10.6423    10.2872
  148.5000    98.7199    10.5702    10.2477
  149.0000    98.0954    10.4985    10.2083
  149.5000    97.9411    10.4343    10.1690
  150.0000    97.7297    10.4007    10.1298
  150.5000    96.5580    10.3385    10.0911
  151.0000    95.4124    10.3484    10.0564
  151.5000    94.2510    10.3624    10.0929
  152.0000    93.4030    10.3765    10.1262
  152.5000    93.6466    10.3907    10.1601
  153.0000    93.9527    10.4048    10.1934
  153.5000    94.0533    10.4193    10.2435
  154.0000    93.4951    10.4349    10.0634
  154.5000    93.6344    10.2392     9.7956
  155.0000    94.0065     9.9720     9.5145
  155.5000    94.9300     9.7118     9.3018
  156.0000    96.4437     9.4584     9.0761
  156.5000    97.8252     9.2118     8.8559
  157.0000    97.8062     8.9716     8.6410
  157.5000    98.3099     8.7377     8.4314
  158.0000   100.3704     8.5078     8.2276
  158.5000   101.4921     8.3589     8.1308
  159.0000   100.0557     8.4976     8.1317
  159.5000    98.7517     8.6209     8.3770
  160.0000    98.3292     8.7459     8.5400
  160.5000   100.6392     8.8723     8.7061
  161.0000   102.8706     9.0016     8.9210
  161.5000   103.4143     9.0847     8.9206
  162.0000   102.9381     9.0576     8.8990
  162.5000   102.4973     9.0363     8.8809
  163.0000   102.0615     9.0149     8.8630
  163.5000   101.6216     9.0010     8.8373
  164.0000   101.2987     9.0850     8.8922
  164.5000   101.0551     9.2385     8.9935
  165.0000   101.2383     9.3942     9.0956
  165.5000   101.5716     9.5524     9.1988
  166.0000   102.2643     9.7133     9.3031
  166.5000   104.1423     9.8768     9.4086
  167.0000   106.0460    10.0431     9.5153
  167.5000   108.0284    10.1494     9.6232
  168.0000   109.8072    10.0550     9.6917
  168.5000   108.3872     9.9586     9.5806
  169.0000   106.7287     9.8632     9.5145
  169.5000   106.9463     9.7686     9.4271
  170.0000   107.6759     9.6917     9.4399
  170.5000   107.1396     9.6973     9.4506
  171.0000   104.6198     9.7283     9.4618
  171.5000   101.9426     9.7594     9.4727
  172.0000    99.2839     9.7905     9.4836
  172.5000    97.4564     9.8218     9.4946
  173.0000   101.3934     9.8532     9.5057
  173.5000   105.2335     9.8723     9.5142
  174.0000   107.0465     9.7266     9.3880
  174.5000   105.2479     9.6234     9.2835
  175.0000   103.0379     9.5212     9.1799
  175.5000   100.9287     9.4202     9.0776
  176.0000    99.5482     9.3202     8.9764
  176.5000   100.8964     9.2213     8.8764
  177.0000   102.4125     9.1234     8.8281
  177.5000   103.9291     9.0622     8.8054
  178.0000   105.0250     9.0242     8.7828
  178.5000   103.5192     8.9863     8.7603
  179.0000   101.9791     8.9486     8.6774
  179.5000   100.6435     8.9111     8.5816
  180.0000   102.2407     8.8737     8.4869
  180.5000   103.7775     8.8373     8.3933
  181.0000   105.3235     8.6106     8.3006
  181.5000   104.6128     8.3944     8.1234
  182.0000   102.9735     8.1836     7.9322
  182.5000   101.5865     7.9781     7.7455
  183.0000   101.4034     7.7778     7.5632
  183.5000   101.8003     7.5825     7.3852
