~VERSION INFORMATION
 VERS.                2.0:   CWLS LOG ASCII STANDARD - VERSION 2.0
 WRAP.                 NO:   ONE LINE PER DEPTH STEP
~WELL INFORMATION
#MNEM.UNIT      DATA TYPE    INFORMATION
#----------   ------------   ------------------------------
 STRT.F            0.0000:   START DEPTH
 STOP.F         1283.5000:   STOP DEPTH
 STEP.F            0.5000:   STEP LENGTH
 NULL.          -999.2500:   NO VALUE
 COMP.      U.S. NAVY NPR:   COMPANY
 WELL. NAVAL PETROLEUM RESERVE 3 ST-11 #88-11:   WELL
 FLD .             TEAPOT:   FIELD
 LOC .      S11 T38N R78W:   LOCATION
 CNTY.            NATRONA:   COUNTY
 STAT.            WYOMING:   STATE
 CTRY. UNITED STATES OF AMERICA:   COUNTRY
 SRVC.       Schlumberger:   SERVICE COMPANY
 DATE.        01-NOV-1958:   LOGDATE
 API .       490250632600:   API NUMBER
~CURVE INFORMATION
#MNEM.UNIT       API CODE    CURVE DESCRIPTION
#----------   ------------   ------------------------------
 DEPT.F                  :   
 GRN .GAPI   35 310 01 00:   GAMMA RAY
 NEUT.NAPI   35 330 01 00:   NEUTRON
 ASN .OHMM   01 041 16 00:   AMPLIFIED SHORT NORMAL
 LAT .OHMM   01 070 18 00:   LATERAL 18"
 LN  .OHMM   01 060 64 00:   LONG NORMAL 64"
 SPR .MV     01 010 01 00:   SPONTANEOUS POTENTIAL
 CALM.IN     15 280 01 00:   CALIPER FROM MICRO LOG
~PARAMETER INFORMATION
#MNEM.UNIT          VALUE    DESCRIPTION
#----------   ------------   ------------------------------
 LMF .                 KB:   LOG MEASURED FROM
 DMF .                 KB:   DRILLING MEASURED FROM
 EKB .F              5289:   KELLING BUSHING
 EGL .F              5279:   GROUND LEVEL
 DATE.        01-NOV-1958:   RUN DATE
 RUN .                  1:   RUN NUMBER
 DD  .F              1280:   DEPTH DRILLER
 DL  .F              1283:   DEPTH LOGGER
 BLI .F              1282:   BOTTOM LOG INTERVAL
 TLI .F               150:   TOP LOG INTERVAL
 CBD .F                45:   CASING BOTTOM DRILLER
 BS  .IN            7.875:   BIT SIZE
 BSD .F              1280:   BIT SIZE AT DEPTH
 DFT .                GEL:   DRILLING FLUID TYPE
 DFD .                9.1:   DRILLING FLUID DENSITY
 DFV .                 63:   DRILLING FLUID VISCOSITY
 DFL .                2.1:   DRILLING FLUID LOSS
 RMS .OHMM            2.4:   RESISTIVITY MUD SAMPLE
 MST .F                56:   MUD SAMPLE TEMPERATURE
 RMF .OHMM           1.45:   RESISTIVITY MUD FILTRATE SAMPLE
 MFST.F                79:   MUD FILTRATE SAMPLE TEMPERATURE
 RMC .OHMM            1.7:   RESISTIVITY MUD CAKE
 MCST.F                79:   MUD CAKE SAMPLE TEMPERATURE
 MFSS.               MEAS:   MUD FILTRATE SAMPLE SOURCE
 MCSS.               MEAS:   MUD CAKE SAMPLE SOURCE
 RMB .OHMM            1.6:   RESISTIVITY MUD AT BHT
 BHT .F                79:   BOTTOM HOLE TEMPERATURE
 TCS .HRS               1:   TIME CURCULATED STOPPED
 MRT .F                79:   MAXIMUM RECORDED TEMPERATURE
 LUN .               2544:   LOGGING UNIT NUMBER
 LUL .                 NC:   LOGGING UNIT LOCATION
 ENGI.            EARNEST:   RECORDING ENGINEER
 WITN.             MARTIN:   WITNESSED BY
 CLNT.            A2DTECH:   CLIENT CODE
 ORIG.         2.5" PRINT:   ORIGIN OF DATA
 UWI .       490250632600:   UNIQUE WELL ID
 DICO. A2D Technologies, Inc.:   DIGITIZING COMPANY
~OTHER INFORMATION
~A    DEPT       GRN     NEUT        ASN        LAT         LN        SPR       CALM   
# ...
  273.0000     4.3872   334.9200     7.9944     7.0911     6.5152   -12.1320     8.1251
  273.5000     4.4890   315.9883     7.6143     7.0931     6.5179   -11.8517     8.1260
  274.0000     4.5651   303.1441     7.5603     7.0951     6.6565   -11.8431     8.1268
  274.5000     4.4359   303.0706     7.5064     6.9612     6.6592   -11.5646     8.1276
  275.0000     4.4300   303.3878     7.3438     6.9633     6.6619   -11.5578     8.1284
  275.5000     4.5338   304.0894     7.1812     6.9488     6.6645   -11.5509     8.1564
  276.0000     4.4527   307.0239     6.8011     6.8098     6.6672   -11.8182     8.1572
  276.5000     4.3317   309.2196     6.6657     6.6975     6.5338   -11.8108     8.1580
  277.0000     4.6335   289.0251     6.4758     6.6997     6.5366   -11.8040     8.1589
  277.5000     4.8496   274.8013     6.2860     6.6644     6.4033   -12.0716     8.1598
  278.0000     4.6924   261.3239     6.1505     6.5676     6.4060   -12.0638     8.1606
  278.5000     4.6474   265.9416     6.0141     6.6178     6.2727   -12.0570     8.1614
  279.0000     4.7991   268.7948     5.9037     6.7079     6.2583   -11.7766     8.1622
  279.5000     4.9525   269.4037     5.8231     6.8458     6.1421   -11.7698     8.1902
  280.0000     5.0640   275.6237     5.7717     6.9837     6.1450   -12.0365     8.1910
  280.5000     4.9383   286.4795     5.7403     7.0543     6.1477   -12.0296     8.1918
  281.0000     4.6016   282.9635     5.7182     7.1236     6.1133   -12.2964     8.1926
  281.5000     4.4405   265.6155     5.6642     7.2047     6.0168   -12.5631     8.1934
  282.0000     4.4248   263.7870     5.6374     7.2640     6.0199   -12.5550     8.1920
  282.5000     4.6384   285.5418     5.6379     7.1301     5.9705   -12.5482     8.1642
  283.0000     4.7373   293.7082     5.6383     7.1321     5.8894   -12.5415     8.1414
  283.5000     4.9963   301.1283     5.6387     7.1341     5.8921   -12.8093     8.1150
  284.0000     5.1176   296.6070     5.6511     7.0002     5.8949   -12.8017     8.1159
  284.5000     5.2163   296.3895     5.7069     6.8664     5.8976   -12.5214     8.0894
  285.0000     4.9731   300.2521     5.8179     6.7323     5.9003   -12.2411     8.0903
  285.5000     5.2720   309.1649     5.9694     6.7345     5.7676   -12.2344     8.0911
  286.0000     5.0110   298.7700     6.1300     6.7365     5.7703   -11.6806     8.1329
  286.5000     5.2936   289.3232     6.1847     6.7385     5.7729   -11.4003     8.1744
  287.0000     5.3874   286.6447     6.2395     6.7405     5.9116   -11.3936     8.2025
  287.5000     5.1825   307.4990     6.2670     6.7425     5.9142   -11.3754     8.2577
  288.0000     5.0662   292.7598     6.3218     6.7446     5.9169   -11.1064     8.2585
  288.5000     4.9451   281.2812     6.3494     6.7466     5.9196   -11.0995     8.2865
  289.0000     4.7441   293.5286     6.3226     6.7486     6.0582   -11.0927     8.2873
  289.5000     4.7030   301.2458     6.2958     6.7507     6.0609   -11.0859     8.2609
  290.0000     4.7219   285.6169     6.2419     6.7527     6.0635   -11.4164     8.2345
  290.5000     4.9209   307.9639     6.1607     6.7548     6.2022   -11.6936     8.1809
  291.0000     4.7181   325.8328     6.1068     6.7568     6.3408   -12.1606     8.1262
  291.5000     4.6587   331.0139     6.0245     6.7115     6.3435   -12.2480     8.0984
  292.0000     4.5627   314.5511     5.9446     6.6246     6.3462   -12.5252     8.0745
  292.5000     4.5823   305.4775     5.9475     6.4912     6.3489   -12.6862     8.0754
  293.0000     4.7418   322.0562     6.0033     6.3573     6.3517   -12.9529     8.0762
  293.5000     4.8784   324.1236     6.0591     6.4275     6.4903   -12.8088     8.0770
  294.0000     4.9175   317.3632     6.1420     6.5707     6.4931   -12.6657     8.0778
  294.5000     4.8248   325.5193     6.2317     6.6352     6.4958   -12.6588     8.0899
  295.0000     4.9308   333.8883     6.3623     6.7735     6.4985   -12.3771     8.1066
  295.5000     5.1099   335.8918     6.4899     7.0472     6.5012   -12.3704     8.1075
  296.0000     5.0487   329.3207     6.6120     7.1851     6.5039   -12.0902     8.1083
  296.5000     4.9076   335.0476     6.7904     7.3230     6.5066   -12.0834     8.0821
  297.0000     4.8950   329.7696     7.0678     7.3250     6.5094   -12.0767     8.0557
  297.5000     5.1055   318.5311     7.3567     7.3270     6.5121   -11.7965     8.0565
  298.0000     5.1844   315.5025     7.7172     7.4648     6.5148   -11.7898     8.0572
  298.5000     5.0434   318.4445     7.6684     7.4668     6.5175   -11.7830     8.0580
  299.0000     5.3774   324.3719     7.4351     7.3330     6.5208   -11.7711     8.0588
  299.5000     5.4012   334.0311     7.2279     7.3350     6.5235   -12.0412     8.0596
  300.0000     4.9133   334.7342     7.0925     7.0652     6.5261   -12.3107     8.0604
  300.5000     5.1999   327.8194     6.9026     6.7955     6.5288   -12.4090     8.0612
  301.0000     5.2692   321.4466     6.7943     6.6616     6.5315   -12.8489     8.0621
  301.5000     5.1238   314.7359     6.7132     6.5277     6.6701   -12.9716     8.0629
  302.0000     5.1004   326.3839     6.7136     6.6658     6.6728   -13.1143     8.0637
  302.5000     5.0143   333.8149     6.7412     6.6678     6.6754   -13.3837     8.0645
  303.0000     5.0252   344.2312     6.8231     6.6698     6.6781   -13.3788     8.0653
  303.5000     5.1294   358.3793     6.9050     6.8077     6.6808   -13.3748     8.0661
  304.0000     5.0569   342.6737     7.0957     6.8098     6.6834   -13.3708     8.0663
  304.5000     5.1778   338.1632     7.2604     6.9477     6.6861   -13.3668     8.0639
  305.0000     5.1987   336.6373     7.4511     6.9497     6.8248   -13.0892     8.0615
  305.5000     4.9838   342.4637     7.5365     7.0091     6.8275   -13.0852     8.0592
  306.0000     4.7151   350.1486     7.6783     7.1522     6.8447   -12.8076     8.0568
  306.5000     4.6681   352.0568     7.8947     7.2953     6.9884   -12.8036     8.0544
  307.0000     4.8744   362.3963     7.9405     7.3655     7.1076   -12.5260     8.0521
  307.5000     4.9140   364.0906     7.9681     7.5034     7.2462   -12.2484     8.0497
  308.0000     4.8715   358.1095     7.9957     7.5058     7.2834   -12.2371     8.0473
  308.5000     4.7932   355.3183     7.9788     7.5078     7.3876   -11.9476     8.0469
  309.0000     4.7328   349.7967     7.8956     7.5098     7.5263   -11.6891     8.0479
  309.5000     4.7924   341.5545     7.7959     7.5118     7.6650   -12.0014     8.0759
  310.0000     4.6920   337.7904     7.7409     7.3777     7.7221   -12.2827     8.0767
  310.5000     4.7317   351.1921     7.7131     7.3800     7.8063   -12.7715     8.0504
  311.0000     4.7041   355.6377     7.6992     7.3820     7.8091   -12.7669     8.0241
  311.5000     4.6536   353.3663     7.7145     7.3840     7.8118   -12.3989     8.0249
  312.0000     4.5800   351.8412     7.7705     7.3859     7.7402   -12.2115     8.0257
  312.5000     4.4350   354.6057     7.9216     7.5238     7.5453   -12.2074     7.9993
  313.0000     4.5295   364.4233     8.0727     7.6617     7.2766   -12.4769     8.0001
  313.5000     4.7091   390.3130     8.2004     7.6685     7.0074   -12.7464     8.0009
  314.0000     4.6088   399.4867     8.2710     7.8016     6.8741   -13.0158     8.0289
  314.5000     4.4618   395.9266     8.4144     7.9547     6.6049   -13.1731     8.0330
  315.0000     4.6280   384.9133     8.7582     8.2337     6.4716   -13.2812     8.0602
  315.5000     4.6502   376.0703     8.7585     8.4871     6.4743   -13.2764     8.0857
  316.0000     4.8720   373.2252     8.5685     8.6250     6.4770   -12.9988     8.0865
  316.5000     4.8029   380.6404     8.6775     8.7989     6.4799   -12.9948     8.0974
  317.0000     4.8065   383.5934     8.6830     8.9005     6.6185   -12.7172     8.1153
  317.5000     4.7310   385.0562     8.3791     8.4488     6.7572   -12.7132     8.1295
  318.0000     4.4659   375.7433     8.1076     8.0380     6.8958   -12.1621     8.1442
