~VERSION INFORMATION
 VERS.                2.0:   CWLS LOG ASCII STANDARD - VERSION 2.0
 WRAP.                 NO:   ONE LINE PER DEPTH STEP
~WELL INFORMATION
#MNEM.UNIT      DATA TYPE    INFORMATION
#----------   ------------   ------------------------------
 STRT.F           36.5000:   START DEPTH
 STOP.F          476.0000:   STOP DEPTH
 STEP.F            0.5000:   STEP LENGTH
 NULL.          -999.2500:   NO VALUE
 COMP. LAWRENCE/ALLISON INC:   COMPANY
 WELL.    54-36 SXFO #3-3:   WELL
 FLD .            WILDCAT:   FIELD
 LOC .       S3 T38N R78W:   LOCATION
 CNTY.            NATRONA:   COUNTY
 STAT.            WYOMING:   STATE
 CTRY. UNITED STATES OF AMERICA:   COUNTRY
 SRVC.      Dresser Atlas:   SERVICE COMPANY
 DATE.        09-DEC-1983:   LOGDATE
 API .       490251095500:   API NUMBER
~CURVE INFORMATION
#MNEM.UNIT       API CODE    CURVE DESCRIPTION
#----------   ------------   ------------------------------
 DEPT.F                  :   
 GRD .GAPI   45 310 01 00:   GAMMA RAY FROM DENSITY LOG
 PORD.DEC    45 890 12 00:   POROSITY DENSITY SANDSTONE
 DEN .G/C3   45 350 01 00:   COMPENSATED BULK DENSTIY
 CORR.G/C3   45 356 01 00:   DENSITY CORRECTION
 CALD.IN     45 280 60 00:   CALIPER
 RFOC.OHMM   07 220 04 00:   RESISTIVITY FOCUSED LOG
 RILD.OHMM   07 120 46 00:   INDUCTION LOG DEEP RESISTIVITY
 RILM.OHMM   07 120 44 00:   INDUCTION LOG MEDIUM RESISTIVITY
~PARAMETER INFORMATION
#MNEM.UNIT          VALUE    DESCRIPTION
#----------   ------------   ------------------------------
 PD  .                 GL:   PERMANENT DATUM
 EPD .F              5166:   ELEVATION PERMANENT DATUM
 LMF .                 KB:   LOG MEASURED FROM
 DAPD.F                10:   FEET ABOVE PERMANENT DATUM
 DMF .                 KB:   DRILLING MEASURED FROM
 EKB .F              5176:   KELLING BUSHING
 EGL .F              5166:   GROUND LEVEL
 DATE.            12-9-83:   RUN DATE
 RUN .                  1:   RUN NUMBER
 DD  .F               478:   DEPTH DRILLER
 DL  .F               475:   DEPTH LOGGER
 BLI .F               473:   BOTTOM LOG INTERVAL
 TLI .F                44:   TOP LOG INTERVAL
 CBD .F                40:   CASING BOTTOM DRILLER
 CBL .F                44:   CASING BOTTOM LOGGER
 BS  .IN             8.75:   BIT SIZE
 BSD .F               478:   BIT SIZE AT DEPTH
 DFT .           AIR FOAM:   DRILLING FLUID TYPE
 MRT .F               100:   MAXIMUM RECORDED TEMPERATURE
 LUN .               6307:   LOGGING UNIT NUMBER
 LUL .               GLTE:   LOGGING UNIT LOCATION
 ENGI.            DEYOUNG:   RECORDING ENGINEER
 WITN.             GROOMS:   WITNESSED BY
 CLNT.            A2DTECH:   CLIENT CODE
 ORIG.       2", 5" PRINT:   ORIGIN OF DATA
 UWI .       490251095500:   UNIQUE WELL ID
 DICO. A2D Technologies, Inc.:   DIGITIZING COMPANY
~OTHER INFORMATION
~A   DEPT       GRD      PORD        DEN       CORR       CALD       RFOC       RILD       RILM   
# ...
  320.0000    71.6429     0.2389     2.2790     0.0037     9.2728  -999.2500    20.4208    19.2259
  320.5000    71.9861     0.2460     2.2674    -0.0037     9.2697  -999.2500    20.5451    19.7256
  321.0000    72.2369     0.2530     2.2555    -0.0065     9.2666  -999.2500    20.6552    19.6919
  321.5000    73.4865     0.2548     2.2542    -0.0128     9.2635  -999.2500    20.4832    19.6276
  322.0000    75.9383     0.2429     2.2679    -0.0301     9.2603  -999.2500    20.3307    19.5610
  322.5000    77.4084     0.2292     2.2945    -0.0477     9.2572  -999.2500    20.1793    19.4631
  323.0000    73.8677     0.2299     2.2858    -0.0517     9.2541  -999.2500    20.0290    19.3126
  323.5000    70.8644     0.2411     2.2728    -0.0146     9.2509  -999.2500    19.8798    19.1881
  324.0000    67.8311     0.2489     2.2574     0.0325     9.2478  -999.2500    19.7318    19.0165
  324.5000    64.8683     0.2508     2.2679     0.0154     9.2447  -999.2500    19.5848    18.7966
  325.0000    65.2181     0.2393     2.2850    -0.0005     9.2416  -999.2500    19.4389    18.5793
  325.5000    70.0534     0.2282     2.3022    -0.0001     9.2384  -999.2500    19.2942    18.3645
  326.0000    72.3657     0.2172     2.3195     0.0148     9.2353  -999.2500    19.1505    18.1520
  326.5000    73.4689     0.2062     2.3368     0.0303     9.2322  -999.2500    19.0121    17.9564
  327.0000    75.7772     0.1951     2.3524     0.0203     9.2290  -999.2500    18.6897    17.8093
  327.5000    78.0961     0.1946     2.3506     0.0060     9.2259  -999.2500    18.3818    17.6638
  328.0000    79.2814     0.2033     2.3374    -0.0063     9.2228  -999.2500    18.1564    17.4997
  328.5000    77.9000     0.2106     2.3229    -0.0003     9.2196  -999.2500    18.2451    17.5302
  329.0000    76.5879     0.2144     2.3225     0.0058     9.2165  -999.2500    18.3157    17.5657
  329.5000    75.6041     0.2135     2.3282     0.0119     9.2164  -999.2500    18.3871    17.6012
  330.0000    76.5589     0.2033     2.3457     0.0177     9.2164  -999.2500    18.4585    17.6369
  330.5000    78.4370     0.1940     2.3622     0.0090     9.2164  -999.2500    18.5299    17.6849
  331.0000    80.2796     0.1899     2.3615    -0.0006     9.2164  -999.2500    18.6017    17.9008
  331.5000    80.7657     0.1946     2.3527    -0.0003     9.2164  -999.2500    18.7066    18.1194
  332.0000    81.2176     0.2003     2.3439     0.0125     9.2164  -999.2500    19.0362    18.3406
  332.5000    82.4055     0.2053     2.3357     0.0257     9.2164  -999.2500    19.3711    18.6651
  333.0000    83.6069     0.2065     2.3320     0.0227     9.2164  -999.2500    19.7256    18.5281
  333.5000    84.3833     0.2085     2.3281     0.0155     9.2164  -999.2500    19.4898    18.2835
  334.0000    83.7896     0.2113     2.3238     0.0083     9.2164  -999.2500    19.2472    18.0421
  334.5000    80.7595     0.2139     2.3196     0.0012     9.2164  -999.2500    19.0077    17.8039
  335.0000    78.0608     0.2166     2.3153    -0.0009     9.2164  -999.2500    18.7712    17.5689
  335.5000    77.9958     0.2192     2.3109     0.0025     9.2164  -999.2500    18.5376    17.3365
  336.0000    77.8644     0.2170     2.3147     0.0142     9.2164  -999.2500    18.4062    17.1090
  336.5000    77.7268     0.2149     2.3199     0.0330     9.2164  -999.2500    18.2640    16.9805
  337.0000    77.5889     0.2127     2.3238     0.0407     9.2164  -999.2500    18.1230    16.8866
  337.5000    77.4507     0.2120     2.3246     0.0422     9.2164  -999.2500    17.9830    16.7915
  338.0000    77.3116     0.2106     2.3256     0.0363     9.2164  -999.2500    17.8442    16.6971
  338.5000    77.1532     0.2083     2.3298     0.0294     9.2164  -999.2500    17.7064    16.6033
  339.0000    77.8536     0.2061     2.3339     0.0157     9.2164  -999.2500    17.5697    16.5099
  339.5000    78.6192     0.2058     2.3357     0.0016     9.2164  -999.2500    17.4340    16.4171
  340.0000    78.5392     0.2074     2.3304    -0.0116     9.2164  -999.2500    17.2994    16.3904
  340.5000    77.8068     0.2094     2.3269    -0.0058     9.2164  -999.2500    17.1743    16.3719
  341.0000    77.0750     0.2086     2.3293     0.0007     9.2164  -999.2500    17.1193    16.3533
  341.5000    76.6076     0.2078     2.3317     0.0061     9.2164  -999.2500    17.0644    16.3348
  342.0000    77.1702     0.2076     2.3334     0.0051     9.2164  -999.2500    17.0098    16.3162
  342.5000    77.7264     0.2103     2.3283     0.0043     9.2164  -999.2500    16.9553    16.2978
  343.0000    78.2855     0.2138     2.3230     0.0048     9.2164  -999.2500    16.9010    16.2793
  343.5000    78.2629     0.2150     2.3183     0.0064     9.2164  -999.2500    16.8667    16.2577
  344.0000    78.1822     0.2124     2.3233     0.0079     9.2164  -999.2500    16.8915    16.2720
  344.5000    79.1470     0.2068     2.3314     0.0047     9.2164  -999.2500    16.9128    16.2918
  345.0000    79.8259     0.2013     2.3438     0.0011     9.2164  -999.2500    16.9340    16.3119
  345.5000    79.0734     0.1962     2.3520    -0.0023     9.2164  -999.2500    16.9553    16.3319
  346.0000    79.0196     0.1955     2.3486    -0.0019     9.2165  -999.2500    16.9766    16.3518
  346.5000    78.8889     0.1971     2.3455     0.0044     9.2253  -999.2500    16.9979    16.3717
  347.0000    77.5481     0.1992     2.3424     0.0235     9.2349  -999.2500    17.0214    16.3923
  347.5000    76.2530     0.2013     2.3396     0.0454     9.2444  -999.2500    16.9858    16.4059
  348.0000    76.9870     0.2021     2.3395     0.0587     9.2544  -999.2500    16.9420    16.2966
  348.5000    79.8684     0.2003     2.3432     0.0551     9.2529  -999.2500    16.8983    16.2086
  349.0000    82.0170     0.1985     2.3484     0.0421     9.2479  -999.2500    16.8547    16.1211
  349.5000    80.8259     0.1983     2.3465     0.0325     9.2429  -999.2500    16.8114    16.0340
  350.0000    79.6962     0.2002     2.3447     0.0338     9.2377  -999.2500    16.7682    15.9474
  350.5000    80.6287     0.2018     2.3428     0.0242     9.2404  -999.2500    16.7247    15.8613
  351.0000    83.4069     0.1973     2.3494     0.0151     9.2531  -999.2500    16.5888    15.7757
  351.5000    85.5390     0.1919     2.3585     0.0114     9.2656  -999.2500    16.4161    15.6905
  352.0000    82.9602     0.1864     2.3677     0.0296     9.2782  -999.2500    16.2453    15.6058
  352.5000    82.4661     0.1809     2.3768     0.0397     9.2907  -999.2500    16.0763    15.5215
  353.0000    82.8822     0.1754     2.3862     0.0234     9.2927  -999.2500    15.9090    15.4377
  353.5000    82.4402     0.1742     2.3875     0.0049     9.2811  -999.2500    15.7434    15.2567
  354.0000    80.5396     0.1801     2.3769     0.0009     9.2695  -999.2500    15.5163    14.8924
  354.5000    78.6514     0.1873     2.3659     0.0059     9.2578  -999.2500    15.2405    14.5367
  355.0000    76.7962     0.1947     2.3547     0.0164     9.2462  -999.2500    14.9696    14.1896
  355.5000    75.7569     0.1931     2.3543     0.0228     9.2362  -999.2500    14.7036    13.8507
  356.0000    76.4465     0.1885     2.3593     0.0304     9.2365  -999.2500    14.4422    13.7389
  356.5000    76.4572     0.1806     2.3777     0.0384     9.2365  -999.2500    14.1855    13.6946
  357.0000    76.2512     0.1727     2.3961     0.0380     9.2365  -999.2500    14.0200    13.6503
  357.5000    80.0647     0.1682     2.4021     0.0295     9.2365  -999.2500    13.9701    13.6063
  358.0000    84.3541     0.1721     2.3946     0.0140     9.2365  -999.2500    13.9204    13.5624
  358.5000    84.8370     0.1770     2.3852     0.0006     9.2365  -999.2500    13.8709    13.5187
  359.0000    82.9408     0.1822     2.3759     0.0103     9.2365  -999.2500    13.8215    13.4750
  359.5000    81.0662     0.1830     2.3720     0.0202     9.2365  -999.2500    13.7731    13.4316
  360.0000    79.1999     0.1800     2.3788     0.0259     9.2365  -999.2500    13.6195    13.3649
