~VERSION INFORMATION
 VERS.                2.0:   CWLS LOG ASCII STANDARD - VERSION 2.0
 WRAP.                 NO:   ONE LINE PER DEPTH STEP
~WELL INFORMATION
#MNEM.UNIT      DATA TYPE    INFORMATION
#----------   ------------   ------------------------------
 STRT.F           86.5000:   START DEPTH
 STOP.F         1282.0000:   STOP DEPTH
 STEP.F            0.5000:   STEP LENGTH
 NULL.          -999.2500:   NO VALUE
 COMP.      UNITED STATES:   COMPANY
 WELL.             NPR #3:   WELL
 FLD .        TEAPOT DOME:   FIELD
 LOC .      S14 T38N R78W:   LOCATION
 CNTY.            NATRONA:   COUNTY
 STAT.            WYOMING:   STATE
 CTRY. UNITED STATES OF AMERICA:   COUNTRY
 SRVC.       Schlumberger:   SERVICE COMPANY
 DATE.        06-JUL-1962:   LOGDATE
 API .       490250631800:   API NUMBER
~CURVE INFORMATION
#MNEM.UNIT       API CODE    CURVE DESCRIPTION
#----------   ------------   ------------------------------
 DEPT.F                  :   
 SPR .MV     05 010 01 00:   SPONTANEOUS POTENTIAL FROM RES.
 CILD.MMHO   05 110 00 00:   CONDUCTIVITY INDUCTION LOG
 ASN .OHMM   05 041 16 00:   AMPLIFIED SHORT NORMAL 16"
 ILD .OHMM   05 120 46 00:   INDUCTION LOG DEEP
 GR  .GAPI   30 310 01 00:   GAMMA RAY
~PARAMETER INFORMATION
#MNEM.UNIT          VALUE    DESCRIPTION
#----------   ------------   ------------------------------
 PD  .                 GL:   PERMANENT DATUM
 EPD .F              5288:   ELEVATION PERMANENT DATUM
 LMF .                 KB:   LOG MEASURED FROM
 DAPD.F                 5:   FEET ABOVE PERMANENT DATUM
 DMF .                 KB:   DRILLING MEASURED FROM
 EKB .F              5293:   KELLING BUSHING
 EGL .F              5288:   GROUND LEVEL
 DATE.             7-6-62:   RUN DATE
 RUN .                  1:   RUN NUMBER
 DD  .F              1286:   DEPTH DRILLER
 DL  .F              1283:   DEPTH LOGGER
 BLI .F              1282:   BOTTOM LOG INTERVAL
 TLI .F                87:   TOP LOG INTERVAL
 CBD .F                10:   CASING BOTTOM DRILLER
 BS  .IN             6.75:   BIT SIZE
 BSD .F              1286:   BIT SIZE AT DEPTH
 DFT .            GEL-OIL:   DRILLING FLUID TYPE
 DFD .               10.3:   DRILLING FLUID DENSITY
 DFV .                 53:   DRILLING FLUID VISCOSITY
 DFL .                3.6:   DRILLING FLUID LOSS
 MSS .           FLOWLINE:   MUD SAMPLE SOURCE
 RMS .OHMM           5.66:   RESISTIVITY MUD SAMPLE
 MST .F                78:   MUD SAMPLE TEMPERATURE
 RMF .OHMM           5.59:   RESISTIVITY MUD FILTRATE SAMPLE
 MFST.F                78:   MUD FILTRATE SAMPLE TEMPERATURE
 RMC .OHMM           4.47:   RESISTIVITY MUD CAKE
 MCST.F                78:   MUD CAKE SAMPLE TEMPERATURE
 MFSS.                  M:   MUD FILTRATE SAMPLE SOURCE
 MCSS.                  M:   MUD CAKE SAMPLE SOURCE
 RMB .OHMM           5.08:   RESISTIVITY MUD AT BHT
 BHT .F                88:   BOTTOM HOLE TEMPERATURE
 TCS .HRS               1:   TIME CURCULATED STOPPED
 MRT .F                88:   MAXIMUM RECORDED TEMPERATURE
 LUN .               2503:   LOGGING UNIT NUMBER
 LUL .               CSPR:   LOGGING UNIT LOCATION
 ENGI.             KNOBEL:   RECORDING ENGINEER
 WITN.          JORGENSEN:   WITNESSED BY
 CLNT.            A2DTECH:   CLIENT CODE
 ORIG.       2", 5" PRINT:   ORIGIN OF DATA
 UWI .       490250631800:   UNIQUE WELL ID
 DICO. A2D Technologies, Inc.:   DIGITIZING COMPANY
~OTHER INFORMATION
~A   DEPT      SPR       CILD        ASN        ILD         GR   
# ...
  147.5000   -43.5247   148.8828     7.0663     6.7354  -999.2500
  148.0000   -43.5284   145.1675     7.3088     6.9335  -999.2500
  148.5000   -43.4099   141.4519     7.4369     7.1296  -999.2500
  149.0000   -43.2444   137.7345     7.1172     7.1533  -999.2500
  149.5000   -43.0775   134.0254     7.5625     7.2100  -999.2500
  150.0000   -42.9260   133.6407     8.1779     7.3250  -999.2500
  150.5000   -43.0723   136.2939     7.6680     7.4411  -999.2500
  151.0000   -43.1226   140.1075     6.8724     7.3397  -999.2500
  151.5000   -43.0324   143.9210     6.1691     7.1771  -999.2500
  152.0000   -42.9324   147.7346     6.8778     7.0487  -999.2500
  152.5000   -43.2068   151.2726     7.3170     7.0531  -999.2500
  153.0000   -43.5170   153.9047     7.0633     6.9774  -999.2500
  153.5000   -43.5277   156.5368     6.8208     6.8586  -999.2500
  154.0000   -43.5264   158.6670     6.7551     6.7396  -999.2500
  154.5000   -43.5259   158.6670     6.6975     6.6204  -999.2500
  155.0000   -43.5252   158.6670     6.6956     6.5011  -999.2500
  155.5000   -43.5508   157.9838     6.7044     6.3789  -999.2500
  156.0000   -43.5833   156.4447     6.7157     6.3514  -999.2500
  156.5000   -43.6162   154.7996     6.7082     6.3740  -999.2500
  157.0000   -43.6489   153.1546     6.6805     6.5611  -999.2500
  157.5000   -43.6816   150.4757     6.6557     6.7499  -999.2500
  158.0000   -43.7196   147.3535     6.6793     6.9382  -999.2500
  158.5000   -43.5296   144.2312     6.8096     7.1244  -999.2500
  159.0000   -43.2420   141.1089     6.9850     7.1598  -999.2500
  159.5000   -42.9545   137.9867     7.1837     7.3750  -999.2500
  160.0000   -42.7177   134.8644     7.3803     7.5903  -999.2500
  160.5000   -42.8534   131.7422     7.5597     7.8043  -999.2500
  161.0000   -43.0027   128.6199     7.6464     8.0184  -999.2500
  161.5000   -43.1315   125.4976     7.7380     8.2339  -999.2500
  162.0000   -43.1269   122.3754     7.7429     8.4475  -999.2500
  162.5000   -43.1294   121.8626     7.7169     8.4539  -999.2500
  163.0000   -43.2512   123.4049     7.7172     8.3609  -999.2500
  163.5000   -43.3825   124.9472     7.7175     8.2554  -999.2500
  164.0000   -43.5138   126.6333     7.7165     8.0546  -999.2500
  164.5000   -43.6451   129.1192     7.6483     7.8389  -999.2500
  165.0000   -43.7757   131.6386     7.5774     7.6228  -999.2500
  165.5000   -43.9052   137.5670     7.3800     7.4068  -999.2500
  166.0000   -43.7747   143.0506     7.1558     7.1909  -999.2500
  166.5000   -43.4437   148.5341     6.9318     6.9750  -999.2500
  167.0000   -43.3283   154.0177     6.7093     6.7589  -999.2500
  167.5000   -43.3259   159.5012     6.5204     6.5423  -999.2500
  168.0000   -43.2706   164.0567     6.3822     6.3279  -999.2500
  168.5000   -43.1299   166.7148     6.2445     6.1450  -999.2500
  169.0000   -42.9901   168.4773     6.1066     6.1510  -999.2500
  169.5000   -42.9814   170.2399     6.0570     6.1514  -999.2500
  170.0000   -43.1337   170.6797     6.1190     6.1511  -999.2500
  170.5000   -43.2886   170.6797     6.1231     6.1512  -999.2500
  171.0000   -43.3260   170.6797     6.0823     6.1512  -999.2500
  171.5000   -43.3293   168.6833     6.0577     6.1512  -999.2500
  172.0000   -43.2356   165.8632     6.1343     6.1497  -999.2500
  172.5000   -43.1052   163.0502     6.1541     6.2201  -999.2500
  173.0000   -42.9741   160.2341     6.1592     6.3206  -999.2500
  173.5000   -42.8430   157.7096     6.2590     6.4216  -999.2500
  174.0000   -42.7121   155.5423     6.3582     6.5226  -999.2500
  174.5000   -42.5800   153.3808     6.4531     6.6236  -999.2500
  175.0000   -42.5307   151.2592     6.5259     6.7246  -999.2500
  175.5000   -42.5303   149.2851     6.6003     6.8254  -999.2500
  176.0000   -42.6048   147.3111     6.6731     6.9264  -999.2500
  176.5000   -42.7304   145.6533     6.6784     7.0297  -999.2500
  177.0000   -42.8566   145.6533     6.7757     7.0613  -999.2500
  177.5000   -42.9836   145.6533     6.8802     7.0938  -999.2500
  178.0000   -43.1106   145.6533     6.9846     7.1243  -999.2500
  178.5000   -43.2366   145.1938     7.0357     7.1718  -999.2500
  179.0000   -43.3295   140.7522     7.0346     7.3513  -999.2500
  179.5000   -43.3266   136.3105     7.0779     7.5328  -999.2500
  180.0000   -43.2046   131.8688     7.3213     7.7139  -999.2500
  180.5000   -43.0644   127.6344     7.5806     7.8952  -999.2500
  181.0000   -42.9236   124.6312     7.8385     8.0773  -999.2500
  181.5000   -42.7830   124.9288     8.1919     8.2493  -999.2500
  182.0000   -42.6434   126.2747     8.0227     8.2270  -999.2500
  182.5000   -42.5204   127.6344     7.4690     8.0810  -999.2500
  183.0000   -42.6984   130.5654     7.6213     7.9372  -999.2500
  183.5000   -42.9108   133.5266     7.9056     7.7939  -999.2500
  184.0000   -43.1253   136.4877     7.7125     7.6503  -999.2500
  184.5000   -43.3393   139.6426     7.3480     7.5062  -999.2500
  185.0000   -43.5247   139.6541     7.2232     7.3590  -999.2500
  185.5000   -43.4913   136.8835     7.2188     7.4482  -999.2500
  186.0000   -43.3580   133.0007     7.4157     7.6357  -999.2500
  186.5000   -43.2298   129.1152     7.6789     7.8228  -999.2500
  187.0000   -43.1020   126.0407     7.9243     8.0101  -999.2500
  187.5000   -42.9726   123.0796     8.1091     8.1974  -999.2500
  188.0000   -42.9620   120.1184     8.1051     8.3862  -999.2500
  188.5000   -43.0372   119.6259     7.9588     8.4532  -999.2500
  189.0000   -43.1127   121.5179     7.8726     8.4605  -999.2500
  189.5000   -43.1886   124.3291     7.7899     8.2604  -999.2500
  190.0000   -43.2637   128.5836     7.6699     8.0227  -999.2500
  190.5000   -43.3310   132.8381     7.5258     7.7826  -999.2500
  191.0000   -43.2623   137.0926     7.3808     7.5430  -999.2500
  191.5000   -43.1785   141.3471     7.2340     7.3035  -999.2500
  192.0000   -43.0942   145.6015     7.1098     7.0641  -999.2500
  192.5000   -43.0100   148.6372     6.9910     6.8446  -999.2500
  193.0000   -42.9259   150.5354     6.8706     6.7716  -999.2500
  193.5000   -42.8416   152.4335     6.7498     6.7006  -999.2500
  194.0000   -42.7553   154.3317     6.6248     6.6290  -999.2500
  194.5000   -42.6645   156.2298     6.5560     6.5574  -999.2500
  195.0000   -42.5618   158.1392     6.5342     6.4858  -999.2500
  195.5000   -42.7181   160.0834     6.4330     6.4141  -999.2500
  196.0000   -43.0141   162.0275     6.3330     6.3425  -999.2500
  196.5000   -43.0541   163.9717     6.3152     6.2708  -999.2500
  197.0000   -42.9382   165.9159     6.2551     6.1992  -999.2500
  197.5000   -42.8204   167.8600     6.1585     6.1275  -999.2500
  198.0000   -42.7031   169.8042     6.0722     6.0560  -999.2500
  198.5000   -42.5857   170.6797     6.0749     5.9842  -999.2500
  199.0000   -42.6378   170.2128     6.0434     5.9515  -999.2500
  199.5000   -42.8315   169.3409     5.9844     5.9607  -999.2500
  200.0000   -43.0257   168.4691     5.9545     5.9960  -999.2500
  200.5000   -42.9536   167.6765     5.9970     6.0302  -999.2500
  201.0000   -42.6085   167.6765     6.0560     6.0645  -999.2500
  201.5000   -42.2659   167.6765     6.1153     6.0983  -999.2500
  202.0000   -41.9229   167.6832     6.1771     6.1318  -999.2500
  202.5000   -41.9138   167.6871     6.1562     6.0948  -999.2500
  203.0000   -42.3003   169.7667     6.0711     5.9706  -999.2500
  203.5000   -42.6849   171.7408     5.9854     5.8474  -999.2500
  204.0000   -43.0730   173.6828     5.8990     5.7249  -999.2500
  204.5000   -43.4621   173.6828     5.8172     5.6530  -999.2500
  205.0000   -43.5273   170.6797     5.8289     5.6514  -999.2500
  205.5000   -43.5218   168.2021     5.9063     5.7611  -999.2500
  206.0000   -43.3372   165.6744     5.9835     5.7518  -999.2500
  206.5000   -43.1475   167.9893     6.0155     5.7504  -999.2500
  207.0000   -42.9590   174.1833     6.0490     5.7501  -999.2500
  207.5000   -42.7708   180.3774     6.1078     5.6801  -999.2500
  208.0000   -42.5826   186.5714     6.0197     5.4713  -999.2500
