~VERSION INFORMATION
 VERS.                2.0:   CWLS LOG ASCII STANDARD - VERSION 2.0
 WRAP.                 NO:   ONE LINE PER DEPTH STEP
~WELL INFORMATION
#MNEM.UNIT      DATA TYPE    INFORMATION
#----------   ------------   ------------------------------
 STRT.F           42.0000:   START DEPTH
 STOP.F          530.5000:   STOP DEPTH
 STEP.F            0.5000:   STEP LENGTH
 NULL.          -999.2500:   NO VALUE
 COMP. LAWRENCE/ALLISON INC:   COMPANY
 WELL. 65-25-1 SX FI #3-3:   WELL
 FLD .              NPR 3:   FIELD
 LOC .       S3 T38N R78W:   LOCATION
 CNTY.            NATRONA:   COUNTY
 STAT.            WYOMING:   STATE
 CTRY. UNITED STATES OF AMERICA:   COUNTRY
 SRVC.       Schlumberger:   SERVICE COMPANY
 DATE.        08-JUL-1982:   LOGDATE
 API .       490251093000:   API NUMBER
~CURVE INFORMATION
#MNEM.UNIT       API CODE    CURVE DESCRIPTION
#----------   ------------   ------------------------------
 DEPT.F                  :   
 GRD .GAPI   45 310 01 00:   GAMMA RAY FROM DENSITY LOG
 CALD.IN     45 280 60 00:   CALIPER
 RHOB.G/C3   45 350 01 00:   BULK DENSITY
 DPHI.DEC    45 890 12 00:   DENSITY POROSITY SANDSTONE
 CORR.G/C3   45 356 01 00:   DENSITY CORRECTION
~PARAMETER INFORMATION
#MNEM.UNIT          VALUE    DESCRIPTION
#----------   ------------   ------------------------------
 PD  .                 GL:   PERMANENT DATUM
 EPD .F              5162:   ELEVATION PERMANENT DATUM
 LMF .                 KB:   LOG MEASURED FROM
 DAPD.F                 9:   FEET ABOVE PERMANENT DATUM
 DMF .                 KB:   DRILLING MEASURED FROM
 EKB .F              5171:   KELLING BUSHING
 EGL .F              5162:   GROUND LEVEL
 DATE.             7-8-82:   RUN DATE
 RUN .                  1:   RUN NUMBER
 DD  .F               531:   DEPTH DRILLER
 DL  .F               533:   DEPTH LOGGER
 BLI .F               530:   BOTTOM LOG INTERVAL
 TLI .F                52:   TOP LOG INTERVAL
 CS  .IN           13.375:   CASING SIZE
 CBD .F                50:   CASING BOTTOM DRILLER
 CBL .F                52:   CASING BOTTOM LOGGER
 BS  .IN            12.25:   BIT SIZE
 BSD .F               531:   BIT SIZE AT DEPTH
 DFT .                AIR:   DRILLING FLUID TYPE
 TCS .HRS            0500:   TIME CURCULATED STOPPED
 TLAB.HRS            0700:   TIME LOGGER AT BOTTOM
 LUL .               CSPR:   LOGGING UNIT LOCATION
 WITN.             TAYLOR:   WITNESSED BY
 CLNT.            A2DTECH:   CLIENT CODE
 ORIG.           5" PRINT:   ORIGIN OF DATA
 UWI .       490251093000:   UNIQUE WELL ID
 DICO. A2D Technologies, Inc.:   DIGITIZING COMPANY
~OTHER INFORMATION
~A   DEPT       GRD      CALD       RHOB       DPHI       CORR   
# ...
  225.0000   107.5338    12.5946     2.4571     0.1322     0.0199
  225.5000   110.0033    12.5957     2.4595     0.1309     0.0273
  226.0000   112.2654    12.5967     2.4601     0.1295     0.0323
  226.5000   111.5666    12.5978     2.4447     0.1400     0.0200
  227.0000   107.8430    12.5989     2.4290     0.1474     0.0079
  227.5000   104.1329    12.5999     2.4271     0.1492     0.0045
  228.0000   101.1210    12.6010     2.4424     0.1405     0.0086
  228.5000   102.5538    12.6021     2.4557     0.1332     0.0127
  229.0000   104.2281    12.6031     2.4689     0.1258     0.0169
  229.5000   104.4048    12.6042     2.4809     0.1191     0.0211
  230.0000   103.9288    12.6053     2.4888     0.1130     0.0253
  230.5000   106.8255    12.6063     2.4962     0.1102     0.0232
  231.0000   110.5999    12.6074     2.4887     0.1141     0.0181
  231.5000   114.3842    12.6084     2.4802     0.1203     0.0130
  232.0000   116.0591    12.6095     2.4718     0.1266     0.0083
  232.5000   113.5341    12.6106     2.4635     0.1307     0.0127
  233.0000   110.0543    12.6091     2.4595     0.1281     0.0185
  233.5000   106.5482    12.6060     2.4745     0.1218     0.0243
  234.0000   103.3217    12.6030     2.4868     0.1155     0.0300
  234.5000   103.8705    12.5999     2.4988     0.1091     0.0342
  235.0000   104.5682    12.5968     2.5029     0.1051     0.0309
  235.5000   104.9286    12.5937     2.5043     0.1044     0.0257
  236.0000   104.4581    12.5906     2.5061     0.1044     0.0195
  236.5000   104.2077    12.5876     2.4953     0.1066     0.0132
  237.0000   106.0611    12.5845     2.4827     0.1129     0.0069
  237.5000   108.0460    12.5814     2.4702     0.1233     0.0007
  238.0000   110.0182    12.5783     2.4586     0.1301    -0.0056
  238.5000   110.8954    12.5752     2.4808     0.1216    -0.0069
  239.0000   109.2184    12.5721     2.5241     0.1044     0.0023
  239.5000   107.8541    12.5717     2.5675     0.0860     0.0151
  240.0000   110.4514    12.5716     2.6040     0.0709     0.0278
  240.5000   113.1003    12.5657     2.5685     0.0860     0.0356
  241.0000   113.2574    12.5454     2.5260     0.0994     0.0315
  241.5000   109.8555    12.5253     2.4965     0.1105     0.0274
  242.0000   106.5246    12.5053     2.4898     0.1136     0.0228
  242.5000   108.1944    12.4853     2.4846     0.1167     0.0182
  243.0000   112.3943    12.4653     2.4796     0.1195     0.0136
  243.5000   116.5689    12.4528     2.4751     0.1204     0.0093
  244.0000   120.7535    12.4508     2.4756     0.1212     0.0184
  244.5000   124.9361    12.4487     2.4739     0.1232     0.0280
  245.0000   124.6691    12.4467     2.4566     0.1343     0.0336
  245.5000   121.9218    12.4446     2.4392     0.1455     0.0251
  246.0000   119.5766    12.4425     2.4259     0.1516     0.0112
  246.5000   118.1025    12.4404     2.4358     0.1442     0.0057
  247.0000   116.7462    12.4383     2.4567     0.1348     0.0080
  247.5000   114.1587    12.4362     2.4775     0.1231     0.0199
  248.0000   111.3737    12.4342     2.4984     0.1108     0.0350
  248.5000   110.1476    12.4342     2.5186     0.0970     0.0524
  249.0000   109.7468    12.4342     2.5037     0.1153     0.0623
  249.5000   108.7043    12.4342     2.4592     0.1367     0.0618
  250.0000   105.3065    12.4342     2.4172     0.1498     0.0428
  250.5000   101.8701    12.4342     2.4177     0.1551     0.0243
  251.0000   102.0857    12.4342     2.4341     0.1474     0.0093
  251.5000   105.3105    12.4342     2.4550     0.1352     0.0098
  252.0000   108.7799    12.4342     2.4759     0.1235     0.0152
  252.5000   111.3062    12.4342     2.4967     0.1118     0.0247
  253.0000   111.4307    12.4342     2.5176     0.1001     0.0342
  253.5000   110.5348    12.4341     2.5371     0.0884     0.0437
  254.0000   106.7308    12.4342     2.5375     0.0866     0.0462
  254.5000   102.8980    12.4412     2.5210     0.0978     0.0327
  255.0000    98.9498    12.4720     2.5079     0.1009     0.0269
  255.5000    97.9725    12.5017     2.5018     0.1058     0.0253
  256.0000   104.3120    12.5314     2.4902     0.1147     0.0232
  256.5000   109.1702    12.5613     2.4690     0.1282     0.0080
  257.0000   112.5359    12.5904     2.4480     0.1416     0.0115
  257.5000   114.8700    12.5916     2.4271     0.1526     0.0188
  258.0000   117.1887    12.5914     2.4114     0.1568     0.0255
  258.5000   117.7598    12.5913     2.4121     0.1588     0.0242
  259.0000   115.4429    12.5914     2.4387     0.1475     0.0214
  259.5000   113.0116    12.5895     2.4578     0.1355     0.0185
  260.0000   110.4900    12.5867     2.4773     0.1235     0.0157
  260.5000   109.8921    12.5839     2.4831     0.1167     0.0143
  261.0000   109.4064    12.5812     2.4815     0.1178     0.0137
  261.5000   108.1131    12.5784     2.4776     0.1190     0.0120
  262.0000   106.5145    12.5756     2.4739     0.1201     0.0096
  262.5000   107.4271    12.5730     2.4729     0.1211     0.0072
  263.0000   108.2292    12.5546     2.4770     0.1201     0.0054
  263.5000   106.5610    12.5269     2.4807     0.1192     0.0052
  264.0000   103.8424    12.4990     2.4768     0.1183     0.0049
  264.5000   101.1266    12.4737     2.4774     0.1197     0.0046
  265.0000   101.4911    12.4723     2.4792     0.1190     0.0068
  265.5000   103.1057    12.4709     2.4810     0.1170     0.0104
  266.0000   102.7701    12.4694     2.4807     0.1171     0.0141
  266.5000   100.7544    12.4679     2.4778     0.1195     0.0122
  267.0000    99.5061    12.4664     2.4770     0.1199     0.0122
  267.5000   100.9040    12.4648     2.4806     0.1183     0.0153
  268.0000   103.8393    12.4633     2.4876     0.1149     0.0184
  268.5000   106.7593    12.4618     2.4875     0.1141     0.0170
  269.0000   109.4355    12.4603     2.4855     0.1159     0.0153
  269.5000   109.3660    12.4588     2.4835     0.1164     0.0137
  270.0000   109.2566    12.4573     2.4807     0.1180     0.0120
  270.5000   107.4137    12.4557     2.4748     0.1208     0.0104
  271.0000   104.8166    12.4543     2.4709     0.1225     0.0085
  271.5000   100.8123    12.4500     2.4782     0.1194     0.0102
  272.0000    96.6328    12.4449     2.4915     0.1134     0.0116
  272.5000    93.3650    12.4397     2.4891     0.1173     0.0035
  273.0000    94.4993    12.4346     2.4741     0.1240    -0.0048
  273.5000    95.5613    12.4295     2.4639     0.1287    -0.0134
  274.0000    96.4055    12.4242     2.4728     0.1283    -0.0112
  274.5000    94.2158    12.4183     2.4905     0.1186     0.0315
  275.0000    92.0009    12.4144     2.4166     0.1432     0.0785
  275.5000    89.8033    12.4768     2.0017     0.2706     0.1124
  276.0000    87.6364    12.8349     1.8807     0.3099     0.0378
  276.5000    86.3339    13.1482     1.7866     0.3376    -0.0392
  277.0000    86.8348    12.8193     2.0006     0.3042    -0.0965
  277.5000    88.9076    12.4076     2.2193     0.2799    -0.0581
  278.0000    93.3560    12.3364     2.4128     0.2051    -0.0122
  278.5000    97.8783    12.3410     2.4984     0.1081     0.0222
  279.0000    99.2199    12.3469     2.4937     0.1109     0.0206
  279.5000    96.7864    12.3521     2.4873     0.1136     0.0115
  280.0000    93.3563    12.3571     2.4851     0.1127     0.0113
  280.5000    91.2547    12.3621     2.5004     0.1044     0.0267
  281.0000    94.5494    12.3671     2.5231     0.0959     0.0468
  281.5000    97.8844    12.3721     2.5332     0.0878     0.0632
  282.0000    99.7202    12.3751     2.5151     0.0998     0.0599
  282.5000    99.5227    12.3657     2.4883     0.1117     0.0294
  283.0000    97.6082    12.3559     2.4756     0.1207     0.0272
  283.5000    92.7771    12.3461     2.4881     0.1155     0.0416
  284.0000    86.3566    12.3363     2.5032     0.1087     0.0598
  284.5000    74.0110    12.3266     2.4709     0.1278     0.0676
  285.0000    63.0734    12.3168     2.4147     0.1623     0.0595
  285.5000    59.0961    12.3069     2.3580     0.2055     0.0461
