~VERSION INFORMATION
 VERS.                2.0:   CWLS LOG ASCII STANDARD - VERSION 2.0
 WRAP.                 NO:   ONE LINE PER DEPTH STEP
~WELL INFORMATION
#MNEM.UNIT      DATA TYPE    INFORMATION
#----------   ------------   ------------------------------
 STRT.F           39.0000:   START DEPTH
 STOP.F          478.0000:   STOP DEPTH
 STEP.F            0.5000:   STEP LENGTH
 NULL.          -999.2500:   NO VALUE
 COMP. FENIX & SCISSON, INC.:   COMPANY
 WELL.  S-3 NPR #3 #46S-3:   WELL
 FLD .              NPR-3:   FIELD
 LOC .       S3 T38N R78W:   LOCATION
 CNTY.            NATRONA:   COUNTY
 STAT.            WYOMING:   STATE
 CTRY. UNITED STATES OF AMERICA:   COUNTRY
 SRVC.      Dresser Atlas:   SERVICE COMPANY
 DATE.        28-MAR-1977:   LOGDATE
 API .       490251034100:   API NUMBER
~CURVE INFORMATION
#MNEM.UNIT       API CODE    CURVE DESCRIPTION
#----------   ------------   ------------------------------
 DEPT.F                  :   
 ILD .OHMM   07 120 46 00:   INDUCTION LOG DEEP
 ILM .OHMM   07 120 44 00:   INDUCTION LOG MEDIUM
 SFL .OHMM   07 220 01 00:   SHALLOW FOCUSED LOG RESISTIVITY
 SPR .MV     07 010 01 00:   SPONTANEOUS POTENTIAL
 CALD.IN     45 280 60 00:   CALIPER FROM DENSITY LOG
 GRD .GAPI   45 310 01 00:   GAMMA RAY FROM DENSITY LOG
 DPHI.DEC    45 890 12 00:   DENSITY POROSITY SANDSTONE
 RHOB.G/C3   45 350 01 00:   BULK DENSITY
 DRHO.G/C3   45 356 01 00:   DENSITY CORRECTION
~PARAMETER INFORMATION
#MNEM.UNIT          VALUE    DESCRIPTION
#----------   ------------   ------------------------------
 PD  .                 GL:   PERMANENT DATUM
 EPD .F              5186:   ELEVATION PERMANENT DATUM
 LMF .                 KB:   LOG MEASURED FROM
 DAPD.F                 3:   FEET ABOVE PERMANENT DATUM
 DMF .                 KB:   DRILLING MEASURED FROM
 EKB .F              5189:   KELLING BUSHING
 EGL .F              5186:   GROUND LEVEL
 DATE.        28-MAR-1977:   RUN DATE
 RUN .                  1:   RUN NUMBER
 DD  .F               480:   DEPTH DRILLER
 DL  .F               480:   DEPTH LOGGER
 BLI .F               478:   BOTTOM LOG INTERVAL
 TLI .F                40:   TOP LOG INTERVAL
 CS  .IN            8.625:   CASING SIZE
 CBD .F                40:   CASING BOTTOM DRILLER
 CBL .F                40:   CASING BOTTOM LOGGER
 BS  .IN            7.875:   BIT SIZE
 BSD .F               480:   BIT SIZE AT DEPTH
 DFT .           CHEM GEL:   DRILLING FLUID TYPE
 DFD .                8.9:   DRILLING FLUID DENSITY
 DFV .                 39:   DRILLING FLUID VISCOSITY
 DFPH.                 11:   DRILLING FLUID PH
 DFL .                 16:   DRILLING FLUID LOSS
 MSS .           FLOWLINE:   MUD SAMPLE SOURCE
 RMS .OHMM           0.41:   RESISTIVITY MUD SAMPLE
 MST .F                40:   MUD SAMPLE TEMPERATURE
 RMF .OHMM           0.29:   RESISTIVITY MUD FILTRATE SAMPLE
 MFST.F                62:   MUD FILTRATE SAMPLE TEMPERATURE
 RMC .OHMM           0.28:   RESISTIVITY MUD CAKE
 MCST.F                62:   MUD CAKE SAMPLE TEMPERATURE
 MFSS.               MEAS:   MUD FILTRATE SAMPLE SOURCE
 MCSS.               MEAS:   MUD CAKE SAMPLE SOURCE
 RMB .OHMM           0.26:   RESISTIVITY MUD AT BHT
 BHT .F                62:   BOTTOM HOLE TEMPERATURE
 TCS .HRS               6:   TIME CURCULATED STOPPED
 MRT .F                62:   MAXIMUM RECORDED TEMPERATURE
 LUN .               6145:   LOGGING UNIT NUMBER
 LUL .              GLTTE:   LOGGING UNIT LOCATION
 ENGI.              RANCK:   RECORDING ENGINEER
 WITN.     MR. STUEBINGER:   WITNESSED BY
 CLNT.            A2DTECH:   CLIENT CODE
 ORIG.           5" PRINT:   ORIGIN OF DATA
 UWI .       490251034100:   UNIQUE WELL ID
 DICO. A2D Technologies, Inc.:   DIGITIZING COMPANY
~OTHER INFORMATION
~A   DEPT      ILD        ILM        SFL        SPR       CALD         GRD      DPHI       RHOB       DRHO   
# ...
  148.5000     6.6993     6.3570     8.2910   -32.8157     7.7170   106.4305     0.1319     2.4093     0.0467
  149.0000     6.5673     6.1409     8.1792   -33.0832     7.7042   104.4634     0.1268     2.4162     0.0438
  149.5000     6.3034     6.0641     8.0231   -33.2137     7.7070   102.8954     0.1220     2.4335     0.0351
  150.0000     5.9662     6.1135     7.8641   -33.3377     7.7391   102.9187     0.1159     2.4506     0.0292
  150.5000     5.6866     6.1189     7.2903   -33.4617     7.7735   102.7839     0.1140     2.4652     0.0279
  151.0000     5.4963     6.2107     6.9011   -33.2788     7.7890   102.6546     0.1125     2.4803     0.0341
  151.5000     5.5030     6.3038     6.5784   -33.1021     7.7912    99.3914     0.1113     2.4826     0.0417
  152.0000     5.5836     6.3983     6.4335   -32.8989     7.7933    97.3190     0.1118     2.4752     0.0494
  152.5000     5.7063     6.4942     7.0164   -32.5930     7.7955    97.3393     0.1130     2.4678     0.0571
  153.0000     5.8724     6.6429     7.8768   -32.4167     7.7826    99.3374     0.1148     2.4627     0.0662
  153.5000     6.2143     6.7861     8.1948   -32.3905     7.7849   102.9154     0.1168     2.4590     0.0709
  154.0000     6.5304     6.8625     8.1433   -32.2141     7.7871   103.3790     0.1201     2.4551     0.0741
  154.5000     6.6275     6.7951     8.1522   -32.2218     7.7592   102.5074     0.1242     2.4449     0.0757
  155.0000     6.6328     6.7277     8.2164   -32.2693     7.7314   101.3319     0.1291     2.4285     0.0759
  155.5000     6.6383     6.6603     8.2812   -32.3178     7.6592   101.1774     0.1362     2.4114     0.0730
  156.0000     6.6449     6.6157     8.2884   -32.4446     7.5858   101.9702     0.1334     2.4054     0.0655
  156.5000     6.6503     6.6684     8.2957   -32.5714     7.5280   102.7379     0.1283     2.4183     0.0539
  157.0000     6.6557     6.7202     8.3032   -32.5422     7.6207   101.4179     0.1222     2.4499     0.0391
  157.5000     6.6611     6.7253     8.2526   -32.5188     7.6994    99.6444     0.1171     2.4653     0.0272
  158.0000     6.5764     6.7303     8.1473   -32.8016     7.7755    99.9636     0.1131     2.4748     0.0214
  158.5000     6.4830     6.7354     8.1545   -32.9284     7.8377   101.4786     0.1098     2.4817     0.0216
  159.0000     6.3896     6.7404     8.1051   -33.0552     7.8698   102.6946     0.1045     2.4930     0.0277
  159.5000     6.2554     6.6014     8.0486   -33.1820     7.8720   103.6117     0.0995     2.5036     0.0310
  160.0000     6.0440     6.3832     7.9921   -33.3029     7.8742   104.8480     0.0998     2.4992     0.0341
  160.5000     5.8481     6.2118     7.9455   -33.2793     7.8613   105.2964     0.1009     2.4925     0.0372
  161.0000     5.6945     6.0461     7.8432   -33.4063     7.8485   104.4249     0.1021     2.4864     0.0374
  161.5000     5.5435     5.9250     7.6341   -33.5331     7.8512   103.6977     0.1032     2.4815     0.0390
  162.0000     5.4723     5.7658     7.4277   -33.6599     7.8534   102.2232     0.1056     2.4763     0.0407
  162.5000     5.2535     5.6110     7.2320   -33.6307     7.8556   100.5992     0.1105     2.4689     0.0469
  163.0000     5.1129     5.4986     7.0404   -33.6073     7.8578   100.3199     0.1169     2.4600     0.0532
  163.5000     4.8417     5.3885     6.8049   -33.5840     7.8444   100.1878     0.1205     2.4540     0.0622
  164.0000     4.7133     5.3926     5.4495   -33.5606     7.8321    99.0942     0.1237     2.4481     0.0684
  164.5000     4.7182     5.5507     5.4920   -33.5373     7.8343    96.2009     0.1285     2.4327     0.0715
  165.0000     4.8917     5.7124     6.1446   -33.5135     7.8065    94.1284     0.1339     2.4018     0.0747
  165.5000     5.1416     5.9201     7.0691   -33.4847     7.7642    95.0455     0.1347     2.3929     0.0748
  166.0000     5.3294     6.1354     7.6384   -33.3112     7.6465    97.1584     0.1331     2.3982     0.0660
  166.5000     5.5628     6.3142     7.8102   -33.2878     7.5887    99.7198     0.1241     2.4141     0.0540
  167.0000     5.8470     6.4529     7.8686   -33.2645     7.6208   102.5801     0.1178     2.4404     0.0424
  167.5000     6.1030     6.6409     8.1542   -33.0910     7.6980   104.0951     0.1123     2.4653     0.0365
  168.0000     6.3259     6.7868     8.3332   -32.9174     7.7613   103.2235     0.1072     2.4840     0.0322
  168.5000     6.5570     6.9371     8.1091   -32.8941     7.8378   103.5427     0.1044     2.4985     0.0249
  169.0000     6.6805     6.9911     8.0034   -32.8707     7.8549   104.7588     0.1041     2.4971     0.0220
  169.5000     6.8076     7.0445     8.0115   -32.8468     7.8721   106.1243     0.1062     2.4881     0.0192
  170.0000     6.9561     7.0507     8.1874   -32.8181     7.8743   107.0414     0.1102     2.4792     0.0177
  170.5000     7.0610     7.1055     8.4256   -32.7948     7.8765   106.3142     0.1121     2.4718     0.0135
  171.0000     7.0791     7.1758     8.6107   -32.7714     7.8786   104.6248     0.1127     2.4689     0.0077
  171.5000     7.1639     7.2160     8.7402   -32.7481     7.8808   100.8241     0.1135     2.4706     0.0049
  172.0000     7.2829     7.2725     8.8701   -32.8749     7.8912   100.5504     0.1144     2.4736     0.0050
  172.5000     7.2900     7.2779     8.9394   -33.0075     7.9007    99.6738     0.1155     2.4744     0.0052
  173.0000     7.3488     7.4901     8.6404   -32.9783     7.8879    96.7045     0.1167     2.4663     0.0053
  173.5000     7.4078     7.6196     8.4097   -32.9549     7.8898    95.9773     0.1160     2.4543     0.0056
  174.0000     7.4675     7.8790     8.1852   -32.9149     7.8922    94.6523     0.1142     2.4484     0.0087
  174.5000     7.5290     7.9403     8.0784   -32.7522     7.8944    98.2691     0.1126     2.4470     0.0104
  175.0000     7.5354     7.9462     8.3136   -32.7288     7.8966    99.2277     0.1114     2.4544     0.0120
  175.5000     7.5444     7.9522     8.7573   -32.7055     7.8837    99.7952     0.1108     2.4712     0.0152
  176.0000     7.5521     7.9581     9.2463   -32.6821     7.8861    97.4288     0.1095     2.4788     0.0168
  176.5000     7.5591     7.9086     9.5154   -32.6607     7.8886    95.6554     0.1068     2.4811     0.0185
  177.0000     7.5675     7.9145     9.5231   -32.6354     7.8908    94.6292     0.1019     2.4850     0.0187
  177.5000     7.5750     7.9209     9.3337   -32.7622     7.8928    94.0516     0.0974     2.4896     0.0218
  178.0000     7.5829     7.9266     9.1481   -32.8890     7.8951    93.9223     0.0946     2.4934     0.0265
  178.5000     7.5908     7.8775     9.0270   -33.0158     7.8973    94.0169     0.0916     2.4966     0.0300
  179.0000     7.6003     7.8285     8.8491   -33.1367     7.8912    95.9111     0.0888     2.4996     0.0328
  179.5000     7.5539     7.7733     8.7328   -33.2693     7.8722    96.9776     0.0897     2.4959     0.0345
  180.0000     7.5629     7.6995     8.5602   -33.3903     7.8741    97.5958     0.0927     2.4945     0.0346
  180.5000     7.5180     7.6074     8.4395   -33.2168     7.8766    97.9150     0.0932     2.4939     0.0333
  181.0000     7.4567     7.4777     8.3391   -33.0433     7.8787    97.0384     0.0944     2.4932     0.0320
  181.5000     7.4271     7.3555     8.2890   -33.0199     7.8808    95.7133     0.0967     2.4903     0.0322
  182.0000     7.3849     7.1799     8.2382   -33.2968     7.8681    95.2851     0.1030     2.4851     0.0323
  182.5000     7.2901     7.0374     8.2449   -33.4236     7.8703    98.1505     0.1066     2.4800     0.0325
  183.0000     7.0949     6.9936     8.2516   -33.3994     7.8730   100.5623     0.1080     2.4763     0.0341
  183.5000     6.9019     6.9029     8.2009   -33.6714     7.8751   102.8247     0.1062     2.4704     0.0358
  184.0000     6.7743     6.8108     8.0919   -33.8040     7.8771   103.4428     0.1043     2.4637     0.0390
  184.5000     6.5489     6.6292     7.9249   -33.9308     7.8793   103.6126     0.1028     2.4743     0.0421
