~VERSION INFORMATION
 VERS.                2.0:   CWLS LOG ASCII STANDARD - VERSION 2.0
 WRAP.                 NO:   ONE LINE PER DEPTH STEP
~WELL INFORMATION
#MNEM.UNIT      DATA TYPE    INFORMATION
#----------   ------------   ------------------------------
 STRT.F            4.0000:   START DEPTH
 STOP.F          564.0000:   STOP DEPTH
 STEP.F            0.1000:   STEP LENGTH
 NULL.          -999.2500:   NO VALUE
 COMP.       F D SERV INC:   COMPANY
 WELL. NAVAL PETROLEUM RESERVE 3 SX-3 #88-4-3:   WELL
 FLD .             TEAPOT:   FIELD
 LOC .       S3 T38N R78W:   LOCATION
 CNTY.            NATRONA:   COUNTY
 STAT.            WYOMING:   STATE
 CTRY. UNITED STATES OF AMERICA:   COUNTRY
 SRVC.      Western Atlas:   SERVICE COMPANY
 DATE.        15-OCT-1992:   LOGDATE
 API .       490252255000:   API NUMBER
~CURVE INFORMATION
#MNEM.UNIT       API CODE    CURVE DESCRIPTION
#----------   ------------   ------------------------------
 DEPT.F                  :   
 GRR .GAPI   07 310 01 00:   GAMMA RAY
 RILD.OHMM   07 120 46 00:   INDUCTION LOG DEEP RESISTIVITY
 RILM.OHMM   07 120 44 00:   INDUCTION LOG MEDIUM RESISTIVITY
~PARAMETER INFORMATION
#MNEM.UNIT          VALUE    DESCRIPTION
#----------   ------------   ------------------------------
 PD  .                 GL:   PERMANENT DATUM
 EPD .F              5129:   ELEVATION PERMANENT DATUM
 LMF .                 KB:   LOG MEASURED FROM
 DAPD.F                10:   FEET ABOVE PERMANENT DATUM
 DMF .                 KB:   DRILLING MEASURED FROM
 EKB .F              5139:   KELLING BUSHING
 EGL .F              5129:   GROUND LEVEL
 DATE.        15-OCT-1992:   RUN DATE
 RUN .                  1:   RUN NUMBER
 DD  .F               570:   DEPTH DRILLER
 DL  .F               570:   DEPTH LOGGER
 BLI .F               564:   BOTTOM LOG INTERVAL
 TLI .F               564:   TOP LOG INTERVAL
 CS  .IN            8.625:   CASING SIZE
 CBL .F                94:   CASING BOTTOM LOGGER
 BS  .IN            7.875:   BIT SIZE
 BSD .F               570:   BIT SIZE AT DEPTH
 DFT .           AIR FOAM:   DRILLING FLUID TYPE
 TCS .HRS               4:   TIME CURCULATED STOPPED
 MRT .F                72:   MAXIMUM RECORDED TEMPERATURE
 LUN .            HL-6345:   LOGGING UNIT NUMBER
 LUL .          FT.MORGAN:   LOGGING UNIT LOCATION
 ENGI.             BURLEY:   RECORDING ENGINEER
 WITN.        DARY STRONG:   WITNESSED BY
 CLNT.            A2DTECH:   CLIENT CODE
 ORIG.           5" PRINT:   ORIGIN OF DATA
 UWI .       490252255000:   UNIQUE WELL ID
 DICO. A2D Technologies, Inc.:   DIGITIZING COMPANY
~OTHER INFORMATION
~A    DEPT      GRR      RILD       RILM   
# ...
  404.4000    80.6905    31.8705    29.8079
  404.5000    80.8241    31.7173    29.6320
  404.6000    81.2827    31.3071    29.6320
  404.7000    80.9762    30.9105    29.6320
  404.8000    80.9720    30.7298    29.5336
  404.9000    80.8050    30.5502    29.4248
  405.0000    80.5514    30.3718    29.3973
  405.1000    80.2395    30.1944    29.2189
  405.2000    79.7434    30.0181    29.2189
  405.3000    79.4433    29.8427    29.0919
  405.4000    79.0327    29.7001    29.0145
  405.5000    78.6817    29.6993    29.0145
  405.6000    78.1297    29.3615    28.9923
  405.7000    77.2722    29.2833    28.8115
  405.8000    77.0141    29.1854    28.8115
  405.9000    76.2761    29.0766    28.8115
  406.0000    75.9098    29.0487    28.8115
  406.1000    75.6562    28.8714    28.8115
  406.2000    75.4911    28.8706    28.7944
  406.3000    75.5230    28.8698    28.6100
  406.4000    75.7820    28.7774    28.6100
  406.5000    75.7774    28.6661    28.6100
  406.6000    75.9543    28.6425    28.6100
  406.7000    76.1983    28.4638    28.6100
  406.8000    76.5201    28.4630    28.6100
  406.9000    77.0129    28.3420    28.6100
  407.0000    77.5574    28.2622    28.4659
  407.1000    78.2214    28.2614    28.4099
  407.2000    78.6213    28.2606    28.4099
  407.3000    79.1030    28.2597    28.3685
  407.4000    79.7108    28.2590    28.2111
  407.5000    79.9850    28.2582    28.2111
  407.6000    80.8366    28.1756    28.2111
  407.7000    80.8325    28.0588    28.1074
  407.8000    81.4677    28.0580    28.0138
  407.9000    82.1339    28.0571    28.0138
  408.0000    82.4341    27.9124    28.0138
  408.1000    82.9227    27.8592    28.0138
  408.2000    83.2135    27.7817    27.8820
  408.3000    83.8129    27.6626    27.8178
  408.4000    84.2562    27.6515    27.7535
  408.5000    84.6946    27.4673    27.5923
  408.6000    85.3458    27.4667    27.4300
  408.7000    85.5963    27.4659    27.4300
  408.8000    86.3183    27.4651    27.3056
  408.9000    86.6793    27.4643    27.2381
  409.0000    86.9233    27.4572    27.2381
  409.1000    87.2537    27.2704    27.2381
  409.2000    87.7121    27.2698    27.2381
  409.3000    87.9732    27.2690    27.2381
  409.4000    88.2001    27.2682    27.1192
  409.5000    88.6235    27.2675    27.0475
  409.6000    88.9888    27.2641    27.0475
  409.7000    89.1573    27.0749    27.0475
  409.8000    89.1761    27.2028    27.0475
  409.9000    89.4479    27.2644    27.0475
  410.0000    89.6642    27.2636    27.0475
  410.1000    89.7395    27.2629    27.0475
  410.2000    89.7347    27.2621    27.0475
  410.3000    89.7299    27.4196    27.0475
  410.4000    89.7123    27.4528    27.0475
  410.5000    89.4188    27.4520    27.1898
  410.6000    89.4147    27.4512    27.2381
  410.7000    89.4099    27.4504    27.2381
  410.8000    89.2993    27.4497    27.2381
  410.9000    89.0995    27.4489    27.2381
  411.0000    89.0947    27.4481    27.2381
  411.1000    89.0899    27.4474    27.2381
  411.2000    88.8862    27.4466    27.2381
  411.3000    88.4856    27.4458    27.2381
  411.4000    88.0782    27.4450    27.2381
  411.5000    87.8677    27.4443    27.2381
  411.6000    87.8627    27.4435    27.2381
  411.7000    87.3781    27.4427    27.2381
  411.8000    86.8757    27.4420    27.2381
  411.9000    86.5093    27.4412    27.2381
  412.0000    86.0872    27.4404    27.2381
  412.1000    85.4005    27.2930    27.2381
  412.2000    85.1268    27.2468    27.2381
  412.3000    84.8932    27.2460    27.2381
  412.4000    84.8168    27.1969    27.2381
  412.5000    84.9374    27.0538    27.2381
  412.6000    85.1080    27.0529    27.2071
  412.7000    85.1246    26.9115    27.0475
  412.8000    85.3985    26.8621    27.0475
  412.9000    85.3943    26.7855    27.0475
  413.0000    85.5559    26.6725    26.9567
  413.1000    85.7999    26.6718    26.8002
  413.2000    86.0439    26.6709    26.6704
  413.3000    86.2879    26.6703    26.6704
  413.4000    86.5724    26.6695    26.5217
  413.5000    86.5684    26.6688    26.4839
  413.6000    86.5636    26.6680    26.3994
  413.7000    86.6625    26.6673    26.2986
  413.8000    86.9065    26.6664    26.2775
  413.9000    87.1507    26.5345    26.1146
  414.0000    87.3945    26.4784    25.9734
  414.1000    87.4418    26.4776    25.8226
  414.2000    87.4370    26.4411    25.7505
  414.3000    87.4322    26.2865    25.7505
  414.4000    87.4274    26.1059    25.7342
  414.5000    87.4223    25.9804    25.5704
  414.6000    87.4177    25.9218    25.5704
  414.7000    87.0412    25.8588    25.4669
  414.8000    86.6727    25.7076    25.3190
  414.9000    86.5011    25.5573    25.1720
  415.0000    86.4782    25.4081    25.0375
  415.1000    86.3241    25.2597    25.0375
  415.2000    86.1700    25.1122    25.0375
  415.3000    86.0159    25.0221    24.9404
  415.4000    85.8526    24.9945    24.7956
  415.5000    85.5694    24.8455    24.6516
  415.6000    85.3453    24.7034    24.5084
  415.7000    85.0917    24.5591    24.3442
  415.8000    84.6063    24.4968    24.3442
  415.9000    83.9830    24.4441    24.2538
  416.0000    83.7174    24.3239    24.1739
  416.1000    83.1343    24.3232    24.1739
  416.2000    82.9213    24.1875    24.1708
  416.3000    82.8247    24.0462    24.0048
  416.4000    82.7148    23.9819    23.8911
  416.5000    82.5143    23.9336    23.8369
  416.6000    82.5095    23.8126    23.7808
  416.7000    82.5047    23.8119    23.6701
  416.8000    82.6980    23.8113    23.6701
  416.9000    82.7958    23.7101    23.5337
  417.0000    82.9794    23.6433    23.5046
  417.1000    83.4722    23.5990    23.4252
  417.2000    83.9842    23.4611    23.2892
  417.3000    84.2187    23.3113    23.1539
  417.4000    84.8373    23.1878    23.0147
  417.5000    85.3083    23.1469    23.0147
  417.6000    85.6357    23.0793    22.9134
  417.7000    86.1285    22.9836    22.8537
  417.8000    86.6619    22.9594    22.8077
  417.9000    87.3427    22.6615    22.6752
  418.0000    88.0843    22.5446    22.5351
  418.1000    88.5768    22.5017    22.4127
  418.2000    88.7483    22.4391    22.2827
  418.3000    88.7435    22.2733    22.1671
  418.4000    88.7380    22.0142    22.0646
  418.5000    88.7338    21.7225    21.9620
  418.6000    88.7290    21.2925    21.8594
  418.7000    88.7242    20.8801    21.7569
  418.8000    88.6576    20.6243    21.6543
  418.9000    88.4138    20.5330    21.5517
  419.0000    88.4082    20.5325    21.4491
  419.1000    88.6110    20.5318    21.3466
  419.2000    88.7001    20.4317    21.2440
  419.3000    88.9010    20.4622    21.1414
  419.4000    89.3938    20.5302    21.0389
  419.5000    89.8887    20.5296    20.9363
  419.6000    89.8839    20.5290    20.8604
  419.7000    90.2708    20.5283    20.8604
  419.8000    90.7637    20.6253    20.8604
  419.9000    91.1645    20.6720    20.8604
  420.0000    91.4085    20.6714    20.8604
  420.1000    91.6525    20.6708    20.8604
  420.2000    91.8966    20.6702    20.8604
  420.3000    91.9555    20.6697    20.8604
  420.4000    91.9507    20.6691    20.8604
  420.5000    91.7835    20.6685    20.7612
  420.6000    91.3102    20.6679    20.7145
  420.7000    91.0335    20.6673    20.7145
  420.8000    91.0292    20.6667    20.7145
  420.9000    90.8502    20.6662    20.7145
  421.0000    90.5965    20.6656    20.5947
  421.1000    90.3428    20.6650    20.5696
  421.2000    90.0892    20.6644    20.5696
  421.3000    89.8015    20.6460    20.5696
  421.4000    89.5819    20.5186    20.5696
  421.5000    89.3283    20.5180    20.5696
  421.6000    89.0747    20.5175    20.5696
  421.7000    88.8806    20.5169    20.5696
  421.8000    88.8759    20.5163    20.5032
  421.9000    89.1709    20.5009    20.4257
  422.0000    89.5759    20.3715    20.4257
  422.1000    90.3739    20.3710    20.4257
  422.2000    91.3645    20.2858    20.3144
  422.3000    92.3063    20.2272    20.2828
  422.4000    93.0574    20.2267    20.2207
  422.5000    93.7895    20.2143    20.1409
