~VERSION INFORMATION
 VERS.                2.0:   CWLS LOG ASCII STANDARD - VERSION 2.0
 WRAP.                 NO:   ONE LINE PER DEPTH STEP
~WELL INFORMATION
#MNEM.UNIT      DATA TYPE    INFORMATION
#----------   ------------   ------------------------------
 STRT.F           42.0000:   START DEPTH
 STOP.F         3145.0000:   STOP DEPTH
 STEP.F            0.5000:   STEP LENGTH
 NULL.          -999.2500:   NO VALUE
 COMP. LAWRENCE/ALLISON INC:   COMPANY
 WELL.      46 STX #34-34:   WELL
 FLD .             TEAPOT:   FIELD
 LOC .      S34 T39N R78W:   LOCATION
 CNTY.            NATRONA:   COUNTY
 STAT.            WYOMING:   STATE
 CTRY. UNITED STATES OF AMERICA:   COUNTRY
 SRVC.              Welex:   SERVICE COMPANY
 DATE.        01-MAY-1977:   LOGDATE
 API .       490251104800:   API NUMBER
~CURVE INFORMATION
#MNEM.UNIT       API CODE    CURVE DESCRIPTION
#----------   ------------   ------------------------------
 DEPT.F                  :   
 ILD .OHMM   07 120 46 00:   INDUCTION LOG DEEP
 ILM .OHMM   07 120 44 00:   INDUCTION LOG MEDIUM
 SGRD.OHMM   07 221 05 00:   SHALLOW SHORT GUARD RESISTIVITY
 SPR .MV     07 010 01 00:   SPONTANEOUS POTENTIAL
 GR  .GAPI   81 310 01 00:   GAMMA RAY
~PARAMETER INFORMATION
#MNEM.UNIT          VALUE    DESCRIPTION
#----------   ------------   ------------------------------
 PD  .                 GL:   PERMANENT DATUM
 EPD .F              5120:   ELEVATION PERMANENT DATUM
 LMF .                 GL:   LOG MEASURED FROM
 DMF .                 GL:   DRILLING MEASURED FROM
 EGL .F              5120:   GROUND LEVEL
 DATE.        01-MAY-1977:   RUN DATE
 RUN .                  1:   RUN NUMBER
 DD  .F               660:   DEPTH DRILLER
 DL  .F               661:   DEPTH LOGGER
 BLI .F               659:   BOTTOM LOG INTERVAL
 TLI .F                40:   TOP LOG INTERVAL
 CS  .IN            8.625:   CASING SIZE
 CBD .F                40:   CASING BOTTOM DRILLER
 CBL .F                42:   CASING BOTTOM LOGGER
 BS  .IN            7.875:   BIT SIZE
 BSD .F               660:   BIT SIZE AT DEPTH
 DFT .             KCLMUD:   DRILLING FLUID TYPE
 DFD .                8.7:   DRILLING FLUID DENSITY
 DFV .                 31:   DRILLING FLUID VISCOSITY
 DFPH.                  9:   DRILLING FLUID PH
 DFL .                  5:   DRILLING FLUID LOSS
 MSS .           FLOWLINE:   MUD SAMPLE SOURCE
 RMS .OHMM            .23:   RESISTIVITY MUD SAMPLE
 MST .F                62:   MUD SAMPLE TEMPERATURE
 RMF .OHMM            .17:   RESISTIVITY MUD FILTRATE SAMPLE
 MFST.F                62:   MUD FILTRATE SAMPLE TEMPERATURE
 RMC .OHMM            .32:   RESISTIVITY MUD CAKE
 MCST.F                62:   MUD CAKE SAMPLE TEMPERATURE
 MFSS.           MEASURED:   MUD FILTRATE SAMPLE SOURCE
 MCSS.           MEASURED:   MUD CAKE SAMPLE SOURCE
 RMB .OHMM             .2:   RESISTIVITY MUD AT BHT
 BHT .F                71:   BOTTOM HOLE TEMPERATURE
 TCS .HRS             1.5:   TIME CURCULATED STOPPED
 MRT .F                71:   MAXIMUM RECORDED TEMPERATURE
 LUL .             CASPER:   LOGGING UNIT LOCATION
 ENGI.          T. JOYNER:   RECORDING ENGINEER
 WITN.            R. LYON:   WITNESSED BY
 CLNT.            A2DTECH:   CLIENT CODE
 ORIG.        2" 5" PRINT:   ORIGIN OF DATA
 UWI .       490251104800:   UNIQUE WELL ID
 DICO. A2D Technologies, Inc.:   DIGITIZING COMPANY
~OTHER INFORMATION
~A   DEPT      ILD        ILM       SGRD        SPR         GR   
# ...
  225.0000     9.7223    10.2369    12.1379   -42.1540  -999.2500
  225.5000     9.7182    10.4449    12.1344   -42.0136  -999.2500
  226.0000     9.6469    10.5266    12.0478   -42.0288  -999.2500
  226.5000     9.5762    10.7283    12.0445   -42.0389  -999.2500
  227.0000     9.5721    10.9508    11.9579   -42.0531  -999.2500
  227.5000     9.5681    11.0946    11.9546   -41.9117  -999.2500
  228.0000     9.5640    11.3218    11.8686   -41.9259  -999.2500
  228.5000     9.4939    11.5533    11.8653   -41.9372  -999.2500
  229.0000     9.4899    11.6289    11.9453   -41.7997  -999.2500
  229.5000     9.4867    11.2243    11.9411   -41.8119  -999.2500
  230.0000     9.4827    10.6120    12.1045   -41.8240  -999.2500
  230.5000     9.4133    10.0332    12.2701   -41.9856  -999.2500
  231.0000     9.4094     9.6855    12.3520   -42.4462  -999.2500
  231.5000     9.4054     9.6130    12.3485   -42.7573  -999.2500
  232.0000     9.4014     9.6076    12.4318   -43.2179  -999.2500
  232.5000     9.3974     9.6022    12.4274   -43.3795  -999.2500
  233.0000     9.4588     9.6649    12.3387   -43.6906  -999.2500
  233.5000     9.4548     9.7268    12.2501   -43.8523  -999.2500
  234.0000     9.4508     9.7890    12.1620   -44.3129  -999.2500
  234.5000     9.5135     9.8516    12.0746   -44.6240  -999.2500
  235.0000     9.5085     9.9148    12.0712   -44.7856  -999.2500
  235.5000     9.5045     9.9783    12.1517   -44.6203  -999.2500
  236.0000     9.5676    10.0432    12.1483   -44.0438  -999.2500
  236.5000     9.5625    10.1060    12.2303   -43.3179  -999.2500
  237.0000     9.6260    10.1003    12.3967   -42.7384  -999.2500
  237.5000     9.6219    10.0946    12.5672   -42.6009  -999.2500
  238.0000     9.6179    10.1606    12.9161   -42.4634  -999.2500
  238.5000     9.6138    10.2256    13.0938   -42.3259  -999.2500
  239.0000     9.6097    10.2183    13.2729   -42.3386  -999.2500
  239.5000     9.6725    10.2137    13.3615   -42.1983  -999.2500
  240.0000     9.6684    10.2082    13.2653   -42.2135  -999.2500
  240.5000     9.6643    10.2735    13.1700   -42.2256  -999.2500
  241.0000     9.7275    10.2677    12.9849   -42.2378  -999.2500
  241.5000     9.7233    10.1909    12.8915   -42.0974  -999.2500
  242.0000     9.7879    10.1852    12.7988   -42.1126  -999.2500
  242.5000     9.7827    10.1794    12.7068   -42.1247  -999.2500
  243.0000     9.8466    10.1737    12.6154   -42.1369  -999.2500
  243.5000     9.7744    10.0976    12.5246   -42.1465  -999.2500
  244.0000     9.7711    10.0221    12.3486   -42.1584  -999.2500
  244.5000     9.6996     9.9777    12.2598   -42.3199  -999.2500
  245.0000     9.6933    10.0516    12.1716   -42.4814  -999.2500
  245.5000     9.6245    10.1255    12.0841   -42.6430  -999.2500
  246.0000     9.4223    10.1403    11.9972   -42.8047  -999.2500
  246.5000     9.2886    10.0643    11.8968   -42.9663  -999.2500
  247.0000     9.0935     9.9890    11.8260   -42.9784  -999.2500
  247.5000     8.8409     9.9834    11.8200   -43.1401  -999.2500
  248.0000     8.7761     9.9778    11.7377   -43.3017  -999.2500
  248.5000     8.6515     9.9031    11.6533   -43.3139  -999.2500
  249.0000     8.5881     9.8975    11.5695   -43.3260  -999.2500
  249.5000     8.5845     9.9608    11.5662   -43.1887  -999.2500
  250.0000     8.6482    10.0245    11.6442   -43.1736  -999.2500
  250.5000     8.7281    10.1589    11.3862   -42.8882  -999.2500
  251.0000     8.8081    10.1675    11.3114   -42.6028  -999.2500
  251.5000     8.8880    10.3624    11.4646   -42.4283  -999.2500
  252.0000     8.9907    10.4287    11.6182   -42.3412  -999.2500
  252.5000     9.1118    10.5685    11.7739   -42.2541  -999.2500
  253.0000     9.2357    10.7101    11.8616   -42.1670  -999.2500
  253.5000     9.4241    10.8537    11.9250   -42.0798  -999.2500
  254.0000     9.5522    11.0008    12.0848   -41.9927  -999.2500
  254.5000     9.6808    11.2243    12.1621   -41.9056  -999.2500
  255.0000     9.8113    11.3747    12.2427   -41.8097  -999.2500
  255.5000     9.9422    11.5288    12.4042   -41.8203  -999.2500
  256.0000     9.9373    11.6817    12.5702   -41.6787  -999.2500
  256.5000    10.0028    11.8383    12.7386   -41.6920  -999.2500
  257.0000    10.0675    11.8316    12.8203   -41.5504  -999.2500
  257.5000     9.9918    11.9336    12.5491   -41.5636  -999.2500
  258.0000     9.9179    11.8394    12.2838   -41.5742  -999.2500
  258.5000     9.8445    11.6743    12.1079   -41.4353  -999.2500
  259.0000     9.7716    11.5120    11.8519   -41.4458  -999.2500
  259.5000     9.6993    11.4276    11.8453   -41.4564  -999.2500
  260.0000     9.6955    11.4228    11.9227   -41.4649  -999.2500
  260.5000     9.6132    11.2606    12.0808   -41.4753  -999.2500
  261.0000     9.5527    11.1780    12.0741   -41.4858  -999.2500
  261.5000     9.5481    11.0960    12.0673   -41.3466  -999.2500
  262.0000     9.6125    10.9384    11.9772   -41.3573  -999.2500
  262.5000     9.6720    10.8582    11.7240   -41.2182  -999.2500
  263.0000     9.7346    10.8537    12.0471   -40.9299  -999.2500
  263.5000     9.9344    10.8491    12.1259   -40.7918  -999.2500
  264.0000    10.1383    10.9212    12.0336   -40.8015  -999.2500
  264.5000    10.3463    10.9155    12.3652   -40.6622  -999.2500
  265.0000    10.5589    10.9869    12.7060   -40.6732  -999.2500
  265.5000    10.8504    11.0588    13.0579   -40.6837  -999.2500
  266.0000    10.9979    11.1323    13.4177   -40.5422  -999.2500
  266.5000    11.1460    11.2051    13.7875   -40.5554  -999.2500
  267.0000    11.3734    11.4360    13.9703   -40.4139  -999.2500
  267.5000    11.5266    11.5910    14.1595   -40.4271  -999.2500
  268.0000    11.7632    11.8287    14.2501   -40.2864  -999.2500
  268.5000    11.8407    12.0725    14.4390   -40.1466  -999.2500
  269.0000    12.0837    12.3213    14.5526   -40.0077  -999.2500
  269.5000    12.2450    12.5753    14.8307   -40.0209  -999.2500
  270.0000    12.4114    12.8534    14.9255   -39.8794  -999.2500
  270.5000    12.6662    13.1916    15.1362   -39.8926  -999.2500
  271.0000    12.9261    13.5691    15.3282   -39.7510  -999.2500
  271.5000    13.2816    13.9505    15.6464   -39.4653  -999.2500
  272.0000    13.5542    14.5248    15.8528   -39.3237  -999.2500
  272.5000    13.7572    14.9237    16.1756   -39.3049  -999.2500
  273.0000    14.0358    15.2295    16.5064   -39.0224  -999.2500
  273.5000    14.2093    15.4360    17.4384   -38.7575  -999.2500
  274.0000    14.3012    15.5371    18.4230   -38.6186  -999.2500
  274.5000    14.2941    15.7475    18.9491   -38.1808  -999.2500
  275.0000    14.3866    15.7409    17.4092   -38.0419  -999.2500
  275.5000    14.3795    15.7342    16.5749   -37.7534  -999.2500
  276.0000    14.2731    15.7276    16.3375   -37.9135  -999.2500
  276.5000    14.2661    15.6123    16.1034   -37.9241  -999.2500
  277.0000    14.2592    15.6057    16.0944   -37.7848  -999.2500
  277.5000    14.1537    15.4913    15.9742   -37.9452  -999.2500
  278.0000    14.1467    15.2713    15.9653   -37.9567  -999.2500
  278.5000    14.1398    15.1593    15.9564   -37.9664  -999.2500
  279.0000    14.1329    15.0481    15.8373   -37.8248  -999.2500
  279.5000    14.1259    15.0418    15.8284   -37.8380  -999.2500
  280.0000    14.1190    15.0355    15.8196   -37.8486  -999.2500
  280.5000    14.0145    15.0292    15.7014   -37.8592  -999.2500
  281.0000    14.0077    15.0228    15.5842   -37.8697  -999.2500
  281.5000    13.9040    14.9127    15.4679   -37.8803  -999.2500
  282.0000    13.8972    14.9064    15.4592   -37.8909  -999.2500
  282.5000    13.7944    14.7971    15.4506   -37.9014  -999.2500
  283.0000    13.6923    14.7909    15.4419   -37.7625  -999.2500
  283.5000    13.6856    14.6824    15.6511   -37.7731  -999.2500
  284.0000    13.5844    14.6599    15.8586   -37.7837  -999.2500
  284.5000    13.3907    14.5699    15.6314   -37.7942  -999.2500
  285.0000    13.2929    14.4531    15.4074   -37.8030  -999.2500
  285.5000    13.2718    14.2515    15.0834   -37.6633  -999.2500
