~VERSION INFORMATION
 VERS.                2.0:   CWLS LOG ASCII STANDARD - VERSION 2.0
 WRAP.                 NO:   ONE LINE PER DEPTH STEP
~WELL INFORMATION
#MNEM.UNIT      DATA TYPE    INFORMATION
#----------   ------------   ------------------------------
 STRT.F            0.0000:   START DEPTH
 STOP.F          652.0000:   STOP DEPTH
 STEP.F            0.5000:   STEP LENGTH
 NULL.          -999.2500:   NO VALUE
 COMP. US DEPTMNT OF ENRGY:   COMPANY
 WELL. NPR ##3 14-14-SX-11:   WELL
 FLD .   TEAPOT NAVAL RES:   FIELD
 LOC .      S11 T38N R78W:   LOCATION
 CNTY.            NATRONA:   COUNTY
 STAT.            WYOMING:   STATE
 CTRY. UNITED STATES OF AMERICA:   COUNTRY
 SRVC.            Unknown:   SERVICE COMPANY
 DATE.        03-JAN-1985:   LOGDATE
 API .       490251102400:   API NUMBER
~CURVE INFORMATION
#MNEM.UNIT       API CODE    CURVE DESCRIPTION
#----------   ------------   ------------------------------
 DEPT.F                  :   
 CALD.IN     45 280 60 00:   CALIPER
 CORR.G/C3   45 356 01 00:   DENSITY CORRECTION
 PORD.DEC    45 890 12 00:   DENSITY POROSITY SANDSTONE
 CNC .DEC    42 890 03 00:   NEUTRON POROSITY SANDSTONE
 SPR .MV     11 010 01 00:   SPONTANEOUS POTENTIAL FROM RES.
 GRR .GAPI   11 310 01 00:   GAMMA RAY FROM RES.
 RS  .OHMM   11 220 09 00:   RESISTIVITY SHALLOW
 RD  .OHMM   11 220 10 00:   RESISTIVITY DEEP
 DEN .G/C3   45 350 01 00:   COMPENSATED BULK DENSTIY
~PARAMETER INFORMATION
#MNEM.UNIT          VALUE    DESCRIPTION
#----------   ------------   ------------------------------
 PD  .                 GL:   PERMANENT DATUM
 EPD .F            5197.3:   ELEVATION PERMANENT DATUM
 LMF .                 KB:   LOG MEASURED FROM
 DMF .                 KB:   DRILLING MEASURED FROM
 EKB .F            5197.3:   KELLING BUSHING
 EGL .F            5197.3:   GROUND LEVEL
 DATE.         3-JAN-1985:   RUN DATE
 RUN .                  1:   RUN NUMBER
 DD  .F               650:   DEPTH DRILLER
 DL  .F               653:   DEPTH LOGGER
 BLI .F               651:   BOTTOM LOG INTERVAL
 CS  .IN            8.625:   CASING SIZE
 CBD .F                20:   CASING BOTTOM DRILLER
 CBL .F                20:   CASING BOTTOM LOGGER
 BS  .IN             6.25:   BIT SIZE
 BSD .F               650:   BIT SIZE AT DEPTH
 DFT .                KCL:   DRILLING FLUID TYPE
 RMS .OHMM            .12:   RESISTIVITY MUD SAMPLE
 MST .F                70:   MUD SAMPLE TEMPERATURE
 RMF .OHMM            .09:   RESISTIVITY MUD FILTRATE SAMPLE
 MFST.F                70:   MUD FILTRATE SAMPLE TEMPERATURE
 RMC .OHMM            .15:   RESISTIVITY MUD CAKE
 MCST.F                70:   MUD CAKE SAMPLE TEMPERATURE
 MFSS.               CALC:   MUD FILTRATE SAMPLE SOURCE
 MCSS.               CALC:   MUD CAKE SAMPLE SOURCE
 RMB .OHMM             .1:   RESISTIVITY MUD AT BHT
 BHT .F                80:   BOTTOM HOLE TEMPERATURE
 TCS .HRS               3:   TIME CURCULATED STOPPED
 MRT .F                80:   MAXIMUM RECORDED TEMPERATURE
 LUN .               6274:   LOGGING UNIT NUMBER
 LUL .               GLTE:   LOGGING UNIT LOCATION
 ENGI.               MACK:   RECORDING ENGINEER
 WITN.               PAGE:   WITNESSED BY
 CLNT.            A2DTECH:   CLIENT CODE
 ORIG.       2", 5" PRINT:   ORIGIN OF DATA
 UWI .       490251102400:   UNIQUE WELL ID
 DICO. A2D Technologies, Inc.:   DIGITIZING COMPANY
~OTHER INFORMATION
~A    DEPT    CALD       CORR       PORD        CNC        SPR         GRR        RS         RD        DEN   
# ...
  474.5000     6.3335     0.0244     0.1777     0.2497   -34.6389    83.1977    15.0744    17.4824     2.3956
  475.0000     6.3328     0.0203     0.2023     0.2565   -33.2889    78.6131    16.0835    18.7894     2.3529
  475.5000     6.3322     0.0166     0.2269     0.2641   -31.9246    72.7289    17.2570    20.1940     2.3113
  476.0000     6.3315     0.0163     0.2497     0.2680   -30.5592    67.6352    17.8806    21.7037     2.2754
  476.5000     6.3309     0.0201     0.2497     0.2606   -29.1890    68.7308    19.3698    23.3263     2.2581
  477.0000     6.3302     0.0225     0.2397     0.2562   -27.8067    72.6087    21.3092    25.0702     2.2682
  477.5000     6.3295     0.0154     0.2251     0.2595   -27.0441    75.7948    23.4427    26.9444     2.2893
  478.0000     6.3289     0.0060     0.2155     0.2637   -26.2992    77.5762    25.7899    28.9587     2.3089
  478.5000     6.3282     0.0149     0.2116     0.2656   -25.5504    78.1209    27.3631    30.5643     2.3200
  479.0000     6.3276     0.0321     0.2097     0.2560   -24.8079    75.9495    27.3631    30.0059     2.3220
  479.5000     6.3269     0.0316     0.2073     0.2400   -24.4769    71.7168    27.3569    30.3442     2.3249
  480.0000     6.3263     0.0225     0.1960     0.2196   -24.8080    67.5280    27.3434    30.9157     2.3334
  480.5000     6.3256     0.0232     0.1767     0.1991   -25.1291    65.5765    28.3626    33.1711     2.3609
  481.0000     6.3249     0.0545     0.1485     0.1787   -25.4524    67.3542    32.0230    36.7161     2.4116
  481.5000     6.3243     0.0888     0.1202     0.1705   -25.7751    68.7400    36.1185    40.6398     2.4626
  482.0000     6.3236     0.1047     0.1048     0.1787   -26.0978    68.6678    40.8109    44.6045     2.4978
  482.5000     6.3229     0.0694     0.1167     0.1990   -26.4205    71.2754    43.3186    45.0176     2.4892
  483.0000     6.3223     0.0477     0.1332     0.2193   -26.7435    74.9751    35.2292    37.9581     2.4613
  483.5000     6.3216     0.0526     0.1496     0.2396   -27.0800    78.5474    30.3123    33.8111     2.4332
  484.0000     6.3210     0.0604     0.1661     0.2557   -27.1380    79.5252    26.0817    30.1172     2.4051
  484.5000     6.3203     0.0681     0.1793     0.2654   -27.0975    77.6732    24.0276    26.8268     2.3810
  485.0000     6.3197     0.0575     0.1827     0.2672   -27.0547    78.0125    23.4094    25.2861     2.3736
  485.5000     6.3190     0.0442     0.1861     0.2653   -27.0117    79.1854    22.7486    25.0415     2.3658
  486.0000     6.3183     0.0389     0.1892     0.2628   -26.9704    80.3790    22.7594    24.7993     2.3599
  486.5000     6.3177     0.0558     0.1880     0.2688   -26.7507    81.3882    22.6744    24.5595     2.3604
  487.0000     6.3170     0.0583     0.1868     0.2757   -26.3871    81.9040    22.2137    24.3219     2.3608
  487.5000     6.3163     0.0495     0.1895     0.2795   -26.0219    84.3652    21.7624    23.7663     2.3584
  488.0000     6.3157     0.0373     0.1957     0.2762   -25.6569    87.7162    21.3202    23.1411     2.3489
  488.5000     6.3150     0.0250     0.2031     0.2726   -25.2884    89.9476    20.8871    22.5466     2.3374
  489.0000     6.3144     0.0246     0.2071     0.2707   -25.1474    87.4226    20.5585    22.5466     2.3309
  489.5000     6.3137     0.0406     0.2044     0.2788   -25.1289    84.9935    20.5589    22.5466     2.3364
  490.0000     6.3130     0.0570     0.2012     0.2863   -25.1127    82.7820    20.5611    22.5466     2.3422
  490.5000     6.3124     0.0462     0.2050     0.2863   -25.0965    82.9652    20.5609    22.5466     2.3354
  491.0000     6.3117     0.0206     0.2111     0.2852   -25.0802    83.3658    20.5609    22.5466     2.3257
  491.5000     6.3111     0.0186     0.2160     0.2831   -25.0638    84.3396    20.2337    22.5465     2.3157
  492.0000     6.3104     0.0191     0.2162     0.2739   -25.0475    85.3175    19.7672    22.5264     2.3127
  492.5000     6.3098     0.0197     0.2093     0.2644   -25.0311    85.4472    19.4544    22.3360     2.3226
  493.0000     6.3091     0.0202     0.2024     0.2632   -25.0147    85.3184    19.6258    22.1473     2.3357
  493.5000     6.3084     0.0218     0.1955     0.2650   -24.9982    85.1883    19.7570    21.9603     2.3486
  494.0000     6.3078     0.0191     0.1901     0.2668   -24.9817    84.5110    19.8165    21.7748     2.3564
  494.5000     6.3071     0.0127     0.1915     0.2672   -24.9672    83.6784    19.5345    21.5909     2.3557
  495.0000     6.3065     0.0197     0.1933     0.2655   -25.0559    83.3048    19.3284    21.4085     2.3538
  495.5000     6.3058     0.0334     0.1908     0.2615   -25.3327    83.7817    19.1246    21.3056     2.3524
  496.0000     6.3051     0.0474     0.1839     0.2589   -25.6065    84.2226    18.9237    21.2584     2.3680
  496.5000     6.3045     0.0502     0.1772     0.2609   -25.8808    85.8598    18.9237    21.2115     2.3843
  497.0000     6.3038     0.0502     0.1736     0.2613   -26.1549    87.7194    18.7466    21.1698     2.3860
  497.5000     6.3032     0.0491     0.1760     0.2585   -26.4290    88.9624    17.9802    20.7841     2.3812
  498.0000     6.3025     0.0435     0.1795     0.2558   -26.7022    87.4506    17.2451    20.0051     2.3775
  498.5000     6.3018     0.0382     0.1783     0.2530   -26.9689    85.6606    16.5401    19.2483     2.3775
  499.0000     6.3012     0.0403     0.1762     0.2504   -27.2601    86.1961    16.1785    18.5780     2.3808
  499.5000     6.3005     0.0477     0.1760     0.2517   -27.5442    86.7478    16.4982    18.6873     2.3804
  500.0000     6.2999     0.0398     0.1774     0.2536   -27.8275    86.7623    16.7192    18.7896     2.3783
  500.5000     6.2992     0.0320     0.1788     0.2556   -28.1107    87.9294    16.7863    18.8925     2.3768
  501.0000     6.2985     0.0259     0.1725     0.2481   -28.3945    90.3690    16.2682    18.9526     2.3841
  501.5000     6.2979     0.0404     0.1656     0.2481   -28.6775    92.6220    16.0300    18.9942     2.3962
  502.0000     6.2972     0.0553     0.1609     0.2493   -28.9436    91.7268    16.1899    19.0358     2.4057
  502.5000     6.2966     0.0494     0.1616     0.2488   -29.1972    88.8067    16.3145    19.0774     2.4027
  503.0000     6.2959     0.0380     0.1638     0.2493   -29.4530    86.4274    16.4405    19.0987     2.3988
  503.5000     6.2952     0.0261     0.1654     0.2557   -29.7090    87.4486    16.5701    19.0990     2.3971
  504.0000     6.2949     0.0339     0.1663     0.2624   -29.9648    89.7498    16.6299    19.0990     2.3954
  504.5000     6.3031     0.0459     0.1673     0.2598   -30.2207    92.0767    15.9552    19.0990     2.3937
  505.0000     6.3116     0.0576     0.1691     0.2563   -30.4769    92.4858    15.6775    19.0990     2.3908
  505.5000     6.3201     0.0593     0.1716     0.2529   -30.7330    89.6639    15.5917    19.0992     2.3862
  506.0000     6.3286     0.0435     0.1741     0.2494   -30.9693    86.5884    15.5948    19.0990     2.3823
  506.5000     6.3370     0.0302     0.1767     0.2457   -31.0390    83.9153    15.7371    19.0990     2.3803
  507.0000     6.3456     0.0233     0.1760     0.2461   -31.1030    82.3007    15.5755    18.9899     2.3836
  507.5000     6.3543     0.0216     0.1729     0.2474   -31.1673    81.1119    15.3385    18.7614     2.3890
  508.0000     6.3519     0.0316     0.1694     0.2463   -31.2320    81.4234    15.1050    18.5361     2.3944
  508.5000     6.3487     0.0397     0.1659     0.2439   -31.2937    82.7288    14.8751    18.3113     2.3998
  509.0000     6.3455     0.0496     0.1624     0.2421   -31.3434    83.3819    14.6488    18.1005     2.4053
  509.5000     6.3423     0.0578     0.1596     0.2476   -31.8286    83.7657    14.4258    17.8924     2.4072
  510.0000     6.3391     0.0632     0.1598     0.2545   -32.2217    84.7001    14.3146    17.6879     2.4065
  510.5000     6.3359     0.0609     0.1609     0.2584   -32.6168    85.8456    14.2358    17.4856     2.4056
