~VERSION INFORMATION
 VERS.                2.0:   CWLS LOG ASCII STANDARD - VERSION 2.0
 WRAP.                 NO:   ONE LINE PER DEPTH STEP
~WELL INFORMATION
#MNEM.UNIT      DATA TYPE    INFORMATION
#----------   ------------   ------------------------------
 STRT.F          610.5000:   START DEPTH
 STOP.F         2311.0000:   STOP DEPTH
 STEP.F            0.5000:   STEP LENGTH
 NULL.          -999.2500:   NO VALUE
 COMP. BROWN JOHN E&C INC:   COMPANY
 WELL.  48-1SHX-34 #48-34:   WELL
 FLD .             TEAPOT:   FIELD
 LOC .      S34 T39N R78W:   LOCATION
 CNTY.            NATRONA:   COUNTY
 STAT.            WYOMING:   STATE
 CTRY. UNITED STATES OF AMERICA:   COUNTRY
 SRVC.            Unknown:   SERVICE COMPANY
 DATE.        16-SEP-1991:   LOGDATE
 API .       490251109000:   API NUMBER
~CURVE INFORMATION
#MNEM.UNIT       API CODE    CURVE DESCRIPTION
#----------   ------------   ------------------------------
 DEPT.F                  :   
 ROP .MIN/FT 91 810 01 00:   RAT OF DRILLING PENETRATION
 TGAS.UNITS  91 830 01 00:   TOTAL GAS FROM HOTWIRE
~PARAMETER INFORMATION
#MNEM.UNIT          VALUE    DESCRIPTION
#----------   ------------   ------------------------------
 EKB .F              5163:   KELLING BUSHING
 EGL .F              5152:   GROUND LEVEL
 DATE.            9-16-91:   RUN DATE
 DD  .F              2311:   DEPTH DRILLER
 TCS .HRS            0200:   TIME CURCULATED STOPPED
 TLAB.HRS            0115:   TIME LOGGER AT BOTTOM
 ENGI.             HENDRY:   RECORDING ENGINEER
 WITN.               HUSK:   WITNESSED BY
 CLNT.            A2DTECH:   CLIENT CODE
 ORIG.           5" PRINT:   ORIGIN OF DATA
 UWI .       490251109000:   UNIQUE WELL ID
 DICO. A2D Technologies, Inc.:   DIGITIZING COMPANY
~OTHER INFORMATION
~A   DEPT        ROP       TGAS 
# ...
  975.0000     2.0719     3.7890
  975.5000     2.3107     3.7839
  976.0000     2.4308     3.7991
  976.5000     2.5272     3.8139
  977.0000     2.5438     3.8286
  977.5000     2.5347     3.8434
  978.0000     2.3471     3.8581
  978.5000     2.0793     3.8728
  979.0000     1.8106     3.8876
  979.5000     1.5436     3.9023
  980.0000     1.3496     3.9171
  980.5000     1.2902     3.9318
  981.0000     1.2872     3.9465
  981.5000     1.2876     3.9613
  982.0000     1.2877     3.9760
  982.5000     1.2877     3.9908
  983.0000     1.2875     4.0055
  983.5000     1.2882     4.0202
  984.0000     1.3128     4.0350
  984.5000     1.3388     4.0497
  985.0000     1.3935     4.0645
  985.5000     1.4717     4.0792
  986.0000     1.5018     4.0939
  986.5000     1.4571     4.1087
  987.0000     1.3986     4.1234
  987.5000     1.3383     4.1382
  988.0000     1.3166     4.1529
  988.5000     1.3047     4.1676
  989.0000     1.2930     4.1824
  989.5000     1.2944     4.1971
  990.0000     1.3433     4.2119
  990.5000     1.4224     4.2266
  991.0000     1.5022     4.2413
  991.5000     1.5383     4.2564
  992.0000     1.5390     4.2725
  992.5000     1.5390     4.2781
  993.0000     1.5389     4.0262
  993.5000     1.5389     3.7605
  994.0000     1.5389     3.4968
  994.5000     1.5390     3.2714
  995.0000     1.5391     3.2765
  995.5000     1.5388     3.2773
  996.0000     1.5108     3.2773
  996.5000     1.4760     3.2773
  997.0000     1.3170     3.2773
  997.5000     1.1490     3.2773
  998.0000     1.0775     3.2773
  998.5000     1.0224     3.2773
  999.0000     1.0216     3.2773
  999.5000     1.0196     3.2773
 1000.0000     1.0178     3.2773
 1000.5000     1.0159     3.2773
 1001.0000     1.0141     3.2773
 1001.5000     1.0123     3.2773
 1002.0000     1.0008     3.2773
 1002.5000     0.9634     3.2773
 1003.0000     0.8716     3.2773
 1003.5000     0.8317     3.2773
 1004.0000     0.8355     3.2773
 1004.5000     0.8648     3.2773
 1005.0000     0.9359     3.2773
 1005.5000     0.9981     3.2773
 1006.0000     1.0007     3.2773
 1006.5000     1.0021     3.2773
 1007.0000     1.0036     3.2773
 1007.5000     1.0051     3.2773
 1008.0000     1.0067     3.2773
 1008.5000     1.0082     3.2773
 1009.0000     1.0096     3.2773
 1009.5000     1.0128     3.2773
 1010.0000     1.0473     3.2773
 1010.5000     1.0806     3.2773
 1011.0000     1.1374     3.2773
 1011.5000     1.1967     3.2773
 1012.0000     1.2558     3.2773
 1012.5000     1.3011     3.2773
 1013.0000     1.2996     3.2773
 1013.5000     1.2989     3.2773
 1014.0000     1.2983     3.2773
 1014.5000     1.2977     3.2773
 1015.0000     1.2971     3.2772
 1015.5000     1.2966     3.2781
 1016.0000     1.2960     3.2973
 1016.5000     1.2954     3.3168
 1017.0000     1.2948     3.3361
 1017.5000     1.2942     3.3555
 1018.0000     1.2936     3.3749
 1018.5000     1.2930     3.3942
 1019.0000     1.2924     3.4136
 1019.5000     1.2918     3.4329
 1020.0000     1.2912     3.4523
 1020.5000     1.2906     3.4717
 1021.0000     1.2900     3.4910
 1021.5000     1.2895     3.5104
 1022.0000     1.2889     3.5298
 1022.5000     1.2883     3.5491
 1023.0000     1.2879     3.5685
 1023.5000     1.2890     3.5878
 1024.0000     1.2372     3.6072
 1024.5000     1.1746     3.6266
 1025.0000     1.1114     3.6459
 1025.5000     1.0505     3.6653
 1026.0000     1.0503     3.6847
 1026.5000     1.1182     3.7040
 1027.0000     1.1905     3.7234
 1027.5000     1.2606     3.7428
 1028.0000     1.2764     3.7621
 1028.5000     1.2897     3.7815
 1029.0000     1.3032     3.8008
 1029.5000     1.3174     3.8202
 1030.0000     1.3660     3.8396
 1030.5000     1.4758     3.8589
 1031.0000     1.5844     3.8783
 1031.5000     1.6942     3.8977
 1032.0000     1.7272     3.9170
 1032.5000     1.7078     3.9364
 1033.0000     1.6501     3.9557
 1033.5000     1.5824     3.9751
 1034.0000     1.5126     3.9945
 1034.5000     1.4402     4.0138
 1035.0000     1.3661     4.0332
 1035.5000     1.3307     4.0526
 1036.0000     1.3046     4.0719
 1036.5000     1.2874     4.0913
 1037.0000     1.2877     4.1106
 1037.5000     1.2877     4.1300
 1038.0000     1.2877     4.1494
 1038.5000     1.2877     4.1687
 1039.0000     1.2876     4.1881
 1039.5000     1.2868     4.2075
 1040.0000     1.3276     4.2268
 1040.5000     1.3812     4.2462
 1041.0000     1.4350     4.2655
 1041.5000     1.4887     4.2849
 1042.0000     1.5425     4.3043
 1042.5000     1.5962     4.3236
 1043.0000     1.6500     4.3430
 1043.5000     1.7031     4.3624
 1044.0000     1.7456     4.3817
 1044.5000     1.7399     4.4011
 1045.0000     1.7156     4.4204
 1045.5000     1.6816     4.4398
 1046.0000     1.6456     4.4592
 1046.5000     1.6174     4.4785
 1047.0000     1.6769     4.4979
 1047.5000     1.8800     4.5173
 1048.0000     1.9268     4.5366
 1048.5000     1.9641     4.5560
 1049.0000     1.9239     4.5753
 1049.5000     1.8765     4.5947
 1050.0000     1.8289     4.6141
 1050.5000     1.7802     4.6334
 1051.0000     1.7733     4.6528
 1051.5000     1.7692     4.6722
 1052.0000     1.7587     4.6915
 1052.5000     1.7025     4.7109
 1053.0000     1.6457     4.7302
 1053.5000     1.5891     4.7496
 1054.0000     1.5292     4.7691
 1054.5000     1.4599     4.7889
 1055.0000     1.3885     4.7901
 1055.5000     1.3165     4.7899
 1056.0000     1.3370     4.7899
 1056.5000     1.4290     4.7899
 1057.0000     1.5215     4.7899
 1057.5000     1.6117     4.7899
 1058.0000     1.6878     4.7899
 1058.5000     1.7373     4.7899
 1059.0000     1.6247     4.7899
 1059.5000     1.5013     4.7899
 1060.0000     1.3774     4.7899
 1060.5000     1.2541     4.7899
 1061.0000     1.1300     4.7899
 1061.5000     1.0671     4.7899
 1062.0000     1.0512     4.7899
 1062.5000     1.0380     4.7899
 1063.0000     1.0959     4.7899
 1063.5000     1.1591     4.7899
 1064.0000     1.2243     4.7899
 1064.5000     1.2019     4.7899
 1065.0000     1.1448     4.7899
 1065.5000     1.0866     4.7899
 1066.0000     1.0344     4.7899
 1066.5000     0.9943     4.7899
 1067.0000     0.9861     4.7899
 1067.5000     0.9850     4.7899
 1068.0000     1.0299     4.7899
 1068.5000     1.0864     4.7899
 1069.0000     1.1432     4.7899
 1069.5000     1.2013     4.7899
 1070.0000     1.2126     4.7899
 1070.5000     1.2111     4.7899
 1071.0000     1.1616     4.7899
 1071.5000     1.1093     4.7899
 1072.0000     1.0572     4.7899
 1072.5000     1.0057     4.7899
 1073.0000     0.9761     4.7899
 1073.5000     0.9839     4.7899
 1074.0000     0.9909     4.7899
 1074.5000     1.0006     4.7899
 1075.0000     1.0697     4.7899
 1075.5000     1.1413     4.7899
 1076.0000     1.2099     4.7899
 1076.5000     1.1864     4.7899
 1077.0000     1.1239     4.7899
 1077.5000     1.0613     4.7901
 1078.0000     1.0220     4.7811
 1078.5000     1.0187     4.7702
 1079.0000     1.0149     4.7592
 1079.5000     1.0112     4.7483
 1080.0000     1.0075     4.7373
 1080.5000     1.0038     4.7264
 1081.0000     1.0001     4.7155
 1081.5000     0.9985     4.7045
 1082.0000     1.0186     4.6936
 1082.5000     1.0499     4.6827
 1083.0000     1.0867     4.6717
 1083.5000     1.1470     4.6608
 1084.0000     1.2065     4.6499
 1084.5000     1.2663     4.6389
 1085.0000     1.2703     4.6280
 1085.5000     1.2652     4.6171
 1086.0000     1.2294     4.6061
 1086.5000     1.1789     4.5952
 1087.0000     1.1279     4.5843
 1087.5000     1.0769     4.5733
 1088.0000     1.0404     4.5624
 1088.5000     1.0218     4.5515
 1089.0000     1.0196     4.5405
 1089.5000     1.0382     4.5296
 1090.0000     1.0561     4.5187
 1090.5000     1.0784     4.5077
 1091.0000     1.1773     4.4968
 1091.5000     1.2531     4.4859
 1092.0000     1.2583     4.4749
 1092.5000     1.2273     4.4640
 1093.0000     1.1514     4.4531
 1093.5000     1.0762     4.4421
 1094.0000     1.0363     4.4312
 1094.5000     1.0363     4.4203
 1095.0000     1.0365     4.4093
 1095.5000     1.0463     4.3984
 1096.0000     1.0890     4.3875
