~VERSION INFORMATION
 VERS.                2.0:   CWLS LOG ASCII STANDARD - VERSION 2.0
 WRAP.                 NO:   ONE LINE PER DEPTH STEP
~WELL INFORMATION
#MNEM.UNIT      DATA TYPE    INFORMATION
#----------   ------------   ------------------------------
 STRT.F           28.5000:   START DEPTH
 STOP.F          625.0000:   STOP DEPTH
 STEP.F            0.5000:   STEP LENGTH
 NULL.          -999.2500:   NO VALUE
 COMP. FENIX & SCISSON INC:   COMPANY
 WELL.    NPR ##3 13-SX-3:   WELL
 FLD .             TEAPOT:   FIELD
 LOC .       S3 T38N R78W:   LOCATION
 CNTY.            NATRONA:   COUNTY
 STAT.            WYOMING:   STATE
 CTRY. UNITED STATES OF AMERICA:   COUNTRY
 SRVC.       Schlumberger:   SERVICE COMPANY
 DATE.        25-FEB-1977:   LOGDATE
 API .       490251028400:   API NUMBER
~CURVE INFORMATION
#MNEM.UNIT       API CODE    CURVE DESCRIPTION
#----------   ------------   ------------------------------
 DEPT.F                  :   
 SPR .MV     07 010 01 00:   SPONTANEOUS POTENTIAL
 ILD .OHMM   07 120 46 00:   INDUCTION LOG DEEP
 LL8 .OHMM   07 220 08 00:   LATEROLOG-8 RES.
 ILM .OHMM   07 120 44 00:   INDUCTION LOG MEDIUM
 GRD .GAPI   45 310 01 00:   GAMMA RAY FROM DENSITY LOG
 CALD.IN     45 280 60 00:   CALIPER
 RHOB.G/C3   45 350 01 00:   BULK DENSITY
 CORR.G/C3   45 356 01 00:   DENSITY CORRECTION
 DPOR.DEC    45 890 12 00:   DENSITY POROSITY SANDSTONE
~PARAMETER INFORMATION
#MNEM.UNIT          VALUE    DESCRIPTION
#----------   ------------   ------------------------------
 PD  .                 GL:   PERMANENT DATUM
 EPD .F              5227:   ELEVATION PERMANENT DATUM
 LMF .                 GL:   LOG MEASURED FROM
 DMF .                 GL:   DRILLING MEASURED FROM
 EKB .F              5232:   KELLING BUSHING
 EGL .F              5227:   GROUND LEVEL
 DATE.          2-25-1977:   RUN DATE
 RUN .                  1:   RUN NUMBER
 DD  .F               629:   DEPTH DRILLER
 DL  .F               626:   DEPTH LOGGER
 BLI .F               620:   BOTTOM LOG INTERVAL
 TLI .F                40:   TOP LOG INTERVAL
 CS  .IN            8.625:   CASING SIZE
 CBD .F                40:   CASING BOTTOM DRILLER
 CBL .F                40:   CASING BOTTOM LOGGER
 BS  .IN            7.875:   BIT SIZE
 BSD .F               629:   BIT SIZE AT DEPTH
 DFT .                KCL:   DRILLING FLUID TYPE
 DFD .                8.8:   DRILLING FLUID DENSITY
 DFV .                 45:   DRILLING FLUID VISCOSITY
 DFPH.                  8:   DRILLING FLUID PH
 DFL .                8.2:   DRILLING FLUID LOSS
 MSS .                PIT:   MUD SAMPLE SOURCE
 RMS .OHMM           .508:   RESISTIVITY MUD SAMPLE
 MST .F                60:   MUD SAMPLE TEMPERATURE
 RMF .OHMM           .419:   RESISTIVITY MUD FILTRATE SAMPLE
 MFST.F                58:   MUD FILTRATE SAMPLE TEMPERATURE
 MFSS.                  M:   MUD FILTRATE SAMPLE SOURCE
 RMB .OHMM            .41:   RESISTIVITY MUD AT BHT
 BHT .F                75:   BOTTOM HOLE TEMPERATURE
 TCS .HRS            1700:   TIME CURCULATED STOPPED
 TLAB.HRS            2130:   TIME LOGGER AT BOTTOM
 MRT .F                75:   MAXIMUM RECORDED TEMPERATURE
 LUN .               5642:   LOGGING UNIT NUMBER
 LUL .               CSPR:   LOGGING UNIT LOCATION
 ENGI.             MARTIN:   RECORDING ENGINEER
 CLNT.            A2DTECH:   CLIENT CODE
 ORIG.       2", 5" PRINT:   ORIGIN OF DATA
 UWI .       490251028400:   UNIQUE WELL ID
 DICO. A2D Technologies, Inc.:   DIGITIZING COMPANY
~OTHER INFORMATION
~A   DEPT      SPR        ILD        LL8        ILM         GRD      CALD         RHOB     CORR       DPOR   
   28.5000  -999.2500  -999.2500  -999.2500  -999.2500    97.8044  -999.2500     2.2658  -999.2500  -999.2500
   29.0000  -999.2500  -999.2500  -999.2500  -999.2500    98.4193     8.4052     2.2642    -0.2287     0.2327
   29.5000  -999.2500  -999.2500  -999.2500  -999.2500    95.5762     8.3852     2.2671    -0.2251     0.2299
   30.0000  -999.2500  -999.2500  -999.2500  -999.2500    91.5455     8.3852     2.2680    -0.2267     0.2320
   30.5000  -999.2500  -999.2500  -999.2500  -999.2500    92.2998     8.3851     2.2614    -0.2309     0.2340
   31.0000  -999.2500  -999.2500  -999.2500  -999.2500    93.6022     8.3852     2.2556    -0.2365     0.2370
   31.5000  -999.2500  -999.2500  -999.2500  -999.2500    95.3483     8.3852     2.2484    -0.2378     0.2423
   32.0000  -999.2500  -999.2500  -999.2500  -999.2500    97.1225     8.3852     2.2583    -0.2342     0.2384
   32.5000  -999.2500  -999.2500  -999.2500  -999.2500    98.9414     8.3853     2.2663    -0.2327     0.2327
   33.0000  -999.2500  -999.2500  -999.2500  -999.2500    99.3985     8.3854     2.2585    -0.2383     0.2415
   33.5000  -999.2500  -999.2500  -999.2500  -999.2500    98.0999     8.3845     2.2545    -0.2415     0.2333
   34.0000  -999.2500  -999.2500  -999.2500  -999.2500    94.8041     8.3661     2.2734    -0.2356     0.2254
   34.5000  -999.2500  -999.2500  -999.2500  -999.2500    96.2513     8.3478     2.2859    -0.2382     0.2196
   35.0000  -999.2500  -999.2500  -999.2500  -999.2500    99.0494     8.3297     2.2666    -0.2455     0.2322
   35.5000  -999.2500  -999.2500  -999.2500  -999.2500   101.5370     8.3118     2.2510    -0.2514     0.2431
   36.0000  -999.2500  -999.2500  -999.2500  -999.2500    99.5134     8.2938     2.2418    -0.2460     0.2455
   36.5000  -999.2500  -999.2500  -999.2500  -999.2500   100.3405     8.2990     2.2296    -0.2582     0.2639
   37.0000  -999.2500  -999.2500  -999.2500  -999.2500   100.7523     8.3232     2.1707    -0.2715     0.2774
   37.5000  -999.2500  -999.2500  -999.2500  -999.2500   101.5595     8.3471     2.1068    -0.2738     0.2914
   38.0000  -999.2500  -999.2500  -999.2500  -999.2500   103.7409     8.3588     2.0455    -0.2705     0.3006
   38.5000  -999.2500  -999.2500  -999.2500  -999.2500   105.8737     8.3290     2.0021    -0.2722     0.3009
   39.0000  -109.4580  -999.2500  -999.2500  -999.2500   107.9905     8.3001     2.0022    -0.2745     0.3012
   39.5000  -113.0033  -999.2500  -999.2500  -999.2500   109.9881     8.2690     2.0016    -0.2737     0.3404
   40.0000  -117.5318  -999.2500  1865.9908  -999.2500   115.8644     8.3239     2.0011    -0.2666     0.4649
   40.5000  -121.1873  -999.2500  1765.2781  -999.2500   122.7546     8.4085     2.0006    -0.2555     0.5312
   41.0000  -122.7696  -999.2500  1629.5120  -999.2500   124.2546     8.7666     2.0002    -0.2201     0.4643
   41.5000  -120.4146  -999.2500   579.9700  -999.2500   125.5379     9.1435     1.9995    -0.1327     0.5101
   42.0000  -122.0678  -999.2500  1196.5551  -999.2500   127.7241     9.3997     1.9997    -0.0164     0.5078
   42.5000  -121.0336     1.6750   228.5591     1.4337   132.2817     8.7878     2.0009    -0.0253     0.3002
   43.0000  -118.3607     2.6860   328.0118     2.3002   136.0290     8.2876     1.9968    -0.0170     0.3002
   43.5000  -116.8543     5.4547   290.8577     6.1090   135.7305     8.2464     2.3088    -0.0074     0.1573
   44.0000  -118.5439     5.3140   307.4518     6.0436   132.6351     8.2934     2.4057    -0.0026     0.1479
   44.5000  -125.8714     6.3833   300.4255    10.3639   133.7022     8.3433     2.4118     0.0019     0.1463
   45.0000  -133.1581     6.0388   242.8663    12.1079   135.3660     8.3479     2.4131     0.0062     0.1448
   45.5000  -136.4709    10.5307   179.8230    13.5004   134.5285     8.3498     2.4125     0.0081     0.1432
   46.0000  -134.4373     9.2398   243.5692     6.3246   133.4270     8.3520     2.4063     0.0018     0.1459
   46.5000  -143.2734     8.2289   359.7908     6.4975   133.8769     8.3543     2.4037    -0.0012     0.1497
   47.0000  -152.7966     7.4007   334.1347     6.6238   132.7288     8.3565     2.4102     0.0042     0.1455
   47.5000  -157.1234     8.0962   368.2055     6.1431   131.3274     8.3587     2.4167     0.0106     0.1416
   48.0000  -152.8448     8.7845   405.7504     6.9344   129.9127     8.3610     2.4162     0.0051     0.1442
   48.5000  -143.3354     9.7675   257.9121     8.2455   129.2317     8.3642     2.4101     0.0046     0.1477
   49.0000  -133.8522     9.4281   347.6173     8.9875   130.8106     8.3813     2.4041     0.0097     0.1511
   49.5000  -126.7914     8.9635   555.6548     7.6624   133.4512     8.3731     2.4021     0.0063     0.1548
   50.0000  -127.8977     8.5218   579.2506     7.2456   136.5732     8.3593     2.4112     0.0072     0.1450
   50.5000  -126.2464     8.1019  1538.7640     7.1792   135.8756     8.3457     2.4143     0.0098     0.1434
   51.0000  -121.5963     7.7549  1437.4771     7.1135   135.7658     8.3322     2.4097     0.0123     0.1461
   51.5000  -117.3689     7.6094   462.6916     7.0668   137.2346     8.3188     2.4147     0.0147     0.1451
   52.0000  -119.3760     7.8249  1093.1016     7.3561   133.3023     8.3055     2.4121     0.0139     0.1450
   52.5000  -122.5632     7.9971  1535.4226     7.6199   128.7787     8.2921     2.4046     0.0058     0.1499
   53.0000  -125.7677     8.1720  1565.3242     7.8925   124.1242     8.2945     2.4053     0.0108     0.1479
   53.5000  -127.4140     8.3820  1522.4958     8.1046   122.7933     8.3118     2.4058     0.0217     0.1489
   54.0000  -125.2333     8.6308  1265.4204     8.2387   121.8922     8.3291     2.4017     0.0175     0.1528
   54.5000  -124.7836     8.8228   393.0462     8.3751   123.1239     8.3468     2.3826     0.0099     0.1603
   55.0000  -125.2840     8.9875   322.0011     8.4242   125.9049     8.3644     2.3736     0.0098     0.1678
   55.5000  -124.7539     8.8528  1287.1698     8.3466   129.3829     8.3480     2.3678     0.0133     0.1721
   56.0000  -125.0655     8.7458  1550.9158     8.2439   128.1735     8.3288     2.3647     0.0074     0.1649
   56.5000  -126.0676     8.6400  1551.3114     8.1319   126.6172     8.3097     2.3800    -0.0016     0.1689
   57.0000  -126.6212     8.5355  1552.9841     8.0216   129.0259     8.2899     2.3904    -0.0041     0.1570
   57.5000  -126.9823     8.4321  1553.1759     7.9128   127.1101     8.2922     2.3877    -0.0007     0.1604
   58.0000  -127.3560     8.3304  1554.1100     7.8055   125.2238     8.3011     2.4161     0.0027     0.1520
   58.5000  -126.5694     8.1883  1555.0439     7.6995   128.6311     8.3102     2.4126     0.0046     0.1441
   59.0000  -125.6328     8.1615  1555.9784     7.5950   131.0074     8.3193     2.4112     0.0039     0.1441
   59.5000  -124.6952     8.1348  1556.9135     7.4672   133.4382     8.3285     2.4164     0.0057     0.1422
   60.0000  -123.9622     8.1183  1557.8491     7.5787   135.7627     8.3377     2.4213     0.0025     0.1402
   60.5000  -124.9890     8.1937  1558.7853     7.6925   130.8959     8.3449     2.4228    -0.0020     0.1387
   61.0000  -126.3969     8.1755  1559.7220     7.8046   127.4451     8.3203     2.4200    -0.0054     0.1400
   61.5000  -127.0648     8.1521  1560.6594     7.9187   125.1578     8.2931     2.4214    -0.0009     0.1401
   62.0000  -127.5074     8.1287  1561.5973     7.9695   125.7933     8.2674     2.4311     0.0033     0.1388
   62.5000  -126.2005     8.1182  1562.5358     7.9254   126.8998     8.3038     2.4273     0.0052     0.1375
   63.0000  -125.3825     8.1514  1563.4747     7.8674   126.9507     8.3058     2.4233     0.0071     0.1383
   63.5000  -126.4280     8.1816  1564.4143     7.8097   126.9473     8.3047     2.4218     0.0091     0.1407
   64.0000  -127.4266     8.2733  1565.3545     7.7525   126.9564     8.2453     2.4131     0.0107     0.1433
   64.5000  -128.1544     8.1857  1566.2952     7.6957   127.2242     8.0719     2.4044    -0.0013     0.1478
