~VERSION INFORMATION
 VERS.                2.0:   CWLS LOG ASCII STANDARD - VERSION 2.0
 WRAP.                 NO:   ONE LINE PER DEPTH STEP
~WELL INFORMATION
#MNEM.UNIT      DATA TYPE    INFORMATION
#----------   ------------   ------------------------------
 STRT.F           83.0000:   START DEPTH
 STOP.F         3044.0000:   STOP DEPTH
 STEP.F            0.5000:   STEP LENGTH
 NULL.          -999.2500:   NO VALUE
 COMP.   TESORO PETROLEUM:   COMPANY
 WELL.  NPR # 3  AX #81-4:   WELL
 FLD .        TEAPOT DOME:   FIELD
 LOC .       S4 T38N R78W:   LOCATION
 CNTY.            NATRONA:   COUNTY
 STAT.            WYOMING:   STATE
 CTRY. UNITED STATES OF AMERICA:   COUNTRY
 SRVC.       Schlumberger:   SERVICE COMPANY
 DATE.        31-JUL-1969:   LOGDATE
 API .       490251002700:   API NUMBER
~CURVE INFORMATION
#MNEM.UNIT       API CODE    CURVE DESCRIPTION
#----------   ------------   ------------------------------
 DEPT.F                  :   
 CILD.MMHO   05 110 46 00:   CONDUCTIVITY INDUCTION LOG DEEP
 ILD .OHMM   05 120 46 00:   INDUCTION LOG DEEP
 SN  .OHMM   05 040 16 00:   SHORT NORMAL 16"
 SPR .MV     05 010 01 00:   SPONTANEOUS POTENTIAL FROM RES.
 CALD.IN     45 280 60 00:   CALIPER FROM DENSITY
 DPHI.DEC    45 890 12 00:   DENSITY POROSITY SANDSTONE
 GRD .GAPI   45 310 01 00:   GAMMA RAY FROM DENSITY LOG
 RHOB.G/C3   45 350 01 00:   BULK DENSITY
 DRHO.G/C3   45 356 01 00:   DENSITY CORRECTION
~PARAMETER INFORMATION
#MNEM.UNIT          VALUE    DESCRIPTION
#----------   ------------   ------------------------------
 PD  .                 GL:   PERMANENT DATUM
 EPD .F              5170:   ELEVATION PERMANENT DATUM
 LMF .                 KB:   LOG MEASURED FROM
 DAPD.F                13:   FEET ABOVE PERMANENT DATUM
 DMF .                 KB:   DRILLING MEASURED FROM
 EKB .F              5183:   KELLING BUSHING
 EGL .F              5170:   GROUND LEVEL
 DATE.            7-31-69:   RUN DATE
 RUN .                  2:   RUN NUMBER
 DD  .F              3047:   DEPTH DRILLER
 DL  .F              3044:   DEPTH LOGGER
 BLI .F              3043:   BOTTOM LOG INTERVAL
 TLI .F               626:   TOP LOG INTERVAL
 CS  .IN            10.75:   CASING SIZE
 CBD .F               625:   CASING BOTTOM DRILLER
 CBL .F               626:   CASING BOTTOM LOGGER
 BS  .IN             6.25:   BIT SIZE
 BSD .F              3047:   BIT SIZE AT DEPTH
 DFT .      FRESH GEL MUD:   DRILLING FLUID TYPE
 DFD .                9.7:   DRILLING FLUID DENSITY
 DFV .                 50:   DRILLING FLUID VISCOSITY
 DFPH.                9.5:   DRILLING FLUID PH
 DFL .                  8:   DRILLING FLUID LOSS
 MSS .          FLOW LINE:   MUD SAMPLE SOURCE
 RMS .OHMM           1.35:   RESISTIVITY MUD SAMPLE
 MST .F                74:   MUD SAMPLE TEMPERATURE
 RMF .OHMM            .81:   RESISTIVITY MUD FILTRATE SAMPLE
 MFST.F                74:   MUD FILTRATE SAMPLE TEMPERATURE
 MFSS.                  M:   MUD FILTRATE SAMPLE SOURCE
 RMB .OHMM            .83:   RESISTIVITY MUD AT BHT
 BHT .F               121:   BOTTOM HOLE TEMPERATURE
 TCS .HRS               4:   TIME CURCULATED STOPPED
 MRT .F               121:   MAXIMUM RECORDED TEMPERATURE
 LUN .               4507:   LOGGING UNIT NUMBER
 LUL .               CSPR:   LOGGING UNIT LOCATION
 ENGI.               MIXA:   RECORDING ENGINEER
 WITN.                MAY:   WITNESSED BY
 CLNT.            A2DTECH:   CLIENT CODE
 ORIG.     1", 2.5" PRINT:   ORIGIN OF DATA
 UWI .       490251002700:   UNIQUE WELL ID
 DICO. A2D Technologies, Inc.:   DIGITIZING COMPANY
~OTHER INFORMATION
~A   DEPT      CILD       ILD         SN        SPR       CALD       DPHI        GRD       RHOB       DRHO   
# ...
 2419.0000   221.4537     4.2587     5.9003   -15.2742    10.1866     0.0365   106.4276     2.5958     0.0225
 2419.5000   230.9542     4.0979     5.9019   -14.9519    10.2064     0.0414   108.8451     2.5817     0.0228
 2420.0000   238.3747     3.9783     5.9034   -14.8765    10.2060     0.0517   109.3996     2.5908     0.0240
 2420.5000   241.0398     3.9310     5.7043   -15.3311    10.2055     0.0501   109.9648     2.5737     0.0387
 2421.0000   237.6013     3.8251     5.3806   -15.9711    10.2051     0.0413   108.2116     2.5610     0.0542
 2421.5000   235.1728     3.8877     5.0568   -16.2917    10.2046     0.0404   103.7139     2.5802     0.0587
 2422.0000   231.2732     3.9814     4.9751   -15.9462    10.2042     0.0532   101.2202     2.5844     0.0506
 2422.5000   229.1152     3.9822     5.2884   -15.4873    10.2037     0.0623    99.5235     2.5719     0.0374
 2423.0000   225.2816     4.1476     5.7572   -15.1651    10.2033     0.0594    99.5135     2.5636     0.0360
 2423.5000   214.4217     4.3825     6.0702   -15.0509    10.2028     0.0473    99.5035     2.5479     0.0413
 2424.0000   199.5070     4.5449     6.3832   -15.0494    10.2023     0.0394    99.4935     2.5585     0.0459
 2424.5000   193.0452     4.7073     6.5405   -15.0478    10.2019     0.0388    97.6669     2.5719     0.0459
 2425.0000   188.9462     4.8697     6.7043   -15.0463    10.2015     0.0412    96.3474     2.5751     0.0402
 2425.5000   185.0412     4.9156     6.8551   -15.0445    10.2010     0.0460    94.6431     2.5757     0.0315
 2426.0000   181.8112     4.9166     6.8567   -15.0430    10.2006     0.0514    94.7358     2.5768     0.0268
 2426.5000   179.6469     5.0721     6.8583   -15.3502    10.2001     0.0507    95.6331     2.5633     0.0228
 2427.0000   176.8929     5.2276     6.8938   -15.6573    10.1997     0.0406    97.0211     2.5752     0.0217
 2427.5000   176.0609     5.2284     7.0171   -15.9645    10.1993     0.0364    97.0105     2.5827     0.0237
 2428.0000   172.9610     5.2291     7.0665   -16.2797    10.1988     0.0414    97.0000     2.5752     0.0275
 2428.5000   169.8634     5.3847     7.1760   -16.5788    10.2102     0.0485    96.7216     2.5647     0.0330
 2429.0000   168.3091     5.3854     7.2391   -16.2685    10.2278     0.0461    97.8802     2.5572     0.0372
 2429.5000   169.8412     5.3862     7.3349   -16.1777    10.2273     0.0417   102.0457     2.5641     0.0406
 2430.0000   176.0030     5.3870     7.4117   -15.6481    10.2269     0.0365   105.2858     2.5759     0.0430
 2430.5000   182.3781     5.3878     7.4116   -15.6466    10.2450     0.0329   105.1846     2.5833     0.0455
 2431.0000   188.6841     5.3517     7.2505   -15.6451    10.2558     0.0326   104.7681     2.5931     0.0480
 2431.5000   193.5020     5.2345     6.9936   -15.6435    10.2554     0.0351   106.6175     2.5881     0.0492
 2432.0000   197.5635     5.1341     6.6698   -15.6420    10.2548     0.0383   108.9621     2.5739     0.0513
 2432.5000   197.2319     4.8691     6.4557   -15.6404    10.2544     0.0438   111.3618     2.5690     0.0537
 2433.0000   195.9954     4.7082     6.2946   -15.5098    10.2540     0.0460   111.9542     2.5725     0.0558
 2433.5000   197.3362     4.6184     6.2570   -15.3287    10.2536     0.0333   111.9442     2.5819     0.0570
 2434.0000   201.6349     4.4634     6.5703   -15.3272    10.2531     0.0251   111.3043     2.5947     0.0570
 2434.5000   205.4258     4.3952     6.5718   -15.3256    10.2527     0.0293   110.7194     2.6042     0.0509
 2435.0000   208.9441     4.4659     6.8848   -15.3241    10.2522     0.0329   111.3118     2.6053     0.0421
 2435.5000   206.9646     4.5651     6.5748   -15.5120    10.2518     0.0371   110.7972     2.5971     0.0347
 2436.0000   201.2977     4.6223     6.1049   -16.0327    10.2513     0.0425   107.1350     2.5823     0.0316
 2436.5000   195.6095     4.7352     5.7990   -16.4591    10.2509     0.0468   102.0509     2.5703     0.0316
 2437.0000   190.0735     4.8976     5.8480   -16.1006    10.2504     0.0485   101.6295     2.5643     0.0351
 2437.5000   184.2527     5.2439     6.3149   -15.4576    10.2500     0.0443   102.9048     2.5628     0.0396
 2438.0000   177.8043     5.3995     6.6714   -15.0059    10.2496     0.0328   105.7812     2.5628     0.0439
 2438.5000   171.3536     5.5550     7.1243   -15.3130    10.2491     0.0250   107.0196     2.5692     0.0469
 2439.0000   164.9043     6.0202     7.4512   -15.6202    10.2487     0.0256   105.2300     2.5790     0.0481
 2439.5000   154.1761     6.3305     7.7278   -15.9274    10.2482     0.0296   102.4317     2.5995     0.0466
 2440.0000   149.5354     6.4912     7.9491   -16.2345    10.2478     0.0323   100.3009     2.6007     0.0386
 2440.5000   147.9811     6.6416     8.1480   -16.2330    10.2473     0.0313   101.1128     2.5931     0.0267
 2441.0000   146.4268     6.6424     8.0786   -16.5541    10.2468     0.0297   103.9529     2.5962     0.0151
 2441.5000   151.0453     6.6432     7.9953   -16.8473    10.2464     0.0359   106.3525     2.5941     0.0073
 2442.0000   155.6966     6.6114     7.9123   -16.8457    10.2459     0.0460   106.3426     2.5796     0.0033
 2442.5000   157.1959     6.4899     7.8427   -16.7940    10.2455     0.0507   105.7301     2.5677     0.0022
 2443.0000   157.0178     6.4907     7.8442   -16.4718    10.2451     0.0532   106.3716     2.5600     0.0035
 2443.5000   155.3963     6.4915     7.9510   -16.0753    10.2446     0.0521   108.3657     2.5571     0.0094
 2444.0000   154.0741     6.4923     8.1153   -15.6049    10.2442     0.0420   111.2030     2.5575     0.0188
 2444.5000   154.0625     6.4930     8.3986   -15.6034    10.2437     0.0324   112.0584     2.5623     0.0273
 2445.0000   154.0509     6.4938     8.4738   -15.6019    10.2433     0.0252   112.3253     2.5722     0.0347
 2445.5000   154.5367     6.4946     8.6311   -15.8458    10.2428     0.0204   107.2317     2.5819     0.0381
 2446.0000   156.1344     6.4954     8.7883   -16.3509    10.2424     0.0210   103.6354     2.5924     0.0385
 2446.5000   157.1026     6.4961     8.6340   -16.6700    10.2419     0.0348   103.4832     2.5999     0.0372
 2447.0000   157.7868     6.4969     8.4798   -16.8302    10.2415     0.0354   104.9463     2.5998     0.0356
 2447.5000   159.3849     6.4977     8.3210   -16.9997    10.2410     0.0293   106.5399     2.5923     0.0302
 2448.0000   160.9825     6.4985     8.1485   -17.1358    10.2406     0.0246   107.5104     2.5970     0.0236
 2448.5000   162.5801     6.4992     7.8612   -16.9390    10.2401     0.0364   107.2570     2.5983     0.0188
 2449.0000   163.2176     6.5001     7.8629   -16.4094    10.2397     0.0433   106.3872     2.5832     0.0157
 2449.5000   161.1521     6.5009     7.8645   -15.7665    10.2393     0.0498   104.4087     2.5694     0.0133
 2450.0000   157.9209     6.5016     7.9439   -15.1235    10.2387     0.0525   101.9557     2.5597     0.0108
 2450.5000   154.6917     6.6571     8.1791   -14.9676    10.2682     0.0492   103.1506     2.5600     0.0108
 2451.0000   150.8233     6.6579     8.2861   -14.9658    10.2677     0.0480   103.7430     2.5650     0.0108
 2451.5000   147.7258     6.6587     8.6129   -15.8902    10.2673     0.0518   104.3354     2.5637     0.0108
 2452.0000   146.1715     6.6594     8.8733   -16.5060    10.2669     0.0547   104.2943     2.5581     0.0108
 2452.5000   147.7036     6.6602     8.9642   -16.8132    10.2664     0.0525   100.8762     2.5534     0.0108
 2453.0000   149.2357     6.6891     8.8855   -17.4290    10.2660     0.0477    94.2355     2.5556     0.0108
 2453.5000   150.7678     6.8166     8.6374   -17.4124    10.2724     0.0449    91.0424     2.5651     0.0098
 2454.0000   150.7562     6.8173     8.5016   -16.7695    10.3035     0.0407    94.5928     2.5727     0.0094
 2454.5000   150.5992     6.8181     8.3015   -16.1582    10.3243     0.0355    96.6116     2.5755     0.0099
 2455.0000   148.9777     6.8189     8.3009   -15.8359    10.3358     0.0427    97.0331     2.5800     0.0114
