~VERSION INFORMATION
 VERS.                2.0:   CWLS LOG ASCII STANDARD - VERSION 2.0
 WRAP.                 NO:   ONE LINE PER DEPTH STEP
~WELL INFORMATION
#MNEM.UNIT      DATA TYPE    INFORMATION
#----------   ------------   ------------------------------
 STRT.F           30.0000:   START DEPTH
 STOP.F          468.0000:   STOP DEPTH
 STEP.F            0.1000:   STEP LENGTH
 NULL.          -999.2500:   NO VALUE
 COMP. LAWRENCE/ALLISON INC:   COMPANY
 WELL.    72-12 SX #10-10:   WELL
 FLD .             TEAPOT:   FIELD
 LOC .      S10 T38N R78W:   LOCATION
 CNTY.            NATRONA:   COUNTY
 STAT.            WYOMING:   STATE
 CTRY. UNITED STATES OF AMERICA:   COUNTRY
 SRVC.           Gearhart:   SERVICE COMPANY
 DATE.        17-MAY-1988:   LOGDATE
 API .       490251122400:   API NUMBER
~CURVE INFORMATION
#MNEM.UNIT       API CODE    CURVE DESCRIPTION
#----------   ------------   ------------------------------
 DEPT.F                  :   
 GRR .GAPI   07 310 01 00:   GAMMA RAY
 RILD.OHMM   07 120 46 00:   INDUCTION LOG DEEP RESISTIVITY
 RILM.OHMM   07 120 44 00:   INDUCTION LOG MEDIUM RESISTIVITY
~PARAMETER INFORMATION
#MNEM.UNIT          VALUE    DESCRIPTION
#----------   ------------   ------------------------------
 PD  .                 GL:   PERMANENT DATUM
 EPD .F              5166:   ELEVATION PERMANENT DATUM
 LMF .                 KB:   LOG MEASURED FROM
 DAPD.F              10.2:   FEET ABOVE PERMANENT DATUM
 DMF .                 KB:   DRILLING MEASURED FROM
 EKB .F            5176.2:   KELLING BUSHING
 EGL .F              5166:   GROUND LEVEL
 DATE.        17-MAY-1988:   RUN DATE
 RUN .                  1:   RUN NUMBER
 DD  .F               480:   DEPTH DRILLER
 DL  .F               476:   DEPTH LOGGER
 BLI .F               468:   BOTTOM LOG INTERVAL
 TLI .F                47:   TOP LOG INTERVAL
 CS  .IN            9.625:   CASING SIZE
 CBD .F                43:   CASING BOTTOM DRILLER
 CBL .F                47:   CASING BOTTOM LOGGER
 BS  .IN             8.75:   BIT SIZE
 BSD .F               480:   BIT SIZE AT DEPTH
 DFT .                AIR:   DRILLING FLUID TYPE
 TCS .HRS            0630:   TIME CURCULATED STOPPED
 TLAB.HRS            0930:   TIME LOGGER AT BOTTOM
 LUN .               7597:   LOGGING UNIT NUMBER
 LUL .           GILLETTE:   LOGGING UNIT LOCATION
 ENGI.             SLATKY:   RECORDING ENGINEER
 WITN.             STRONG:   WITNESSED BY
 CLNT.            A2DTECH:   CLIENT CODE
 ORIG.           5" PRINT:   ORIGIN OF DATA
 UWI .       490251122400:   UNIQUE WELL ID
 DICO. A2D Technologies, Inc.:   DIGITIZING COMPANY
~OTHER INFORMATION
~A   DEPT      GRR       RILD       RILM   
# ...
  175.6000   119.8594     5.5597     6.2741
  175.7000   119.9014     5.4249     6.1691
  175.8000   120.1662     5.2744     6.0592
  175.9000   120.3927     5.1129     5.9646
  176.0000   120.6384     5.0116     5.8877
  176.1000   120.9905     4.9004     5.7926
  176.2000   121.4327     4.7914     5.6571
  176.3000   121.6904     4.6848     5.4957
  176.4000   122.1559     4.5731     5.4065
  176.5000   122.6454     4.5023     5.2947
  176.6000   123.0214     4.4103     5.1911
  176.7000   123.3214     4.3123     5.1042
  176.8000   123.8206     4.2163     5.0184
  176.9000   123.8224     4.1188     4.9072
  177.0000   123.8242     4.0097     4.7983
  177.1000   123.5849     3.9300     4.6780
  177.2000   122.9809     3.8643     4.5700
  177.3000   122.0261     3.7996     4.5176
  177.4000   121.0713     3.7355     4.4276
  177.5000   120.1165     3.6132     4.3290
  177.6000   119.1617     3.5083     4.2092
  177.7000   118.0796     3.4304     4.0852
  177.8000   117.8699     3.3730     3.9476
  177.9000   117.3236     3.3160     3.7719
  178.0000   116.6869     3.2425     3.7014
  178.1000   116.2010     3.1845     3.5952
  178.2000   115.6644     3.1312     3.4898
  178.3000   115.6661     3.0839     3.4144
  178.4000   116.3047     3.0494     3.3505
  178.5000   116.8818     3.0090     3.2851
  178.6000   116.8836     2.9952     3.2235
  178.7000   116.8856     2.9879     3.1696
  178.8000   116.6618     2.9821     3.1111
  178.9000   116.4198     2.9668     3.0178
  179.0000   116.0707     2.9874     2.9564
  179.1000   115.5849     2.9872     2.9017
  179.2000   115.0764     2.9973     2.8463
  179.3000   114.6131     3.0077     2.7829
  179.4000   114.1273     3.0097     2.7182
  179.5000   113.6414     3.0284     2.6749
  179.6000   113.1556     3.0433     2.6302
  179.7000   112.6612     3.0602     2.5862
  179.8000   112.1839     3.0772     2.5562
  179.9000   111.6980     3.0943     2.5706
  180.0000   111.2121     3.1130     2.5705
  180.1000   110.7263     3.1288     2.5923
  180.2000   110.2404     3.1463     2.6215
  180.3000   109.7546     3.1638     2.6510
  180.4000   109.2687     3.1813     2.6803
  180.5000   109.0394     3.1999     2.6954
  180.6000   108.9721     3.2168     2.7347
  180.7000   108.7399     3.2477     2.7724
  180.8000   108.9955     3.2754     2.8036
  180.9000   109.0467     3.2978     2.8341
  181.0000   109.3192     3.3354     2.8527
  181.1000   109.8848     3.3536     2.8927
  181.2000   110.6012     3.4006     2.9320
  181.3000   111.1755     3.4483     2.9708
  181.4000   111.7818     3.4870     3.0229
  181.5000   112.3727     3.5745     3.1008
  181.6000   113.0286     3.6620     3.1772
  181.7000   113.9818     3.7496     3.2676
  181.8000   114.8209     3.8371     3.3457
  181.9000   115.4485     3.9246     3.4023
  182.0000   116.3313     4.0122     3.4657
  182.1000   117.3084     4.0997     3.5187
  182.2000   118.2545     4.1872     3.5784
  182.3000   119.0723     4.2748     3.6477
  182.4000   119.7212     4.3623     3.7303
  182.5000   120.2980     4.4499     3.8199
  182.6000   120.7875     4.5374     3.9221
  182.7000   121.2388     4.6249     4.0499
  182.8000   121.5056     4.7125     4.1884
  182.9000   121.7301     4.8059     4.3368
  183.0000   121.8121     4.8564     4.5140
  183.1000   121.8139     4.9304     4.6141
  183.2000   121.8158     5.0270     4.7188
  183.3000   121.8177     5.1408     4.8394
  183.4000   121.8194     5.2597     4.9695
  183.5000   121.8212     5.3767     5.0818
  183.6000   121.8230     5.4988     5.1973
  183.7000   121.8248     5.6074     5.3153
  183.8000   121.8267     5.7024     5.4358
  183.9000   121.5915     5.7988     5.5497
  184.0000   121.5273     5.8973     5.6452
  184.1000   121.5291     5.9973     5.7979
  184.2000   121.5309     6.0801     5.8775
  184.3000   121.5327     6.1485     5.9771
  184.4000   121.5345     6.2176     6.0671
  184.5000   121.5364     6.2995     6.1353
  184.6000   121.6638     6.3585     6.2150
  184.7000   121.8430     6.4300     6.2743
  184.8000   121.8521     6.4894     6.3233
  184.9000   122.0978     6.5256     6.3587
  185.0000   122.5354     6.5666     6.3988
  185.1000   122.8921     6.5988     6.4792
  185.2000   123.2113     6.6357     6.5113
  185.3000   123.6865     6.6728     6.5241
  185.4000   123.9773     6.7101     6.5387
  185.5000   124.1778     6.7505     6.5694
  185.6000   124.2836     6.7503     6.5692
  185.7000   124.2855     6.7500     6.6030
  185.8000   124.2658     6.7497     6.6147
  185.9000   123.9863     6.7494     6.6309
  186.0000   123.9879     6.7491     6.6606
  186.1000   123.9897     6.7488     6.6603
  186.2000   123.9038     6.7486     6.6602
  186.3000   123.6901     6.7483     6.6869
  186.4000   123.6924     6.7480     6.7063
  186.5000   123.4808     6.7477     6.7061
  186.6000   123.2388     6.7474     6.7059
  186.7000   123.0915     6.7179     6.7058
  186.8000   123.0578     6.6800     6.6773
  186.9000   122.7923     6.6423     6.6589
  187.0000   122.7939     6.6048     6.6485
  187.1000   122.6348     6.5609     6.6111
  187.2000   122.3927     6.5606     6.5740
  187.3000   122.1507     6.5390     6.5370
  187.4000   121.8922     6.5021     6.5002
  187.5000   121.8939     6.4654     6.4637
  187.6000   121.8958     6.4240     6.4248
  187.7000   121.7887     6.3927     6.3407
  187.8000   121.5964     6.3345     6.3112
  187.9000   121.5983     6.2634     6.2551
  188.0000   121.3657     6.1983     6.1971
  188.1000   121.2988     6.1601     6.1586
  188.2000   121.1847     6.1285     6.0805
  188.3000   120.9994     6.0940     6.0216
  188.4000   121.0012     6.0596     5.9751
  188.5000   121.2444     6.0254     5.9415
  188.6000   121.4901     5.9898     5.9081
  188.7000   121.8588     5.9258     5.8716
  188.8000   122.4121     5.8594     5.8124
  188.9000   123.1500     5.7937     5.7687
  189.0000   124.1273     5.7287     5.7228
  189.1000   125.2938     5.6644     5.6587
  189.2000   126.6449     5.5697     5.5916
  189.3000   127.9679     5.5233     5.5329
  189.4000   128.9569     5.4922     5.4924
  189.5000   130.4155     5.4612     5.4337
  189.6000   131.2025     5.4303     5.3557
  189.7000   132.1796     5.3938     5.3249
  189.8000   133.0788     5.3693     5.2957
  189.9000   133.7746     5.3390     5.2659
  190.0000   134.0609     5.3088     5.2363
  190.1000   134.2659     5.2789     5.2143
  190.2000   134.3673     5.2447     5.2141
  190.3000   134.2840     5.2195     5.2140
  190.4000   134.0677     5.1900     5.1913
  190.5000   134.0699     5.1608     5.1775
  190.6000   133.6505     5.1316     5.1774
  190.7000   133.1646     5.0997     5.1772
  190.8000   132.5867     5.0995     5.1771
  190.9000   131.8240     5.0993     5.1769
  191.0000   130.7457     5.0991     5.1768
  191.1000   129.4418     5.0989     5.1863
  191.2000   128.4557     5.0987     5.2127
  191.3000   127.7261     5.0985     5.2125
  191.4000   127.0363     5.0983     5.2373
  191.5000   126.5123     5.0981     5.2666
  191.6000   125.8400     5.0978     5.2961
  191.7000   125.2758     5.0976     5.3257
  191.8000   124.6836     5.1258     5.3590
  191.9000   123.9539     5.1328     5.3856
  192.0000   123.1880     5.1623     5.4354
  192.1000   122.4945     5.2123     5.4841
  192.2000   121.7649     5.2424     5.5148
  192.3000   121.0352     5.3015     5.5480
  192.4000   120.3054     5.3612     5.6057
  192.5000   119.5606     5.4045     5.6471
  192.6000   119.3236     5.4445     5.6929
  192.7000   119.2612     5.5032     5.7504
  192.8000   119.3834     5.5389     5.7839
  192.9000   119.6291     5.5914     5.8465
  193.0000   119.8768     5.6351     5.9123
  193.1000   120.3663     5.6783     5.9789
  193.2000   121.2291     5.7421     6.0461
  193.3000   121.9513     5.8140     6.1143
  193.4000   122.4408     5.8429     6.1830
  193.5000   122.9394     5.8971     6.2527
  193.6000   123.6727     5.9634     6.3231
  193.7000   124.2123     6.0364     6.3942
