~VERSION INFORMATION
 VERS.                2.0:   CWLS LOG ASCII STANDARD - VERSION 2.0
 WRAP.                 NO:   ONE LINE PER DEPTH STEP
~WELL INFORMATION
#MNEM.UNIT      DATA TYPE    INFORMATION
#----------   ------------   ------------------------------
 STRT.F           60.0000:   START DEPTH
 STOP.F         1143.0000:   STOP DEPTH
 STEP.F            0.5000:   STEP LENGTH
 NULL.          -999.2500:   NO VALUE
 COMP. U S NAVY-INTEX OIL:   COMPANY
 WELL.    N.P.R . 3 #63-2:   WELL
 FLD .             TEAPOT:   FIELD
 LOC .       S2 T38N R78W:   LOCATION
 CNTY.            NATRONA:   COUNTY
 STAT.            WYOMING:   STATE
 CTRY. UNITED STATES OF AMERICA:   COUNTRY
 SRVC. Schlumberger Well Surveying Corp:   SERVICE COMPANY
 DATE.        24-MAY-1964:   LOGDATE
 API .       490250645500:   API NUMBER
~CURVE INFORMATION
#MNEM.UNIT       API CODE    CURVE DESCRIPTION
#----------   ------------   ------------------------------
 DEPT.F                  :   
 SPR .MV     05 010 01 00:   SPONTANEOUS POTENTIAL FROM RES.
 ASN .OHMM   05 041 16 00:   AMPLIFIED SHORT NORMAL 16"
 ILD .OHMM   05 120 46 00:   INDUCTION LOG DEEP
 CILD.MMHO   05 110 46 00:   CONDUCTIVITY INDUCTION LOG DEEP
 CALS.IN     60 280 50 00:   CALIPER FROM SONIC LOG
 DT  .US/F   60 520 33 00:   INTERVAL TRANSIT TIME
~PARAMETER INFORMATION
#MNEM.UNIT          VALUE    DESCRIPTION
#----------   ------------   ------------------------------
 PD  .                 GL:   PERMANENT DATUM
 EPD .F              5181:   ELEVATION PERMANENT DATUM
 LMF .                 KB:   LOG MEASURED FROM
 DAPD.F                 5:   FEET ABOVE PERMANENT DATUM
 DMF .                 KB:   DRILLING MEASURED FROM
 EKB .F              5186:   KELLING BUSHING
 EGL .F              5181:   GROUND LEVEL
 DATE.        24-MAY-1964:   RUN DATE
 RUN .                  1:   RUN NUMBER
 DD  .F              1140:   DEPTH DRILLER
 DL  .F              1144:   DEPTH LOGGER
 BLI .F              1143:   BOTTOM LOG INTERVAL
 TLI .F                82:   TOP LOG INTERVAL
 CS  .IN            8.625:   CASING SIZE
 CBD .F                10:   CASING BOTTOM DRILLER
 BS  .IN            7.875:   BIT SIZE
 BSD .F              1140:   BIT SIZE AT DEPTH
 DFT .            GEL/OIL:   DRILLING FLUID TYPE
 DFD .                9.0:   DRILLING FLUID DENSITY
 DFV .                 63:   DRILLING FLUID VISCOSITY
 DFPH.                8.0:   DRILLING FLUID PH
 DFL .                7.6:   DRILLING FLUID LOSS
 MSS .           FLOWLINE:   MUD SAMPLE SOURCE
 RMS .OHMM           0.87:   RESISTIVITY MUD SAMPLE
 MST .F                84:   MUD SAMPLE TEMPERATURE
 RMF .OHMM           0.43:   RESISTIVITY MUD FILTRATE SAMPLE
 MFST.F                84:   MUD FILTRATE SAMPLE TEMPERATURE
 RMC .OHMM           1.52:   RESISTIVITY MUD CAKE
 MCST.F                84:   MUD CAKE SAMPLE TEMPERATURE
 MFSS.                 FP:   MUD FILTRATE SAMPLE SOURCE
 MCSS.                 FP:   MUD CAKE SAMPLE SOURCE
 TCS .HRS               2:   TIME CURCULATED STOPPED
 LUN .               4507:   LOGGING UNIT NUMBER
 LUL .               CSPR:   LOGGING UNIT LOCATION
 ENGI.             DANNER:   RECORDING ENGINEER
 WITN.          JORGENSEN:   WITNESSED BY
 CLNT.            A2DTECH:   CLIENT CODE
 ORIG.       2", 5" PRINT:   ORIGIN OF DATA
 UWI .       490250645500:   UNIQUE WELL ID
 DICO. A2D Technologies, Inc.:   DIGITIZING COMPANY
~OTHER INFORMATION
~A   DEPT      SPR          ASN        ILD      CILD      CALS         DT   
# ...
  684.0000   -43.1205     8.5982     6.5415   155.1205     7.8127    97.3722
  684.5000   -43.1189     8.7256     6.4208   156.3091     7.7825    96.7404
  685.0000   -43.1175     8.7356     6.3000   157.6557     7.7372    96.2254
  685.5000   -43.1160     8.6057     6.2421   160.3916     7.6918    96.0912
  686.0000   -43.1142     8.3068     6.1667   163.5394     7.7069    96.9223
  686.5000   -43.1130     8.0690     6.0879   167.1687     7.7674    97.6023
  687.0000   -43.1114     7.9160     5.9672   170.0374     7.8127    98.9615
  687.5000   -43.1099     7.8461     5.9216   172.5967     7.8278    99.7170
  688.0000   -43.1085     7.7961     5.7898   174.6988     7.8580   100.3215
  688.5000   -43.2573     7.7661     5.7551   175.0138     7.8731   100.6996
  689.0000   -43.2560     7.7491     5.7095   176.2225     7.8882   101.0028
  689.5000   -43.2545     7.7361     5.6385   176.9578     7.8882   101.1540
  690.0000   -43.2530     7.7361     5.6381   177.7108     7.8882   101.0792
  690.5000   -43.2774     7.7361     5.5627   178.4639     7.8731   100.9290
  691.0000   -43.4006     7.7361     5.5268   179.5508     7.8731   100.7788
  691.5000   -43.3417     7.7341     5.4811   181.5488     7.8731   101.1806
  692.0000   -43.2470     7.7061     5.4113   183.4739     7.8580   101.6388
  692.5000   -43.2455     7.6462     5.4862   183.7349     7.8429   102.0643
  693.0000   -43.0934     7.5562     5.4857   181.3907     7.8278   102.1405
  693.5000   -42.9411     7.4873     5.5973   178.4330     7.7825   102.4432
  694.0000   -42.9397     7.4323     5.6422   175.4752     7.6918   103.1986
  694.5000   -42.7859     7.4173     5.7848   172.5174     7.6616   103.5765
  695.0000   -42.6355     7.6062     5.8790   169.5596     7.7069   102.8228
  695.5000   -42.4501     8.0060     5.9951   166.6018     7.7372   101.7669
  696.0000   -42.3312     8.1499     6.1113   163.6441     7.7674   100.7865
  696.5000   -42.3298     8.2044     6.2312   160.6863     7.7825   100.1835
  697.0000   -42.3339     8.2516     6.2312   158.0770     7.7825    99.7314
  697.5000   -42.5741     8.2988     6.3238   155.6600     7.7976    99.2039
  698.0000   -42.6636     8.3461     6.3814   153.6145     7.7976    99.7329
  698.5000   -42.9261     8.3933     6.4920   152.8615     7.7825   100.0356
  699.0000   -43.1441     8.4405     6.5315   153.9583     7.7523    99.7344
  699.5000   -43.3751     8.4878     6.5315   155.9664     7.7221    99.2823
  700.0000   -43.3735     8.4898     6.5065   158.3789     7.6918    99.1320
  700.5000   -43.3728     8.4258     6.3814   160.7849     7.6988    99.4449
  701.0000   -43.3720     8.2174     6.1882   163.1908     7.7073    99.6654
  701.5000   -43.3712     8.1048     5.9915   165.5967     7.7528    99.8846
  702.0000   -43.2992     8.0360     5.8559   168.0026     7.8133   100.4151
  702.5000   -43.2053     7.9857     5.7483   170.4086     7.8285   101.4680
  703.0000   -43.0676     7.8988     5.7057   172.8145     7.7381   101.2406
  703.5000   -42.9164     7.8261     5.7563   174.9636     7.4663   101.0889
  704.0000   -42.9156     7.7913     5.8028   175.4518     7.3758   101.0127
  704.5000   -42.7643     7.7661     5.9309   173.0497     7.5120   101.2384
  705.0000   -42.6129     7.7341     5.9710   170.4445     7.5876   101.6906
  705.5000   -42.4615     7.7061     6.1677   165.6626     7.5726   101.0105
  706.0000   -42.3976     7.7661     6.2312   162.7110     7.6484   100.1041
  706.5000   -42.3095     7.9300     6.3358   159.5154     7.7996    98.7448
  707.0000   -42.3087     8.1481     6.5325   156.6265     7.8904    97.9894
  707.5000   -42.3494     8.3958     6.6542   154.1228     7.8905    97.0830
  708.0000   -42.4578     8.5721     6.8318   151.3554     7.8907    96.4784
  708.5000   -42.6077     8.7706     6.9069   148.5658     7.8908    95.7984
  709.0000   -42.7771     8.9021     6.9069   147.5904     7.8910    95.1939
  709.5000   -42.9074     8.9858     6.8318   147.5904     7.8911    95.6460
  710.0000   -42.9618     9.0054     6.6817   148.9961     7.8913    95.7962
  710.5000   -43.2071     8.9928     6.5801   152.2331     7.8763    95.5690
  711.0000   -43.2063     8.8756     6.4565   157.3795     7.8765    95.7192
  711.5000   -43.2056     8.6699     6.2617   160.5370     7.8766    96.0958
  712.0000   -43.2047     8.3658     6.0651   164.1566     7.8768    97.6921
  712.5000   -43.2041     8.1697     5.9309   167.6393     7.8618    98.5220
  713.0000   -43.2034     7.9843     5.7467   172.0562     7.8619    98.8956
  713.5000   -43.2024     7.8411     5.6306   174.6988     7.8621    99.1245
  714.0000   -43.1547     7.7825     5.7057   174.3926     7.8471   100.0165
  714.5000   -42.8998     7.7350     5.8043   172.3972     7.8171   101.1478
  715.0000   -42.8991     7.7211     5.9309   170.1996     7.7115   101.9018
  715.5000   -42.7477     7.7754     5.9725   168.3679     7.5757   102.2784
  716.0000   -42.5963     7.9610     6.0941   166.5362     7.5607   102.2021
  716.5000   -42.3840     8.1323     6.2312   164.7045     7.5760   101.8241
  717.0000   -42.2937     8.2604     6.2312   162.8727     7.5913   101.2950
  717.5000   -42.5402     8.3658     6.2337   161.0410     7.6065   100.9169
  718.0000   -42.6325     8.4522     6.3554   158.8855     7.5915   100.3878
  718.5000   -42.8938     8.5185     6.4019   157.6280     7.5765   100.1609
  719.0000   -42.8931     8.6207     6.5315   155.8735     7.5919   100.7637
  719.5000   -43.0430     8.6843     6.5700   154.6850     7.6978   101.3667
  720.0000   -43.1926     8.7856     6.6817   153.4641     7.8339   101.9698
  720.5000   -43.2450     8.8623     6.7568   151.3554     7.8793   102.1201
  721.0000   -43.3419     8.9136     6.8318   150.2685     7.8795   102.0437
  721.5000   -43.4297     8.9655     6.8318   149.0474     7.8796   101.8166
  722.0000   -43.4911     9.0019     6.9069   147.5904     7.8798   101.5139
  722.5000   -43.4901     9.0262     6.9069   147.5904     7.8799   101.2113
  723.0000   -43.4227     9.0506     6.8318   147.5904     7.8801   100.6823
  723.5000   -43.3381     9.0555     6.8318   148.7589     7.8802    99.9940
  724.0000   -43.1866     9.0555     6.7498   149.9801     7.8804    99.4732
  724.5000   -43.1410     9.0323     6.6066   150.6024     7.8805    99.5572
  725.0000   -42.8840     8.9505     6.5816   152.4222     7.8807    99.7107
  725.5000   -42.8833     8.7256     6.5315   153.6433     7.8808   100.9802
  726.0000   -42.7088     8.5623     6.4885   155.3616     7.8810   101.9606
  726.5000   -42.5805     8.4392     6.4420   157.0505     7.8811   102.7146
  727.0000   -42.4292     8.3859     6.3814   158.8855     7.8813   103.5440
  727.5000   -42.2779     8.3616     6.2738   160.0340     7.8814   103.9208
  728.0000   -42.2771     8.3358     6.2312   161.2551     7.8816   103.6180
  728.5000   -42.2764     8.3208     6.2312   161.8976     7.8817   103.6173
  729.0000   -42.2755     8.3058     6.2312   162.6506     7.8819   103.1637
  729.5000   -42.2749     8.2909     6.2312   162.6506     7.8820   102.7101
  730.0000   -42.2891     8.2849     6.2312   162.6506     7.8822   102.2565
  730.5000   -42.4239     8.2759     6.2312   161.8976     7.8823   101.8784
  731.0000   -42.5738     8.2759     6.2312   161.8976     7.8825   101.4248
  731.5000   -42.7236     8.2949     6.2312   161.5224     7.8826   101.0467
  732.0000   -42.8093     8.3658     6.2312   161.0543     7.8828   100.1403
  732.5000   -42.8728     8.4413     6.2312   159.6385     7.8829    99.6113
  733.0000   -42.8719     8.4858     6.2312   159.6385     7.8831    99.2332
  733.5000   -42.8712     8.4858     6.2312   158.8855     7.8681    99.0060
  734.0000   -42.8705     8.4858     6.3063   157.6757     7.8683    99.2317
  734.5000   -42.8697     8.4860     6.3063   156.6265     7.8533    99.8347
  735.0000   -42.8263     8.5102     6.3814   155.8735     7.8384   100.1359
  735.5000   -42.7176     8.5495     6.3814   154.7654     7.8386   100.2106
