~VERSION INFORMATION
 VERS.                2.0:   CWLS LOG ASCII STANDARD - VERSION 2.0
 WRAP.                 NO:   ONE LINE PER DEPTH STEP
~WELL INFORMATION
#MNEM.UNIT      DATA TYPE    INFORMATION
#----------   ------------   ------------------------------
 STRT.F           34.0000:   START DEPTH
 STOP.F          517.0000:   STOP DEPTH
 STEP.F            0.5000:   STEP LENGTH
 NULL.          -999.2500:   NO VALUE
 COMP.    FENIX & SCISSON:   COMPANY
 WELL.       NPR #77-S-10:   WELL
 FLD .             TEAPOT:   FIELD
 LOC .      S10 T38N R78W:   LOCATION
 CNTY.            NATRONA:   COUNTY
 STAT.            WYOMING:   STATE
 CTRY. UNITED STATES OF AMERICA:   COUNTRY
 SRVC.              Welex:   SERVICE COMPANY
 DATE.        16-APR-1977:   LOGDATE
 API .       490251033600:   API NUMBER
~CURVE INFORMATION
#MNEM.UNIT       API CODE    CURVE DESCRIPTION
#----------   ------------   ------------------------------
 DEPT.F                  :   
 SPR .MV     07 010 01 00:   SPONTANEOUS POTENTIAL
 ILD .OHMM   07 120 46 00:   INDUCTION LOG DEEP
 ILM .OHMM   07 120 44 00:   INDUCTION LOG MEDIUM
 SGRD.OHMM   07 221 05 00:   SHALLOW SHORT GUARD RESISTIVITY
 CALD.IN     45 280 60 00:   CALIPER FROM DENSITY LOG
 GRD .GAPI   45 310 01 00:   GAMMA RAY FROM DENSITY LOG
 CORR.G/C3   45 356 01 00:   DENSITY CORRECTION
 RHOB.G/C3   45 350 01 00:   BULK DENSITY
 DPHI.DEC    45 890 12 00:   DENSITY POROSITY SANDSTONE
~PARAMETER INFORMATION
#MNEM.UNIT          VALUE    DESCRIPTION
#----------   ------------   ------------------------------
 PD  .                 GL:   PERMANENT DATUM
 EPD .F              5210:   ELEVATION PERMANENT DATUM
 LMF .                 GL:   LOG MEASURED FROM
 DMF .                 GL:   DRILLING MEASURED FROM
 EGL .F              5210:   GROUND LEVEL
 DATE.        16-APR-1977:   RUN DATE
 RUN .                  1:   RUN NUMBER
 DD  .F               525:   DEPTH DRILLER
 DL  .F               519:   DEPTH LOGGER
 BLI .F               517:   BOTTOM LOG INTERVAL
 TLI .F                30:   TOP LOG INTERVAL
 CS  .IN            8.625:   CASING SIZE
 BS  .IN            7.875:   BIT SIZE
 BSD .F               525:   BIT SIZE AT DEPTH
 DFT .            KCL MUD:   DRILLING FLUID TYPE
 DFD .                8.9:   DRILLING FLUID DENSITY
 BHT .F                61:   BOTTOM HOLE TEMPERATURE
 TCS .HRS            0300:   TIME CURCULATED STOPPED
 MRT .F                61:   MAXIMUM RECORDED TEMPERATURE
 ENGI.               DOAK:   RECORDING ENGINEER
 WITN.      B. HARRINGTON:   WITNESSED BY
 CLNT.            A2DTECH:   CLIENT CODE
 ORIG.           5" PRINT:   ORIGIN OF DATA
 UWI .       490251033600:   UNIQUE WELL ID
 DICO. A2D Technologies, Inc.:   DIGITIZING COMPANY
~OTHER INFORMATION
~A   DEPT      SPR        ILD        ILM       SGRD       CALD        GRD       CORR       RHOB       DPHI   
# ...
  362.5000   -39.9923    17.0673    23.7251    24.0523     7.9142    81.5772     0.0087     2.3350     0.1829
  363.0000   -39.9768    16.8450    23.2608    23.7374     7.9137    81.1302     0.0026     2.3418     0.1835
  363.5000   -39.9646    16.7379    22.8011    23.2655     7.9133    79.7864     0.0026     2.3433     0.1820
  364.0000   -39.9514    16.5227    22.3506    22.8836     7.9127    79.0401     0.0041     2.3433     0.1814
  364.5000   -40.0902    16.4204    22.0566    22.5066     7.9123    80.2377     0.0086     2.3472     0.1805
  365.0000   -40.0736    16.4317    21.7706    21.3112     7.9119    81.5845     0.0116     2.3585     0.1772
  365.5000   -40.0604    16.3299    21.3404    21.1772     7.9114    82.6323     0.0146     2.3763     0.1676
  366.0000   -40.0471    16.2288    21.2096    21.4848     7.9110    83.0842     0.0176     2.3830     0.1573
  366.5000   -40.0338    16.0147    21.3768    21.7218     7.9106    83.2332     0.0206     2.3860     0.1558
  367.0000   -40.1696    15.9155    21.5412    21.7351     7.9101    83.2107     0.0206     2.3860     0.1553
  367.5000   -40.1561    15.6002    21.4092    20.9403     7.9097    82.3396     0.0206     2.3853     0.1538
  368.0000   -40.1428    15.2938    20.9861    20.5240     7.9092    81.5937     0.0175     2.3830     0.1562
  368.5000   -40.2784    15.1965    20.7140    20.3954     7.9088    80.8478     0.0145     2.3786     0.1603
  369.0000   -40.2649    15.2095    20.4415    20.4080     7.8934    80.4008     0.0115     2.3733     0.1657
  369.5000   -40.4006    15.1153    20.3162    20.1408     7.8781    80.8507     0.0084     2.3583     0.1711
  370.0000   -40.3862    15.0217    20.0566    19.8770     7.8626    82.1975     0.0084     2.3516     0.1762
  370.5000   -40.5229    14.6229    20.0718    19.7525     7.8622    84.1421     0.0084     2.3578     0.1738
  371.0000   -40.5085    14.4300    20.0869    19.7647     7.8767    85.3394     0.0099     2.3630     0.1705
  371.5000   -40.4941    14.4424    19.9600    19.9138     7.8762    83.8461     0.0099     2.3636     0.1699
  372.0000   -40.4798    14.3529    19.9789    19.6531     7.8758    83.6981     0.0114     2.3681     0.1690
  372.5000   -40.4665    14.3628    19.9940    18.9984     7.8903    83.8490     0.0144     2.3741     0.1667
  373.0000   -40.6042    14.2714    20.0092    18.6207     7.8898    83.6951     0.0159     2.3779     0.1633
  373.5000   -40.5908    14.0880    19.8828    18.5041     7.8894    83.2202     0.0174     2.3801     0.1600
  374.0000   -40.5766    14.0977    19.7609    18.6437     7.8890    81.3127     0.0173     2.3816     0.1587
  374.5000   -40.5633    13.9140    19.6428    18.9144     7.8736    78.7731     0.0188     2.3824     0.1587
  375.0000   -40.5489    13.7312    19.3888    23.7649     7.8731    77.1303     0.0173     2.3816     0.1590
  375.5000   -40.5357    13.4607    19.2699    29.6541     7.8726    76.6830     0.0158     2.3779     0.1593
  376.0000   -40.5238    13.2831    19.2845    24.6294     7.8872    79.6743     0.0158     2.3809     0.1548
  376.5000   -40.5080    12.9327    19.2991    19.6960     7.8867    82.5159     0.0159     2.3879     0.1494
  377.0000   -40.4947    12.6743    19.3137    19.0390     7.8862    85.0584     0.0190     2.3965     0.1437
  377.5000   -40.6324    12.5092    19.3283    18.9850     7.8858    87.4515     0.0233     2.4094     0.1401
  378.0000   -40.6181    12.3463    19.3430    18.9967     7.8704    86.4067     0.0278     2.4072     0.1380
  378.5000   -40.7537    12.2719    19.2242    19.0084     7.8700    85.6607     0.0278     2.4027     0.1386
  379.0000   -40.7411    12.2804    19.2389    19.1518     7.8695    85.3632     0.0277     2.3974     0.1416
  379.5000   -40.8781    12.0371    19.2535    19.1637     7.8691    84.1689     0.0292     2.3870     0.1446
  380.0000   -40.8627    12.0454    19.1355    19.1770     7.8687    83.7219     0.0292     2.3967     0.1407
  380.5000   -40.8494    11.9704    19.1500    19.1888     7.8682    84.8117     0.0307     2.4064     0.1374
  381.0000   -40.9851    11.9790    19.1646    19.2006     7.8528    86.2664     0.0322     2.4139     0.1340
  381.5000   -40.9716    12.1538    19.3120    19.2125     7.8523    85.3710     0.0322     2.4222     0.1307
  382.0000   -40.9583    12.3311    19.4606    19.3574     7.8519    83.2798     0.0277     2.4259     0.1298
  382.5000   -40.9449    12.4251    19.4754    19.5035     7.8514    80.7401     0.0246     2.4244     0.1307
  383.0000   -40.9307    12.6064    19.6252    19.5155     7.8510    79.3963     0.0230     2.4211     0.1319
  383.5000   -40.9182    12.7024    19.6401    19.6627     7.8506    78.9490     0.0201     2.4102     0.1358
  384.0000   -40.9048    12.7111    19.8095    19.8111     7.8501    79.9971     0.0170     2.4013     0.1433
  384.5000   -40.8909    12.6322    20.1025    20.0987     7.8497    81.0449     0.0170     2.3998     0.1466
  385.0000   -40.7277    12.6411    20.2595    19.9728     7.8343    82.2422     0.0170     2.4020     0.1463
  385.5000   -40.7167    12.6498    20.3918    19.9852     7.8339    83.4395     0.0185     2.4043     0.1444
  386.0000   -40.8522    12.6585    20.2700    19.8600     7.8185    84.4873     0.0200     2.4050     0.1425
  386.5000   -40.8356    12.5800    20.1419    19.7356     7.8180    85.2422     0.0200     2.4058     0.1420
  387.0000   -40.8235    12.5022    19.8807    19.4772     7.8175    86.1485     0.0200     2.4043     0.1429
  387.5000   -40.8091    12.4248    19.6266    19.2221     7.8171    86.6094     0.0200     2.4021     0.1459
  388.0000   -40.7958    12.1786    19.2352    19.1017     7.8167    87.4831     0.0199     2.4021     0.1472
  388.5000   -40.7825    12.0178    19.2534    19.1135     7.8162    88.2319     0.0184     2.4021     0.1454
  389.0000   -40.7693    11.8603    19.2680    19.2577     7.8158    89.1303     0.0184     2.4021     0.1447
  389.5000   -40.7560    11.7089    19.2825    19.2696     7.8153    89.8791     0.0169     2.4021     0.1453
  390.0000   -40.7427    11.6312    19.1607    19.1489     7.8149    90.0301     0.0169     2.4013     0.1462
  390.5000   -40.7295    11.5644    19.1788    19.0290     7.8145    90.0315     0.0168     2.3991     0.1477
  391.0000   -40.7162    11.5725    18.9266    18.9098     7.8140    90.0330     0.0168     2.3931     0.1509
  391.5000   -40.7029    11.5805    18.5561    18.7914     7.8136    90.4829     0.0183     2.3864     0.1542
  392.0000   -40.6896    11.8407    16.8592    18.4178     7.8130    90.9328     0.0183     2.3849     0.1560
  392.5000   -40.6764    12.1815    15.3174    18.3025     7.8126    91.3827     0.0183     2.3819     0.1581
  393.0000   -40.5143    12.7942    14.4055    18.8262     7.8271    91.2347     0.0183     2.3774     0.1630
  393.5000   -40.5010    13.4527    13.7362    19.4990     7.8267    90.7808     0.0183     2.3617     0.1656
  394.0000   -40.3389    14.4438    14.1315    21.1951     7.8113    89.6711     0.0183     2.3527     0.1746
  394.5000   -40.0280    15.6851    18.7697    26.4474     7.8109    84.6625     0.0182     2.3419     0.1808
  395.0000   -39.8660    17.6059    21.5653    27.5822     7.8104    81.2260     0.0167     2.3288     0.1895
  395.5000   -39.7034    19.4046    24.2693    23.7144     7.8100    78.0884     0.0152     2.3071     0.1973
  396.0000   -39.3929    20.8049    25.3150    25.5242     7.8095    76.4223     0.0137     2.2921     0.2104
  396.5000   -39.2307    22.7728    27.7132    29.4058     7.8091    74.3543     0.0122     2.2793     0.2173
  397.0000   -39.0685    24.5852    30.7604    30.0421     7.8087    73.0105     0.0106     2.2816     0.2179
  397.5000   -38.9062    25.9981    30.7837    33.5690     7.8232    71.0439     0.0091     2.2854     0.2159
  398.0000   -38.7440    26.9291    34.8837    34.5295     7.8226    70.9207     0.0091     2.2884     0.2134
  398.5000   -38.5793    27.8934    33.0341    33.1467     7.8222    72.8657     0.0091     2.2899     0.2146
