~VERSION INFORMATION
 VERS.                2.0:   CWLS LOG ASCII STANDARD - VERSION 2.0
 WRAP.                 NO:   ONE LINE PER DEPTH STEP
~WELL INFORMATION
#MNEM.UNIT      DATA TYPE    INFORMATION
#----------   ------------   ------------------------------
 STRT.F          100.0000:   START DEPTH
 STOP.F         1196.0000:   STOP DEPTH
 STEP.F            0.5000:   STEP LENGTH
 NULL.          -999.2500:   NO VALUE
 COMP. DEPARTMENT OF ENERGY:   COMPANY
 WELL.     NRP ##3 77S-11:   WELL
 FLD .             TEAPOT:   FIELD
 LOC .      S11 T38N R78W:   LOCATION
 CNTY.            NATRONA:   COUNTY
 STAT.            WYOMING:   STATE
 CTRY. UNITED STATES OF AMERICA:   COUNTRY
 SRVC.       Schlumberger:   SERVICE COMPANY
 DATE.        18-AUG-1959:   LOGDATE
 API .       490250632900:   API NUMBER
~CURVE INFORMATION
#MNEM.UNIT       API CODE    CURVE DESCRIPTION
#----------   ------------   ------------------------------
 DEPT.F                  :   
 SPR .MV     05 010 01 00:   SPONTANEOUS POTENTIAL FROM RES.
 ASN .OHMM   05 041 16 00:   AMPLIFIED SHORT NORMAL 16"
 ILD .OHMM   05 120 46 00:   INDUCTION LOG DEEP
 CILD.MMHO   05 110 46 00:   CONDUCTIVITY INDUCTION LOG DEEP
~PARAMETER INFORMATION
#MNEM.UNIT          VALUE    DESCRIPTION
#----------   ------------   ------------------------------
 PD  .                 GL:   PERMANENT DATUM
 EPD .F              5258:   ELEVATION PERMANENT DATUM
 LMF .                 KB:   LOG MEASURED FROM
 DAPD.F                 4:   FEET ABOVE PERMANENT DATUM
 DMF .                 KB:   DRILLING MEASURED FROM
 EKB .F              5262:   KELLING BUSHING
 EGL .F              5258:   GROUND LEVEL
 DATE.            8-18-59:   RUN DATE
 RUN .                  1:   RUN NUMBER
 DD  .F              1200:   DEPTH DRILLER
 DL  .F              1201:   DEPTH LOGGER
 BLI .F              1196:   BOTTOM LOG INTERVAL
 TLI .F               100:   TOP LOG INTERVAL
 CBD .F                17:   CASING BOTTOM DRILLER
 BS  .IN             6.75:   BIT SIZE
 BSD .F              1200:   BIT SIZE AT DEPTH
 DFT . GEL-OIL-PHDS-CAUSTIC:   DRILLING FLUID TYPE
 DFD .               10.8:   DRILLING FLUID DENSITY
 DFV .                 60:   DRILLING FLUID VISCOSITY
 DFPH.                  9:   DRILLING FLUID PH
 DFL .                  4:   DRILLING FLUID LOSS
 RMS .OHMM            1.8:   RESISTIVITY MUD SAMPLE
 MST .F                90:   MUD SAMPLE TEMPERATURE
 RMF .OHMM            1.5:   RESISTIVITY MUD FILTRATE SAMPLE
 MFST.F                90:   MUD FILTRATE SAMPLE TEMPERATURE
 RMC .OHMM              2:   RESISTIVITY MUD CAKE
 MCST.F                90:   MUD CAKE SAMPLE TEMPERATURE
 TCS .HRS               1:   TIME CURCULATED STOPPED
 LUN .               2523:   LOGGING UNIT NUMBER
 LUL .               CSPR:   LOGGING UNIT LOCATION
 ENGI.             KNOBEL:   RECORDING ENGINEER
 WITN.             MARTIN:   WITNESSED BY
 CLNT.            A2DTECH:   CLIENT CODE
 ORIG.     1", 2.5" PRINT:   ORIGIN OF DATA
 UWI .       490250632900:   UNIQUE WELL ID
 DICO. A2D Technologies, Inc.:   DIGITIZING COMPANY
~OTHER INFORMATION
~A   DEPT      SPR          ASN        ILD      CILD  
# ...
 1049.0000   -36.9377    14.0340    13.3686    76.2164
 1049.5000   -36.6092    14.0338    13.3344    75.1100
 1050.0000   -36.2193    13.9106    13.2644    74.0792
 1050.5000   -35.8879    13.7747    13.1705    72.9176
 1051.0000   -35.7371    13.6747    13.0674    72.1067
 1051.5000   -35.6919    13.5843    12.9628    73.3079
 1052.0000   -35.5907    13.4760    12.8615    74.5373
 1052.5000   -35.4666    13.3618    12.7626    75.5602
 1053.0000   -35.5391    13.2612    12.6611    76.7723
 1053.5000   -35.8898    13.1661    12.5542    77.8205
 1054.0000   -36.3019    13.0553    12.4506    79.0051
 1054.5000   -36.5192    12.9317    12.3575    80.0785
 1055.0000   -36.5199    12.8269    12.2598    81.2422
 1055.5000   -36.4496    12.7636    12.1419    82.3328
 1056.0000   -36.3940    12.7285    12.0268    83.4717
 1056.5000   -36.3562    12.6922    11.9549    84.4331
 1057.0000   -36.3407    12.6448    11.9187    84.6391
 1057.5000   -36.3230    12.5965    11.8686    84.8194
 1058.0000   -36.2355    12.5538    11.7921    84.9996
 1058.5000   -36.1358    12.5121    11.7349    85.1799
 1059.0000   -36.2731    12.4674    11.7273    85.3601
 1059.5000   -36.7716    12.4220    11.7437    85.5404
 1060.0000   -37.3404    12.3779    11.7507    85.7206
 1060.5000   -37.5420    12.3345    11.7459    85.9009
 1061.0000   -37.3085    12.2910    11.7312    86.0812
 1061.5000   -36.9553    12.2465    11.6926    86.1989
 1062.0000   -36.7361    12.2008    11.6254    86.7816
 1062.5000   -36.6439    12.1570    11.5481    87.2142
 1063.0000   -36.6264    12.1156    11.4778    87.6468
 1063.5000   -36.7316    12.0715    11.4121    88.0795
 1064.0000   -36.9876    12.0217    11.3427    88.5121
 1064.5000   -37.3265    11.9749    11.2700    88.9447
 1065.0000   -37.6591    11.9384    11.1996    89.3773
 1065.5000   -37.9331    11.9000    11.1327    89.8099
 1066.0000   -38.1680    11.8404    11.0639    90.2426
 1066.5000   -38.4700    11.7624    10.9897    90.6752
 1067.0000   -38.8721    11.6873    10.9183    91.1078
 1067.5000   -39.1232    11.6199    10.8673    91.4963
 1068.0000   -38.8578    11.5445    10.8447    91.4963
 1068.5000   -38.0575    11.4623    10.8391    91.6777
 1069.0000   -37.1210    11.4061    10.8335    91.8187
 1069.5000   -36.4081    11.4013    10.8229    91.9598
 1070.0000   -35.9274    11.4322    10.8122    92.1009
 1070.5000   -35.5095    11.4654    10.8040    92.2420
 1071.0000   -35.0522    11.4884    10.7961    92.3830
 1071.5000   -34.5477    11.5103    10.7866    92.5235
 1072.0000   -34.0738    11.5367    10.7771    92.6676
 1072.5000   -33.8008    11.5638    10.7683    92.8073
 1073.0000   -33.8569    11.5895    10.7597    92.9480
 1073.5000   -34.1722    11.6149    10.7506    93.0895
 1074.0000   -34.5507    11.6393    10.7414    93.2295
 1074.5000   -34.8511    11.6634    10.7324    93.3711
 1075.0000   -35.0256    11.6916    10.7237    93.5114
 1075.5000   -35.0712    11.7212    10.7148    93.6527
 1076.0000   -35.0274    11.7365    10.7055    93.7937
 1076.5000   -34.9586    11.7231    10.6957    93.9348
 1077.0000   -34.9004    11.6859    10.6850    94.0759
 1077.5000   -34.8576    11.6427    10.6722    94.2170
 1078.0000   -34.8363    11.6040    10.6564    94.3580
 1078.5000   -34.8067    11.5674    10.6383    94.4991
 1079.0000   -34.6754    11.5286    10.6197    94.6402
 1079.5000   -34.3926    11.4886    10.6017    94.7812
 1080.0000   -34.0399    11.4499    10.5845    94.9223
 1080.5000   -33.7220    11.4117    10.5662    95.0634
 1081.0000   -33.4271    11.3730    10.5471    95.2045
 1081.5000   -33.0950    11.3339    10.5295    95.3455
 1082.0000   -32.7817    11.2951    10.5138    95.4866
 1082.5000   -32.6272    11.2564    10.4950    95.6277
 1083.0000   -32.6730    11.2176    10.4721    95.7688
 1083.5000   -32.8145    11.1786    10.4553    95.9098
 1084.0000   -32.9405    11.1399    10.4464    96.0509
 1084.5000   -33.0311    11.1013    10.4267    96.1920
 1085.0000   -33.1172    11.0624    10.3918    96.3330
 1085.5000   -33.2169    11.0231    10.3759    96.4741
 1086.0000   -33.3306    10.9846    10.3912    96.6152
 1086.5000   -33.4503    10.9468    10.3706    96.7937
 1087.0000   -33.5676    10.9076    10.2429    96.9761
 1087.5000   -33.6905    10.8669    10.0516   100.2020
 1088.0000   -33.8287    10.8281     9.9191   100.6763
 1088.5000   -33.9438    10.7924     9.8919   100.4606
 1089.0000   -33.9694    10.7532     9.9017   100.8628
 1089.5000   -33.8890    10.7083     9.8791   100.7474
 1090.0000   -33.7499    10.6777     9.8373   101.0427
 1090.5000   -33.5935    10.6907     9.8121   101.0379
 1091.0000   -33.4401    10.7518     9.8034   101.2281
 1091.5000   -33.3470    10.8261     9.7962   101.3134
 1092.0000   -33.3731    10.8813     9.7952   101.4320
 1092.5000   -33.5078    10.9291     9.8020   101.5709
 1093.0000   -33.6884    10.9972     9.7982   101.6502
 1093.5000   -33.8671    11.0710     9.7841   101.8194
 1094.0000   -34.0179    11.1092     9.7912   101.8753
 1094.5000   -34.1331    11.1713     9.8160   102.0571
 1095.0000   -34.3294    11.2050     9.8031   102.0880
 1095.5000   -34.8225    11.6469     9.7742   101.0906
 1096.0000   -35.7122    12.0667     9.9057    99.9045
 1096.5000   -36.9582    12.5203    10.3472    98.6482
 1097.0000   -38.6272    13.1429    10.9938    94.9712
 1097.5000   -40.8370    13.6234    11.5839    89.3710
 1098.0000   -43.2484    14.4973    12.0258    84.8188
 1098.5000   -44.9758    15.4080    12.4945    80.7280
 1099.0000   -45.3600    16.2952    13.1911    76.0661
 1099.5000   -44.6056    17.1889    14.1612    72.0983
 1100.0000   -43.4017    18.0940    15.3437    67.3087
 1100.5000   -42.2264    18.9828    16.6014    63.4622
 1101.0000   -41.3436    19.5434    17.6496    58.5694
 1101.5000   -41.1153    19.8677    18.1552    52.8797
 1102.0000   -41.7670    19.4521    18.0255    54.0634
 1102.5000   -42.9734    18.6544    17.4915    56.1567
 1103.0000   -44.0885    17.8904    16.8554    58.4829
 1103.5000   -44.7775    17.1439    16.2630    60.8091
 1104.0000   -45.1509    16.3142    15.7295    63.1352
 1104.5000   -45.3815    15.8508    15.2320    65.4613
 1105.0000   -45.4633    15.7581    14.7334    68.5409
 1105.5000   -45.3397    15.4950    14.2235    69.4010
 1106.0000   -45.0582    15.1802    13.7860    70.6731
 1106.5000   -44.7832    14.9934    13.5175    71.9452
 1107.0000   -44.6411    14.7347    13.3838    73.2173
 1107.5000   -44.5597    14.4836    13.2501    74.4894
 1108.0000   -44.3033    14.2880    13.0511    75.7615
 1108.5000   -43.7602    13.9839    12.8383    77.0337
 1109.0000   -43.0586    13.7244    12.6642    78.3058
 1109.5000   -42.3458    13.6433    12.5170    79.5779
 1110.0000   -41.7478    13.5523    12.3829    80.9015
 1110.5000   -41.5987    13.4896    12.2963    80.7113
 1111.0000   -42.2988    13.5149    12.2869    80.5130
 1111.5000   -43.6899    13.5139    12.3243    80.3148
 1112.0000   -44.9532    13.4425    12.3552    80.1165
 1112.5000   -45.3995    13.3601    12.3740    79.9183
 1113.0000   -45.0500    13.2731    12.4077    79.7200
 1113.5000   -44.2808    13.1839    12.4427    79.5218
 1114.0000   -43.3049    13.0975    12.4181    79.3235
 1114.5000   -42.2225    13.0095    12.3079    79.1357
 1115.0000   -41.2072    12.9243    12.1566    80.5130
 1115.5000   -40.3738    12.8341    12.0183    81.8215
 1116.0000   -39.6794    12.7467    11.8974    83.1299
 1116.5000   -39.0832    12.6668    11.7715    84.4384
 1117.0000   -38.6234    12.5629    11.6384    85.7468
 1117.5000   -38.3099    12.4621    11.5095    87.0553
 1118.0000   -38.1060    12.4405    11.3813    88.3918
 1118.5000   -38.0401    12.4487    11.2469    89.7069
 1119.0000   -38.1614    12.4434    11.1235    89.8835
 1119.5000   -38.4065    12.4007    11.0409    89.9433
 1120.0000   -38.6417    12.3413    11.0056    90.1217
 1120.5000   -38.8495    12.2895    10.9930    90.1941
 1121.0000   -39.0910    12.2449    10.9780    90.3542
 1121.5000   -39.3200    12.1968    10.9568    90.4468
