~VERSION INFORMATION
 VERS.                2.0:   CWLS LOG ASCII STANDARD - VERSION 2.0
 WRAP.                 NO:   ONE LINE PER DEPTH STEP
~WELL INFORMATION
#MNEM.UNIT      DATA TYPE    INFORMATION
#----------   ------------   ------------------------------
 STRT.F           25.0000:   START DEPTH
 STOP.F          832.0000:   STOP DEPTH
 STEP.F            0.5000:   STEP LENGTH
 NULL.          -999.2500:   NO VALUE
 COMP.          U.S. NAVY:   COMPANY
 WELL. RES 3 TEAPOT DOM #32-S-2:   WELL
 FLD .        TEAPOT DOME:   FIELD
 LOC .       S2 T38N R78W:   LOCATION
 CNTY.            NATRONA:   COUNTY
 STAT.            WYOMING:   STATE
 CTRY. UNITED STATES OF AMERICA:   COUNTRY
 SRVC. Schlumberger Well Surveying Corp:   SERVICE COMPANY
 DATE.        03-AUG-1959:   LOGDATE
 API .       490250646800:   API NUMBER
~CURVE INFORMATION
#MNEM.UNIT       API CODE    CURVE DESCRIPTION
#----------   ------------   ------------------------------
 DEPT.F                  :   
 SPR .MV     05 010 01 00:   SPONTANEOUS POTENTIAL FROM RES.
 ILD .OHMM   05 120 46 00:   INDUCTION LOG DEEP
 CILD.MMHO   05 110 46 00:   CONDUCTIVITY INDUCTION LOG DEEP
 ASN .OHMM   05 041 16 00:   AMPLIFIED SHORT NORMAL 16"
~PARAMETER INFORMATION
#MNEM.UNIT          VALUE    DESCRIPTION
#----------   ------------   ------------------------------
 LMF .                 KB:   LOG MEASURED FROM
 DMF .                 KB:   DRILLING MEASURED FROM
 EKB .F              5126:   KELLING BUSHING
 EGL .F              5122:   GROUND LEVEL
 DATE.           8-3-1959:   RUN DATE
 RUN .                  1:   RUN NUMBER
 DD  .F               840:   DEPTH DRILLER
 DL  .F               841:   DEPTH LOGGER
 BLI .F               835:   BOTTOM LOG INTERVAL
 TLI .F                17:   TOP LOG INTERVAL
 CBD .F                17:   CASING BOTTOM DRILLER
 CBL .F                17:   CASING BOTTOM LOGGER
 BS  .IN             6.75:   BIT SIZE
 BSD .F               840:   BIT SIZE AT DEPTH
 DFT .                GEL:   DRILLING FLUID TYPE
 DFD .                9.5:   DRILLING FLUID DENSITY
 DFV .                100:   DRILLING FLUID VISCOSITY
 DFPH.                9.5:   DRILLING FLUID PH
 DFL .                  4:   DRILLING FLUID LOSS
 RMS .OHMM              4:   RESISTIVITY MUD SAMPLE
 MST .F                73:   MUD SAMPLE TEMPERATURE
 RMF .OHMM            3.9:   RESISTIVITY MUD FILTRATE SAMPLE
 MFST.F                73:   MUD FILTRATE SAMPLE TEMPERATURE
 RMC .OHMM            4.1:   RESISTIVITY MUD CAKE
 MCST.F                73:   MUD CAKE SAMPLE TEMPERATURE
 RMB .OHMM              4:   RESISTIVITY MUD AT BHT
 BHT .F                73:   BOTTOM HOLE TEMPERATURE
 TCS .HRS               1:   TIME CURCULATED STOPPED
 LUN .               2523:   LOGGING UNIT NUMBER
 LUL .              CSPR.:   LOGGING UNIT LOCATION
 ENGI.             ATWOOD:   RECORDING ENGINEER
 WITN.             MARTIN:   WITNESSED BY
 CLNT.            A2DTECH:   CLIENT CODE
 ORIG.           5" PRINT:   ORIGIN OF DATA
 UWI .       490250646800:   UNIQUE WELL ID
 DICO. A2D Technologies, Inc.:   DIGITIZING COMPANY
~OTHER INFORMATION
~A   DEPT      SPR        ILD       CILD        ASN   
# ...
  317.0000  -100.2109     7.4499   138.9864     7.8448
  317.5000  -100.1787     7.5141   138.3430     7.9054
  318.0000  -100.1465     7.5479   137.6997     7.7883
  318.5000  -100.1143     7.4082   137.7589     7.6490
  319.0000  -100.0821     7.2580   138.3169     7.5024
  319.5000  -100.0499     7.1090   141.4819     7.3605
  320.0000  -100.0177     6.9618   144.4473     7.2179
  320.5000   -99.9855     6.8091   147.4063     7.0732
  321.0000   -99.9533     6.6813   150.3644     6.9441
  321.5000   -99.9211     6.6503   153.3272     6.9017
  322.0000   -99.8888     6.6141   156.2077     6.8876
  322.5000   -99.8566     6.5783   156.7900     6.8718
  323.0000   -99.8244     6.5439   157.3592     6.8698
  323.5000   -99.7922     6.5055   157.9268     6.8803
  324.0000   -99.7600     6.4938   158.4894     6.8883
  324.5000   -99.7278     6.5080   159.0520     6.8982
  325.0000   -99.6956     6.5178   159.6146     6.8957
  325.5000   -99.6634     6.5294   160.1772     6.8612
  326.0000   -99.6312     6.5405   160.7398     6.8155
  326.5000   -99.5990     6.5507   161.3024     6.7663
  327.0000   -99.5668     6.5632   161.1024     6.7384
  327.5000   -99.5346     6.5708   160.0844     6.8841
  328.0000   -99.5023     6.6168   159.0664     7.0595
  328.5000   -99.4702     6.7144   158.0125     7.2234
  329.0000   -99.4379     6.7931   155.8639     7.4179
  329.5000   -99.4057     6.9643   153.5363     7.7598
  330.0000   -99.3735     7.2429   147.5828     8.1604
  330.5000   -99.3413     7.4996   141.3474     8.5220
  331.0000   -99.3091     7.7865   134.7359     9.0825
  331.5000   -99.2769     7.9748   132.8042     9.0081
  332.0000   -99.2447     8.0463   130.7486     8.6449
  332.5000   -99.2125     8.1487   128.6929     8.1722
  333.0000   -99.1803     8.2227   126.6373     8.3802
  333.5000   -99.1481     8.3386   124.5816     9.1154
  334.0000   -99.1159     8.2570   122.5260     8.7582
  334.5000   -99.0837     7.9223   121.3071     8.3339
  335.0000   -99.0515     7.6279   129.9015     7.8403
  335.5000   -99.0192     7.2894   139.4032     7.5382
  336.0000   -98.9870     7.0448   149.9552     7.4515
  336.5000   -98.9548     6.9291   151.5398     7.3223
  337.0000   -98.9226     6.7457   153.3214     7.2551
  337.5000   -98.8904     6.6839   154.3356     7.2653
  338.0000   -98.8582     6.7609   154.0811     7.2622
  338.5000   -98.8260     6.8195   153.8266     7.2950
  339.0000   -98.7938     6.8881   153.5363     7.3761
  339.5000   -98.7616     6.9507   150.7162     7.5151
  340.0000   -98.7294     7.0282   147.4344     7.7154
  340.5000   -98.6944     7.1981   144.1526     7.9206
  341.0000   -98.6586     7.4098   140.8707     8.1251
  341.5000   -98.6183     7.6121   137.5889     8.3294
  342.0000   -98.5783     7.8223   134.3071     8.5520
  342.5000   -98.5382     8.0217   131.0253     8.7394
  343.0000   -98.4982     8.2451   127.6536     8.9564
  343.5000   -98.4582     8.4515   124.3524     8.8875
  344.0000   -98.4181     8.4568   122.3117     8.7366
  344.5000   -98.3781     8.3148   123.0387     8.5702
  345.0000   -98.3380     8.1195   123.9143     8.3608
  345.5000   -98.2980     7.9342   127.0725     8.1609
  346.0000   -98.2579     7.7439   131.0146     7.9549
  346.5000   -98.2179     7.5562   134.9568     7.7544
  347.0000   -98.1779     7.3673   138.8827     7.5405
  347.5000   -98.1378     7.1786   142.8022     7.3209
  348.0000   -98.0978     6.9904   146.7216     7.2139
  348.5000   -98.0577     6.7848   150.6410     7.2114
  349.0000   -98.0177     6.7504   153.3035     7.2731
  349.5000   -97.9777     6.7802   152.4127     7.3739
  350.0000   -97.9376     6.8497   151.5219     7.4653
  350.5000   -97.8976     6.9250   150.6142     7.5612
  351.0000   -97.8576     6.9983   149.9090     7.6551
  351.5000   -97.8175     7.0725   146.5798     7.7495
  352.0000   -97.7775     7.1463   143.9110     7.8423
  352.5000   -97.7374     7.2203   141.2469     7.8732
  353.0000   -97.6974     7.2941   139.1772     7.8664
  353.5000   -97.6573     7.3678   137.8488     7.8793
  354.0000   -97.6173     7.4418   136.7591     7.9513
  354.5000   -97.5773     7.5153   135.6807     8.0201
  355.0000   -97.5372     7.5898   134.5844     8.0866
  355.5000   -97.4972     7.6624   133.4881     8.1571
  356.0000   -97.4571     7.7386   132.3917     8.2076
  356.5000   -97.4171     7.8062   131.5595     8.2107
  357.0000   -97.3771     7.8569   130.8469     8.2093
  357.5000   -97.3370     7.9334   130.2596     8.2126
  358.0000   -97.2970     7.8726   131.1549     8.1977
  358.5000   -97.2569     7.7819   133.0396     8.0910
  359.0000   -97.2169     7.7002   134.6115     7.9888
  359.5000   -97.1769     7.6149   136.1841     7.8870
  360.0000   -97.1368     7.5318   137.7613     7.7844
  360.5000   -97.0968     7.4469   139.3436     7.6836
  361.0000   -97.0567     7.3639   140.9290     7.5791
  361.5000   -97.0167     7.2781   142.5145     7.4946
  362.0000   -96.9767     7.2077   144.0994     7.4614
  362.5000   -96.9366     7.1793   145.4790     7.4405
  363.0000   -96.8966     7.1559   145.7654     7.4386
  363.5000   -96.8565     7.1319   146.0199     7.4398
  364.0000   -96.8165     7.1086   146.2745     7.4378
  364.5000   -96.7765     7.0840   146.1501     7.4530
  365.0000   -96.7364     7.0618   145.7815     7.4809
  365.5000   -96.6964     7.0352   145.4129     7.5058
  366.0000   -96.6563     7.0406   145.0443     7.5287
  366.5000   -96.6163     7.0712   144.6757     7.5380
  367.0000   -96.5763     7.0962   144.3071     7.5462
  367.5000   -96.5362     7.1239   143.9385     7.5544
  368.0000   -96.4962     7.1501   143.5699     7.5626
  368.5000   -96.4561     7.1771   143.2013     7.5707
  369.0000   -96.4161     7.2037   142.8327     7.5789
  369.5000   -96.3761     7.2305   142.4641     7.5879
  370.0000   -96.3360     7.2571   142.0955     7.6059
  370.5000   -96.2960     7.2837   141.7269     7.6690
  371.0000   -96.2559     7.3039   141.3583     7.7356
  371.5000   -96.2159     7.3721   141.0027     7.8008
  372.0000   -96.1759     7.4481   139.5976     7.8670
  372.5000   -96.1358     7.5215   138.2402     7.9322
  373.0000   -96.0958     7.5962   136.8828     7.9992
  373.5000   -96.0558     7.6703   135.5254     8.0503
  374.0000   -96.0157     7.7447   134.1680     8.0825
  374.5000   -95.9759     7.8190   132.8107     8.1302
  375.0000   -95.9355     7.8933   131.4533     8.2829
  375.5000   -95.8962     7.9677   130.0959     8.4460
  376.0000   -95.8549     8.0417   128.7385     8.6132
  376.5000   -95.8175     8.1167   127.3812     8.7286
  377.0000   -95.7557     8.1874   126.4100     8.7382
  377.5000   -95.6684     8.2156   125.8533     8.7217
  378.0000   -95.5848     8.2385   125.2965     8.6991
  378.5000   -95.4991     8.2620   124.7398     8.7054
  379.0000   -95.4147     8.2865   124.1831     8.7284
  379.5000   -95.3293     8.3082   123.6263     8.7861
  380.0000   -95.2450     8.3354   123.0696     8.8571
  380.5000   -95.1587     8.3517   122.5129     8.9476
  381.0000   -95.0800     8.4352   121.4145     9.1378
  381.5000   -95.1001     8.5971   119.6459     9.3159
  382.0000   -95.1372     8.7495   117.8606     9.5002
  382.5000   -95.1704     8.9082   116.0743     9.6900
  383.0000   -95.2056     9.0618   114.2888     9.8786
  383.5000   -95.2395     9.2212   112.5054     9.9785
  384.0000   -95.2746     9.3721   110.7253    10.0669
  384.5000   -95.3083     9.5404   108.9489    10.1591
  385.0000   -95.3440     9.6523   107.1749    10.2492
  385.5000   -95.3761     9.6931   105.3805    10.3477
  386.0000   -95.4156     9.7489   103.4020    10.4697
  386.5000   -95.4232     9.7970   103.2259    10.6037
  387.0000   -95.3882     9.8001   103.0279    10.6008
  387.5000   -95.3588     9.7920   102.8300    10.5729
  388.0000   -95.3263     9.7872   102.6320    10.5507
  388.5000   -95.2955     9.7808   102.5910    10.5261
  389.0000   -95.2638     9.7752   102.8209    10.5023
  389.5000   -95.2325     9.7693   103.0508    10.4791
