~VERSION INFORMATION
 VERS.                2.0:   CWLS LOG ASCII STANDARD - VERSION 2.0
 WRAP.                 NO:   ONE LINE PER DEPTH STEP
~WELL INFORMATION
#MNEM.UNIT      DATA TYPE    INFORMATION
#----------   ------------   ------------------------------
 STRT.F           80.0000:   START DEPTH
 STOP.F          739.0000:   STOP DEPTH
 STEP.F            0.5000:   STEP LENGTH
 NULL.          -999.2500:   NO VALUE
 COMP. U S NAVY-INTEX OIL:   COMPANY
 WELL.        NPR #36-S-2:   WELL
 FLD .             TEAPOT:   FIELD
 LOC .       S2 T38N R78W:   LOCATION
 CNTY.            NATRONA:   COUNTY
 STAT.            WYOMING:   STATE
 CTRY. UNITED STATES OF AMERICA:   COUNTRY
 SRVC.       Schlumberger:   SERVICE COMPANY
 DATE.        23-JUN-1962:   LOGDATE
 API .       490250641800:   API NUMBER
~CURVE INFORMATION
#MNEM.UNIT       API CODE    CURVE DESCRIPTION
#----------   ------------   ------------------------------
 DEPT.F                  :   
 ASN .OHMM   05 041 16 00:   AMPLIFIED SHORT NORMAL 16"
 ILD .OHMM   05 120 46 00:   INDUCTION LOG DEEP
 CILD.MMHO   05 110 46 00:   CONDUCTIVITY INDUCTION LOG DEEP
 SPR .MV     05 010 01 00:   SPONTANEOUS POTENTIAL FROM RES.
 GR  .GAPI   30 310 01 00:   GAMMA RAY
~PARAMETER INFORMATION
#MNEM.UNIT          VALUE    DESCRIPTION
#----------   ------------   ------------------------------
 PD  .                 KB:   PERMANENT DATUM
 EPD .F              5143:   ELEVATION PERMANENT DATUM
 EKB .F              5143:   KELLING BUSHING
 EGL .F              5138:   GROUND LEVEL
 DATE.        23-JUN-1962:   RUN DATE
 RUN .                  1:   RUN NUMBER
 DD  .F               738:   DEPTH DRILLER
 DL  .F               740:   DEPTH LOGGER
 BLI .F               739:   BOTTOM LOG INTERVAL
 TLI .F                80:   TOP LOG INTERVAL
 BS  .IN             6.75:   BIT SIZE
 BSD .F               738:   BIT SIZE AT DEPTH
 DFT .       OIL EMULSION:   DRILLING FLUID TYPE
 DFD .               10.0:   DRILLING FLUID DENSITY
 DFV .                 53:   DRILLING FLUID VISCOSITY
 DFL .                3.8:   DRILLING FLUID LOSS
 RMS .OHMM            3.9:   RESISTIVITY MUD SAMPLE
 MST .F                66:   MUD SAMPLE TEMPERATURE
 RMF .OHMM            2.9:   RESISTIVITY MUD FILTRATE SAMPLE
 MFST.F                66:   MUD FILTRATE SAMPLE TEMPERATURE
 RMC .OHMM            4.4:   RESISTIVITY MUD CAKE
 MCST.F                66:   MUD CAKE SAMPLE TEMPERATURE
 TCS .HRS               1:   TIME CURCULATED STOPPED
 LUN .               2503:   LOGGING UNIT NUMBER
 LUL .               CSPR:   LOGGING UNIT LOCATION
 ENGI.             DANNER:   RECORDING ENGINEER
 WITN.          JORGENSON:   WITNESSED BY
 CLNT.            A2DTECH:   CLIENT CODE
 ORIG.           5" PRINT:   ORIGIN OF DATA
 UWI .       490250641800:   UNIQUE WELL ID
 DICO. A2D Technologies, Inc.:   DIGITIZING COMPANY
~OTHER INFORMATION
~A   DEPT        ASN        ILD      CILD       SPR         GR   
# ...
  690.0000    17.1537    14.3995    70.2669   -60.4471     8.4230
  690.5000    18.8863    16.1270    64.2383   -61.7829     7.9778
  691.0000    21.5226    17.8544    57.4590   -64.0142    14.6568
  691.5000    25.2131    19.5069    49.9290   -67.5888    19.7032
  692.0000    28.9037    22.2103    43.9004   -70.2679    22.8200
  692.5000    30.5610    23.9378    40.1242   -71.7548    19.8515
  693.0000    31.7666    25.2148    37.0986   -72.4917    18.6642
  693.5000    31.9180    25.5159    36.3253   -73.0813    22.2264
  694.0000    32.5964    25.5917    35.5520   -73.8200    21.9294
  694.5000    33.4255    25.2171    35.5295   -74.1129    17.6253
  695.0000    31.9955    24.7674    36.2577   -72.7603    22.2264
  695.5000    31.0174    24.3177    37.7367   -73.2005    22.5232
  696.0000    30.7922    24.0179    38.4705   -74.5363    26.8275
  696.5000    30.7930    23.9436    39.1987   -74.0811    22.6717
  697.0000    30.7184    23.7944    39.9269   -73.1780    20.4453
  697.5000    30.4180    23.2696    40.6551   -72.2750    24.8979
  698.0000    29.4398    22.7449    41.3833   -70.6257    34.8422
  698.5000    28.1604    22.0699    41.3552   -69.5753    38.1077
  699.0000    27.1070    21.4701    42.0890   -71.6555    34.1002
  699.5000    26.8063    21.0204    42.8172   -72.3943    23.1170
  700.0000    27.1836    20.7018    44.3887   -71.6890    24.8979
  700.5000    26.0551    20.4755    45.4978   -70.4605  -999.2500
  701.0000    25.3781    20.2491    46.6068   -69.2478  -999.2500
  701.5000    25.3034    20.0379    47.7159   -68.6478  -999.2500
  702.0000    25.1538    19.8855    48.0181   -68.3463  -999.2500
  702.5000    24.1003    19.8081    50.2624   -68.1940  -999.2500
  703.0000    23.7997    19.7308    50.2549   -68.1910  -999.2500
  703.5000    23.8757    19.6539    51.0000   -69.2328  -999.2500
  704.0000    23.8765    19.5015    51.7431   -69.9761  -999.2500
  704.5000    23.7926    19.3376    51.7337   -69.9731  -999.2500
  705.0000    23.0196    19.1116    52.4768   -68.9254  -999.2500
  705.5000    22.2106    18.5768    53.2219   -68.0269  -999.2500
  706.0000    21.6918    17.9769    53.9632   -67.4269  -999.2500
  706.5000    21.2402    17.4577    56.2079   -66.6776  -999.2500
  707.0000    20.4914    17.0856    57.7018   -66.0776  -999.2500
  707.5000    20.2673    16.9332    59.9465   -66.5224  -999.2500
  708.0000    20.3434    16.9309    61.4423   -67.1164  -999.2500
  708.5000    20.3441    17.0037    60.6821   -65.7701  -999.2500
  709.0000    20.1943    17.0766    59.1730   -65.0209  -999.2500
  709.5000    19.7432    17.0743    56.9132   -64.2716  -999.2500
  710.0000    19.1416    17.0720    54.6534   -64.1194  -999.2500
  710.5000    19.7448    17.0698    53.1443   -65.4597  -999.2500
  711.0000    20.4232    17.0675    52.3860   -66.8000  -999.2500
  711.5000    20.1228    16.9902    53.1311   -66.9463  -999.2500
  712.0000    19.2199    17.0631    54.7748   -65.8985  -999.2500
  712.5000    18.6936    16.7604    57.7452   -65.1493  -999.2500
  713.0000    18.4684    16.1576    59.9648   -64.4000  -999.2500
  713.5000    18.1680    15.6298    62.1845   -63.8000  -999.2500
  714.0000    17.5663    15.0269    64.4045   -63.2000  -999.2500
  714.5000    16.8141    14.7994    66.6242   -62.6000  -999.2500
  715.0000    16.2877    14.5719    68.0931   -63.1940  -999.2500
  715.5000    16.1379    14.3444    69.5871   -63.7881  -999.2500
  716.0000    15.9878    14.1920    71.0811   -62.5910  -999.2500
  716.5000    15.7629    14.0396    71.0734   -61.9910  -999.2500
  717.0000    15.6882    14.0373    71.0658   -61.9881  -999.2500
  717.5000    15.6138    13.9600    71.0582   -61.9851  -999.2500
  718.0000    15.5391    13.7325    71.0507   -60.7881  -999.2500
  718.5000    15.4645    13.7303    71.0431   -62.1284  -999.2500
  719.0000    15.3900    13.7280    71.0355   -62.1254  -999.2500
  719.5000    15.2403    13.7257    71.0280   -62.1224  -999.2500
  720.0000    15.0903    13.6484    71.0204   -60.7761  -999.2500
  720.5000    15.0157    13.4209    73.2651   -60.1761  -999.2500
  721.0000    14.8659    13.2685    74.7590   -59.5761  -999.2500
  721.5000    14.7162    13.1161    76.2548   -59.2746  -999.2500
  722.0000    14.5662    13.0387    76.9980   -59.4209  -999.2500
  722.5000    14.4917    12.8863    77.7393   -60.0149  -999.2500
  723.0000    14.4171    12.8090    78.4825   -60.3104  -999.2500
  723.5000    14.2675    12.6566    79.2257   -59.5612  -999.2500
  724.0000    14.1927    12.6543    79.9688   -59.1104  -999.2500
  724.5000    14.0429    12.5770    79.9613   -58.9582  -999.2500
  725.0000    13.8930    12.4996    81.4571   -58.9552  -999.2500
  725.5000    13.8185    12.3472    82.1984   -58.8030  -999.2500
  726.0000    13.7350    12.1948    82.9435   -58.6507  -999.2500
  726.5000    13.5941    12.0424    82.9340   -58.4985  -999.2500
  727.0000    13.4388    11.9650    83.0781   -58.3463  -999.2500
  727.5000    13.2153    11.9628    83.7963   -57.7463  -999.2500
  728.0000    12.9940    11.9605    84.4147   -56.5493  -999.2500
  728.5000    12.9191    11.9442    85.1578   -57.2925  -999.2500
  729.0000    12.8449    11.8814    85.1502   -58.1851  -999.2500
  729.5000    12.8456    11.8791    85.1426   -58.6298  -999.2500
  730.0000    12.6958    11.8018    85.1351   -58.6269  -999.2500
  730.5000    12.6966    11.7995    85.1276   -58.6239  -999.2500
  731.0000    12.6220    11.7973    85.1200   -58.6209  -999.2500
  731.5000    12.5475    11.7951    84.3617   -58.9164  -999.2500
  732.0000    12.4729    11.7928    84.3541   -59.6597  -999.2500
  732.5000    12.3984    11.7906    84.3465   -59.3582  -999.2500
  733.0000    12.3236    11.7883    84.3390   -59.2060  -999.2500
  733.5000    12.3246    11.7860  -999.2500   -60.0985  -999.2500
  734.0000    12.3253    11.7838  -999.2500   -59.6478  -999.2500
  734.5000    12.3261    11.7064  -999.2500   -59.4955  -999.2500
  735.0000    12.3269    11.7042  -999.2500   -60.5373  -999.2500
  735.5000    12.3276    11.7019  -999.2500   -60.9821  -999.2500
  736.0000    12.2529    11.6996  -999.2500   -60.3821  -999.2500
  736.5000    12.2538    11.6974  -999.2500   -60.0806  -999.2500
  737.0000    12.2546    11.6951  -999.2500   -60.3761  -999.2500
  737.5000    12.3307    11.6928  -999.2500   -60.6716  -999.2500
  738.0000    12.3314    11.6906  -999.2500   -60.6687  -999.2500
  738.5000    12.3322    11.7640  -999.2500   -59.9194  -999.2500
  739.0000    12.3329    11.7611  -999.2500   -59.1701  -999.2500
