~VERSION INFORMATION
 VERS.                2.0:   CWLS LOG ASCII STANDARD - VERSION 2.0
 WRAP.                 NO:   ONE LINE PER DEPTH STEP
~WELL INFORMATION
#MNEM.UNIT      DATA TYPE    INFORMATION
#----------   ------------   ------------------------------
 STRT.F            0.5000:   START DEPTH
 STOP.F          696.0000:   STOP DEPTH
 STEP.F            0.5000:   STEP LENGTH
 NULL.          -999.2500:   NO VALUE
 COMP. LAWRENCE/ALLISON INC:   COMPANY
 WELL. SX 11 WP #26-44-11:   WELL
 FLD .             TEAPOT:   FIELD
 LOC .      S11 T38N R78W:   LOCATION
 CNTY.            NATRONA:   COUNTY
 STAT.            WYOMING:   STATE
 CTRY. UNITED STATES OF AMERICA:   COUNTRY
 SRVC.      Dresser Atlas:   SERVICE COMPANY
 DATE.        08-SEP-1984:   LOGDATE
 API .       490251097600:   API NUMBER
~CURVE INFORMATION
#MNEM.UNIT       API CODE    CURVE DESCRIPTION
#----------   ------------   ------------------------------
 DEPT.F                  :   
 AC  .US/F   60 520 00 00:   ACCOUSTIC
 SPR .MV     07 010 01 00:   SPONTANEOUS POTENTIAL FROM RES.
 RILD.OHMM   07 120 46 00:   RESISTIVITY INDUCTION LOG DEEP
 RILM.OHMM   07 120 44 00:   RESISTIVITY INDUCTION LOG MEDIUM
 RFOC.OHMM   07 220 04 00:   RESISTIVITY FOCUSED LOG
 GRR .GAPI   07 310 01 00:   GAMMA RAY FROM RESISTIVITY
 CALD.IN     45 280 60 00:   CALIPER FROM DENSITY LOG
 DEN .G/C3   45 350 01 00:   COMPENSATED BULK DENSTIY
 CORR.G/C3   45 356 01 00:   DENSITY CORRECTION
 PORD.DEC    45 890 12 00:   POROSITY DENSITY SANDSTONE
 CNC .DEC    42 890 03 00:   NEUTRON POROSITY SANDSTONE
~PARAMETER INFORMATION
#MNEM.UNIT          VALUE    DESCRIPTION
#----------   ------------   ------------------------------
 PD  .                 GL:   PERMANENT DATUM
 EPD .F              5186:   ELEVATION PERMANENT DATUM
 LMF .                 GL:   LOG MEASURED FROM
 DMF .                 GL:   DRILLING MEASURED FROM
 EGL .F              5186:   GROUND LEVEL
 DATE.         8-SEP-1984:   RUN DATE
 RUN .                  1:   RUN NUMBER
 DD  .F               712:   DEPTH DRILLER
 DL  .F               695:   DEPTH LOGGER
 BLI .F               693:   BOTTOM LOG INTERVAL
 CS  .IN            8.625:   CASING SIZE
 CBD .F                40:   CASING BOTTOM DRILLER
 CBL .F                45:   CASING BOTTOM LOGGER
 BS  .IN            7.875:   BIT SIZE
 BSD .F               712:   BIT SIZE AT DEPTH
 DFT .          KCL WATER:   DRILLING FLUID TYPE
 MSS .           FLOWLINE:   MUD SAMPLE SOURCE
 RMS .OHMM            .22:   RESISTIVITY MUD SAMPLE
 MST .F                72:   MUD SAMPLE TEMPERATURE
 RMF .OHMM            .17:   RESISTIVITY MUD FILTRATE SAMPLE
 MFST.F                72:   MUD FILTRATE SAMPLE TEMPERATURE
 RMC .OHMM            .28:   RESISTIVITY MUD CAKE
 MCST.F                72:   MUD CAKE SAMPLE TEMPERATURE
 MFSS.               CALC:   MUD FILTRATE SAMPLE SOURCE
 MCSS.               CALC:   MUD CAKE SAMPLE SOURCE
 RMB .OHMM            .18:   RESISTIVITY MUD AT BHT
 BHT .F                90:   BOTTOM HOLE TEMPERATURE
 TCS .HRS               3:   TIME CURCULATED STOPPED
 MRT .F                90:   MAXIMUM RECORDED TEMPERATURE
 LUN .               6274:   LOGGING UNIT NUMBER
 LUL .               GLTE:   LOGGING UNIT LOCATION
 ENGI.             RAUTIO:   RECORDING ENGINEER
 WITN.           JENNINGS:   WITNESSED BY
 CLNT.            A2DTECH:   CLIENT CODE
 ORIG. 1", 2', 2.5", 5" PRNT:   ORIGIN OF DATA
 UWI .       490251097600:   UNIQUE WELL ID
 DICO. A2D Technologies, Inc.:   DIGITIZING COMPANY
~OTHER INFORMATION
~A    DEPT      AC        SPR       RILD       RILM       RFOC         GRR      CALD        DEN       CORR       PORD        CNC   
# ...
   31.0000  -999.2500  -999.2500  -999.2500  -999.2500  -999.2500    92.1034  -999.2500  -999.2500  -999.2500  -999.2500     0.0532
   31.5000  -999.2500  -999.2500  -999.2500  -999.2500  -999.2500    96.5679  -999.2500  -999.2500  -999.2500  -999.2500     0.0544
   32.0000  -999.2500  -999.2500  -999.2500  -999.2500  -999.2500   100.1435  -999.2500  -999.2500  -999.2500  -999.2500     0.0532
   32.5000  -999.2500  -999.2500  -999.2500  -999.2500  -999.2500    97.5002  -999.2500  -999.2500  -999.2500  -999.2500     0.0513
   33.0000  -999.2500  -999.2500  -999.2500  -999.2500  -999.2500    94.5573  -999.2500  -999.2500  -999.2500  -999.2500     0.0500
   33.5000  -999.2500  -999.2500  -999.2500  -999.2500  -999.2500    92.2037  -999.2500  -999.2500  -999.2500  -999.2500     0.0487
   34.0000  -999.2500  -999.2500  -999.2500  -999.2500  -999.2500    91.0385  -999.2500  -999.2500  -999.2500  -999.2500     0.0512
   34.5000  -999.2500  -999.2500  -999.2500  -999.2500  -999.2500    91.0619  -999.2500  -999.2500  -999.2500  -999.2500     0.0523
   35.0000  -999.2500  -999.2500  -999.2500  -999.2500  -999.2500    91.0853  -999.2500  -999.2500  -999.2500  -999.2500     0.0529
   35.5000  -999.2500  -999.2500  -999.2500  -999.2500  -999.2500    90.8024  -999.2500  -999.2500  -999.2500  -999.2500     0.0522
   36.0000  -999.2500  -999.2500  -999.2500  -999.2500  -999.2500    91.1254  -999.2500  -999.2500  -999.2500  -999.2500     0.0509
   36.5000  -999.2500  -999.2500  -999.2500  -999.2500  -999.2500    92.3307  -999.2500  -999.2500  -999.2500  -999.2500     0.0499
   37.0000  -999.2500  -999.2500  -999.2500  -999.2500  -999.2500    93.2396  -999.2500  -999.2500  -999.2500  -999.2500     0.0496
   37.5000  -999.2500  -999.2500  -999.2500  -999.2500  -999.2500    94.4482  -999.2500  -999.2500  -999.2500  -999.2500     0.0471
   38.0000  -999.2500  -999.2500  -999.2500  -999.2500  -999.2500    93.2797  -999.2500  -999.2500  -999.2500  -999.2500     0.0470
   38.5000  -999.2500  -999.2500  -999.2500  -999.2500  -999.2500    90.9328  -999.2500  -999.2500  -999.2500  -999.2500     0.0464
   39.0000  -999.2500  -999.2500  -999.2500  -999.2500  -999.2500    89.4713  -999.2500  -999.2500  -999.2500  -999.2500     0.0460
   39.5000  -999.2500  -999.2500  -999.2500  -999.2500  -999.2500    87.4173  -999.2500  -999.2500  -999.2500  -999.2500     0.0450
   40.0000  -999.2500  -999.2500  -999.2500  -999.2500  -999.2500    88.3296  -999.2500  -999.2500  -999.2500  -999.2500     0.0422
   40.5000  -999.2500  -999.2500  -999.2500  -999.2500  -999.2500    89.5348  -999.2500  -999.2500  -999.2500  -999.2500     0.0406
   41.0000  -999.2500  -999.2500  -999.2500  -999.2500  -999.2500    88.6660  -999.2500  -999.2500  -999.2500  -999.2500     0.0347
   41.5000  -999.2500  -999.2500  -999.2500  -999.2500  -999.2500    86.3157  -999.2500  -999.2500  -999.2500  -999.2500     0.0304
   42.0000  -999.2500  -999.2500  -999.2500  -999.2500  -999.2500    82.7802     9.3620  -999.2500  -999.2500     0.6995     0.0285
   42.5000  -999.2500  -999.2500  -999.2500  -999.2500  -999.2500    79.2480     9.6340  -999.2500  -999.2500     0.5702     0.0343
   43.0000  -999.2500  -999.2500  -999.2500  -999.2500  -999.2500    78.0762    10.6060  -999.2500  -999.2500     0.5246     0.0413
   43.5000  -999.2500  -999.2500  -999.2500  -999.2500  -999.2500    77.8067    11.0950  -999.2500     0.0260     0.4892     0.0444
   44.0000  -999.2500  -999.2500  -999.2500  -999.2500  -999.2500    73.6786    11.5980  -999.2500     0.0570     0.4196     0.0468
   44.5000   144.0130  -999.2500  -999.2500  -999.2500  -999.2500    71.0286    12.0570  -999.2500     0.0980     0.4184     0.0458
   45.0000   151.8380   -11.9600  -999.2500  -999.2500  -999.2500    68.6850    12.4080  -999.2500     0.1440     0.4181     0.0374
   45.5000   159.6640    -5.5850     2.1130     2.1530   953.3160    69.0013    12.2770     2.0020     0.1430     0.4162     0.0346
   46.0000   164.8010     0.3580     8.6380     2.3060  3098.6560    70.2066    12.0240     2.0220     0.0940     0.3913     0.0342
   46.5000   164.9500     1.7810    14.5700     2.7490    12.9070    70.2266    11.6600     2.0330     0.0690     0.3851     0.0342
   47.0000   170.3780     1.6630    20.0920     3.1930     6.8540    69.9471    10.6610     2.0320     0.0660     0.3830     0.0363
   47.5000   217.1410     1.4660    14.0990     3.5200     3.8060    71.1590    10.3830     2.0330     0.0530     0.3827     0.0433
   48.0000   233.2270     1.5320     5.5380     2.8370     3.7710    73.5494    10.1510     2.0120     0.0210     0.3941     0.0645
   48.5000   239.7010     1.7760     2.2650     2.0970     5.0610    72.3843     9.7990     2.0010    -0.0190     0.5139     0.1088
   49.0000   239.7010     2.1760     1.7110     1.3560     5.7560    68.8488    10.0390     2.0010    -0.0720     0.6081     0.2444
   49.5000   239.7010     2.7750     1.7110     0.9850     4.3850    59.0944    11.6370     2.0010    -0.0750     0.7005     0.4303
   50.0000   239.7010     3.3660     1.7960     0.9950     2.9780    46.9639    14.5540     2.0010    -0.0660     0.7003     0.3929
   50.5000   239.7010     3.9600     1.8740     1.5630     2.2750    42.2289    16.3860     2.0010    -0.0560     0.7000     0.3701
   51.0000   239.7010     4.3650     1.9530     2.1940     2.3170    39.8642    16.0670     2.0010    -0.0460     0.6997     0.3571
   51.5000   207.2160     4.5760     2.0360     2.8250     3.1890    40.1662    15.7920     2.0010    -0.0360     0.6694     0.3398
   52.0000   184.5220     5.2790     2.3290     3.4560     3.9830    43.4322    14.9670     2.0010     0.0050     0.5564     0.3140
   52.5000   186.0530     6.1920     3.1120     4.0870     4.7760    47.2897    11.6660     2.0010     0.0580     0.4972     0.3284
   53.0000   193.8840     6.1250     6.7270     4.7180     5.5690    50.5547     9.8860     2.0010     0.0980     0.4332     0.3302
   53.5000   207.7390     5.5430    11.5560     5.3490     6.3620    54.1160    10.2600     2.0130     0.1040     0.4073     0.3311
   54.0000   227.3510     4.9580    16.3850     5.9170     7.2470    54.1226    10.6250     2.0300     0.1420     0.3818     0.3333
   54.5000   218.7850     4.7830    21.2150     6.3180     7.7960    52.9431    10.7110     2.0030     0.1810     0.4236     0.3392
   55.0000   184.5150     5.2630    24.7370     7.7020     7.2660    52.0590    10.7860     2.0010     0.1880     0.4504     0.3429
   55.5000    91.2950     5.7310    22.4280     9.5230     6.7560    51.1768    10.6750     2.0010     0.1780     0.4615     0.3402
   56.0000    92.5810     6.2120    18.0930    11.3440     6.1950    52.9603    10.3220     2.0010     0.1670     0.4517     0.3308
   56.5000    96.9810     6.1880    13.7580    13.1650     6.2520    61.2632     9.2480     2.0020     0.1580     0.4072     0.3486
   57.0000   100.5560     5.2850    11.8440    14.9860     7.1010    66.0097     9.0050     2.0650     0.1520     0.3519     0.3615
   57.5000   101.6530     4.2740    11.0550    15.6760     8.2300    69.5710     8.3140     2.1380     0.1150     0.3066     0.3429
   58.0000   105.4380     3.2020    11.9230    14.9960     9.3600    72.2433     8.0680     2.2100     0.0610     0.2600     0.3189
   58.5000   161.0120     2.1300    13.4560    13.3610    10.4900    73.4352     8.0270     2.2780     0.0400     0.2320     0.3090
   59.0000   213.8050     1.0630    14.8350    13.2050    11.2600    73.1437     8.0230     2.3030     0.0290     0.2210     0.3046
   59.5000   218.1870     0.2900    15.1100    13.0480    11.1530    72.8531     8.0190     2.3160     0.0100     0.2120     0.2954
   60.0000   175.1590     0.4410    14.1290    12.8920    10.9990    73.1560     8.0140     2.3210     0.0230     0.2120     0.2741
   60.5000   109.7120     0.9840    13.2370    12.7350    10.9540    74.0506     8.0070     2.3240     0.0520     0.2120     0.2762
   61.0000    91.8690     1.5050    12.3450    12.5790    10.9540    74.6499     7.9870     2.3230     0.0570     0.2120     0.2854
