~VERSION INFORMATION
 VERS.                2.0:   CWLS LOG ASCII STANDARD - VERSION 2.0
 WRAP.                 NO:   ONE LINE PER DEPTH STEP
~WELL INFORMATION
#MNEM.UNIT      DATA TYPE    INFORMATION
#----------   ------------   ------------------------------
 STRT.F          600.0000:   START DEPTH
 STOP.F         2218.0000:   STOP DEPTH
 STEP.F            0.5000:   STEP LENGTH
 NULL.          -999.2500:   NO VALUE
 COMP. US DEPTMNT OF ENRGY:   COMPANY
 WELL.   37 STX 10 #37-10:   WELL
 FLD .             TEAPOT:   FIELD
 LOC .      S10 T38N R78W:   LOCATION
 CNTY.            NATRONA:   COUNTY
 STAT.            WYOMING:   STATE
 CTRY. UNITED STATES OF AMERICA:   COUNTRY
 SRVC.            Unknown:   SERVICE COMPANY
 DATE.        15-MAY-1991:   LOGDATE
 API .       490251094200:   API NUMBER
~CURVE INFORMATION
#MNEM.UNIT       API CODE    CURVE DESCRIPTION
#----------   ------------   ------------------------------
 DEPT.F                  :   
 TGAS.UNITS  91 830 01 00:   TOTAL GAS FROM HOTWIRE
 ROP .MIN/FT 91 810 01 00:   RATE OF DRILLING PENETRATION
~PARAMETER INFORMATION
#MNEM.UNIT          VALUE    DESCRIPTION
#----------   ------------   ------------------------------
 EKB .F              5231:   KELLING BUSHING
 EGL .F              5221:   GROUND LEVEL
 DATE.            5-15-91:   RUN DATE
 DD  .F              2218:   DEPTH DRILLER
 BLI .F              2218:   BOTTOM LOG INTERVAL
 TLI .F               960:   TOP LOG INTERVAL
 ENGI.              TOWER:   RECORDING ENGINEER
 WITN.               HUSK:   WITNESSED BY
 CLNT.            A2DTECH:   CLIENT CODE
 ORIG.           5" PRINT:   ORIGIN OF DATA
 UWI .       490251094200:   UNIQUE WELL ID
 DICO. A2D Technologies, Inc.:   DIGITIZING COMPANY
~OTHER INFORMATION
~A   DEPT     TGAS          ROP 
# ...
 1450.5000    39.4499     0.7301
 1451.0000    39.4232     0.7465
 1451.5000    39.3964     0.7636
 1452.0000    39.3697     0.7692
 1452.5000    39.3430     0.7692
 1453.0000    39.3163     0.7692
 1453.5000    39.2896     0.7562
 1454.0000    39.2629     0.7337
 1454.5000    39.2361     0.7112
 1455.0000    39.2094     0.6960
 1455.5000    39.1827     0.6847
 1456.0000    39.1560     0.6813
 1456.5000    39.1293     0.6813
 1457.0000    39.1026     0.6813
 1457.5000    39.0759     0.6813
 1458.0000    39.0491     0.6813
 1458.5000    39.0224     0.6813
 1459.0000    38.9957     0.6813
 1459.5000    38.9690     0.7033
 1460.0000    38.9401     0.7143
 1460.5000    38.9153     0.7180
 1461.0000    38.8882     0.7220
 1461.5000    38.8612     0.7253
 1462.0000    38.8341     0.7253
 1462.5000    38.8071     0.7253
 1463.0000    38.7800     0.7253
 1463.5000    38.7530     0.7177
 1464.0000    38.7260     0.6949
 1464.5000    38.6989     0.6767
 1465.0000    38.6719     0.6703
 1465.5000    38.6448     0.6649
 1466.0000    38.6178     0.6535
 1466.5000    38.5907     0.6421
 1467.0000    38.5637     0.6374
 1467.5000    38.5367     0.6374
 1468.0000    38.5096     0.6374
 1468.5000    38.4826     0.6294
 1469.0000    38.4555     0.6264
 1469.5000    38.4285     0.6264
 1470.0000    38.4014     0.6374
 1470.5000    38.3744     0.6374
 1471.0000    38.3474     0.6374
 1471.5000    38.3203     0.6484
 1472.0000    38.2933     0.6593
 1472.5000    38.2662     0.6703
 1473.0000    38.2392     0.6703
 1473.5000    38.2121     0.6703
 1474.0000    38.1851     0.6703
 1474.5000    38.1581     0.6703
 1475.0000    38.1310     0.6703
 1475.5000    38.1040     0.6676
 1476.0000    38.0769     0.6593
 1476.5000    38.0499     0.6593
 1477.0000    38.0228     0.6593
 1477.5000    37.9958     0.6593
 1478.0000    37.9688     0.6593
 1478.5000    37.9417     0.6645
 1479.0000    37.9147     0.6703
 1479.5000    37.8876     0.6643
 1480.0000    37.8606     0.6588
 1480.5000    37.7792     0.6571
 1481.0000    37.6978     0.6554
 1481.5000    37.6164     0.6537
 1482.0000    37.5349     0.6521
 1482.5000    37.4535     0.6504
 1483.0000    37.3721     0.6487
 1483.5000    37.2907     0.6470
 1484.0000    37.2093     0.6659
 1484.5000    37.1279     0.6994
 1485.0000    37.0465     0.7399
 1485.5000    36.9651     0.7699
 1486.0000    36.8837     0.7693
 1486.5000    36.8023     0.7578
 1487.0000    36.7209     0.7382
 1487.5000    36.6394     0.7238
 1488.0000    36.5580     0.7209
 1488.5000    36.4766     0.7096
 1489.0000    36.3952     0.7093
 1489.5000    36.3138     0.7090
 1490.0000    36.2324     0.7088
 1490.5000    36.1510     0.7085
 1491.0000    36.0696     0.7082
 1491.5000    35.9882     0.7189
 1492.0000    35.9068     0.7297
 1492.5000    35.8254     0.7514
 1493.0000    35.7439     0.7622
 1493.5000    35.6625     0.7736
 1494.0000    35.5811     0.7945
 1494.5000    35.4997     0.7933
 1495.0000    35.4183     0.7795
 1495.5000    35.3369     0.7469
 1496.0000    35.2555     0.7258
 1496.5000    35.1741     0.7143
 1497.0000    35.0927     0.7049
 1497.5000    35.0113     0.7047
 1498.0000    34.9299     0.7044
 1498.5000    34.8485     0.7041
 1499.0000    34.7670     0.7038
 1499.5000    34.6856     0.7070
 1500.0000    34.6921     0.7130
 1500.5000    34.8261     0.7089
 1501.0000    34.9600     0.7047
 1501.5000    35.0940     0.6998
 1502.0000    35.2279     0.7317
 1502.5000    35.3619     0.7746
 1503.0000    35.4958     0.8284
 1503.5000    35.6297     0.8823
 1504.0000    35.7637     0.9032
 1504.5000    35.8976     0.8692
 1505.0000    36.0316     0.8022
 1505.5000    36.1655     0.7571
 1506.0000    36.2994     0.7451
 1506.5000    36.4334     0.7440
 1507.0000    36.5673     0.7429
 1507.5000    36.7013     0.7418
 1508.0000    36.8352     0.7407
 1508.5000    36.9692     0.7507
 1509.0000    37.1031     0.7495
 1509.5000    37.2370     0.7467
 1510.0000    37.3710     0.7344
 1510.5000    37.5049     0.7180
 1511.0000    37.6389     0.6787
 1511.5000    37.7728     0.6240
 1512.0000    37.9068     0.5890
 1512.5000    38.0407     0.5939
 1513.0000    38.1746     0.6184
 1513.5000    38.3086     0.6475
 1514.0000    38.4425     0.6652
 1514.5000    38.5765     0.6714
 1515.0000    38.7104     0.6703
 1515.5000    38.8444     0.6692
 1516.0000    38.9783     0.6681
 1516.5000    39.1123     0.6670
 1517.0000    39.2462     0.6710
 1517.5000    39.3801     0.6758
 1518.0000    39.5141     0.6802
 1518.5000    39.6480     0.6961
 1519.0000    39.7820     0.7174
 1519.5000    39.9159     0.7387
 1520.0000    39.9806     0.7473
 1520.5000    39.9003     0.7508
 1521.0000    39.8200     0.7577
 1521.5000    39.7397     0.7017
 1522.0000    39.6594     0.6692
 1522.5000    39.5790     0.6690
 1523.0000    39.4987     0.6673
 1523.5000    39.4184     0.6574
 1524.0000    39.3381     0.6571
 1524.5000    39.2578     0.6569
 1525.0000    39.1775     0.6566
 1525.5000    39.0972     0.6530
 1526.0000    39.0169     0.6413
 1526.5000    38.9366     0.6338
 1527.0000    38.8563     0.6380
 1527.5000    38.7759     0.6541
 1528.0000    38.6956     0.6819
 1528.5000    38.6153     0.7157
 1529.0000    38.5350     0.7679
 1529.5000    38.4547     0.8164
 1530.0000    38.3744     0.8022
 1530.5000    38.2941     0.7637
 1531.0000    38.2138     0.7216
 1531.5000    38.1335     0.6839
 1532.0000    38.0532     0.6663
 1532.5000    37.9728     0.6634
 1533.0000    37.8925     0.6741
 1533.5000    37.8122     0.6849
 1534.0000    37.7319     0.6956
 1534.5000    37.6516     0.7173
 1535.0000    37.5713     0.7500
 1535.5000    37.4910     0.7945
 1536.0000    37.4107     0.8484
 1536.5000    37.3304     0.8233
 1537.0000    37.2501     0.7875
 1537.5000    37.1697     0.7418
 1538.0000    37.0894     0.7044
 1538.5000    37.0091     0.7041
 1539.0000    36.9288     0.7067
 1539.5000    36.8485     0.7244
 1540.0000    36.8225     0.7470
 1540.5000    36.8759     0.7460
 1541.0000    36.9293     0.7449
 1541.5000    36.9827     0.7439
 1542.0000    37.0362     0.7315
 1542.5000    37.0896     0.6731
 1543.0000    37.1430     0.5820
 1543.5000    37.1964     0.5413
 1544.0000    37.2498     0.6077
 1544.5000    37.3033     0.6617
 1545.0000    37.3567     0.6900
 1545.5000    37.4101     0.7022
 1546.0000    37.4635     0.7060
 1546.5000    37.5170     0.7161
 1547.0000    37.5704     0.7209
 1547.5000    37.6238     0.7254
 1548.0000    37.6772     0.7297
 1548.5000    37.7307     0.7102
 1549.0000    37.7841     0.6818
 1549.5000    37.8375     0.6648
 1550.0000    37.8909     0.6525
 1550.5000    37.9444     0.6473
 1551.0000    37.9978     0.6462
 1551.5000    38.0512     0.6527
 1552.0000    38.1046     0.6628
 1552.5000    38.1580     0.6730
 1553.0000    38.2115     0.6747
 1553.5000    38.2649     0.6823
 1554.0000    38.3183     0.6503
 1554.5000    38.3717     0.5833
 1555.0000    38.4252     0.4943
 1555.5000    38.4786     0.4383
 1556.0000    38.5320     0.4043
 1556.5000    38.5854     0.4032
 1557.0000    38.6389     0.4021
 1557.5000    38.6923     0.4230
 1558.0000    38.7457     0.4439
 1558.5000    38.7991     0.4652
 1559.0000    38.8526     0.4869
 1559.5000    38.9060     0.5196
 1560.0000    38.9509     0.5495
 1560.5000    38.9194     0.5468
 1561.0000    38.8922     0.5444
 1561.5000    38.8650     0.5419
 1562.0000    38.8378     0.5394
 1562.5000    38.8106     0.5457
 1563.0000    38.7834     0.5646
 1563.5000    38.7561     0.6267
 1564.0000    38.7289     0.6566
 1564.5000    38.7017     0.6593
 1565.0000    38.6745     0.6593
 1565.5000    38.6473     0.6593
 1566.0000    38.6201     0.6593
 1566.5000    38.5929     0.6593
 1567.0000    38.5657     0.6703
 1567.5000    38.5385     0.6593
 1568.0000    38.5113     0.6374
 1568.5000    38.4841     0.5824
 1569.0000    38.4569     0.5948
 1569.5000    38.4297     0.6195
 1570.0000    38.4025     0.6621
 1570.5000    38.3753     0.6865
 1571.0000    38.3481     0.7184
 1571.5000    38.3209     0.7363
