~VERSION INFORMATION
 VERS.                2.0:   CWLS LOG ASCII STANDARD - VERSION 2.0
 WRAP.                 NO:   ONE LINE PER DEPTH STEP
~WELL INFORMATION
#MNEM.UNIT      DATA TYPE    INFORMATION
#----------   ------------   ------------------------------
 STRT.F           17.0000:   START DEPTH
 STOP.F         1345.0000:   STOP DEPTH
 STEP.F            0.5000:   STEP LENGTH
 NULL.          -999.2500:   NO VALUE
 COMP. DEPARTMENT OF ENERGY:   COMPANY
 WELL. RES 3 TEAPOT DOME ##86S-11:   WELL
 FLD .             TEAPOT:   FIELD
 LOC .      S11 T38N R78W:   LOCATION
 CNTY.            NATRONA:   COUNTY
 STAT.            WYOMING:   STATE
 CTRY. UNITED STATES OF AMERICA:   COUNTRY
 SRVC.       Schlumberger:   SERVICE COMPANY
 DATE.        13-AUG-1959:   LOGDATE
 API .       490250633200:   API NUMBER
~CURVE INFORMATION
#MNEM.UNIT       API CODE    CURVE DESCRIPTION
#----------   ------------   ------------------------------
 DEPT.F                  :   
 SPR .MV     05 010 01 00:   SPONTANEOUS POTENTIAL FROM RES.
 CILD.MMHO   05 110 46 00:   CONDUCTIVITY INDUCTION LOG DEEP
 ILD .OHMM   05 120 46 00:   INDUCTION LOG DEEP
 ASN .OHMM   05 041 16 00:   AMPLIFIED SHORT NORMAL 16"
~PARAMETER INFORMATION
#MNEM.UNIT          VALUE    DESCRIPTION
#----------   ------------   ------------------------------
 PD  .                 GL:   PERMANENT DATUM
 EPD .F              5295:   ELEVATION PERMANENT DATUM
 LMF .                 KB:   LOG MEASURED FROM
 DAPD.F                 4:   FEET ABOVE PERMANENT DATUM
 DMF .                 KB:   DRILLING MEASURED FROM
 EKB .F              5299:   KELLING BUSHING
 EGL .F              5295:   GROUND LEVEL
 DATE.            8-13-59:   RUN DATE
 RUN .                  1:   RUN NUMBER
 DD  .F              1350:   DEPTH DRILLER
 DL  .F              1350:   DEPTH LOGGER
 BLI .F              1345:   BOTTOM LOG INTERVAL
 TLI .F                17:   TOP LOG INTERVAL
 CBD .F                17:   CASING BOTTOM DRILLER
 CBL .F                17:   CASING BOTTOM LOGGER
 BS  .IN             6.75:   BIT SIZE
 BSD .F              1350:   BIT SIZE AT DEPTH
 DFT .                GEL:   DRILLING FLUID TYPE
 DFD .                9.8:   DRILLING FLUID DENSITY
 DFV .                 65:   DRILLING FLUID VISCOSITY
 DFPH.                9.5:   DRILLING FLUID PH
 DFL .                5.4:   DRILLING FLUID LOSS
 RMS .OHMM           2.84:   RESISTIVITY MUD SAMPLE
 MST .F                69:   MUD SAMPLE TEMPERATURE
 RMF .OHMM            2.5:   RESISTIVITY MUD FILTRATE SAMPLE
 MFST.F                69:   MUD FILTRATE SAMPLE TEMPERATURE
 RMC .OHMM           2.46:   RESISTIVITY MUD CAKE
 MCST.F                69:   MUD CAKE SAMPLE TEMPERATURE
 MFSS.                  M:   MUD FILTRATE SAMPLE SOURCE
 MCSS.                  M:   MUD CAKE SAMPLE SOURCE
 TCS .HRS               1:   TIME CURCULATED STOPPED
 LUN .               2523:   LOGGING UNIT NUMBER
 LUL .               CSPR:   LOGGING UNIT LOCATION
 ENGI.             KNOBEL:   RECORDING ENGINEER
 WITN.             MARTIN:   WITNESSED BY
 CLNT.            A2DTECH:   CLIENT CODE
 ORIG.         2"5" PRINT:   ORIGIN OF DATA
 UWI .       490250633200:   UNIQUE WELL ID
 DICO. A2D Technologies, Inc.:   DIGITIZING COMPANY
~OTHER INFORMATION
~A   DEPT      SPR        CILD         ILD      ASN   
# ...
 1185.0000   -32.3344    77.5698    12.4477    14.3929
 1185.5000   -31.5379    79.1581    12.1957    14.1796
 1186.0000   -30.7472    81.1480    12.0802    13.9647
 1186.5000   -30.4073    81.3098    12.0140    13.8611
 1187.0000   -30.1188    81.5353    11.9420    13.8552
 1187.5000   -29.5671    81.7608    11.8915    13.8292
 1188.0000   -28.8244    81.9864    11.8338    13.8136
 1188.5000   -28.6725    82.2119    11.6529    13.7923
 1189.0000   -29.3576    82.4374    11.6011    13.7737
 1189.5000   -29.5646    82.6629    11.6337    13.7539
 1190.0000   -29.4548    82.8884    11.6421    13.7344
 1190.5000   -30.0157    83.1140    11.6614    13.7148
 1191.0000   -30.3951    83.3395    11.6747    13.6947
 1191.5000   -30.5276    83.5650    11.6912    13.6764
 1192.0000   -31.0143    83.7905    11.7062    13.6546
 1192.5000   -31.8904    83.8248    11.7219    13.6392
 1193.0000   -32.9829    83.6901    11.7373    13.6100
 1193.5000   -33.5653    83.5555    11.7527    13.6254
 1194.0000   -33.1028    83.4209    11.7680    13.8033
 1194.5000   -32.7330    83.2862    11.7835    13.9420
 1195.0000   -32.3659    83.1516    11.7989    13.8205
 1195.5000   -32.6355    83.0169    11.8146    13.6119
 1196.0000   -33.1098    82.8823    11.8295    13.6441
 1196.5000   -32.8514    82.7477    11.8459    13.6971
 1197.0000   -32.1934    82.6130    11.8596    13.6144
 1197.5000   -31.6464    82.4784    11.8792    13.4295
 1198.0000   -31.7226    82.3437    11.8790    13.2436
 1198.5000   -31.4455    82.2091    11.7959    13.3152
 1199.0000   -30.7826    82.0885    11.7138    13.5135
 1199.5000   -30.4002    82.9950    11.6314    13.4394
 1200.0000   -30.7872    83.8159    11.5492    13.1347
 1200.5000   -31.3633    84.6369    11.4670    12.9482
 1201.0000   -31.3504    85.4578    11.3848    12.8909
 1201.5000   -30.8104    85.9552    11.3026    12.8026
 1202.0000   -30.3372    86.4573    11.2181    12.7282
 1202.5000   -30.5541    86.9595    11.1135    12.6492
 1203.0000   -31.1394    87.4617    11.0618    12.5390
 1203.5000   -31.5046    87.9638    11.0544    12.5032
 1204.0000   -31.1576    88.4660    11.0412    12.4900
 1204.5000   -30.7529    88.9682    11.0310    12.4701
 1205.0000   -30.3646    89.4704    11.0192    12.4536
 1205.5000   -30.3463    89.9725    11.0079    12.4348
 1206.0000   -30.6824    90.0981    10.9967    12.4178
 1206.5000   -31.1880    89.8470    10.9847    12.3980
 1207.0000   -31.7221    89.5959    10.9835    12.3829
 1207.5000   -32.2459    89.3448    11.0080    12.3588
 1208.0000   -32.3066    89.0937    11.0305    12.3511
 1208.5000   -32.3084    88.8426    11.0562    12.3183
 1209.0000   -32.1802    88.5916    11.0858    12.4887
 1209.5000   -31.8704    87.8482    11.3037    12.7559
 1210.0000   -31.6103    85.9563    11.5676    13.0165
 1210.5000   -31.0403    84.0645    11.8387    13.7262
 1211.0000   -29.8709    82.1726    12.0460    14.3821
 1211.5000   -28.7588    80.2807    12.1111    15.0781
 1212.0000   -27.4566    78.3888    12.4846    15.7427
 1212.5000   -26.5974    76.4969    12.8809    16.1546
 1213.0000   -26.6779    74.6050    13.1123    15.5289
 1213.5000   -26.8699    72.7131    13.1120    14.7689
 1214.0000   -27.5264    74.2439    13.0721    13.9855
 1214.5000   -28.2070    78.4406    12.6400    13.2027
 1215.0000   -28.8651    82.6373    11.9912    12.6750
 1215.5000   -29.5793    82.3145    11.8846    13.0376
 1216.0000   -29.1746    80.2807    11.5324    12.5800
 1216.5000   -27.5429    93.8392    10.6910    11.9171
 1217.0000   -27.3128    94.7431    10.4218    11.8802
 1217.5000   -27.8111    94.5103    10.3258    11.8317
 1218.0000   -27.6227    94.2714    10.3041    11.8164
 1218.5000   -27.4210    94.0617    10.2714    11.7851
 1219.0000   -27.1966    93.8610    10.2639    11.7611
 1219.5000   -26.9841    93.6603    10.3443    11.7332
 1220.0000   -26.7715    93.4505    10.4222    11.7139
 1220.5000   -26.7444    93.2291    10.5033    11.8245
 1221.0000   -26.7547    93.0129    10.5797    11.9555
 1221.5000   -26.7438    92.4678    10.6824    12.1001
 1222.0000   -26.7618    91.5327    10.8179    12.1484
 1222.5000   -26.6320    90.5976    10.9405    12.0051
 1223.0000   -26.3531    89.6626    11.0848    11.8621
 1223.5000   -26.1055    88.7275    11.1756    11.7803
 1224.0000   -25.8337    87.7924    11.1244    11.6983
 1224.5000   -25.5905    88.6983    11.0097    11.6212
 1225.0000   -25.2944    90.2236    10.8879    11.6691
 1225.5000   -25.1368    90.2236    10.7697    11.7289
 1226.0000   -25.3153    90.2236    10.6475    11.7915
 1226.5000   -25.4395    91.5795    10.5312    11.7742
 1227.0000   -25.6270    94.2912    10.4038    11.7185
 1227.5000   -25.5439    96.5509    10.3431    11.6714
 1228.0000   -25.0941    97.4548    10.3567    11.6182
 1228.5000   -24.6431    97.0796    10.3628    11.5713
 1229.0000   -24.2261    96.7563    10.3733    11.5215
 1229.5000   -23.7779    96.4085    10.3812    11.5763
 1230.0000   -22.9097    96.0628    10.3905    11.6953
 1230.5000   -23.1268    95.7176    10.3991    11.8284
 1231.0000   -23.2942    95.3729    10.4081    11.9463
 1231.5000   -22.9223    95.0280    10.4166    12.0547
 1232.0000   -22.8484    94.6838    10.4258    12.1500
 1232.5000   -23.2402    94.3397    10.4341    12.0908
 1233.0000   -23.6378    94.0098    10.4432    11.9280
 1233.5000   -24.0214    94.0652    10.4168    11.7854
 1234.0000   -24.0235    94.8184    10.3624    11.6208
 1234.5000   -23.9464    95.5717    10.3123    11.4717
 1235.0000   -23.9033    96.3249    10.2601    11.4273
 1235.5000   -23.8052    97.0782    10.2090    11.4149
 1236.0000   -23.6143    97.8314    10.1575    11.3989
 1236.5000   -23.4441    99.2626    10.1058    11.3840
 1237.0000   -23.2506    99.4502    10.0549    11.3695
 1237.5000   -23.1614    99.6208    10.0033    11.3528
 1238.0000   -23.1728    99.7913     9.9870    11.3427
 1238.5000   -23.1649    99.9619    10.0038    11.3443
 1239.0000   -23.1848   100.1324    10.0206    11.3429
 1239.5000   -23.4071   100.3029    10.0384    11.3446
 1240.0000   -23.6899   100.4735    10.0555    11.3418
 1240.5000   -23.9542   100.6440    10.0730    11.3465
 1241.0000   -24.2444   100.8146    10.0902    11.3369
 1241.5000   -24.5716   100.9851    10.1075    11.4158
 1242.0000   -25.0030   100.5947    10.1250    11.5189
 1242.5000   -25.4403    99.6432    10.1419    11.6025
 1243.0000   -25.9112    98.6917    10.1594    11.6965
 1243.5000   -26.3027    97.7402    10.1777    11.7844
 1244.0000   -26.6209    96.7671    10.3199    11.8759
 1244.5000   -26.8835    95.7846    10.4949    11.9808
 1245.0000   -27.5303    94.8020    10.6690    12.2136
 1245.5000   -28.3686    93.8195    10.8296    12.6560
 1246.0000   -30.7526    92.9353    10.9866    13.0879
 1246.5000   -34.0178    89.3023    11.1880    13.4878
 1247.0000   -36.9433    85.9996    11.3911    13.8803
 1247.5000   -38.2358    82.6969    11.6621    14.2615
 1248.0000   -37.9060    79.3942    12.0688    14.6350
 1248.5000   -38.7253    75.8005    12.4694    15.0114
 1249.0000   -39.4734    74.9057    12.7810    15.3761
 1249.5000   -40.1907    73.9014    13.0608    15.6582
 1250.0000   -40.3554    72.8938    13.3140    15.9578
 1250.5000   -40.0866    71.8906    13.5877    15.9108
 1251.0000   -39.7906    70.8934    13.5254    15.8237
 1251.5000   -39.4431    69.9024    13.3592    15.7332
 1252.0000   -38.6692    69.7154    13.2273    15.6540
 1252.5000   -37.7636    70.8057    13.0797    15.5578
 1253.0000   -36.8778    71.8670    12.9411    15.4851
 1253.5000   -36.6586    72.9283    12.7969    15.3030
 1254.0000   -37.1108    73.9895    12.6570    15.1123
 1254.5000   -36.5023    75.0508    12.5122    14.9387
 1255.0000   -35.1028    76.1121    12.3755    14.7880
 1255.5000   -34.1243    77.5690    12.2237    14.7762
 1256.0000   -33.2591    78.0160    12.1491    14.7596
 1256.5000   -33.8765    78.5252    12.1398    14.7413
 1257.0000   -35.4542    79.0345    12.1106    14.7241
 1257.5000   -36.8025    79.5437    12.0906    14.7056
