~VERSION INFORMATION
 VERS.                2.0:   CWLS LOG ASCII STANDARD - VERSION 2.0
 WRAP.                 NO:   ONE LINE PER DEPTH STEP
~WELL INFORMATION
#MNEM.UNIT      DATA TYPE    INFORMATION
#----------   ------------   ------------------------------
 STRT.F           24.0000:   START DEPTH
 STOP.F          464.0000:   STOP DEPTH
 STEP.F            0.5000:   STEP LENGTH
 NULL.          -999.2500:   NO VALUE
 COMP.    FENIX & SCISSON:   COMPANY
 WELL.       NPR #62-S-10:   WELL
 FLD .             TEAPOT:   FIELD
 LOC .      S10 T38N R78W:   LOCATION
 CNTY.            NATRONA:   COUNTY
 STAT.            WYOMING:   STATE
 CTRY. UNITED STATES OF AMERICA:   COUNTRY
 SRVC.              Welex:   SERVICE COMPANY
 DATE.        12-APR-1977:   LOGDATE
 API .       490251033300:   API NUMBER
~CURVE INFORMATION
#MNEM.UNIT       API CODE    CURVE DESCRIPTION
#----------   ------------   ------------------------------
 DEPT.F                  :   
 SPR .MV     07 010 01 00:   SPONTANEOUS POTENTIAL
 ILD .OHMM   07 120 46 00:   INDUCTION LOG DEEP
 ILM .OHMM   07 120 44 00:   INDUCTION LOG MEDIUM
 SGRD.OHMM   07 221 05 00:   SHALLOW SHORT GUARD RESISTIVITY
 GRD .GAPI   45 310 01 00:   GAMMA RAY FROM DENSITY LOG
 CALD.IN     45 280 60 00:   CALIPER FROM DENSITY LOG
 CORR.G/C3   45 356 01 00:   DENSITY CORRECTION
 RHOB.G/C3   45 350 01 00:   BULK DENSITY
 DPHI.DEC    45 890 12 00:   DENSITY POROSITY SANDSTONE
~PARAMETER INFORMATION
#MNEM.UNIT          VALUE    DESCRIPTION
#----------   ------------   ------------------------------
 PD  .                 GL:   PERMANENT DATUM
 EPD .F              5155:   ELEVATION PERMANENT DATUM
 LMF .                 GL:   LOG MEASURED FROM
 DMF .                 GL:   DRILLING MEASURED FROM
 EGL .F              5155:   GROUND LEVEL
 DATE.        12-APR-1977:   RUN DATE
 RUN .                  1:   RUN NUMBER
 DD  .F               460:   DEPTH DRILLER
 DL  .F               464:   DEPTH LOGGER
 BLI .F               462:   BOTTOM LOG INTERVAL
 TLI .F                30:   TOP LOG INTERVAL
 CS  .IN            8.625:   CASING SIZE
 BS  .IN            7.875:   BIT SIZE
 BSD .F               460:   BIT SIZE AT DEPTH
 DFT .            KCL GEL:   DRILLING FLUID TYPE
 DFD .                8.8:   DRILLING FLUID DENSITY
 TCS .HRS            0100:   TIME CURCULATED STOPPED
 MRT .F                65:   MAXIMUM RECORDED TEMPERATURE
 ENGI.        E. CALLAHAN:   RECORDING ENGINEER
 WITN.            R. LYON:   WITNESSED BY
 CLNT.            A2DTECH:   CLIENT CODE
 ORIG.           5" PRINT:   ORIGIN OF DATA
 UWI .       490251033300:   UNIQUE WELL ID
 DICO. A2D Technologies, Inc.:   DIGITIZING COMPANY
~OTHER INFORMATION
~A   DEPT      SPR        ILD        ILM       SGRD        GRD       CALD       CORR       RHOB       DPHI   
# ...
   97.0000   -30.5443     7.7333     9.2704    11.8578   120.1747     8.1259     0.0302     2.4650     0.1098
   97.5000   -30.5280     7.7370     9.2784    47.9663   120.4938     8.1278     0.0288     2.4575     0.1140
   98.0000   -30.3624     7.6873     9.2208    11.3923   120.8130     8.1297     0.0274     2.4500     0.1199
   98.5000   -30.0476     7.6911     9.2272    11.3197   121.1321     8.1317     0.0260     2.4448     0.1250
   99.0000   -29.7328     7.5891     9.0438    11.4081   121.1528     8.1340     0.0245     2.4382     0.1292
   99.5000   -29.4179     7.4885     8.8642    11.3373   121.0239     8.1359     0.0232     2.4322     0.1319
  100.0000   -29.4016     7.2877     8.6430    11.1235   121.0448     8.1378     0.0238     2.4285     0.1341
  100.5000   -29.3298     7.0484     8.3809    10.7397   122.6012     8.1398     0.0218     2.4293     0.1351
  101.0000   -29.2515     6.8096     8.0624    10.3066   123.9750     8.1417     0.0204     2.4286     0.1363
  101.5000   -29.2045     6.6303     7.6865     9.7559   124.5667     8.1436     0.0222     2.4347     0.1348
  102.0000   -29.3375     6.4962     7.2775     8.9209   123.8091     8.1455     0.0281     2.4438     0.1254
  102.5000   -29.3211     6.4593     7.3841     8.0453   122.2074     8.1474     0.0327     2.4589     0.1173
  103.0000   -29.6032     6.5091     7.5965     7.7750   120.7259     8.1493     0.0328     2.4665     0.1133
  103.5000   -29.8854     6.5646     7.7613     9.2461   120.4394     8.1534     0.0344     2.4719     0.1112
  104.0000   -30.0182     6.7019     7.8206    11.0718   120.6116     8.1552     0.0390     2.4795     0.1079
  104.5000   -30.1511     6.8475     7.9350    10.9242   121.0792     8.1570     0.0435     2.4840     0.1033
  105.0000   -30.1343     6.9562     8.0512    10.6306   121.6967     8.1434     0.0451     2.4841     0.1009
  105.5000   -30.1179     7.1082     8.1690    10.7088   122.6140     8.1156     0.0437     2.4804     0.1011
  106.0000   -30.1015     7.2546     8.3461    11.0921   123.2315     8.1024     0.0393     2.4745     0.1038
  106.5000   -30.0851     7.4123     8.5863    11.3272   123.6991     8.1042     0.0334     2.4647     0.1120
  107.0000   -30.0687     7.4694     8.7725    11.2537   123.8668     8.0910     0.0260     2.4540     0.1208
  107.5000   -29.9030     7.5269     8.9009    10.8758   122.9851     8.1078     0.0156     2.4441     0.1273
  108.0000   -29.8627     7.5849     8.9070    11.1198   119.4047     8.1096     0.0082     2.4352     0.1303
  108.5000   -29.7209     7.5906     8.8517    11.3460   120.6219     8.1114     0.0008     2.4266     0.1337
  109.0000   -29.5552     7.5426     8.7952    11.3517   121.2349     8.1132    -0.0036     2.4184     0.1370
  109.5000   -29.3612     7.4963     8.6220    11.2004   119.7306     8.1153    -0.0035     2.4117     0.1421
  110.0000   -29.0714     7.3990     8.3924    10.7496   121.5748     8.1171    -0.0003     2.4027     0.1478
  110.5000   -28.9057     7.3043     8.3403    10.3886   121.1428     8.1189     0.0075     2.3975     0.1531
  111.0000   -29.0386     7.2094     8.2885    10.3202   119.9612     8.1206     0.0230     2.4013     0.1537
  111.5000   -29.0222     7.0667     8.2367    10.2533   118.7796     8.1070     0.0403     2.4172     0.1428
  112.0000   -29.1592     6.9269     8.1292    10.0480   118.3476     8.1092     0.0449     2.4361     0.1278
  112.5000   -29.1387     6.7898     7.9679     9.9141   118.8156     8.0811     0.0435     2.4422     0.1256
  113.0000   -29.1223     6.5641     7.5964     9.4495   119.1524     8.0828     0.0391     2.4378     0.1283
  113.5000   -29.1060     6.3458     7.2925     9.0067   119.4768     8.0846     0.0332     2.4288     0.1367
  114.0000   -28.9403     6.0925     7.0007     8.9474   120.2224     8.0864     0.0287     2.4161     0.1430
  114.5000   -28.9240     5.8494     6.5372     9.2021   120.9898     8.0882     0.0214     2.4078     0.1466
  115.0000   -28.7583     5.4627     6.0622     8.4738   120.5578     8.0899     0.0110     2.4079     0.1481
  115.5000   -28.7420     5.2085     5.9829     5.7556   119.8260     8.0917     0.0050     2.4132     0.1432
  116.0000   -28.7256     5.1045     6.0706     5.0142   119.5395     8.0935     0.0081     2.4309     0.1306
  116.5000   -28.7092     5.2891     6.2887     6.3458   119.8616     8.0953     0.0142     2.4499     0.1180
  117.0000   -28.6928     5.4415     6.6054     9.2221   120.7790     8.1120     0.0173     2.4634     0.1138
  117.5000   -28.6764     5.6763     6.9862     9.8182   121.2421     8.1288     0.0189     2.4738     0.1091
  118.0000   -28.6601     5.9623     7.4402     9.8223   120.2149     8.1305     0.0190     2.4844     0.1042
  118.5000   -28.6437     6.2628     7.8691    10.1019   119.0332     8.1323     0.0161     2.4905     0.1039
  119.0000   -28.6273     6.5330     8.1518    10.3895   119.0510     8.1341     0.0101     2.4800     0.1057
  119.5000   -28.7643     6.8149     8.2141    10.8341   119.2188     8.1359     0.0041     2.4620     0.1098
  120.0000   -29.0423     7.0114     8.3343    11.1425   120.1361     8.1227     0.0013     2.4590     0.1143
  120.5000   -29.1793     7.1637     8.4563    10.6941   121.2034     8.1095     0.0062     2.4681     0.1134
  121.0000   -29.1588     7.3702     8.5801    10.3348   122.4206     8.0963     0.0150     2.4757     0.1094
  121.5000   -29.1424     7.5304     8.6456    10.9272   123.3379     8.0985     0.0196     2.4901     0.1049
  122.0000   -29.4287     7.6941     8.7722    11.4739   124.1054     8.0849     0.0212     2.5015     0.0994
  122.5000   -29.5615     7.8071     8.9006    11.4799   124.5729     8.0871     0.0213     2.4887     0.1051
  123.0000   -29.6944     7.8673     9.0935    11.6433   124.2909     8.0889     0.0199     2.4745     0.1099
  123.5000   -29.8273     7.8732     9.2266    11.8103   123.8589     8.0906     0.0200     2.4736     0.1084
  124.0000   -29.9602     7.8792     9.3617    11.9797   123.4269     8.0774     0.0216     2.4867     0.1053
  124.5000   -29.9397     7.8852     9.4987    12.1631   122.9770     8.0792     0.0232     2.4876     0.1047
  125.0000   -30.0767     7.9459     9.5713    12.2410   122.2139     8.0656     0.0262     2.4688     0.1110
  125.5000   -30.0562     8.0071     9.5779    12.1627   120.7817     8.0678     0.0293     2.4690     0.1118
  126.0000   -30.0398     8.0688     9.5176    11.9167   124.0978     8.0995     0.0279     2.4742     0.1106
  126.5000   -30.0234     8.1873     9.4593    11.9228   122.1710     8.1013     0.0250     2.4695     0.1122
  127.0000   -29.8578     8.1935     9.5334    12.0105   121.1349     8.1180     0.0251     2.4608     0.1150
  127.5000   -29.6922     8.2566     9.6711    12.0988   124.7554     8.1348     0.0297     2.4661     0.1129
  128.0000   -29.5266     8.3202     9.7450    12.3575   124.1735     8.1515     0.0358     2.4775     0.1069
  128.5000   -29.3609     8.3265     9.8227    12.4484   122.9919     8.1683     0.0404     2.4911     0.0999
  129.0000   -29.1953     8.3328     9.8945    12.4535   121.6603     8.1701     0.0406     2.4957     0.0954
  129.5000   -29.0297     8.3391     9.9014    12.4586   120.4787     8.1719     0.0420     2.4972     0.0932
  130.0000   -28.8640     8.3455     9.9769    12.4637   118.8474     8.1737     0.0421     2.4965     0.0926
  130.5000   -28.6984     8.4098     9.9150    12.3830   118.2610     8.1604     0.0437     2.4958     0.0923
  131.0000   -28.6820     8.4162     9.8534    12.1337   119.3327     8.1472     0.0438     2.4936     0.0937
  131.5000   -28.6656     8.4226     9.7247    12.0538   120.6999     8.1340     0.0454     2.4915     0.0961
  132.0000   -28.6493     8.4290     9.5255    12.5709   121.9171     8.1208     0.0440     2.4878     0.1027
  132.5000   -28.6329     8.4354     9.2714    12.2330   122.5346     8.1076     0.0411     2.4788     0.1078
  133.0000   -28.6165     8.3835     9.0868    11.6598   122.7023     8.0944     0.0367     2.4728     0.1126
