~VERSION INFORMATION
 VERS.                2.0:   CWLS LOG ASCII STANDARD - VERSION 2.0
 WRAP.                 NO:   ONE LINE PER DEPTH STEP
~WELL INFORMATION
#MNEM.UNIT      DATA TYPE    INFORMATION
#----------   ------------   ------------------------------
 STRT.F           80.0000:   START DEPTH
 STOP.F          808.0000:   STOP DEPTH
 STEP.F            0.5000:   STEP LENGTH
 NULL.          -999.2500:   NO VALUE
 COMP.           U S NAVY:   COMPANY
 WELL.     NRP #3 #38-S-2:   WELL
 FLD .             TEAPOT:   FIELD
 LOC .       S2 T38N R78W:   LOCATION
 CNTY.            NATRONA:   COUNTY
 STAT.            WYOMING:   STATE
 CTRY. UNITED STATES OF AMERICA:   COUNTRY
 SRVC.       Schlumberger:   SERVICE COMPANY
 DATE.        18-JUN-1962:   LOGDATE
 API .       490250639100:   API NUMBER
~CURVE INFORMATION
#MNEM.UNIT       API CODE    CURVE DESCRIPTION
#----------   ------------   ------------------------------
 DEPT.F                  :   
 GR  .GAPI   30 310 01 00:   GAMMA RAY
 SPR .MV     05 010 01 00:   SPONTANEOUS POTENTIAL FROM RES.
 ASN .OHMM   05 041 16 00:   AMPLIFIED SHORT NORMAL 16"
 ILD .OHMM   05 120 46 00:   INDUCTION LOG DEEP
 CILD.MMHO   05 110 46 00:   CONDUCTIVITY INDUCTION LOG DEEP
 CALM.IN     15 280 01 00:   CALIPER FROM MICRO LOG
~PARAMETER INFORMATION
#MNEM.UNIT          VALUE    DESCRIPTION
#----------   ------------   ------------------------------
 PD  .                 GL:   PERMANENT DATUM
 EPD .F              5146:   ELEVATION PERMANENT DATUM
 LMF .                 KB:   LOG MEASURED FROM
 DAPD.F                 5:   FEET ABOVE PERMANENT DATUM
 DMF .                 KB:   DRILLING MEASURED FROM
 EKB .F              5151:   KELLING BUSHING
 EGL .F              5146:   GROUND LEVEL
 DATE.          6-18-1962:   RUN DATE
 RUN .                  1:   RUN NUMBER
 DD  .F              1000:   DEPTH DRILLER
 DL  .F               808:   DEPTH LOGGER
 BLI .F               807:   BOTTOM LOG INTERVAL
 TLI .F                80:   TOP LOG INTERVAL
 BS  .IN             8.75:   BIT SIZE
 BSD .F              1000:   BIT SIZE AT DEPTH
 DFT .       OIL EMULSION:   DRILLING FLUID TYPE
 DFD .                8.7:   DRILLING FLUID DENSITY
 DFV .                 58:   DRILLING FLUID VISCOSITY
 DFL .                  4:   DRILLING FLUID LOSS
 RMS .OHMM           3.77:   RESISTIVITY MUD SAMPLE
 MST .F                79:   MUD SAMPLE TEMPERATURE
 RMF .OHMM           2.47:   RESISTIVITY MUD FILTRATE SAMPLE
 MFST.F                79:   MUD FILTRATE SAMPLE TEMPERATURE
 RMC .OHMM           3.29:   RESISTIVITY MUD CAKE
 MCST.F                79:   MUD CAKE SAMPLE TEMPERATURE
 TCS .HRS               1:   TIME CURCULATED STOPPED
 LUN .               2503:   LOGGING UNIT NUMBER
 LUL .               CSPR:   LOGGING UNIT LOCATION
 ENGI.             DANNER:   RECORDING ENGINEER
 WITN.          JORGENSEN:   WITNESSED BY
 CLNT.            A2DTECH:   CLIENT CODE
 ORIG.   1", 2", 5" PRINT:   ORIGIN OF DATA
 UWI .       490250639100:   UNIQUE WELL ID
 DICO. A2D Technologies, Inc.:   DIGITIZING COMPANY
~OTHER INFORMATION
~A   DEPT       GR        SPR          ASN        ILD      CILD      CALM   
# ...
  132.0000  -999.2500   -72.4966    12.2401     5.2935   176.1679  -999.2500
  132.5000  -999.2500   -71.9061    10.8995     4.8429   197.5901  -999.2500
  133.0000  -999.2500   -71.3155     6.0454     4.2849   205.3748  -999.2500
  133.5000  -999.2500   -70.7331     6.0507     4.2220   208.8695  -999.2500
  134.0000  -999.2500   -70.3596     5.9896     4.3021   206.7807  -999.2500
  134.5000  -999.2500   -70.7835     6.2445     4.5464   199.1021  -999.2500
  135.0000  -999.2500   -71.1880     7.0002     5.4071   182.9030  -999.2500
  135.5000  -999.2500   -71.5879     7.7554     6.2558   164.0426  -999.2500
  136.0000  -999.2500   -71.9512     8.5092     7.0976   145.1822  -999.2500
  136.5000  -999.2500   -72.1157     8.9763     7.8861   126.3218  -999.2500
  137.0000  -999.2500   -72.2879     9.3404     8.3430   109.8592  -999.2500
  137.5000  -999.2500   -72.4647     9.6991     8.8167   103.2026  -999.2500
  138.0000  -999.2500   -72.6112    10.0007     9.2872    99.9868  -999.2500
  138.5000  -999.2500   -72.7530    10.3023     9.7197    98.4954  -999.2500
  139.0000  -999.2500   -72.8937    10.5299     9.8662    96.9778  -999.2500
  139.5000  -999.2500   -73.0345    10.7826    10.0250    95.4454  -999.2500
  140.0000  -999.2500   -73.1755    11.0319    10.1851    93.9096  -999.2500
  140.5000  -999.2500   -73.3164    11.2810    10.3441    92.3735  -999.2500
  141.0000  -999.2500   -73.4574    11.5104    10.4816    90.9557  -999.2500
  141.5000  -999.2500   -73.5983    11.6160    10.4820    90.2901  -999.2500
  142.0000  -999.2500   -73.7391    11.7207    10.4815    89.6239  -999.2500
  142.5000  -999.2500   -73.8814    11.8259    10.4813    88.9585  -999.2500
  143.0000  -999.2500   -73.9140    11.9310    10.4804    88.2931  -999.2500
  143.5000  -999.2500   -73.8812    12.0362    10.4859    87.6274  -999.2500
  144.0000  -999.2500   -73.8476    12.1414    10.5940    86.9618  -999.2500
  144.5000  -999.2500   -73.8139    12.2466    10.6986    86.2961  -999.2500
  145.0000  -999.2500   -73.7808    12.3518    10.8022    85.6304  -999.2500
  145.5000  -999.2500   -73.7473    12.4570    10.9057    84.9648  -999.2500
  146.0000  -999.2500   -73.7996    12.5621    11.0093    84.2992  -999.2500
  146.5000  -999.2500   -73.9153    12.6673    11.1128    83.6333  -999.2500
  147.0000  -999.2500   -74.0318    12.7725    11.2163    82.9667  -999.2500
  147.5000  -999.2500   -74.1488    12.8777    11.3199    82.2998  -999.2500
  148.0000  -999.2500   -74.2658    12.9829    11.4234    81.5349  -999.2500
  148.5000  -999.2500   -74.3827    13.0880    11.5268    80.6791  -999.2500
  149.0000  -999.2500   -74.4996    13.1931    11.6306    79.8232  -999.2500
  149.5000  -999.2500   -74.6165    13.2995    11.7345    78.9674  -999.2500
  150.0000  -999.2500   -74.7334    13.4018    11.8933    78.1115  -999.2500
  150.5000  -999.2500   -74.8503    13.5106    12.1063    77.2557  -999.2500
  151.0000  -999.2500   -74.9671    13.7221    12.3193    76.3998  -999.2500
  151.5000  -999.2500   -75.0841    13.9340    12.5327    75.5440  -999.2500
  152.0000  -999.2500   -75.2009    14.1468    12.7460    74.6881  -999.2500
  152.5000  -999.2500   -75.3178    14.3594    12.9592    73.8323  -999.2500
  153.0000  -999.2500   -75.4359    14.5719    13.1723    72.9376  -999.2500
  153.5000  -999.2500   -75.5543    14.7845    13.4617    71.0312  -999.2500
  154.0000  -999.2500   -75.6180    15.0075    13.8469    69.0342  -999.2500
  154.5000  -999.2500   -75.7518    15.3702    14.2309    67.0372  -999.2500
  155.0000  -999.2500   -75.8857    15.7531    14.6150    65.0402  -999.2500
  155.5000  -999.2500   -76.0214    16.1367    14.9994    63.0433  -999.2500
  156.0000  -999.2500   -76.1607    16.5205    15.3833    61.0463  -999.2500
  156.5000  -999.2500   -76.1676    16.9035    15.7656    58.8531  -999.2500
  157.0000  -999.2500   -76.1666    17.2844    15.9997    58.8531  -999.2500
  157.5000  -999.2500   -76.1663    17.4591    15.9063    58.8531  -999.2500
  158.0000  -999.2500   -76.1659    17.2887    15.6659    58.8531  -999.2500
  158.5000  -999.2500   -76.1659    17.1235    15.4271    60.0820  -999.2500
  159.0000  -999.2500   -76.1677    17.0170    15.1881    61.4799  -999.2500
  159.5000  -999.2500   -76.3072    17.2457    14.9490    62.8778  -999.2500
  160.0000  -999.2500   -76.7142    17.3964    14.7100    64.2757  -999.2500
  160.5000  -999.2500   -77.1177    17.1498    14.4706    65.6735  -999.2500
  161.0000  -999.2500   -77.5228    16.9509    14.2334    66.2986  -999.2500
  161.5000  -999.2500   -77.5557    16.7517    14.1201    66.7779  -999.2500
  162.0000  -999.2500   -77.5203    16.5522    14.0336    67.2571  -999.2500
  162.5000  -999.2500   -77.4832    16.3529    13.9472    67.7364  -999.2500
  163.0000  -999.2500   -77.4470    16.1536    13.8607    68.2157  -999.2500
  163.5000  -999.2500   -77.4076    15.9543    13.7741    68.6950  -999.2500
  164.0000  -999.2500   -77.2859    15.7550    13.6876    69.1742  -999.2500
  164.5000  -999.2500   -76.9063    15.5557    13.6010    69.6535  -999.2500
  165.0000  -999.2500   -76.5371    15.3564    13.5145    70.1328  -999.2500
  165.5000  -999.2500   -76.1682    15.1571    13.4283    70.6121  -999.2500
  166.0000  -999.2500   -75.7985    14.9588    13.3426    71.0913  -999.2500
  166.5000  -999.2500   -75.4308    14.7591    13.2536    71.5706  -999.2500
  167.0000  -999.2500   -75.1076    14.5485    13.0833    73.0407  -999.2500
  167.5000  -999.2500   -74.9512    13.9660    12.6175    77.5340  -999.2500
  168.0000  -999.2500   -74.7909    13.3834    11.8272    83.1637  -999.2500
  168.5000  -999.2500   -74.6308    12.6648    10.9343    92.5612  -999.2500
  169.0000  -999.2500   -74.4675    11.8919    10.0377   101.9588  -999.2500
  169.5000  -999.2500   -74.1794    11.1179     9.1278   111.3564  -999.2500
  170.0000  -999.2500   -73.3665    10.3359     8.2960   120.7539  -999.2500
  170.5000  -999.2500   -72.5636     9.3039     7.4658   130.1515  -999.2500
  171.0000  -999.2500   -71.7849     8.7819     6.6474   139.5610  -999.2500
  171.5000  -999.2500   -71.2392     8.2599     5.9152   149.0014  -999.2500
  172.0000  -999.2500   -70.6483     7.5911     5.7708   158.4591  -999.2500
  172.5000  -999.2500   -70.7608     7.2627     5.6075   167.6043  -999.2500
  173.0000  -999.2500   -71.1567     7.3228     5.4722   170.1038  -999.2500
  173.5000  -999.2500   -71.5604     7.3749     5.5523   169.4684  -999.2500
  174.0000  -999.2500   -71.8939     7.4095     5.6276   168.8330  -999.2500
  174.5000  -999.2500   -71.7990     7.3381     5.7021   168.1976  -999.2500
  175.0000  -999.2500   -71.7017     7.2673     5.7693   167.5622  -999.2500
  175.5000  -999.2500   -71.6057     7.1961     5.7862   166.9268  -999.2500
  176.0000  -999.2500   -71.5097     7.1249     5.8026   166.2914  -999.2500
  176.5000  -999.2500   -71.4138     7.0536     5.8192   165.6560  -999.2500
  177.0000  -999.2500   -71.3180     6.9828     5.8358   165.0206  -999.2500
  177.5000  -999.2500   -71.2220     6.9162     5.8524   164.3852  -999.2500
  178.0000  -999.2500   -71.1260     6.9203     5.8689   163.7498  -999.2500
  178.5000  -999.2500   -71.0308     6.9796     5.8855   162.8526  -999.2500
  179.0000  -999.2500   -70.9348     7.0374     5.9021   161.7633  -999.2500
  179.5000  -999.2500   -70.9620     7.0949     5.9187   160.6740  -999.2500
  180.0000  -999.2500   -71.0815     7.1526     5.9354   159.5848  -999.2500
  180.5000  -999.2500   -71.2018     7.1639     5.9524   158.4955  -999.2500
  181.0000  -999.2500   -71.3224     7.1379     5.9659   157.4550  -999.2500
  181.5000  -999.2500   -71.4432     7.1027     5.9112   159.3607  -999.2500
  182.0000  -999.2500   -71.4799     7.0676     5.8554   161.1980  -999.2500
  182.5000  -999.2500   -71.4415     7.0327     5.8000   163.0394  -999.2500
  183.0000  -999.2500   -71.4029     6.9978     5.7447   164.8831  -999.2500
  183.5000  -999.2500   -71.3638     6.9629     5.6894   166.7265  -999.2500
