~VERSION INFORMATION
 VERS.                2.0:   CWLS LOG ASCII STANDARD - VERSION 2.0
 WRAP.                 NO:   ONE LINE PER DEPTH STEP
~WELL INFORMATION
#MNEM.UNIT      DATA TYPE    INFORMATION
#----------   ------------   ------------------------------
 STRT.F           80.0000:   START DEPTH
 STOP.F         1056.0000:   STOP DEPTH
 STEP.F            0.5000:   STEP LENGTH
 NULL.          -999.2500:   NO VALUE
 COMP. U S NAVY-INTEX OIL:   COMPANY
 WELL.      NPR 3 #68-S-2:   WELL
 FLD .        TEAPOT DOME:   FIELD
 LOC .       S2 T38N R78W:   LOCATION
 CNTY.            NATRONA:   COUNTY
 STAT.            WYOMING:   STATE
 CTRY. UNITED STATES OF AMERICA:   COUNTRY
 SRVC.       Schlumberger:   SERVICE COMPANY
 DATE.        21-JUL-1964:   LOGDATE
 API .       490250638800:   API NUMBER
~CURVE INFORMATION
#MNEM.UNIT       API CODE    CURVE DESCRIPTION
#----------   ------------   ------------------------------
 DEPT.F                  :   
 SPR .MV     05 010 01 00:   SPONTANEOUS POTENTIAL FROM RES.
 ASN .OHMM   05 041 16 00:   AMPLIFIED SHORT NORMAL 16"
 ILD .OHMM   05 120 46 00:   INDUCTION LOG DEEP
 CILD.MMHO   05 110 46 00:   CONDUCTIVITY INDUCTION LOG DEEP
 GR  .GAPI   30 310 01 00:   GAMMA RAY
 CALS.IN     60 280 50 00:   CALIPER FROM SONIC LOG
 DT  .US/F   60 520 00 00:   INTERVAL TRANSIT TIME
~PARAMETER INFORMATION
#MNEM.UNIT          VALUE    DESCRIPTION
#----------   ------------   ------------------------------
 PD  .                 GL:   PERMANENT DATUM
 EPD .F              5201:   ELEVATION PERMANENT DATUM
 LMF .                 KB:   LOG MEASURED FROM
 DAPD.F                 5:   FEET ABOVE PERMANENT DATUM
 DMF .                 KB:   DRILLING MEASURED FROM
 EKB .F              5206:   KELLING BUSHING
 EGL .F              5201:   GROUND LEVEL
 DATE.          8-12-1964:   RUN DATE
 RUN .                  1:   RUN NUMBER
 DD  .F              1055:   DEPTH DRILLER
 DL  .F              1057:   DEPTH LOGGER
 BLI .F              1055:   BOTTOM LOG INTERVAL
 TLI .F               450:   TOP LOG INTERVAL
 CS  .IN              4.5:   CASING SIZE
 BS  .IN             6.75:   BIT SIZE
 DFT .            GEL OIL:   DRILLING FLUID TYPE
 DFD .                9.3:   DRILLING FLUID DENSITY
 DFV .                 48:   DRILLING FLUID VISCOSITY
 DFPH.                 10:   DRILLING FLUID PH
 DFL .                 10:   DRILLING FLUID LOSS
 MSS .           FLOWLINE:   MUD SAMPLE SOURCE
 RMS .OHMM           1.07:   RESISTIVITY MUD SAMPLE
 MST .F                95:   MUD SAMPLE TEMPERATURE
 RMF .OHMM            .67:   RESISTIVITY MUD FILTRATE SAMPLE
 MFST.F                95:   MUD FILTRATE SAMPLE TEMPERATURE
 RMC .OHMM           1.44:   RESISTIVITY MUD CAKE
 MCST.F                95:   MUD CAKE SAMPLE TEMPERATURE
 MFSS.                 FP:   MUD FILTRATE SAMPLE SOURCE
 MCSS.                 FP:   MUD CAKE SAMPLE SOURCE
 TCS .HRS               1:   TIME CURCULATED STOPPED
 LUN .               4507:   LOGGING UNIT NUMBER
 LUL .               CSPR:   LOGGING UNIT LOCATION
 ENGI.             DANNER:   RECORDING ENGINEER
 WITN.         JORGENESEN:   WITNESSED BY
 CLNT.            A2DTECH:   CLIENT CODE
 ORIG.           2" PRINT:   ORIGIN OF DATA
 UWI .       490250638800:   UNIQUE WELL ID
 DICO. A2D Technologies, Inc.:   DIGITIZING COMPANY
~OTHER INFORMATION
~A   DEPT      SPR          ASN        ILD      CILD        GR       CALS         DT   
# ...
  944.5000   -37.2104    24.6278    19.8271    51.4097    30.0399     6.6510    74.6450
  945.0000   -36.8927    24.1642    18.6926    55.5419    31.3263     6.5321    73.3081
  945.5000   -36.8919    22.2013    17.6552    60.4974    35.1680     6.3983    73.5925
  946.0000   -37.1078    20.3883    15.9373    65.9824    32.6439     6.5327    76.1547
  946.5000   -37.4865    18.6205    14.4788    70.0088    31.4037     6.6820    78.5459
  947.0000   -37.9091    17.9168    13.5435    75.3423    32.0239     6.6972    81.7594
  947.5000   -38.5332    17.1233    12.8667    80.0397    32.9211     6.6975    83.9325
  948.0000   -39.0084    16.4198    12.2645    82.1527    26.2953     6.6978    86.1919
  948.5000   -39.4523    15.9412    12.1236    83.7813    26.2115     6.6831    90.3895
  949.0000   -39.5693    15.4027    12.1243    85.6846    26.1522     6.6835    91.6591
  949.5000   -39.7176    15.0139    12.1250    86.8650    19.1804     6.6688    92.0321
  950.0000   -39.7168    14.7301    12.0135    88.1685    18.6167     6.6542    92.2556
  950.5000   -39.8050    14.4164    11.7449    88.4821    28.0231     6.6468    92.7997
  951.0000   -39.8645    14.2676    11.5286    88.8916    27.5805     6.6402    93.0782
  951.5000   -39.7145    14.1339    11.4542    88.8802    21.6237     6.6571    93.0842
  952.0000   -39.7138    14.0600    11.3803    88.8690    29.8249     6.6878    93.3102
  952.5000   -39.5641    14.0611    11.4558    88.8568    34.7474     6.7012    93.6115
  953.0000   -39.3279    14.0622    11.5382    88.1027    32.3674     6.7017    93.7460
  953.5000   -39.1155    14.0783    11.6072    88.0915    33.4151     6.7022    93.2921
  954.0000   -38.9656    14.1396    11.6826    88.0804    32.3752     6.6876    93.2152
  954.5000   -38.9099    14.1406    11.7583    87.3252    35.2113     6.6882    93.8891
  955.0000   -38.8152    14.1417    11.7590    87.3129    33.4285     6.6886    93.6613
  955.5000   -38.8145    14.0229    11.7597    86.5588    32.8357     6.6890    93.8846
  956.0000   -38.8137    13.9790    11.7096    86.5872    30.9039     6.6895    94.7846
  956.5000   -38.9619    13.9202    11.6655    87.2805    27.1826     6.6899    95.6095
  957.0000   -39.1103    13.8163    11.5375    88.0152    29.5715     6.6904    96.0589
  957.5000   -39.2585    13.6975    11.5027    88.0012    37.9218     6.6908    95.7554
  958.0000   -39.4068    13.6537    11.4586    88.3334    34.4974     6.6913    95.2268
  958.5000   -39.5765    13.5348    11.3397    88.7699    38.0797     6.6917    95.0742
  959.0000   -39.7034    13.4012    11.2208    89.9504    34.2094     6.6921    94.7712
  959.5000   -39.7027    13.2972    11.1669    90.3869    33.0205     6.6926    94.0923
  960.0000   -39.5529    13.1784    11.0928    90.9226    37.6460     6.6930    93.7899
  960.5000   -39.2452    13.0596    11.0887    91.6555    33.9247     6.6935    94.1636
  961.0000   -38.9364    12.9258    11.0194    92.4406    32.7370     6.6939    93.3337
  961.5000   -38.6564    12.7322    10.9258    93.6211    33.0395     6.6944    92.5796
  962.0000   -38.5067    12.6582    10.8712    94.0575    24.6982     6.6948    92.0511
  962.5000   -38.5059    12.5843    10.7628    94.5871    23.8085     6.6803    91.5977
  963.0000   -38.5052    12.4655    10.5691    95.6747    25.1531     6.6808    91.4451
  963.5000   -38.5208    12.4217    10.4502    96.1112    24.1155     6.6812    91.4421
  964.0000   -38.9507    12.2880    10.2565    96.7857    22.0335     6.6817    91.9729
  964.5000   -39.2933    12.2590    10.1266    96.9843    22.9322     6.6821    92.7261
  965.0000   -39.0983    12.1402    10.0524    97.5074    32.4747     6.6826    93.2482
  965.5000   -38.3534    12.1413     9.9783    98.6012    40.6759     6.6830    93.3888
  966.0000   -37.8769    12.1424     9.9790    99.7179    37.5507     6.6834    93.2361
  966.5000   -37.4566    12.1437     9.9048    99.7039    34.4255     6.6839    93.0078
  967.0000   -37.2642    12.1447     9.9058   100.4410    34.7280     6.6992    92.7800
  967.5000   -37.0081    12.1458     9.9064   100.4271    35.6267     6.6997    92.4019
  968.0000   -36.7094    12.0719     9.9072   101.1608    32.5015     6.7002    92.0989
  968.5000   -36.5482    12.0731     9.9079   101.1495    33.2511     6.7007    91.7207
  969.0000   -36.4099    12.0744     9.9087   101.1363    34.5969     6.7011    91.4929
  969.5000   -36.3689    12.0754     9.9844   101.8734    35.1964     6.6866    91.3403
  970.0000   -36.2593    12.0765     9.9850   101.8594    30.2828     6.6871    91.4138
  970.5000   -36.4076    12.0776     9.9858   101.8490    29.8413     6.6876    91.4867
  971.0000   -36.4158    12.0787     9.9865   101.9147    26.8651     6.6880    91.4088
  971.5000   -36.5551    12.0050     9.9873   102.5707    32.5328     6.6884    91.2562
  972.0000   -36.7035    12.0060     9.9881   102.5596    39.0935     6.6889    91.1787
  972.5000   -36.7026    12.0071     9.9570   102.5477    34.7761     6.6893    91.2522
  973.0000   -36.5529    11.9333     9.9147   102.5372    36.1230     6.6898    91.1743
  973.5000   -36.3968    11.8593     9.9154   103.2709    44.0261     6.6902    90.7961
  974.0000   -36.1580    11.8607     9.8997   103.2569    49.6937     6.6907    90.4179
  974.5000   -35.8841    11.8617     9.8421   103.9940    48.0589     6.6911    90.1901
  975.0000   -35.5066    11.8628     9.8116   103.9801    42.8472     6.6915    89.8871
  975.5000   -35.1438    11.7890     9.7676   104.3552    43.2988     6.6920    89.5089
  976.0000   -34.9091    11.7150     9.6946   104.7032    47.7731     6.6924    89.2812
  976.5000   -34.7225    11.7164     9.6954   104.6893    42.4136     6.6929    89.4293
  977.0000   -34.4277    11.6424     9.6962   104.9208    41.3748     6.6933    89.5022
  977.5000   -34.3106    11.6436     9.6969   105.4129    36.1632     6.6938    89.5000
  978.0000   -34.0993    11.6447     9.6976   105.4018    32.1427     6.6942    89.4226
  978.5000   -33.8607    11.7207     9.6983   105.3906    36.9173     6.6947    89.4134
  979.0000   -33.7124    11.7970     9.6991   105.3776    41.9888     6.6802    89.2676
  979.5000   -33.7116    11.8280     9.6999   105.3683    44.2288     6.6806    89.1779
  980.0000   -33.7108    11.8741     9.7006   105.3567    46.3186     6.6811    89.0371
  980.5000   -33.7101    11.8752     9.7013   105.3460    44.3867     6.6815    88.9597
  981.0000   -33.8584    11.8763     9.7467   104.5908    43.3480     6.6820    89.0327
  981.5000   -34.0067    11.8776     9.7777   103.8337    41.2660     6.6809    89.4064
  982.0000   -34.1551    11.8786     9.8534   103.5715    40.6732     6.6679    89.7801
  982.5000   -34.3032    11.8797     9.8541   103.0688    37.6982     6.6684    90.0034
  983.0000   -34.3592    11.8808     9.8548   103.0581    36.0633     6.6689    90.1521
  983.5000   -34.5998    11.8068     9.8115   102.3028    40.2407     6.6694    90.2251
  984.0000   -34.8336    11.7333     9.7813   102.2899    44.1200     6.6698    90.2223
  984.5000   -35.0708    11.7043     9.7074   102.2805    41.8890     6.6703    90.1449
  985.0000   -35.3427    11.6604     9.6794   103.0130    36.5283     6.6856    89.9922
  985.5000   -35.4911    11.5866     9.5591   104.1566    37.4270     6.6861    89.7644
  986.0000   -35.4903    11.5877     9.4416   105.4516    43.2437     6.6865    89.6876
  986.5000   -35.3236    11.5140     9.4108   107.4425    43.5451     6.6869    89.9855
  987.0000   -35.0189    11.4850     9.3369   108.4425    44.4449     6.6874    90.0590
  987.5000   -34.5938    11.4412     9.2627   109.6537    49.0693     6.6878    90.0563
  988.0000   -34.2434    11.3223     9.1886   110.8036    53.5436     6.6883    89.9788
  988.5000   -33.9962    11.2933     9.1466   111.1209    50.8655     6.6888    89.9014
  989.0000   -33.6169    11.2947     9.1152   111.8510    49.9769     6.6892    89.8240
  989.5000   -33.3783    11.2957     9.1161   112.1133    50.8756     6.6896    89.5962
