~VERSION INFORMATION
 VERS.                2.0:   CWLS LOG ASCII STANDARD - VERSION 2.0
 WRAP.                 NO:   ONE LINE PER DEPTH STEP
~WELL INFORMATION
#MNEM.UNIT      DATA TYPE    INFORMATION
#----------   ------------   ------------------------------
 STRT.F           20.0000:   START DEPTH
 STOP.F          505.0000:   STOP DEPTH
 STEP.F            0.5000:   STEP LENGTH
 NULL.          -999.2500:   NO VALUE
 COMP.    FENIX & SCISSON:   COMPANY
 WELL.   NPR #3 #56-SX-10:   WELL
 FLD .             TEAPOT:   FIELD
 LOC .      S10 T38N R78W:   LOCATION
 CNTY.            NATRONA:   COUNTY
 STAT.            WYOMING:   STATE
 CTRY. UNITED STATES OF AMERICA:   COUNTRY
 SRVC.              Welex:   SERVICE COMPANY
 DATE.        01-MAY-1980:   LOGDATE
 API .       490251081300:   API NUMBER
~CURVE INFORMATION
#MNEM.UNIT       API CODE    CURVE DESCRIPTION
#----------   ------------   ------------------------------
 DEPT.F                  :   
 ILD .OHMM   07 120 46 00:   INDUCTION LOG DEEP
 ILM .OHMM   07 120 44 00:   INDUCTION LOG MEDIUM
 SGRD.OHMM   07 220 05 00:   SHALLOW GUARD RESISTIVITY
 SPR .MV     07 010 01 00:   SPONATANEOUS POTENTIAL FROM RES.
 CALD.IN     45 280 60 00:   CALIPER FROM DENSITY LOG
 DPHI.DEC    45 890 12 00:   DENSITY POROSITY SANDSTONE
 DRHO.G/C3   45 356 01 00:   DENSITY CORRECTION
 GRD .GAPI   45 310 01 00:   GAMMA RAY FROM DENSITY LOG
 RHOB.G/C3   45 350 01 00:   BULK DENSITY
~PARAMETER INFORMATION
#MNEM.UNIT          VALUE    DESCRIPTION
#----------   ------------   ------------------------------
 PD  .                 GL:   PERMANENT DATUM
 EPD .F              5180:   ELEVATION PERMANENT DATUM
 LMF .                 KB:   LOG MEASURED FROM
 DAPD.F                 4:   FEET ABOVE PERMANENT DATUM
 DMF .                 KB:   DRILLING MEASURED FROM
 EKB .F              5184:   KELLING BUSHING
 EGL .F              5180:   GROUND LEVEL
 DATE.        01-MAY-1980:   RUN DATE
 RUN .                  1:   RUN NUMBER
 DD  .F               489:   DEPTH DRILLER
 DL  .F               506:   DEPTH LOGGER
 BLI .F               504:   BOTTOM LOG INTERVAL
 TLI .F                30:   TOP LOG INTERVAL
 BS  .IN            7.875:   BIT SIZE
 BSD .F               489:   BIT SIZE AT DEPTH
 DFT .    WATER BASED MUD:   DRILLING FLUID TYPE
 DFD .                9.9:   DRILLING FLUID DENSITY
 DFV .                 46:   DRILLING FLUID VISCOSITY
 MSS .                PIT:   MUD SAMPLE SOURCE
 RMS .OHMM           0.99:   RESISTIVITY MUD SAMPLE
 MST .F                75:   MUD SAMPLE TEMPERATURE
 RMF .OHMM           0.78:   RESISTIVITY MUD FILTRATE SAMPLE
 MFST.F                75:   MUD FILTRATE SAMPLE TEMPERATURE
 RMC .OHMM           1.18:   RESISTIVITY MUD CAKE
 MCST.F                75:   MUD CAKE SAMPLE TEMPERATURE
 MFSS.               MEAS:   MUD FILTRATE SAMPLE SOURCE
 MCSS.               MEAS:   MUD CAKE SAMPLE SOURCE
 BHT .F               100:   BOTTOM HOLE TEMPERATURE
 TCS .HRS               1:   TIME CURCULATED STOPPED
 MRT .F               100:   MAXIMUM RECORDED TEMPERATURE
 LUN .               9685:   LOGGING UNIT NUMBER
 LUL .             CASPER:   LOGGING UNIT LOCATION
 ENGI.            TOTHILL:   RECORDING ENGINEER
 WITN.           DINSMORE:   WITNESSED BY
 CLNT.            A2DTECH:   CLIENT CODE
 ORIG.           5" PRINT:   ORIGIN OF DATA
 UWI .       490251081300:   UNIQUE WELL ID
 DICO. A2D Technologies, Inc.:   DIGITIZING COMPANY
~OTHER INFORMATION
~A   DEPT       ILD        ILM      SGRD        SPR       CALD       DPHI       DRHO        GRD       RHOB   
# ...
  239.0000     5.5537     9.1820     9.1820   -21.7140     7.9945     0.1321     0.0381   115.9443     2.4395
  239.5000     5.5163     9.1820     9.1820   -21.6181     8.0110     0.1306     0.0268   115.9621     2.4216
  240.0000     5.5177     9.1820     9.2277   -21.6138     8.0421     0.1282     0.0298   115.9798     2.4179
  240.5000     5.5188     9.1820     9.3746   -21.6094     7.9834     0.1318     0.0389   115.7716     2.4299
  241.0000     5.5199     9.1820     9.4397   -21.5491     7.9846     0.1384     0.0269   115.7894     2.4187
  241.5000     5.5213     9.1820     9.5159   -21.4513     8.0456     0.1440     0.0210   115.8072     2.4083
  242.0000     5.5224     9.1187     9.6377   -21.4469     8.0468     0.1330     0.0150   116.3012     2.4091
  242.5000     5.4851     9.0558     9.5053   -21.4287     8.0180     0.1210     0.0331   117.2402     2.4204
  243.0000     5.4865     8.9934     9.3746   -21.2885     7.9890     0.1150     0.0511   117.8979     2.4467
  243.5000     5.4876     8.9314     9.1820   -21.2834     8.0653     0.1147     0.0571   117.9156     2.4580
  244.0000     5.4133     8.9934     9.2458   -21.2791     8.0964     0.1155     0.0508   118.1592     2.4543
  244.5000     5.3770     9.1187     9.4397   -21.2748     8.0527     0.1149     0.0392   119.7583     2.4521
  245.0000     5.2652     9.2587     9.4397   -21.2706     8.0544     0.1068     0.0378   120.0019     2.4649
  245.5000     5.1963     9.6377     9.4397   -21.2141     8.1464     0.1038     0.0408   120.0197     2.4710
  246.0000     5.0905     9.3746     9.3716   -21.1121     8.1760     0.1026     0.0379   120.7151     2.4741
  246.5000     4.9528     8.5681     9.1096   -21.1069     8.1622     0.1029     0.0319   121.6320     2.4741
  247.0000     4.8857     7.9401     8.7479   -21.1026     8.0589     0.1104     0.0275   120.9765     2.4704
  247.5000     4.7863     7.2070     8.5681   -21.0982     7.9999     0.1239     0.0170   120.7681     2.4591
  248.0000     4.6889     7.0025     6.8662   -21.0939     8.0014     0.1340    -0.0024   122.3735     2.4456
  248.5000     4.5618     7.5647     7.2570   -21.0896     8.0175     0.1277    -0.0054   123.7877     2.4195
  249.0000     4.4357     8.1165     7.8310   -21.2347     8.0037     0.1211     0.0086   124.9292     2.4323
  249.5000     4.2883     8.4504     8.2767   -21.2293     8.0049     0.1253     0.0112   125.3573     2.4504
  250.0000     4.0863     7.7769     8.5090   -21.0762     8.0510     0.1298    -0.0028   123.3425     2.4327
  250.5000     3.9476     7.4598     7.9401   -21.0762     8.0819     0.1427    -0.0082   120.4258     2.4002
  251.0000     3.8136     7.0573     7.2526   -21.0762     8.0830     0.1370     0.0039   119.0880     2.4130
  251.5000     3.7354     6.3608     6.0202   -21.0762     8.0990     0.1415    -0.0006   118.4277     2.4168
  252.0000     3.7099     6.0175     5.1701   -21.2257     8.1309     0.1493    -0.0080   118.4548     2.3868
  252.5000     3.7619     7.2527     7.4607   -21.2257     8.1759     0.1427    -0.0019   119.1416     2.3876
  253.0000     3.8411     7.6647     7.9953   -21.2257     8.1322     0.1343     0.0131   119.3890     2.4274
  253.5000     3.9492     7.9336     8.1630   -21.3752     8.2380     0.1227     0.0222   119.8584     2.4546
  254.0000     4.0611     8.2120     8.1067   -21.2257     8.2690     0.1077     0.0237   119.6502     2.4639
  254.5000     4.2068     8.3257     8.2197   -21.2257     8.2398     0.1052     0.0268   119.6678     2.4696
  255.0000     4.4432     8.3823     8.4504   -21.0762     8.3758     0.1043     0.0298   120.1373     2.4704
  255.5000     4.6640     8.5572     8.5090   -21.0762     8.4367     0.1063     0.0284   120.6068     2.4666
  256.0000     4.8285     8.3227     8.4496   -21.0762     8.4078     0.1132     0.0210   121.3021     2.4562
  256.5000     4.6970     8.2643     8.3921   -21.0762     8.4088     0.1126     0.0165   121.9975     2.4547
  257.0000     4.5376     8.3208     8.4504   -21.0762     8.4708     0.1159     0.0286   122.4670     2.4570
  257.5000     4.4139     8.2623     8.3342   -21.2257     8.4858     0.1189     0.0316   122.9518     2.4518
  258.0000     4.2348     8.0916     7.9953   -21.3752     8.4119     0.1207     0.0302   123.1807     2.4465
  258.5000     4.0911     7.3436     7.3582   -21.5247     8.4132     0.1241     0.0348   123.4280     2.4366
  259.0000     3.9796     6.7111     6.7251   -21.5436     8.4142     0.1311     0.0348   123.6716     2.4241
  259.5000     3.8713     6.0071     5.4267   -21.6741     8.3404     0.1356     0.0304   123.9151     2.4181
  260.0000     3.7650     4.6496     4.8245   -21.6741     8.2516     0.1311     0.0394   123.9328     2.4144
  260.5000     3.6887     6.6166     6.2755   -21.6741     8.1775     0.1158     0.0680   124.1719     2.4490
  261.0000     3.7146     7.5455     7.6172   -21.6741     8.1189     0.1032     0.0770   122.8386     2.4670
  261.5000     3.7928     7.7029     7.9401   -21.6741     8.0600     0.1068     0.0456   121.2749     2.4731
  262.0000     3.9266     7.4918     7.9401   -21.5247     8.1070     0.1293    -0.0023   119.7113     2.4348
  262.5000     4.0933     7.4907     7.8310   -21.5247     8.1519     0.1233     0.0172   119.7289     2.4401
  263.0000     4.2377     7.9162     7.8854   -21.5247     8.1532     0.1122     0.0338   119.0482     2.4597
  263.5000     4.4484     8.4825     8.2197   -21.6741     8.1390     0.1098     0.0354   117.9614     2.4627
  264.0000     4.6373     8.8413     8.6875   -21.6741     8.1250     0.1134     0.0294   116.6237     2.4598
  264.5000     4.8342     9.0884     9.0558   -21.6741     8.1712     0.1128     0.0325   115.9592     2.4673
  265.0000     5.0394     9.1505     9.3100   -21.6741     8.2022     0.0981     0.0430   115.7510     2.4816
  265.5000     5.2534     9.2128     9.4397   -21.8236     8.2331     0.0954     0.0356   115.5427     2.4771
  266.0000     5.4053     9.2757     9.3746   -21.8794     8.2342     0.1050     0.0282   115.7863     2.4712
  266.5000     5.5919     9.3390     9.2458   -22.1226     8.1903     0.1076     0.0207   115.1306     2.4637
  267.0000     5.7096     9.4681     9.4397   -22.2720     8.2532     0.1124     0.0178   113.7929     2.4592
  267.5000     5.7496     9.5328     9.7047   -22.2720     8.3296     0.1082     0.0178   112.6810     2.4660
  268.0000     5.8301     9.5979     9.7720   -22.4215     8.3134     0.1159     0.0104   111.5692     2.4584
  268.5000     5.8414     9.5966     9.7047   -22.4215     8.2692     0.1233    -0.0060   111.1350     2.4428
  269.0000     5.8714     9.5955     9.6377   -22.4215     8.3753     0.1388    -0.0240   111.1536     2.4143
  269.5000     5.8718     9.5945     9.6377   -22.4215     8.3613     0.1483    -0.0419   111.1747     2.3979
  270.0000     5.9130     9.5272     9.7720   -22.4215     8.2576     0.1492    -0.0386   111.1924     2.3956
  270.5000     5.9958     9.5261     9.9082   -22.4215     8.1388     0.1417    -0.0190   110.9798     2.4077
  271.0000     5.9962     9.5912     9.9082   -22.4215     8.0799     0.1348    -0.0177   111.4536     2.4175
  271.5000     5.9142     9.7237     9.8399   -22.3259     8.0960     0.1321    -0.0072   111.4713     2.4235
  272.0000     5.9146     9.7224     9.7047   -22.2720     8.2327     0.1279     0.0004   111.2586     2.4326
  272.5000     5.9151     9.3907     9.4397   -22.2720     8.2028     0.1258    -0.0040   110.8289     2.4371
  273.0000     5.9155     9.0703     9.1820   -22.2720     8.2490     0.1267    -0.0055   110.3948     2.4349
  273.5000     5.9159     9.0067     8.9314   -22.2720     8.3249     0.1252    -0.0024   109.9606     2.4372
  274.0000     5.9367     9.0683     8.9314   -22.2720     8.3558     0.1063     0.0186   109.5265     2.4530
  274.5000     5.9697     9.2574     9.4397   -22.2720     8.3718     0.1000     0.0368   109.3182     2.4763
  275.0000     5.9995     9.5823     9.9770   -22.2720     8.3279     0.1024     0.0365   108.4367     2.4749
