~VERSION INFORMATION
 VERS.                2.0:   CWLS LOG ASCII STANDARD - VERSION 2.0
 WRAP.                 NO:   ONE LINE PER DEPTH STEP
~WELL INFORMATION
#MNEM.UNIT      DATA TYPE    INFORMATION
#----------   ------------   ------------------------------
 STRT.F            7.0000:   START DEPTH
 STOP.F          587.0000:   STOP DEPTH
 STEP.F            0.5000:   STEP LENGTH
 NULL.          -999.2500:   NO VALUE
 COMP. FENIX & SCISSON INC:   COMPANY
 WELL.        NPR-3 #63-3:   WELL
 FLD .             TEAPOT:   FIELD
 LOC .       S3 T38N R78W:   LOCATION
 CNTY.            NATRONA:   COUNTY
 STAT.            WYOMING:   STATE
 CTRY. UNITED STATES OF AMERICA:   COUNTRY
 SRVC.     Wedge Wireline:   SERVICE COMPANY
 DATE.        06-JAN-1978:   LOGDATE
 API .       490251044700:   API NUMBER
~CURVE INFORMATION
#MNEM.UNIT       API CODE    CURVE DESCRIPTION
#----------   ------------   ------------------------------
 DEPT.F                  :   
 ILD .OHMM   05 120 46 00:   INDUCTION LOG DEEP
 SN  .OHMM   05 040 16 00:   SHORT NORMAL
 SPR .MV     05 010 01 00:   SPONTANEOUS POTENTIAL FROM RES.
 CALD.IN     45 280 60 00:   CALIPER FROM DENSITY LOG
 CORR.G/C3   45 356 01 00:   DENSITY CORRECTION
 DPHI.DEC    45 890 12 00:   DENSITY POROSITY SANDSTONE
 GRD .GAPI   45 310 01 00:   GAMMA RAY FROM DENSITY LOG
 RHOB.G/C3   45 350 01 00:   BULK DENSITY
~PARAMETER INFORMATION
#MNEM.UNIT          VALUE    DESCRIPTION
#----------   ------------   ------------------------------
 PD  .                 GL:   PERMANENT DATUM
 EPD .F              5177:   ELEVATION PERMANENT DATUM
 LMF .                 KB:   LOG MEASURED FROM
 DMF .                 KB:   DRILLING MEASURED FROM
 EKB .F              5181:   KELLING BUSHING
 EGL .F              5177:   GROUND LEVEL
 DATE.        06-JAN-1978:   RUN DATE
 RUN .                  1:   RUN NUMBER
 DD  .F               590:   DEPTH DRILLER
 DL  .F               581:   DEPTH LOGGER
 BLI .F               576:   BOTTOM LOG INTERVAL
 TLI .F                20:   TOP LOG INTERVAL
 CS  .IN            9.625:   CASING SIZE
 CBD .F                19:   CASING BOTTOM DRILLER
 CBL .F                19:   CASING BOTTOM LOGGER
 BS  .IN            7.875:   BIT SIZE
 BSD .F               590:   BIT SIZE AT DEPTH
 DFT .                KCL:   DRILLING FLUID TYPE
 DFD .                8.5:   DRILLING FLUID DENSITY
 DFV .                 34:   DRILLING FLUID VISCOSITY
 DFPH.                9.0:   DRILLING FLUID PH
 DFL .                7.8:   DRILLING FLUID LOSS
 MSS .           FLOWLINE:   MUD SAMPLE SOURCE
 RMS .OHMM           0.22:   RESISTIVITY MUD SAMPLE
 MST .F                63:   MUD SAMPLE TEMPERATURE
 RMF .OHMM           0.24:   RESISTIVITY MUD FILTRATE SAMPLE
 MFST.F                63:   MUD FILTRATE SAMPLE TEMPERATURE
 RMC .OHMM           0.48:   RESISTIVITY MUD CAKE
 MCST.F                64:   MUD CAKE SAMPLE TEMPERATURE
 MFSS.               MEAS:   MUD FILTRATE SAMPLE SOURCE
 MCSS.               MEAS:   MUD CAKE SAMPLE SOURCE
 RMB .OHMM           0.19:   RESISTIVITY MUD AT BHT
 BHT .F                71:   BOTTOM HOLE TEMPERATURE
 TCS .HRS               3:   TIME CURCULATED STOPPED
 MRT .F                71:   MAXIMUM RECORDED TEMPERATURE
 LUN .               2958:   LOGGING UNIT NUMBER
 LUL .             CASPER:   LOGGING UNIT LOCATION
 ENGI.             MILLER:   RECORDING ENGINEER
 WITN.         HARRINGTON:   WITNESSED BY
 CLNT.            A2DTECH:   CLIENT CODE
 ORIG.           5" PRINT:   ORIGIN OF DATA
 UWI .       490251044700:   UNIQUE WELL ID
 DICO. A2D Technologies, Inc.:   DIGITIZING COMPANY
~OTHER INFORMATION
~A    DEPT     ILD         SN        SPR       CALD       CORR       DPHI         GRD      RHOB   
# ...
  533.5000    13.6601     9.4737   -46.8937     8.3023    -0.3170     0.0890    86.2159     2.5396
  534.0000    13.6664     9.6774   -47.1693     8.3039    -0.3199     0.0832    89.1878     2.5351
  534.5000    13.7672     9.8865   -46.8596     8.3051    -0.3242     0.0798    90.9799     2.5291
  535.0000    14.0630    10.0295   -46.6991     8.3065    -0.3289     0.0832    91.8925     2.5261
  535.5000    14.1667    10.2449   -46.2478     8.2930    -0.3420     0.0964    94.5695     2.5231
  536.0000    14.4694    10.4000   -46.0872     8.2796    -0.3585     0.0991    92.8217     2.5141
  536.5000    14.6770    10.5450   -45.9230     8.2812    -0.3644     0.0940    90.1890     2.5058
  537.0000    14.9941    10.7715   -45.9078     8.2825    -0.3551     0.0867    88.4412     2.4998
  537.5000    15.5252    10.8523   -45.6019     8.2837    -0.3399     0.0874    87.2207     2.5021
  538.0000    15.8569    11.0155   -45.5868     8.2703    -0.3460     0.0912    83.4763     2.5104
  538.5000    16.3077    11.1701   -45.5712     8.2719    -0.3577     0.0945    79.9586     2.5172
  539.0000    16.6561    11.2539   -45.5526     8.2732    -0.3651     0.0981    81.1607     2.5089
  539.5000    16.6640    11.2605   -45.5374     8.2595    -0.3331     0.0885    83.5427     2.5059
  540.0000    16.7886    11.2672   -45.5222     8.2610    -0.3148     0.0848    85.9533     2.5135
  540.5000    16.7963    11.3532   -45.5071     8.2623    -0.3222     0.0861    89.1972     2.5218
  541.0000    16.8040    11.4384   -45.4881     8.2785    -0.3328     0.0938    94.5291     2.5234
  541.5000    16.8117    11.4451   -45.4729     8.2798    -0.3506     0.1002    98.3860     2.5083
  542.0000    16.8213    11.4519   -45.7484     8.2661    -0.3716     0.1047   101.3580     2.4993
  542.5000    16.8290    11.4601   -45.7332     8.2677    -0.3896     0.1071   101.0852     2.4917
  543.0000    16.8367    11.4668   -45.8634     8.2836    -0.4046     0.1064    96.9831     2.4872
  543.5000    16.8444    11.4735   -45.9898     8.2849    -0.3802     0.1033    94.0554     2.4872
  544.0000    16.8523    11.4803   -45.9746     8.2865    -0.3618     0.1007    92.6026     2.4950
  544.5000    16.7440    11.4886   -45.9594     8.2877    -0.3557     0.0991    94.3946     2.5032
  545.0000    16.7536    11.4953   -46.2355     8.2890    -0.3570     0.1003    98.2516     2.5039
  545.5000    16.7613    11.5020   -46.2195     8.2902    -0.3599     0.1015    96.4013     2.5032
  546.0000    16.8850    11.5088   -46.2008     8.2915    -0.3628     0.1030    91.5167     2.5025
  546.5000    16.8930    11.5172   -46.1856     8.3075    -0.3656     0.1039    86.5241     2.4995
  547.0000    16.9024    11.5239   -46.3196     8.3090    -0.3670     0.1042    82.4164     2.4980
  547.5000    17.0271    11.5306   -46.3006     8.3396    -0.3758     0.1039    80.0787     2.4965
  548.0000    17.0349    11.5374   -46.4308     8.3409    -0.3803     0.1020    82.2330     2.4965
  548.5000    17.0427    11.5458   -46.4118     8.3715    -0.3634     0.0984    88.0931     2.5026
  549.0000    17.0525    11.5525   -46.2513     8.3727    -0.3466     0.0929    91.6551     2.5124
  549.5000    17.0603    11.5593   -46.2361     8.3740    -0.3298     0.0886    95.5120     2.5185
  550.0000    16.9489    11.5660   -46.0756     8.3756    -0.3258     0.0915    97.5935     2.5164
  550.5000    17.3044    11.4923   -46.2166     8.3626    -0.3462     0.0967    89.3616     2.5087
  551.0000    17.0674    11.4946   -46.2122     8.3460    -0.3779     0.1020    81.1297     2.4980
  551.5000    16.8337    11.3334   -46.4977     8.3460    -0.3959     0.1056    79.0814     2.4905
  552.0000    16.3758    11.1137   -46.4935     8.3314    -0.3708     0.1024    80.5840     2.5086
  552.5000    16.0406    10.9644   -46.4894     8.3167    -0.3443     0.0881    82.9660     2.5176
  553.0000    15.7123    10.7446   -46.4852     8.3021    -0.3351     0.0863    87.1179     2.5093
  553.5000    15.4971    10.6011   -46.4810     8.2866    -0.3320     0.0875    90.4601     2.5055
  554.0000    15.0756    10.4586   -46.4767     8.2287    -0.3365     0.0893    90.1176     2.5055
  554.5000    14.6656    10.3911   -46.7634     8.1701    -0.3445     0.0914    88.9598     2.5100
  555.0000    14.4648    10.2524   -47.0499     8.1114    -0.3605     0.0936    87.8020     2.5115
  555.5000    14.1687    10.1854   -47.3354     8.1070    -0.3740     0.0968    87.2335     2.5085
  556.0000    13.8787    10.1188   -47.4776     8.2448    -0.3890     0.0992    87.6105     2.5032
  556.5000    13.5946    10.0535   -47.6878     8.3460    -0.3951     0.1014    91.1187     2.4994
  557.0000    13.4084     9.9870   -47.9042     8.3607    -0.3776     0.1032    92.3208     2.4933
  557.5000    13.2248     9.9224   -48.1907     8.3167    -0.3524     0.1047    93.2279     2.4918
  558.0000    13.1339     9.8577   -48.4762     8.2874    -0.3463     0.0956    94.4300     2.5031
  558.5000    12.8651     9.7261   -48.6174     8.3021    -0.3583     0.0917    98.2869     2.5099
  559.0000    12.6889     9.6625   -48.6132     8.3460    -0.3718     0.0947    94.7748     2.5068
  559.5000    12.6018     9.5994   -48.7544     8.3754    -0.3823     0.0998    93.3220     2.4960
  560.0000    12.4292     9.4711   -48.7500     8.3900    -0.3731     0.1029    94.5241     2.4879
  560.5000    12.3438     9.4751   -48.8903     8.3460    -0.3579     0.1041    96.6111     2.4970
  561.0000    12.2590     9.4782   -49.0326     8.2723    -0.3457     0.0896    97.8132     2.5052
  561.5000    12.0911     9.4814   -49.0273     8.1848    -0.3366     0.0838    98.1303     2.5120
  562.0000    12.0911     9.4846   -49.0232     8.1994    -0.3365     0.0887    97.2675     2.5158
  562.5000    12.0911     9.4233   -49.1643     8.2874    -0.3364     0.0965    96.7052     2.5204
  563.0000    12.0911     9.4916   -49.3055     8.3460    -0.3363     0.0929    96.7273     2.5210
  563.5000    12.0911     9.4948   -49.3003     8.2868    -0.3362     0.0887    97.6344     2.5112
  564.0000    12.0911     9.6297   -49.2961     8.1701    -0.3482     0.0917    98.2694     2.4983
  564.5000    12.0081     9.6995   -49.2922     8.0528    -0.3701     0.0995    98.5692     2.4878
  565.0000    11.9256     9.8373   -49.2878     8.0235    -0.3979     0.1074    98.0014     2.4779
  565.5000    11.7623     9.9872   -49.2834     8.0088    -0.4129     0.1110    95.9586     2.4726
  566.0000    11.6815    10.1888   -49.2784     8.0383    -0.4083     0.1107    92.4409     2.4764
  566.5000    11.6012     9.7796   -49.2742     8.1408    -0.3931     0.1085    90.3933     2.4809
  567.0000    11.5215     9.6489   -49.2700     8.2874    -0.3822     0.1056    90.7208     2.4846
  567.5000    11.4397     9.3906   -49.1205     8.4047    -0.3702     0.1038    91.6279     2.4876
  568.0000    11.2081     9.2015   -49.1163     8.4780    -0.3625     0.1020    91.9450     2.4900
  568.5000    11.1311     9.0157   -49.1111     8.5220    -0.3534     0.1005    91.6722     2.4868
  569.0000    10.9787     8.8959   -49.1076     8.5220    -0.3578     0.0995    90.8093     2.4755
  569.5000    10.8284     8.7176   -49.1027     8.5220    -0.3718     0.0997    90.1995     2.4679
  570.0000    10.5970     8.6599   -49.0988     8.5073    -0.3773     0.1171    89.3787     2.4536
  570.5000    10.3896     8.5450   -49.0944  -999.2500    -0.3757     0.1195    89.1058     2.4536
  571.0000    10.2473     8.4884   -49.2356  -999.2500    -0.3741     0.1168    90.6084     2.4603
  571.5000    10.1070     8.4336   -49.2311  -999.2500    -0.3483     0.1134    92.4005     2.4664
  572.0000    10.1061     8.2626   -49.0808  -999.2500    -0.3285     0.1110    94.5132     2.4701
  572.5000     9.9686     8.0884   -49.0770  -999.2500    -0.3496     0.1116    96.2851     2.4535
  573.0000     9.9686     7.9899   -49.0725  -999.2500    -0.3858     0.1306    96.6022     2.4391
  573.5000     9.8321     7.8825   -48.9229  -999.2500    -0.4008     0.1346    97.2143     2.4503
