~VERSION INFORMATION
 VERS.                2.0:   CWLS LOG ASCII STANDARD - VERSION 2.0
 WRAP.                 NO:   ONE LINE PER DEPTH STEP
~WELL INFORMATION
#MNEM.UNIT      DATA TYPE    INFORMATION
#----------   ------------   ------------------------------
 STRT.F           84.0000:   START DEPTH
 STOP.F         1141.0000:   STOP DEPTH
 STEP.F            0.5000:   STEP LENGTH
 NULL.          -999.2500:   NO VALUE
 COMP.           U S NAVY:   COMPANY
 WELL.     NPR#3 #78-S-11:   WELL
 FLD .             TEAPOT:   FIELD
 LOC .      S11 T38N R78W:   LOCATION
 CNTY.            NATRONA:   COUNTY
 STAT.            WYOMING:   STATE
 CTRY. UNITED STATES OF AMERICA:   COUNTRY
 SRVC.       Schlumberger:   SERVICE COMPANY
 DATE.        28-AUG-1966:   LOGDATE
 API .       490250970700:   API NUMBER
~CURVE INFORMATION
#MNEM.UNIT       API CODE    CURVE DESCRIPTION
#----------   ------------   ------------------------------
 DEPT.F                  :   
 SPR .MV     05 010 01 00:   SPONTANEOUS POTENTIAL FROM RES.
 ASN .OHMM   05 041 16 00:   AMPLIFIED SHORT NORMAL 16"
 ILD .OHMM   05 120 46 00:   INDUCTION LOG DEEP
 CILD.MMHO   05 110 46 00:   CONDUCTIVITY INDUCTION LOG DEEP
 GRD .GAPI   45 310 01 00:   GAMMA RAY FROM DENSITY LOG
 CALD.IN     45 280 60 00:   CALIPER FROM DENSITY LOG
 DPHI.DEC    45 890 12 00:   DENSITY POROSITY SANDSTONE
 RHOB.G/C3   45 350 01 00:   BULK DENSITY
~PARAMETER INFORMATION
#MNEM.UNIT          VALUE    DESCRIPTION
#----------   ------------   ------------------------------
 PD  .                 GL:   PERMANENT DATUM
 EPD .F              5245:   ELEVATION PERMANENT DATUM
 LMF .                 KB:   LOG MEASURED FROM
 DAPD.F                 5:   FEET ABOVE PERMANENT DATUM
 DMF .                 KB:   DRILLING MEASURED FROM
 EKB .F              5250:   KELLING BUSHING
 EGL .F              5245:   GROUND LEVEL
 DATE.            8-28-66:   RUN DATE
 RUN .                  1:   RUN NUMBER
 DD  .F              1142:   DEPTH DRILLER
 DL  .F              1142:   DEPTH LOGGER
 BLI .F              1141:   BOTTOM LOG INTERVAL
 TLI .F                85:   TOP LOG INTERVAL
 CS  .IN            8.625:   CASING SIZE
 CBD .F                10:   CASING BOTTOM DRILLER
 BS  .IN             6.75:   BIT SIZE
 BSD .F              1142:   BIT SIZE AT DEPTH
 DFT .           CHEM GEL:   DRILLING FLUID TYPE
 DFD .               10.7:   DRILLING FLUID DENSITY
 DFV .                 40:   DRILLING FLUID VISCOSITY
 MSS .          FLOW LINE:   MUD SAMPLE SOURCE
 RMS .OHMM           1.58:   RESISTIVITY MUD SAMPLE
 MST .F                70:   MUD SAMPLE TEMPERATURE
 RMF .OHMM            .93:   RESISTIVITY MUD FILTRATE SAMPLE
 MFST.F                70:   MUD FILTRATE SAMPLE TEMPERATURE
 MFSS.                  M:   MUD FILTRATE SAMPLE SOURCE
 RMB .OHMM           1.19:   RESISTIVITY MUD AT BHT
 BHT .F                94:   BOTTOM HOLE TEMPERATURE
 TCS .HRS               1:   TIME CURCULATED STOPPED
 MRT .F                94:   MAXIMUM RECORDED TEMPERATURE
 LUN .               4507:   LOGGING UNIT NUMBER
 LUL .               CSPR:   LOGGING UNIT LOCATION
 ENGI.             KNOBEL:   RECORDING ENGINEER
 WITN.         MAY/TUTTLE:   WITNESSED BY
 CLNT.            A2DTECH:   CLIENT CODE
 ORIG.           5" PRINT:   ORIGIN OF DATA
 UWI .       490250970700:   UNIQUE WELL ID
 DICO. A2D Technologies, Inc.:   DIGITIZING COMPANY
~OTHER INFORMATION
~A   DEPT      SPR          ASN        ILD      CILD       GRD       CALD       DPHI       RHOB   
# ...
  894.0000   -29.2609     5.9271     6.2902   180.1501   112.9931     7.4009     0.0888     2.5280
  894.5000   -29.4118     6.0022     6.3478   182.3735   114.4252     7.4009     0.0715     2.5340
  895.0000   -29.4118     6.0781     6.2681   188.4451   114.6074     7.3860     0.0750     2.5229
  895.5000   -29.4118     6.1840     6.1142   202.8326   115.3252     7.3860     0.0726     2.5251
  896.0000   -29.4118     6.1804     5.5850   218.6972   118.0074     7.3860     0.0780     2.5080
  896.5000   -29.5626     5.9342     4.9807   228.1755   121.9398     7.3860     0.0920     2.4878
  897.0000   -29.4118     5.5204     4.3013   230.6462   121.7648     7.3860     0.1037     2.4699
  897.5000   -29.4118     5.1930     3.9222   241.2024   122.1256     7.3860     0.1136     2.4460
  898.0000   -29.4118     5.0734     3.8434   252.7746   118.2003     7.3860     0.1252     2.4259
  898.5000   -29.5626     4.8486     3.9157   259.5042   115.5253     7.3860     0.1354     2.4095
  899.0000   -29.5626     4.8791     3.9861   258.7150   111.9574     7.3860     0.1291     2.4245
  899.5000   -29.5626     5.2549     4.0575   250.4070   109.2824     7.4009     0.1240     2.4387
  900.0000   -29.5542     5.3791     4.3347   240.6398   113.0360     7.4158     0.1220     2.4432
  900.5000   -29.5035     5.4207     4.6670   231.9668   116.9682     7.4158     0.1188     2.4477
  901.0000   -29.4529     5.4511     5.0253   223.1616   118.2217     7.4158     0.1152     2.4620
  901.5000   -29.4027     5.9018     5.2483   211.7744   116.6182     7.4158     0.1059     2.4874
  902.0000   -29.3997     6.2625     5.4719   201.2130   113.5860     7.3860     0.0960     2.5136
  902.5000   -29.2458     6.5631     5.8444   189.9248   114.3039     7.3860     0.0962     2.4920
  903.0000   -29.2428     6.8637     6.3677   180.9180   112.9533     7.3711     0.1072     2.4666
  903.5000   -29.2398     7.1493     6.7408   173.9274   110.9437     7.3711     0.1116     2.4692
  904.0000   -29.0860     7.4048     7.1140   165.6839   112.7364     7.3562     0.1080     2.4845
  904.5000   -28.9321     7.5853     7.4871   159.6089   113.9935     7.3562     0.1026     2.4966
  905.0000   -28.7783     7.7658     7.7852   149.7733   113.4648     7.3562     0.0992     2.4981
  905.5000   -28.7753     7.8712     7.9336   146.2306   113.2914     7.3562     0.0974     2.4907
  906.0000   -28.7723     7.9015     8.1560   147.8451   114.5502     7.3562     0.0995     2.4900
  906.5000   -28.7693     7.9469     8.0787   150.8302   115.6287     7.3562     0.0920     2.4997
  907.0000   -28.6154     7.8871     7.9263   154.5671   114.8979     7.3711     0.0924     2.5065
  907.5000   -28.6118     7.7673     7.7739   159.8078   112.7855     7.3711     0.0848     2.5133
  908.0000   -28.4579     7.6625     7.6215   165.0485   114.1047     7.3711     0.0791     2.5170
  908.5000   -28.4549     7.5277     7.3941   168.7854   115.3013     7.3711     0.0933     2.4932
  909.0000   -28.3011     7.3478     7.0915   172.5224   115.3083     7.3711     0.0994     2.4760
  909.5000   -28.2981     7.1529     6.8640   176.2593   113.8868     7.3711     0.1057     2.4640
  910.0000   -28.2951     6.9129     6.3363   179.2444   112.2867     7.3711     0.1033     2.4761
  910.5000   -28.5937     6.7931     5.8836   185.2369   112.8294     7.3711     0.0997     2.4933
  911.0000   -28.5907     6.5982     5.4309   198.7483   114.4435     7.3711     0.1018     2.4799
  911.5000   -28.5877     6.3883     4.9031   221.2822   116.2363     7.3711     0.0976     2.4905
  912.0000   -28.4339     6.1934     4.3002   238.5530   117.3147     7.3711     0.0928     2.4890
  912.5000   -28.2800     5.8934     4.2229   252.0644   116.9646     7.3711     0.0972     2.4770
  913.0000   -28.1262     5.6234     4.1456   249.0344   115.5430     7.3711     0.1018     2.4860
  913.5000   -27.8215     5.1883     4.1434   243.7488   115.0143     7.3711     0.0954     2.5010
  914.0000   -27.5169     5.1388     4.2162   238.4632   115.0214     7.3711     0.1131     2.4667
  914.5000   -27.5139     5.4291     4.4392   232.4257   115.4310     7.3711     0.1217     2.4331
  915.0000   -27.6624     5.5345     4.6621   224.1325   116.8228     7.3711     0.1412     2.3883
  915.5000   -27.6587     5.5348     5.0353   218.8469   113.9727     7.3711     0.1205     2.4189
  916.0000   -27.6557     5.9255     5.5586   212.0575   112.1923     7.3711     0.0959     2.5057
  916.5000   -27.8043     6.4363     5.9317   198.5012   112.7367     7.3711     0.0812     2.5289
  917.0000   -27.6497     6.9782     6.2302   176.6743   114.8866     7.3711     0.0728     2.5259
  917.5000   -27.7982     7.1582     6.3788   168.3811   116.3222     7.3711     0.0704     2.5305
  918.0000   -28.0961     7.2338     6.5275   162.3436   115.6149     7.3711     0.0776     2.5133
  918.5000   -28.2440     7.3095     6.5984   159.3136   116.3362     7.3711     0.0854     2.5021
  919.0000   -28.5426     7.4002     6.6747   158.5393   118.3075     7.3711     0.0860     2.5231
  919.5000   -28.6912     7.5243     6.8942   157.0131   121.1717     7.3711     0.0967     2.5025
  920.0000   -28.5366     7.7828     6.9670   156.9906   121.1787     7.3711     0.0988     2.4791
  920.5000   -28.0811     7.9402     6.9705   156.2163   121.3655     7.3711     0.0903     2.5045
  921.0000   -28.0781     7.8302     6.9624   156.1938   122.0999     7.3711     0.0874     2.5098
  921.5000   -28.0751     7.9016     6.8851   155.4195   122.2712     7.3711     0.0994     2.4769
  922.0000   -28.2237     8.0914     6.8078   155.3970   117.1008     7.3711     0.0978     2.4897
  922.5000   -28.2199     8.1968     6.8807   154.6227   115.8578     7.3711     0.0909     2.5129
  923.0000   -28.2169     8.2421     6.8783   154.6002   114.9719     7.3711     0.0784     2.5309
  923.5000   -28.3655     8.2124     6.8761   153.8259   114.6218     7.3711     0.0697     2.5346
  924.0000   -28.5133     8.1526     6.8739   153.8034   115.3431     7.3711     0.0637     2.5399
  924.5000   -28.6611     8.1228     6.8716   154.5338   117.1358     7.3711     0.0798     2.4981
  925.0000   -28.6574     8.0631     6.8569   155.2631   119.8220     7.3711     0.0882     2.4809
  925.5000   -28.6544     7.9583     6.7038   155.9924   123.5790     7.3711     0.0977     2.4734
  926.0000   -28.6514     7.7634     6.5646   156.7211   127.3360     7.3711     0.1010     2.4952
  926.5000   -28.6483     7.7036     6.4872   156.6986   127.1645     7.3711     0.0905     2.5192
  927.0000   -28.4945     7.8091     6.4095   156.6761   124.1358     7.3711     0.0808     2.5185
  927.5000   -28.4915     7.9145     6.3321   157.4060   121.4464     7.3711     0.0830     2.5136
  928.0000   -28.3377     8.0199     6.3299   158.8868   118.6147     7.3711     0.0947     2.4954
  928.5000   -28.4862     7.9601     6.2526   160.3681   117.3717     7.3711     0.1024     2.4872
  929.0000   -28.9350     7.8403     6.1753   162.6013   117.9144     7.3711     0.0952     2.4932
  929.5000   -29.3845     7.6604     6.0229   165.5864   120.6012     7.3711     0.0892     2.5104
  930.0000   -29.2306     7.5406     5.9455   184.3609   122.3922     7.3711     0.0847     2.5157
  930.5000   -28.6243     7.4208     5.6430   197.9223   120.9724     7.3711     0.0829     2.5135
  931.0000   -28.3196     7.3159     5.4155   205.3938   121.3365     7.3711     0.0904     2.5016
  931.5000   -28.0150     7.1060     5.2631   204.5564   124.0221     7.3860     0.0982     2.4867
  932.0000   -27.5595     6.0252     4.8104   200.0605   127.2434     7.3860     0.1011     2.4717
  932.5000   -27.4056     6.1156     4.5079   206.1153   127.2504     7.3860     0.1008     2.4808
  933.0000   -27.5535     5.7406     4.3555   211.6706   129.4003     7.3860     0.0995     2.4995
  933.5000   -27.5504     5.5906     4.2031   223.4763   131.2238     7.3860     0.0825     2.5137
  934.0000   -27.3966     6.0114     4.2008   227.9900   128.5215     7.3860     0.0747     2.5235
