~VERSION INFORMATION
 VERS.                2.0:   CWLS LOG ASCII STANDARD - VERSION 2.0
 WRAP.                 NO:   ONE LINE PER DEPTH STEP
~WELL INFORMATION
#MNEM.UNIT      DATA TYPE    INFORMATION
#----------   ------------   ------------------------------
 STRT.F           85.0000:   START DEPTH
 STOP.F          780.0000:   STOP DEPTH
 STEP.F            0.5000:   STEP LENGTH
 NULL.          -999.2500:   NO VALUE
 COMP. U S NAVY-INTEX OIL:   COMPANY
 WELL.        NPR #47-S-2:   WELL
 FLD .             TEAPOT:   FIELD
 LOC .       S2 T38N R78W:   LOCATION
 CNTY.            NATRONA:   COUNTY
 STAT.            WYOMING:   STATE
 CTRY. UNITED STATES OF AMERICA:   COUNTRY
 SRVC.       Schlumberger:   SERVICE COMPANY
 DATE.        30-JUN-1962:   LOGDATE
 API .       490250640200:   API NUMBER
~CURVE INFORMATION
#MNEM.UNIT       API CODE    CURVE DESCRIPTION
#----------   ------------   ------------------------------
 DEPT.F                  :   
 SPR .MV     05 010 01 00:   SPONTANEOUS POTENTIAL FROM RES.
 ASN .OHMM   05 041 18 00:   AMPLIFIED SHORT NORMAL 18"
 ILD .OHMM   05 120 46 00:   INDUCTION LOG DEEP
 CILD.MMHO   05 110 46 00:   CONDUCTIVITY INDUCTION LOG DEEP
 CALM.IN     15 280 01 00:   CALIPER FROM MICRO LOG
 GR  .GAPI   30 310 01 00:   GAMMA RAY
~PARAMETER INFORMATION
#MNEM.UNIT          VALUE    DESCRIPTION
#----------   ------------   ------------------------------
 PD  .                 KB:   PERMANENT DATUM
 LMF .                 KB:   LOG MEASURED FROM
 DMF .                 KB:   DRILLING MEASURED FROM
 EKB .F              5175:   KELLING BUSHING
 EGL .F              5170:   GROUND LEVEL
 DATE.          6-30-1962:   RUN DATE
 RUN .                  1:   RUN NUMBER
 DD  .F               775:   DEPTH DRILLER
 DL  .F               781:   DEPTH LOGGER
 BLI .F               780:   BOTTOM LOG INTERVAL
 TLI .F                86:   TOP LOG INTERVAL
 BS  .IN             6.75:   BIT SIZE
 BSD .F               775:   BIT SIZE AT DEPTH
 DFT .            GEL-OIL:   DRILLING FLUID TYPE
 DFD .                 10:   DRILLING FLUID DENSITY
 DFV .                 50:   DRILLING FLUID VISCOSITY
 DFL .                3.6:   DRILLING FLUID LOSS
 MSS .           FLOWLINE:   MUD SAMPLE SOURCE
 RMS .OHMM           5.75:   RESISTIVITY MUD SAMPLE
 MST .F                69:   MUD SAMPLE TEMPERATURE
 RMF .OHMM           4.96:   RESISTIVITY MUD FILTRATE SAMPLE
 MFST.F                69:   MUD FILTRATE SAMPLE TEMPERATURE
 RMC .OHMM           4.80:   RESISTIVITY MUD CAKE
 MCST.F                69:   MUD CAKE SAMPLE TEMPERATURE
 RMB .OHMM           5.13:   RESISTIVITY MUD AT BHT
 BHT .F                78:   BOTTOM HOLE TEMPERATURE
 TCS .HRS               1:   TIME CURCULATED STOPPED
 MRT .F                78:   MAXIMUM RECORDED TEMPERATURE
 LUN .               2503:   LOGGING UNIT NUMBER
 LUL .              CSPR.:   LOGGING UNIT LOCATION
 ENGI.             KNOBEL:   RECORDING ENGINEER
 WITN.          JORGENSEN:   WITNESSED BY
 CLNT.            A2DTECH:   CLIENT CODE
 ORIG.      2" & 5" PRINT:   ORIGIN OF DATA
 UWI .       490250640200:   UNIQUE WELL ID
 DICO. A2D Technologies, Inc.:   DIGITIZING COMPANY
~OTHER INFORMATION
~A   DEPT      SPR        ASN        ILD         CILD     CALM         GR   
   85.0000  -999.2500  -999.2500  -999.2500     1.2034  -999.2500  -999.2500
   85.5000  -999.2500  -999.2500  -999.2500     6.7439  -999.2500  -999.2500
   86.0000   -33.4821     0.2054     0.7892    33.7511  -999.2500  -999.2500
   86.5000   -33.4821     1.3718     2.2078   165.2642  -999.2500  -999.2500
   87.0000   -33.3333     0.7614     1.0105   299.6399  -999.2500  -999.2500
   87.5000   -33.3333     0.8620     1.4014   175.5611  -999.2500  -999.2500
   88.0000   -33.3333     1.9570     2.9479   182.3131  -999.2500  -999.2500
   88.5000   -33.4860     5.3259     5.0711   190.5689  -999.2500  -999.2500
   89.0000   -33.6370     6.1045     5.1152   197.3208  -999.2500  -999.2500
   89.5000   -33.6310     5.9999     4.9641   203.3210  -999.2500  -999.2500
   90.0000   -33.4821     5.8204     5.1865   207.0692  -999.2500  -999.2500
   90.5000   -33.3333     5.5960     5.4840   200.2836  -999.2500  -999.2500
   91.0000   -33.4821     5.4913     5.6324   194.2536  -999.2500  -999.2500
   91.5000   -33.7798     5.8059     5.7056   192.7349  -999.2500  -999.2500
   92.0000   -33.9286     6.0306     5.5543   193.4756  -999.2500  -999.2500
   92.5000   -34.0774     5.9409     5.4033   194.9645  -999.2500  -999.2500
   93.0000   -34.0555     5.8812     5.2524   196.4533  -999.2500  -999.2500
   93.5000   -33.9048     5.7915     5.2509   197.1902  -999.2500  -999.2500
   94.0000   -33.7798     5.7168     5.1747   197.1716  -999.2500  -999.2500
   94.5000   -33.6310     5.6571     5.2479   197.1567  -999.2500  -999.2500
   95.0000   -33.6310     5.6871     5.3215   195.6380  -999.2500  -999.2500
   95.5000   -33.6310     5.7322     5.4695   193.3674  -999.2500  -999.2500
   96.0000   -33.6310     5.7623     5.6171   190.3450  -999.2500  -999.2500
   96.5000   -33.6310     5.7924     5.6157   188.8263  -999.2500  -999.2500
   97.0000   -33.3333     5.7925     5.6893   188.8114  -999.2500  -999.2500
   97.5000   -32.8869     5.8526     5.6127   189.5488  -999.2500  -999.2500
   98.0000   -33.0357     5.7479     5.5365   188.7815  -999.2500  -999.2500
   98.5000   -33.3333     5.7181     5.5350   188.0147  -999.2500  -999.2500
   99.0000   -33.3333     5.8081     5.4588   187.2479  -999.2500  -999.2500
   99.5000   -33.3333     5.8981     5.3825   186.4811  -999.2500  -999.2500
  100.0000   -33.1845     5.9730     5.3063   187.9699  -999.2500  -999.2500
  100.5000   -32.8869     5.8085     5.2301   190.9848  -999.2500  -999.2500
  101.0000   -32.5893     5.7189     5.0791   194.7516  -999.2500  -999.2500
  101.5000   -32.5893     5.5693     5.0776   198.5190  -999.2500  -999.2500
  102.0000   -33.0357     5.3898     5.0761   202.2857  -999.2500  -999.2500
  102.5000   -33.3333     5.6295     5.0747   205.3006  -999.2500  -999.2500
  103.0000   -33.4821     5.5099     4.9984   207.5638  -999.2500  -999.2500
  103.5000   -33.4821     5.3603     4.9222   208.9181  -999.2500  -999.2500
  104.0000   -33.3333     5.3305     4.9207   208.8994  -999.2500  -999.2500
  104.5000   -33.1845     5.3606     5.0687   208.1326  -999.2500  -999.2500
  105.0000   -33.1845     5.4057     5.1420   205.8621  -999.2500  -999.2500
  105.5000   -33.3333     5.4957     5.2900   203.5915  -999.2500  -999.2500
  106.0000   -33.4821     5.5707     5.3632   200.5690  -999.2500  -999.2500
  106.5000   -33.4821     5.4511     5.4365   197.5466  -999.2500  -999.2500
  107.0000   -33.6310     5.3314     5.4350   195.2760  -999.2500  -999.2500
  107.5000   -33.4821     5.3466     5.3588   194.5130  -999.2500  -999.2500
  108.0000   -33.4821     5.5563     5.3573   196.7499  -999.2500  -999.2500
  108.5000   -33.4821     5.6912     5.3558   196.7350  -999.2500  -999.2500
  109.0000   -33.4821     5.6314     5.3543   196.7201  -999.2500  -999.2500
  109.5000   -33.4821     5.7071     5.3528   195.2014  -999.2500  -999.2500
  110.0000   -33.3333     5.7365     5.3512   192.9308  -999.2500  -999.2500
  110.5000   -33.1845     5.6918     5.3498   191.4122  -999.2500  -999.2500
  111.0000   -32.8869     5.6919     5.4231   190.6491  -999.2500  -999.2500
  111.5000   -32.7381     5.7239     5.4212   194.3898  -999.2500  -999.2500
  112.0000   -32.7381     5.8569     5.2703   197.3824  -999.2500  -999.2500
  112.5000   -32.4405     5.4504     5.1193   200.3750  -999.2500  -999.2500
  113.0000   -32.2917     5.1929     5.0431   202.6157  -999.2500  -999.2500
  113.5000   -32.4405     5.3783     4.9669   204.8564  -999.2500  -999.2500
  114.0000   -32.7381     5.6479     5.0401   206.3453  -999.2500  -999.2500
  114.5000   -32.5893     5.4535     5.1137   207.8341  -999.2500  -999.2500
  115.0000   -32.2917     5.4686     5.0371   207.8192  -999.2500  -999.2500
  115.5000   -32.4405     5.5136     4.8862   205.5486  -999.2500  -999.2500
  116.0000   -32.8869     5.6186     4.9598   202.5262  -999.2500  -999.2500
  116.5000   -32.7381     5.5139     5.1822   200.2556  -999.2500  -999.2500
  117.0000   -32.4405     5.4243     5.3301   197.2331  -999.2500  -999.2500
  117.5000   -32.4405     5.3944     5.4038   195.6767  -999.2500  -999.2500
  118.0000   -32.7381     5.7240     5.4770   193.4436  -999.2500  -999.2500
  118.5000   -32.8869     5.7391     5.4752   191.9248  -999.2500  -999.2500
  119.0000   -32.8869     5.6195     5.4737   190.4060  -999.2500  -999.2500
  119.5000   -32.7381     5.6346     5.3975   189.5112  -999.2500  -999.2500
  120.0000   -32.7381     5.7246     5.3960   188.8692  -999.2500  -999.2500
  120.5000   -33.0357     5.7696     5.3197   188.1024  -999.2500  -999.2500
  121.0000   -33.1845     5.7997     5.3183   188.0875  -999.2500  -999.2500
  121.5000   -33.3333     5.8148     5.2420   188.0725  -999.2500  -999.2500
  122.0000   -33.0357     5.7700     5.2405   187.3057  -999.2500  -999.2500
  122.5000   -32.7381     5.8900     5.1643   186.5389  -999.2500  -999.2500
  123.0000   -32.8869     5.9800     5.1628   185.7721  -999.2500  -999.2500
  123.5000   -32.8869     5.9951     5.1613   188.0128  -999.2500  -999.2500
  124.0000   -32.8869     5.9353     5.1599   191.7573  -999.2500  -999.2500
  124.5000   -32.7381     5.7708     5.1584   194.7499  -999.2500  -999.2500
  125.0000   -32.5893     5.6362     5.1568   196.2425  -999.2500  -999.2500
  125.5000   -32.4405     5.7262     5.1554   196.9794  -999.2500  -999.2500
  126.0000   -32.5893     5.7713     5.1539   197.7164  -999.2500  -999.2500
  126.5000   -32.5833     5.7115     5.1524   196.9458  -999.2500  -999.2500
  127.0000   -32.4326     5.6518     5.2257   196.1790  -999.2500  -999.2500
  127.5000   -32.2818     5.5921     5.2989   195.4122  -999.2500  -999.2500
  128.0000   -32.1429     5.5622     5.3722   194.6454  -999.2500  -999.2500
  128.5000   -31.9940     5.6672     5.4454   193.1267  -999.2500  -999.2500
  129.0000   -31.8452     5.7422     5.5187   192.3599  -999.2500  -999.2500
  129.5000   -31.8452     5.8023     5.5172   191.5931  -999.2500  -999.2500
  130.0000   -31.9940     5.8623     5.5905   191.5782  -999.2500  -999.2500
  130.5000   -31.9940     5.9223     5.5890   191.5633  -999.2500  -999.2500
  131.0000   -31.9940     6.0422     5.5875   191.5484  -999.2500  -999.2500
  131.5000   -31.8452     6.0734     5.6607   191.5334  -999.2500  -999.2500
  132.0000   -31.6964     6.0575     5.7459   190.7666  -999.2500  -999.2500
  132.5000   -31.5476     6.0576     5.8956   186.9923  -999.2500  -999.2500
  133.0000   -31.6964     6.1027     6.1043   180.9623  -999.2500  -999.2500
  133.5000   -31.6964     6.2526     6.3271   174.9166  -999.2500  -999.2500
  134.0000   -31.6964     6.4044     6.4754   169.6238  -999.2500  -999.2500
  134.5000   -31.5476     6.6741     6.6234   165.0751  -999.2500  -999.2500
  135.0000   -31.5476     6.9306     6.6967   159.6241  -999.2500  -999.2500
  135.5000   -31.5476     6.8018     6.7699   152.1206  -999.2500  -999.2500
  136.0000   -31.6964     7.1344     6.9179   148.5413  -999.2500  -999.2500
  136.5000   -31.8452     7.4924     7.1403   150.0308  -999.2500  -999.2500
