~VERSION INFORMATION
 VERS.                2.0:   CWLS LOG ASCII STANDARD - VERSION 2.0
 WRAP.                 NO:   ONE LINE PER DEPTH STEP
~WELL INFORMATION
#MNEM.UNIT      DATA TYPE    INFORMATION
#----------   ------------   ------------------------------
 STRT.F           26.0000:   START DEPTH
 STOP.F          655.0000:   STOP DEPTH
 STEP.F            0.5000:   STEP LENGTH
 NULL.          -999.2500:   NO VALUE
 COMP. FENIX & SCISSON, INCORPORATED:   COMPANY
 WELL. RES 3 TEAPOT DOM #22S-11:   WELL
 FLD .             TEAPOT:   FIELD
 LOC .      S11 T38N R78W:   LOCATION
 CNTY.            NATRONA:   COUNTY
 STAT.            WYOMING:   STATE
 CTRY. UNITED STATES OF AMERICA:   COUNTRY
 SRVC.            Unknown:   SERVICE COMPANY
 DATE.        03-FEB-1978:   LOGDATE
 API .       490251057200:   API NUMBER
~CURVE INFORMATION
#MNEM.UNIT       API CODE    CURVE DESCRIPTION
#----------   ------------   ------------------------------
 DEPT.F                  :   
 ILD .OHMM   05 120 46 00:   INDUCTION LOG DEEP
 SN  .OHMM   05 040 16 00:   SHORT NORMAL 16"
 SPR .MV     05 010 01 00:   SPONTANEOUS POTENTIAL.
 CALD.IN     45 280 60 00:   CALIPER FROM DENSITY LOG
 CORR.G/C3   45 356 01 00:   DENSITY CORRECTION
 DPHI.DEC    45 890 12 00:   DENSITY POROSITY SANDSTONE
 GRD .GAPI   45 310 01 00:   GAMMA RAY FROM DENSITY LOG
 RHOB.G/C3   45 350 01 00:   BULK DENSITY
~PARAMETER INFORMATION
#MNEM.UNIT          VALUE    DESCRIPTION
#----------   ------------   ------------------------------
 PD  .                 GL:   PERMANENT DATUM
 EPD .F              5168:   ELEVATION PERMANENT DATUM
 LMF .                 KB:   LOG MEASURED FROM
 DMF .                 KB:   DRILLING MEASURED FROM
 EKB .F              5171:   KELLING BUSHING
 EGL .F              5168:   GROUND LEVEL
 DATE.        03-FEB-1978:   RUN DATE
 RUN .                  1:   RUN NUMBER
 DD  .F               650:   DEPTH DRILLER
 DL  .F               655:   DEPTH LOGGER
 BLI .F               655:   BOTTOM LOG INTERVAL
 TLI .F                40:   TOP LOG INTERVAL
 CS  .IN            8.625:   CASING SIZE
 CBD .F                39:   CASING BOTTOM DRILLER
 CBL .F                40:   CASING BOTTOM LOGGER
 BS  .IN            7.875:   BIT SIZE
 BSD .F               650:   BIT SIZE AT DEPTH
 DFT .                KCL:   DRILLING FLUID TYPE
 DFD .                8.6:   DRILLING FLUID DENSITY
 DFV .                 31:   DRILLING FLUID VISCOSITY
 DFPH.                9.5:   DRILLING FLUID PH
 DFL .               12.8:   DRILLING FLUID LOSS
 MSS .           FLOWLINE:   MUD SAMPLE SOURCE
 RMS .OHMM           0.38:   RESISTIVITY MUD SAMPLE
 MST .F                62:   MUD SAMPLE TEMPERATURE
 RMF .OHMM            4.4:   RESISTIVITY MUD FILTRATE SAMPLE
 MFST.F                62:   MUD FILTRATE SAMPLE TEMPERATURE
 RMC .OHMM            0.8:   RESISTIVITY MUD CAKE
 MCST.F                62:   MUD CAKE SAMPLE TEMPERATURE
 MFSS.               MEAS:   MUD FILTRATE SAMPLE SOURCE
 RMB .OHMM           0.35:   RESISTIVITY MUD AT BHT
 BHT .F                68:   BOTTOM HOLE TEMPERATURE
 TCS .HRS               1:   TIME CURCULATED STOPPED
 MRT .F                68:   MAXIMUM RECORDED TEMPERATURE
 LUN .               2958:   LOGGING UNIT NUMBER
 LUL .             CASPER:   LOGGING UNIT LOCATION
 ENGI.           REYNOLDS:   RECORDING ENGINEER
 WITN.         HARRINGTON:   WITNESSED BY
 CLNT.            A2DTECH:   CLIENT CODE
 ORIG.           5" PRINT:   ORIGIN OF DATA
 UWI .       490251057200:   UNIQUE WELL ID
 DICO. A2D Technologies, Inc.:   DIGITIZING COMPANY
~OTHER INFORMATION
~A   DEPT      ILD         SN        SPR       CALD       CORR       DPHI         GRD      RHOB   
# ...
  107.0000     7.6773     7.6563   -35.0513     7.5440     0.0299     0.1344   106.4553     2.4330
  107.5000     7.6742     7.6532   -35.3650     7.5746     0.0253     0.1404   103.4210     2.4194
  108.0000     7.5942     7.5972   -35.9823     7.6028     0.0237     0.1494   102.9546     2.4066
  108.5000     7.5597     7.5415   -36.9031     7.6471     0.0235     0.1542   102.3223     2.3938
  109.0000     7.4541     7.3824   -37.6824     7.6764     0.0145     0.1528    99.1485     2.3975
  109.5000     7.2975     7.2274   -38.5954     7.7209     0.0084     0.1534    98.2290     2.3877
  110.0000     7.2440     7.1249   -39.2126     7.7654     0.0054     0.1627   103.3517     2.3757
  110.5000     7.1412     7.1220   -39.8299     7.7950     0.0053     0.1651   108.4745     2.3681
  111.0000     7.1384     7.1191   -40.4472     7.8393     0.0052     0.1600   110.7271     2.3651
  111.5000     7.1355     7.1162   -40.9127     7.8841     0.0095     0.1531   108.1460     2.3846
  112.0000     7.1326     7.1134   -41.5299     7.9303     0.0109     0.1472   107.2265     2.4055
  112.5000     7.0803     7.0744   -41.9954     7.9577     0.0108     0.1409   104.8842     2.4145
  113.0000     7.1269     7.0351   -42.6333     7.9868     0.0137     0.1424   101.1545     2.4152
  113.5000     7.1237     7.1183   -43.2325     8.0162     0.0198     0.1409    99.7818     2.4144
  114.0000     7.2198     7.1654   -43.8498     8.0307     0.0284     0.1354    99.6175     2.4182
  114.5000     7.2333     7.2123   -44.6188     8.0601     0.0432     0.1328   101.5681     2.4233
  115.0000     7.2646     7.2375   -45.2361     8.0590     0.0566     0.1316   101.8603     2.4255
  115.5000     7.3122     7.2575   -45.5498     8.0430     0.0744     0.1311   102.2970     2.4247
  116.0000     7.3091     7.2550   -45.8636     8.0410     0.1011     0.1311   103.7944     2.4224
  116.5000     7.3056     7.2020   -46.4911     8.0258     0.1234     0.1299   104.5468     2.4209
  117.0000     7.3026     7.1998   -47.2524     8.0250     0.1442     0.1272   104.9732     2.4246
  117.5000     7.3000     7.1973   -47.7179     8.0241     0.1620     0.1242   104.9600     2.4350
  118.0000     7.2970     7.1948   -47.8800     8.0232     0.1680     0.1215   103.5873     2.4440
  118.5000     7.2938     7.1924   -48.0420     8.0223     0.1792     0.1222   100.4019     2.4409
  119.0000     7.2909     7.2400   -48.0523     8.0214     0.1975     0.1228   100.0866     2.4430
  119.5000     7.2878     7.3103   -48.2143     8.0054     0.2004     0.1159    99.4692     2.4634
  120.0000     7.3869     7.3874   -48.6798     7.9894     0.1943     0.1084    99.2951     2.4663
  120.5000     7.4354     7.4875   -49.2974     7.9414     0.1882     0.1060   101.7342     2.4700
  121.0000     7.4842     7.5372   -49.9169     7.8967     0.1807     0.1045   104.7133     2.4737
  121.5000     7.5858     7.5346   -50.5342     7.8353     0.1701     0.1024   104.0959     2.4767
  122.0000     7.5820     7.5846   -50.9997     7.7739     0.1536     0.1025   103.3274     2.4759
  122.5000     7.5790     7.5819   -51.4652     7.6973     0.1326     0.1079   103.4653     2.4781
  123.0000     7.4713     7.5788   -52.2342     7.6359     0.1081     0.1091   103.1500     2.4795
  123.5000     7.4160     7.5239   -53.0032     7.5745     0.0652     0.1103   101.4752     2.4757
  124.0000     7.3107     7.3664   -53.6409     7.5130     0.0562     0.1145    98.7418     2.4551
  124.5000     7.2069     7.1623   -54.5438     7.5121     0.0531     0.1236   100.6924     2.4516
  125.0000     7.0555     7.0612   -55.1610     7.5566     0.0500     0.1287   101.7372     2.4501
  125.5000     6.9553     6.9133   -55.9301     7.5709     0.0439     0.1278   100.5150     2.4298
  126.0000     6.8566     6.8107   -56.2438     7.6002     0.0349     0.1319    98.9909     2.4208
  126.5000     6.7593     6.7192   -56.4058     7.6296     0.0288     0.1392   102.2980     2.4260
  127.0000     6.7559     6.7169   -56.4161     7.6590     0.0272     0.1381   102.4391     2.4192
  127.5000     6.7069     6.7146   -56.5781     7.7047     0.0271     0.1353   103.4801     2.4086
  128.0000     6.7037     6.7124   -56.7810     7.7495     0.0255     0.1357   105.8838     2.4093
  128.5000     6.7948     6.7101   -57.6635     7.7923     0.0239     0.1357   107.3812     2.4130
  129.0000     6.8401     6.7073   -58.1290     7.8068     0.0163     0.1339   107.9755     2.4137
  129.5000     6.9806     6.7523   -58.5945     7.8510     0.0073     0.1294   104.7868     2.4189
  130.0000     6.9745     6.8439   -59.0600     7.8502     0.0027     0.1252    97.5128     2.4339
  130.5000     6.9260     6.8416   -59.3738     7.8646     0.0011     0.1286    89.6514     2.4429
  131.0000     6.8277     6.8393   -59.6876     7.8787     0.0055     0.1385    91.1510     2.4458
  131.5000     6.7308     6.7427   -60.1533     7.8778     0.0098     0.1416   100.2371     2.4278
  132.0000     6.6815     6.6938   -60.6212     7.8769     0.0127     0.1430   104.5654     2.4165
  132.5000     6.6788     6.6910   -60.9349     7.8909     0.0156     0.1403   105.9118     2.4037
  133.0000     6.7227     6.7354   -61.4005     7.9054     0.0123     0.1344   105.7475     2.4012
  133.5000     6.7668     6.7800   -61.5625     7.9196     0.0049     0.1299   104.3748     2.4149
  134.0000     6.8580     6.8725   -61.7245     7.9336    -0.0012     0.1275   102.0958     2.4246
  134.5000     6.9511     6.9662   -61.7348     7.9479    -0.0057     0.1272   100.4209     2.4253
  135.0000     6.9975     7.0613   -62.0486     7.9622    -0.0058     0.1296   101.6162     2.4320
  135.5000     7.0925     7.2074   -62.2109     7.9661     0.0015     0.1324   103.6208     2.4357
  136.0000     7.1391     7.2551   -62.6787     7.9755     0.0104     0.1360   105.6651     2.4289
  136.5000     7.1853     7.3032   -63.2959     7.9744     0.0207     0.1327   104.8966     2.4228
  137.0000     7.2582     7.2496   -63.9132     7.9735     0.0311     0.1291   103.8260     2.4205
  137.5000     7.2799     7.2475   -64.5304     7.9728     0.0402     0.1264   102.9065     2.4317
  138.0000     7.2762     7.1947   -64.9960     7.9718     0.0473     0.1249   104.1017     2.4407
  138.5000     7.1729     7.1923   -65.3097     7.9861     0.0502     0.1240   106.6565     2.4452
  139.0000     7.1204     7.1898   -65.6338     7.9910     0.0531     0.1253   104.9817     2.4481
  139.5000     7.0683     7.1312   -65.7881     8.0145     0.0664     0.1265   100.8087     2.4450
  140.0000     7.0654     7.0364   -65.7984     8.0136     0.0812     0.1277   101.6288     2.4405
  140.5000     6.9651     6.9854   -65.9604     8.0127     0.0960     0.1283   105.0899     2.4360
  141.0000     6.9622     6.9830   -65.9707     8.0116     0.1064     0.1286   106.4362     2.4329
  141.5000     6.9588     6.9326   -65.9810     7.9956     0.1182     0.1286   106.1209     2.4311
  142.0000     6.8601     6.9301   -66.1430     7.9947     0.1300     0.1284    99.0080     2.4298
  142.5000     6.8573     6.9277   -66.1533     7.9787     0.1359     0.1281    97.6353     2.4305
  143.0000     6.8546     6.9254   -66.6191     7.9778     0.1477     0.1269    97.6222     2.4335
  143.5000     6.8519     6.9230   -67.0869     7.9770     0.1640     0.1206    96.7026     2.4518
  144.0000     6.8968     6.9690   -67.7041     7.9610     0.1759     0.1146   100.3115     2.4696
  144.5000     6.9421     6.9660   -68.1696     7.9593     0.1877     0.1137   103.9237     2.4746
  145.0000     7.0356     7.0610   -68.6351     7.9264     0.1921     0.1134   105.7265     2.4746
  145.5000     7.1312     7.2072   -69.2524     7.8824     0.1830     0.1114   101.7825     2.4760
  146.0000     7.2784     7.4592   -69.5662     7.8362     0.1725     0.0997    98.8992     2.4902
  146.5000     7.4804     7.6666   -69.7284     7.7899     0.1589     0.0757    94.6564     2.5067
  147.0000     7.6881     7.7712   -69.7411     7.7285     0.1377     0.0675    94.3303     2.5179
