~VERSION INFORMATION
 VERS.                2.0:   CWLS LOG ASCII STANDARD - VERSION 2.0
 WRAP.                 NO:   ONE LINE PER DEPTH STEP
~WELL INFORMATION
#MNEM.UNIT      DATA TYPE    INFORMATION
#----------   ------------   ------------------------------
 STRT.F           33.0000:   START DEPTH
 STOP.F         1374.0000:   STOP DEPTH
 STEP.F            0.5000:   STEP LENGTH
 NULL.          -999.2500:   NO VALUE
 COMP. FENIX & SCISSON INC:   COMPANY
 WELL.   NPR-3 "S" #84-14:   WELL
 FLD .             TEAPOT:   FIELD
 LOC .      S14 T38N R78W:   LOCATION
 CNTY.            NATRONA:   COUNTY
 STAT.            WYOMING:   STATE
 CTRY. UNITED STATES OF AMERICA:   COUNTRY
 SRVC.            Unknown:   SERVICE COMPANY
 DATE.        18-MAR-1978:   LOGDATE
 API .       490251060400:   API NUMBER
~CURVE INFORMATION
#MNEM.UNIT       API CODE    CURVE DESCRIPTION
#----------   ------------   ------------------------------
 DEPT.F                  :   
 SPR .MV     05 010 01 00:   SPONTANEOUS POTENTIAL FROM RES.
 SN  .OHMM   05 040 16 00:   SHORT NORMAL 16"
 ILD .OHMM   05 120 46 00:   INDUCTION LOG DEEP
 CALD.IN     45 280 60 00:   CALIPER
 GRD .GAPI   45 310 01 00:   GAMMA RAY FROM DENSITY LOG
 CORR.G/C3   45 356 01 00:   DENSITY CORRECTION
 RHOB.G/C3   45 350 01 00:   BULK DENSITY
 DPHI.DEC    45 890 00 00:   DENSITY POROSITY
~PARAMETER INFORMATION
#MNEM.UNIT          VALUE    DESCRIPTION
#----------   ------------   ------------------------------
 PD  .                 GL:   PERMANENT DATUM
 EPD .F              5314:   ELEVATION PERMANENT DATUM
 LMF .                 KB:   LOG MEASURED FROM
 DMF .                 KB:   DRILLING MEASURED FROM
 EKB .F              5318:   KELLING BUSHING
 EGL .F              5314:   GROUND LEVEL
 DATE.          3-18-1978:   RUN DATE
 RUN .                  1:   RUN NUMBER
 DD  .F              1375:   DEPTH DRILLER
 DL  .F              1380:   DEPTH LOGGER
 BLI .F              1374:   BOTTOM LOG INTERVAL
 TLI .F                50:   TOP LOG INTERVAL
 CS  .IN            8.625:   CASING SIZE
 CBD .F                40:   CASING BOTTOM DRILLER
 CBL .F                50:   CASING BOTTOM LOGGER
 BS  .IN            7.875:   BIT SIZE
 BSD .F              1375:   BIT SIZE AT DEPTH
 DFT .                KCL:   DRILLING FLUID TYPE
 DFD .                8.1:   DRILLING FLUID DENSITY
 DFV .                 31:   DRILLING FLUID VISCOSITY
 DFPH.                 10:   DRILLING FLUID PH
 DFL .                8.4:   DRILLING FLUID LOSS
 MSS .           FLOWLINE:   MUD SAMPLE SOURCE
 RMS .OHMM            .28:   RESISTIVITY MUD SAMPLE
 MST .F                62:   MUD SAMPLE TEMPERATURE
 RMF .OHMM            .26:   RESISTIVITY MUD FILTRATE SAMPLE
 MFST.F                67:   MUD FILTRATE SAMPLE TEMPERATURE
 RMC .OHMM            .36:   RESISTIVITY MUD CAKE
 MCST.F                70:   MUD CAKE SAMPLE TEMPERATURE
 MFSS.               MEAS:   MUD FILTRATE SAMPLE SOURCE
 RMB .OHMM            .22:   RESISTIVITY MUD AT BHT
 BHT .F                80:   BOTTOM HOLE TEMPERATURE
 TCS .HRS               4:   TIME CURCULATED STOPPED
 MRT .F                80:   MAXIMUM RECORDED TEMPERATURE
 LUN .               2958:   LOGGING UNIT NUMBER
 LUL .               CASP:   LOGGING UNIT LOCATION
 ENGI.             MILLER:   RECORDING ENGINEER
 WITN.           MCGINLEY:   WITNESSED BY
 CLNT.            A2DTECH:   CLIENT CODE
 ORIG.      2" & 5" PRINT:   ORIGIN OF DATA
 UWI .       490251060400:   UNIQUE WELL ID
 DICO. A2D Technologies, Inc.:   DIGITIZING COMPANY
~OTHER INFORMATION
~A   DEPT      SPR         SN        ILD       CALD         GRD      CORR       RHOB       DPHI   
# ...
  802.5000   -41.7781     9.4047    12.4239     7.4635    86.6323     0.0030     2.4008     0.1386
  803.0000   -42.1875     9.1541    11.4485     7.4635    89.2181     0.0041     2.3991     0.1388
  803.5000   -42.5956     9.0019    11.1077     7.4635    90.8765     0.0052     2.3977     0.1394
  804.0000   -43.1625     8.8526    10.7552     7.4635    92.5178     0.0064     2.3982     0.1370
  804.5000   -44.3543     8.7057    10.4140     7.4635    92.7692     0.0087     2.4028     0.1305
  805.0000   -45.5367     8.4368    10.0562     7.4635    92.9309     0.0073     2.4165     0.1223
  805.5000   -46.8440     8.1466     9.6071     7.4635    92.1499     0.0052     2.4308     0.1142
  806.0000   -48.5752     7.8679     9.0871     7.4635    91.3153     0.0030     2.4452     0.1094
  806.5000   -49.9337     7.5987     8.2182     7.4635    94.7741     0.0009     2.4498     0.1051
  807.0000   -50.5806     7.2740     7.4544     7.4635   100.4542    -0.0011     2.4560     0.1012
  807.5000   -51.2392     6.9158     6.8660     7.4635   105.9741    -0.0021     2.4621     0.0986
  808.0000   -51.9088     6.5753     6.3240     7.4635   109.9112    -0.0030     2.4707     0.1004
  808.5000   -52.1978     6.1661     5.8339     7.4635   109.6640    -0.0039     2.4687     0.1024
  809.0000   -52.3800     6.1753     5.7224     7.4635   109.9649    -0.0049     2.4663     0.1031
  809.5000   -52.3732     6.1921     5.6048     7.4635   111.2730    -0.0058     2.4655     0.1006
  810.0000   -52.1946     6.2105     5.5708     7.4635   110.9336    -0.0067     2.4695     0.0981
  810.5000   -52.0160     6.2284     5.6221     7.4635   110.1993    -0.0077     2.4725     0.0994
  811.0000   -51.8361     6.2462     5.6617     7.4635   109.4607    -0.0086     2.4682     0.1011
  811.5000   -51.6739     6.2640     5.7017     7.4635   108.7153    -0.0095     2.4602     0.1015
  812.0000   -51.7043     6.2808     5.7419     7.4635   108.4389    -0.0105     2.4628     0.1014
  812.5000   -51.7382     6.2649     5.7804     7.4635   108.5831    -0.0114     2.4647     0.1053
  813.0000   -51.7712     6.2498     5.7995     7.4635   108.7600    -0.0123     2.4594     0.1091
  813.5000   -51.8042     6.2348     5.8178     7.4635   108.4632    -0.0133     2.4530     0.1130
  814.0000   -51.8374     6.2230     5.8361     7.4635   107.8429    -0.0142     2.4467     0.1162
  814.5000   -51.8677     6.2318     5.8546     7.4635   107.4533    -0.0149     2.4413     0.1134
  815.0000   -51.8331     6.2425     5.8730     7.4635   108.4593    -0.0137     2.4428     0.1084
  815.5000   -51.7961     6.2531     5.8916     7.4635   109.5572    -0.0125     2.4523     0.1050
  816.0000   -51.7595     6.2645     5.9102     7.4635   110.6546    -0.0114     2.4595     0.1121
  816.5000   -51.7235     6.2748     5.9288     7.4635   111.6091    -0.0103     2.4529     0.1077
  817.0000   -51.6870     6.3392     5.9475     7.4635   111.2089    -0.0091     2.4557     0.1046
  817.5000   -51.7361     6.3114     5.9663     7.4635   109.5881    -0.0095     2.4615     0.1050
  818.0000   -51.8511     6.2827     5.9851     7.4635   108.4279    -0.0113     2.4604     0.1097
  818.5000   -51.9665     6.2540     5.9977     7.4635   109.0538    -0.0128     2.4523     0.1134
  819.0000   -52.0827     6.2255     5.8819     7.4635   108.8826    -0.0094     2.4440     0.1089
  819.5000   -52.1984     6.1972     5.7966     7.4635   108.1064    -0.0060     2.4525     0.1047
  820.0000   -52.3144     6.1689     5.7124     7.4635   107.8081    -0.0025     2.4630     0.1005
  820.5000   -52.4368     6.1408     5.6295     7.4635   107.9568     0.0009     2.4732     0.0963
  821.0000   -52.3556     6.1094     5.5704     7.4635   107.7394     0.0043     2.4742     0.0920
  821.5000   -52.1978     6.1164     5.5387     7.4634   107.5346     0.0049     2.4818     0.0886
  822.0000   -52.0376     6.1267     5.5026     7.4640   107.4589     0.0029     2.4860     0.0901
  822.5000   -51.8776     6.1371     5.4684     7.4846   108.7199     0.0097     2.4781     0.0834
  823.0000   -51.7175     6.1475     5.4683     7.5066   111.6950     0.0172     2.4960     0.0740
  823.5000   -51.5573     6.1579     5.6255     7.5283   114.3501     0.0189     2.5158     0.0646
  824.0000   -51.3988     6.1999     5.7553     7.5423   114.2685     0.0149     2.5356     0.0602
  824.5000   -51.2748     6.3543     5.8351     7.5379   109.7707     0.0003     2.5273     0.0803
  825.0000   -51.3131     6.5124     5.8339     7.5340   106.2708    -0.0134     2.5069     0.0899
  825.5000   -51.3475     6.5775     5.8339     7.5300   102.7990    -0.0077     2.4844     0.0970
  826.0000   -51.3813     6.5776     5.8888     7.5262   100.2442     0.0005     2.4801     0.0982
  826.5000   -51.4154     6.5776     5.9837     7.5242   101.4765     0.0039     2.4709     0.0899
  827.0000   -51.4489     6.5775     6.0802     7.5286   103.9402    -0.0003     2.4872     0.0890
  827.5000   -51.4517     6.5917     6.1780     7.5329   106.2235    -0.0044     2.4853     0.0914
  828.0000   -51.3925     6.6320     6.2237     7.5372   106.6516    -0.0085     2.4805     0.0946
  828.5000   -51.3333     6.6727     6.2280     7.5414   106.6821    -0.0098     2.4794     0.0923
  829.0000   -51.2765     6.7001     6.2347     7.5358   106.7238    -0.0047     2.4836     0.0934
  829.5000   -51.4452     6.6825     6.2414     7.5179   106.7641    -0.0090     2.4827     0.1006
  830.0000   -51.6355     6.6692     6.2480     7.5034   106.8056    -0.0042     2.4664     0.0985
  830.5000   -51.8252     6.6560     6.2546     7.5245   106.8540     0.0018     2.4715     0.0949
  831.0000   -52.0151     6.6428     6.2613     7.5438   106.5801     0.0072     2.4802     0.0922
  831.5000   -52.2108     6.6296     6.2680     7.5434   106.2346     0.0073     2.4830     0.0918
  832.0000   -52.3590     6.6164     6.2746     7.5437   105.8910     0.0077     2.4823     0.0930
  832.5000   -52.4082     6.6033     6.2810     7.5440   105.6524     0.0080     2.4806     0.0951
  833.0000   -52.1290     6.5902     6.2494     7.5443   106.0223     0.0083     2.4790     0.0970
  833.5000   -51.8695     6.5775     6.2008     7.5446   106.6396     0.0087     2.4750     0.0966
  834.0000   -52.0047     6.5307     6.1526     7.5449   106.0625     0.0090     2.4701     0.0957
  834.5000   -51.9564     6.4565     6.1048     7.5452   105.4625     0.0094     2.4762     0.0942
  835.0000   -51.6886     6.3832     6.0574     7.5455   105.4507     0.0097     2.4792     0.0981
  835.5000   -51.4275     6.3107     6.0103     7.5458   105.4399     0.0100     2.4697     0.1018
  836.0000   -51.2373     6.2390     5.9636     7.5461   106.3699     0.0104     2.4643     0.1002
  836.5000   -51.0707     6.1661     5.9173     7.5464   108.0292     0.0107     2.4666     0.0952
  837.0000   -51.0963     6.1979     5.8901     7.5467   108.6791     0.0103     2.4718     0.0902
  837.5000   -51.1169     6.2309     5.9131     7.5470   107.2381     0.0064     2.4823     0.0922
  838.0000   -51.1368     6.2641     5.9315     7.5473   105.5329     0.0027     2.4845     0.0922
  838.5000   -51.1569     6.2975     5.9500     7.5476   103.7979    -0.0011     2.4833     0.0953
  839.0000   -51.1770     6.3310     5.9686     7.5479   103.0718    -0.0049     2.4789     0.0984
  839.5000   -51.1972     6.3647     5.9872     7.5482   103.6516    -0.0047     2.4651     0.0973
  840.0000   -51.2173     6.3987     6.0059     7.5485   106.0456    -0.0044     2.4719     0.0926
  840.5000   -51.2371     6.4329     6.0246     7.5488   108.4719    -0.0041     2.4787     0.0944
  841.0000   -51.2561     6.4576     6.0434     7.5491   109.6539    -0.0038     2.4804     0.0947
  841.5000   -51.2787     6.4803     6.0533     7.5494   108.4325    -0.0035     2.4781     0.0934
  842.0000   -51.4394     6.5013     6.0645     7.5497   106.7788    -0.0032     2.4785     0.0916
  842.5000   -51.5986     6.5225     6.0749     7.5500   105.1012    -0.0030     2.4871     0.0882
