~VERSION INFORMATION
 VERS.                2.0:   CWLS LOG ASCII STANDARD - VERSION 2.0
 WRAP.                 NO:   ONE LINE PER DEPTH STEP
~WELL INFORMATION
#MNEM.UNIT      DATA TYPE    INFORMATION
#----------   ------------   ------------------------------
 STRT.F          936.5000:   START DEPTH
 STOP.F         2325.5000:   STOP DEPTH
 STEP.F            0.5000:   STEP LENGTH
 NULL.          -999.2500:   NO VALUE
 COMP. LAWRENCE/ALLISON INC:   COMPANY
 WELL.  NPR 3 #45-1-SHX-3:   WELL
 FLD .             TEAPOT:   FIELD
 LOC .       S3 T38N R78W:   LOCATION
 CNTY.            NATRONA:   COUNTY
 STAT.            WYOMING:   STATE
 CTRY. UNITED STATES OF AMERICA:   COUNTRY
 SRVC.            Unknown:   SERVICE COMPANY
 DATE.        10-OCT-1991:   LOGDATE
 API .       490251092300:   API NUMBER
~CURVE INFORMATION
#MNEM.UNIT       API CODE    CURVE DESCRIPTION
#----------   ------------   ------------------------------
 DEPT.F                  :   
 TGAS.UNITS  91 830 01 00:   TOTAL GAS FROM HOTWIRE
 ROP .MIN/FT 91 810 01 00:   RATE OF DRILLING PENETRATION
~PARAMETER INFORMATION
#MNEM.UNIT          VALUE    DESCRIPTION
#----------   ------------   ------------------------------
 EKB .F              5199:   KELLING BUSHING
 EGL .F              5189:   GROUND LEVEL
 DATE.           10-10-91:   RUN DATE
 DD  .F              2325:   DEPTH DRILLER
 BLI .F              2324:   BOTTOM LOG INTERVAL
 TLI .F              1920:   TOP LOG INTERVAL
 CS  .IN            9.625:   CASING SIZE
 CBD .F               498:   CASING BOTTOM DRILLER
 ENGI.               HUSK:   RECORDING ENGINEER
 WITN.              TOWER:   WITNESSED BY
 CLNT.            A2DTECH:   CLIENT CODE
 ORIG.           5" PRINT:   ORIGIN OF DATA
 UWI .       490251092300:   UNIQUE WELL ID
 DICO. A2D Technologies, Inc.:   DIGITIZING COMPANY
~OTHER INFORMATION
~A   DEPT     TGAS          ROP 
# ...
 2030.0000   255.3876     0.4493
 2030.5000   255.6865     0.4704
 2031.0000   256.0125     0.4708
 2031.5000   256.3623     0.4609
 2032.0000   256.6623     0.4613
 2032.5000   256.9622     0.4618
 2033.0000   257.2372     0.4829
 2033.5000   267.8376     0.5143
 2034.0000   268.1845     0.5665
 2034.5000   268.4594     0.6187
 2035.0000   268.7643     0.6812
 2035.5000   269.0842     0.7341
 2036.0000   269.4092     0.8063
 2036.5000   269.7090     0.8895
 2037.0000   270.0090     0.9417
 2037.5000   270.3089     0.9731
 2038.0000   270.6588     0.9425
 2038.5000   270.9338     0.9429
 2039.0000   260.9382     0.9433
 2039.5000   261.2471     0.9554
 2040.0000   261.6110     0.9959
 2040.5000   261.9110     1.0584
 2041.0000   262.2109     1.1106
 2041.5000   262.5108     1.1524
 2042.0000   262.8357     1.1735
 2042.5000   252.8032     1.1325
 2043.0000   253.1131     1.0699
 2043.5000   253.4211     1.0092
 2044.0000   253.7880     0.9785
 2044.5000   254.0879     0.9686
 2045.0000   244.0404     0.9793
 2045.5000   244.3902     0.9797
 2046.0000   244.6902     0.9698
 2046.5000   234.6796     0.9490
 2047.0000   224.6951     0.9086
 2047.5000   214.6975     0.8676
 2048.0000   215.0724     0.8162
 2048.5000   215.3724     0.7752
 2049.0000   215.6723     0.7238
 2049.5000   215.9722     0.6621
 2050.0000   205.8996     0.6315
 2050.5000   206.2746     0.5905
 2051.0000   206.5745     0.5702
 2051.5000   206.8764     0.5292
 2052.0000   196.8768     0.4985
 2052.5000   207.5493     0.4758
 2053.0000   207.8492     0.4372
 2053.5000   208.1492     0.4067
 2054.0000   208.4741     0.3966
 2054.5000   208.7489     0.4489
 2055.0000   209.0739     0.4907
 2055.5000   219.6463     0.4911
 2056.0000   219.9543     0.4915
 2056.5000   220.3211     0.4919
 2057.0000   220.6211     0.4923
 2057.5000   231.2185     0.4928
 2058.0000   231.5183     0.5161
 2058.5000   231.8183     0.6179
 2059.0000   232.1183     0.6804
 2059.5000   232.4182     0.6187
 2060.0000   261.6733     0.5363
 2060.5000   262.3766     0.4642
 2061.0000   263.0799     0.4439
 2061.5000   263.7829     0.4235
 2062.0000   264.4862     0.4240
 2062.5000   265.1895     0.4244
 2063.0000   265.8928     0.4248
 2063.5000   266.6017     0.4470
 2064.0000   267.3226     0.4775
 2064.5000   268.1783     0.4883
 2065.0000   268.8816     0.4059
 2065.5000   269.4850     0.3752
 2066.0000   270.2879     0.3860
 2066.5000   270.9912     0.4485
 2067.0000   271.6945     0.5006
 2067.5000   272.3978     0.5321
 2068.0000   273.1011     0.5429
 2068.5000   263.5066     0.5329
 2069.0000   264.2335     0.4910
 2069.5000   254.6157     0.4613
 2070.0000   255.4946     0.4410
 2070.5000   256.1979     0.4415
 2071.0000   246.6038     0.4315
 2071.5000   247.3071     0.4319
 2072.0000   248.0104     0.4634
 2072.5000   248.7137     0.4845
 2073.0000   239.1076     0.5367
 2073.5000   239.8285     0.5992
 2074.0000   240.5494     0.6306
 2074.5000   230.9316     0.6414
 2075.0000   231.8105     0.6418
 2075.5000   232.5138     0.6423
 2076.0000   233.2171     0.6427
 2076.5000   233.9789     0.6535
 2077.0000   234.6234     0.6435
 2077.5000   235.3852     0.6439
 2078.0000   236.0300     0.6340
 2078.5000   236.7393     0.6033
 2079.0000   237.4599     0.5623
 2079.5000   238.3155     0.5110
 2080.0000   239.0188     0.4700
 2080.5000   239.7221     0.4497
 2081.0000   240.4254     0.4709
 2081.5000   241.1284     0.5127
 2082.0000   241.8317     0.5545
 2082.5000   242.5350     0.5963
 2083.0000   253.5358     0.6071
 2083.5000   243.9417     0.6178
 2084.0000   244.6682     0.6285
 2084.5000   245.5238     0.6083
 2085.0000   246.2271     0.6087
 2085.5000   246.9305     0.6091
 2086.0000   247.6334     0.6199
 2086.5000   248.3367     0.6307
 2087.0000   249.0400     0.6518
 2087.5000   249.7433     0.6936
 2088.0000   250.4467     0.7562
 2088.5000   251.1556     0.7773
 2089.0000   251.9115     0.7259
 2089.5000   252.7321     0.6746
 2090.0000   253.4351     0.6439
 2090.5000   254.1384     0.6857
 2091.0000   254.9003     0.7492
 2091.5000   255.5450     0.8253
 2092.0000   256.2484     0.9044
 2092.5000   246.6542     0.9669
 2093.0000   247.3571     0.9259
 2093.5000   258.3639     0.7607
 2094.0000   259.0848     0.6886
 2094.5000   249.4671     0.6786
 2095.0000   250.3459     0.6895
 2095.5000   251.0493     0.7002
 2096.0000   251.7526     0.7006
 2096.5000   262.7534     0.7010
 2097.0000   263.4563     0.6587
 2097.5000   264.1596     0.6191
 2098.0000   264.8629     0.6091
 2098.5000   265.5722     0.5991
 2099.0000   266.2696     0.6203
 2099.5000   264.4016     0.6829
 2100.0000   262.5919     0.7350
 2100.5000   260.7823     0.7763
 2101.0000   258.9726     0.7658
 2101.5000   257.1629     0.7243
 2102.0000   255.3533     0.6518
 2102.5000   253.5436     0.6310
 2103.0000   251.7339     0.6516
 2103.5000   249.9243     0.6618
 2104.0000   248.1146     0.6720
 2104.5000   246.3049     0.6719
 2105.0000   244.4953     0.6201
 2105.5000   242.6856     0.5682
 2106.0000   240.8759     0.5060
 2106.5000   239.0663     0.4645
 2107.0000   237.2566     0.4534
 2107.5000   235.4469     0.4229
 2108.0000   233.6373     0.3917
 2108.5000   231.8276     0.3709
 2109.0000   230.0179     0.4019
 2109.5000   228.2083     0.4432
 2110.0000   226.3986     0.4845
 2110.5000   224.5889     0.5051
 2111.0000   222.7793     0.5050
 2111.5000   220.9696     0.5049
 2112.0000   231.1156     0.4944
 2112.5000   231.7185     0.4632
 2113.0000   242.6188     0.4114
 2113.5000   243.2265     0.4009
 2114.0000   243.8444     0.4215
 2114.5000   244.4623     0.4628
 2115.0000   245.0800     0.4938
 2115.5000   245.6980     0.5247
 2116.0000   246.3860     0.4936
 2116.5000   246.9387     0.4417
 2117.0000   246.8135     0.4105
 2117.5000   246.3242     0.4104
 2118.0000   245.8349     0.4207
 2118.5000   245.3456     0.4310
 2119.0000   244.8563     0.4311
 2119.5000   244.3670     0.4411
 2120.0000   243.8776     0.4099
 2120.5000   243.3883     0.3684
 2121.0000   242.8990     0.3373
 2121.5000   242.4097     0.3268
 2122.0000   241.9204     0.3164
 2122.5000   241.4311     0.3162
 2123.0000   240.9418     0.3472
 2123.5000   240.4525     0.3692
 2124.0000   239.9632     0.3988
 2124.5000   239.4738     0.4194
 2125.0000   238.9845     0.4296
 2125.5000   238.4952     0.4295
 2126.0000   238.0059     0.4190
 2126.5000   237.5166     0.3775
 2127.0000   237.0273     0.3671
 2127.5000   236.5380     0.3682
 2128.0000   236.0487     0.4083
 2128.5000   235.5594     0.4496
 2129.0000   235.0701     0.4806
 2129.5000   234.5807     0.5115
 2130.0000   234.0914     0.5321
 2130.5000   233.6021     0.5527
 2131.0000   233.1128     0.5733
 2131.5000   232.6235     0.6042
 2132.0000   232.1342     0.6455
 2132.5000   231.6449     0.6972
 2133.0000   231.1556     0.7799
 2133.5000   230.6663     0.9040
 2134.0000   230.1770     0.9557
 2134.5000   229.6877     0.8417
 2135.0000   229.1983     0.7692
 2135.5000   228.7090     0.7380
 2136.0000   228.2197     0.7275
 2136.5000   227.7304     0.7378
 2137.0000   227.2411     0.7377
 2137.5000   226.7518     0.7272
 2138.0000   226.2625     0.7064
 2138.5000   225.7732     0.6131
 2139.0000   225.2839     0.5302
 2139.5000   224.7945     0.4680
 2140.0000   224.3848     0.4368
 2140.5000   225.1031     0.4160
 2141.0000   225.7209     0.4159
 2141.5000   226.3388     0.4055
 2142.0000   226.9566     0.4054
 2142.5000   227.5745     0.4053
 2143.0000   228.1923     0.3948
 2143.5000   228.8102     0.3947
 2144.0000   229.4280     0.3946
 2144.5000   230.0459     0.3945
 2145.0000   230.6637     0.3944
 2145.5000   231.2815     0.3943
 2146.0000   231.8994     0.4045
 2146.5000   232.5172     0.4355
 2147.0000   233.1351     0.4872
 2147.5000   233.7529     0.5393
 2148.0000   234.3708     0.5941
 2148.5000   234.9886     0.6525
 2149.0000   235.6064     0.6627
 2149.5000   236.2243     0.6316
 2150.0000   236.8421     0.5661
 2150.5000   236.9787     0.4871
 2151.0000   236.6568     0.4876
