~VERSION INFORMATION
 VERS.                2.0:   CWLS LOG ASCII STANDARD - VERSION 2.0
 WRAP.                 NO:   ONE LINE PER DEPTH STEP
~WELL INFORMATION
#MNEM.UNIT      DATA TYPE    INFORMATION
#----------   ------------   ------------------------------
 STRT.F           35.0000:   START DEPTH
 STOP.F          484.0000:   STOP DEPTH
 STEP.F            0.5000:   STEP LENGTH
 NULL.          -999.2500:   NO VALUE
 COMP. LAWRENCE/ALLISON INC:   COMPANY
 WELL.     73-1 STX #1-10:   WELL
 FLD .              NPR-3:   FIELD
 LOC .      S10 T38N R78W:   LOCATION
 CNTY.            NATRONA:   COUNTY
 STAT.            WYOMING:   STATE
 CTRY. UNITED STATES OF AMERICA:   COUNTRY
 SRVC.              Welex:   SERVICE COMPANY
 DATE.        04-APR-1977:   LOGDATE
 API .       490251032400:   API NUMBER
~CURVE INFORMATION
#MNEM.UNIT       API CODE    CURVE DESCRIPTION
#----------   ------------   ------------------------------
 DEPT.F                  :   
 CALD.IN     45 280 60 00:   CALIPER
 GRD .GAPI   45 310 01 00:   GAMMA RAY FROM DENSITY LOG
 RHOB.G/C3   45 350 01 00:   BULK DENSITY
 DPHI.DEC    45 890 12 00:   DENSITY POROSITY SANDSTONE
 CORR.G/C3   45 356 01 00:   DENSITY CORRECTION
 SPR .MV     07 010 01 00:   SPONTANEOUS POTENTIAL
 SGRD.OHMM   07 220 05 00:   SHALLOW RESISTIVITY
 ILD .OHMM   07 120 46 00:   INDUCTION LOG DEEP
 ILM .OHMM   07 120 44 00:   INDUCTION LOG MEDIUM
~PARAMETER INFORMATION
#MNEM.UNIT          VALUE    DESCRIPTION
#----------   ------------   ------------------------------
 PD  .                 GL:   PERMANENT DATUM
 EPD .F              5170:   ELEVATION PERMANENT DATUM
 LMF .                 GL:   LOG MEASURED FROM
 DMF .                 GL:   DRILLING MEASURED FROM
 EGL .F              5170:   GROUND LEVEL
 DATE.             4-4-77:   RUN DATE
 RUN .                  1:   RUN NUMBER
 DD  .F               490:   DEPTH DRILLER
 DL  .F               487:   DEPTH LOGGER
 BLI .F               485:   BOTTOM LOG INTERVAL
 TLI .F                35:   TOP LOG INTERVAL
 CS  .IN            8.625:   CASING SIZE
 CBD .F                42:   CASING BOTTOM DRILLER
 CBL .F                42:   CASING BOTTOM LOGGER
 BS  .IN            7.875:   BIT SIZE
 BSD .F               490:   BIT SIZE AT DEPTH
 DFT .            KCL MUD:   DRILLING FLUID TYPE
 DFD .                8.4:   DRILLING FLUID DENSITY
 DFV .                 32:   DRILLING FLUID VISCOSITY
 DFPH.                8.5:   DRILLING FLUID PH
 DFL .                 17:   DRILLING FLUID LOSS
 RMS .OHMM            .48:   RESISTIVITY MUD SAMPLE
 MST .F                48:   MUD SAMPLE TEMPERATURE
 RMF .OHMM            .44:   RESISTIVITY MUD FILTRATE SAMPLE
 MFST.F                48:   MUD FILTRATE SAMPLE TEMPERATURE
 RMC .OHMM            .62:   RESISTIVITY MUD CAKE
 MCST.F                48:   MUD CAKE SAMPLE TEMPERATURE
 MFSS.          FANN TEST:   MUD FILTRATE SAMPLE SOURCE
 MCSS.          FANN TEST:   MUD CAKE SAMPLE SOURCE
 BHT .F                58:   BOTTOM HOLE TEMPERATURE
 TCS .HRS               2:   TIME CURCULATED STOPPED
 MRT .F                58:   MAXIMUM RECORDED TEMPERATURE
 LUN .               8611:   LOGGING UNIT NUMBER
 LUL .           GILLETTE:   LOGGING UNIT LOCATION
 ENGI.               DOAK:   RECORDING ENGINEER
 WITN.      B. HARRINGTON:   WITNESSED BY
 CLNT.            A2DTECH:   CLIENT CODE
 ORIG.        2" 5" PRINT:   ORIGIN OF DATA
 UWI .       490251032400:   UNIQUE WELL ID
 DICO. A2D Technologies, Inc.:   DIGITIZING COMPANY
~OTHER INFORMATION
~A   DEPT     CALD        GRD       RHOB       DPHI       CORR        SPR       SGRD        ILD        ILM   
# ...
  108.0000     8.1123   100.7956     2.4832     0.0975     0.0213   -48.9546    13.7149     7.8625     9.0634
  108.5000     8.1133   100.9314     2.4783     0.1028     0.0263   -49.0632    13.6103     7.8196     9.0343
  109.0000     8.1144   101.7174     2.4834     0.0974     0.0313   -49.1693    13.4550     7.7770     8.9850
  109.5000     8.1156   102.4744     2.4881     0.0928     0.0363   -49.2756    13.3014     7.7346     8.9354
  110.0000     8.1170   103.2292     2.4792     0.0996     0.0395   -49.3854    13.1496     7.6924     8.8998
  110.5000     8.1153   104.0215     2.4697     0.1054     0.0395   -49.2072    12.9995     7.6505     9.1283
  111.0000     8.0681   102.9618     2.4583     0.1111     0.0370   -48.8996    12.8594     7.6111     9.3546
  111.5000     8.0225   101.3544     2.4465     0.1169     0.0330   -48.5930    12.8594     7.5430     9.6719
  112.0000     7.9772    99.9122     2.4298     0.1248     0.0232   -48.4605    13.7313     7.5400     9.6221
  112.5000     7.9319    99.8818     2.4081     0.1414     0.0098   -48.6007    14.0988     7.5413     9.3208
  113.0000     7.8871   100.3675     2.3858     0.1579    -0.0037   -48.7390    12.5093     7.5416     9.3351
  113.5000     7.8422   101.0323     2.3686     0.1656    -0.0153   -48.8790    12.8139     7.5414     9.3666
  114.0000     7.8618   101.6587     2.3743     0.1618    -0.0171   -49.0190    13.5847     7.5414     9.4050
  114.5000     7.9466   102.2177     2.3793     0.1580    -0.0192   -49.1588    13.5165     7.4509     9.3742
  115.0000     8.0319   102.7695     2.3843     0.1535    -0.0225   -49.2986    13.3440     7.3122     9.3265
  115.5000     8.0803   103.3213     2.3832     0.1565    -0.0273   -49.4384    13.0709     7.1761     9.0219
  116.0000     8.0775   103.8736     2.3736     0.1634    -0.0321   -49.5782    12.8032     7.0426     8.6806
  116.5000     8.0774   104.4276     2.3640     0.1703    -0.0369   -49.7180    12.5415     6.9116     8.3521
  117.0000     8.0776   104.6873     2.3543     0.1811    -0.0417   -49.8579    11.9620     6.7830     8.0362
  117.5000     8.0775   104.2244     2.3458     0.1775    -0.0439   -49.9972    11.0182     6.6566     7.6815
  118.0000     8.0775   102.3995     2.3612     0.1692    -0.0422   -50.1373    10.1491     6.5326     7.7616
  118.5000     8.0775   100.5765     2.3802     0.1609    -0.0361   -50.1667     9.0651     6.3903     7.8906
  119.0000     8.0775   100.1824     2.3990     0.1527    -0.0299   -50.1103     9.7293     6.4226     8.0217
  119.5000     8.0775   101.4172     2.4112     0.1420    -0.0255   -50.0534    11.8374     6.4757     8.1550
  120.0000     8.0775   103.0820     2.3996     0.1455    -0.0232   -49.9958    11.7527     6.5288     8.2905
  120.5000     8.0775   102.7164     2.3887     0.1534    -0.0209   -49.9384    11.6503     6.5823     8.4283
  121.0000     8.0775   101.6046     2.3881     0.1567    -0.0186   -49.8811    11.5489     6.6362     8.5684
  121.5000     8.0775   100.4834     2.3890     0.1551    -0.0163   -49.8237    11.4228     6.6906     8.7375
  122.0000     8.0775   100.2585     2.3890     0.1482    -0.0103   -49.7664    11.5115     6.7455     8.6329
  122.5000     8.0775   101.5840     2.4039     0.1417    -0.0042   -49.7090    11.6802     6.8007     8.5060
  123.0000     8.0775   102.3585     2.4233     0.1352    -0.0025   -49.6517    11.8518     6.8565     8.3809
  123.5000     8.0775   101.7222     2.4244     0.1345    -0.0025   -49.5943    12.0573     6.9127     8.2577
  124.0000     8.0775   101.3488     2.4244     0.1365    -0.0025   -49.5370    11.8364     6.9693     8.1363
  124.5000     8.0775   101.5896     2.4269     0.1354    -0.0024   -49.4797    11.5152     7.0265     7.9801
  125.0000     8.0775   101.8111     2.4392     0.1266     0.0052   -49.4223    11.8374     7.0840     8.0326
  125.5000     8.0775   102.0263     2.4491     0.1177     0.0093   -49.3650    12.1687     7.1421     8.1386
  126.0000     8.0775   102.6745     2.4589     0.1106     0.0134   -49.3076    11.8796     7.2007     8.2683
  126.5000     8.0775   103.4909     2.4687     0.1072     0.0155   -49.2503    13.0983     7.2597     8.2348
  127.0000     8.0775   104.3107     2.4723     0.1038     0.0155   -49.1929    12.9463     7.3191     8.1937
  127.5000     8.0775   105.1277     2.4702     0.1023     0.0155   -49.1356    12.7416     7.4039     8.3307
  128.0000     8.0775   105.7093     2.4673     0.1078     0.0154   -49.0783    12.7416     7.3919     8.4986
  128.5000     8.0775   105.0286     2.4498     0.1212     0.0102   -49.0184    12.7416     7.3611     8.4135
  129.0000     8.0775   104.2757     2.4242     0.1362     0.0007   -49.0191    12.6771     7.3305     8.3027
  129.5000     8.0775   103.5159     2.3985     0.1541    -0.0121   -49.0433    12.3326     7.2999     8.1945
  130.0000     8.0775   102.1717     2.3723     0.1688    -0.0164   -49.0683    11.9975     7.2695     8.0877
  130.5000     8.0775   100.3058     2.3665     0.1655    -0.0204   -49.0932    11.7002     7.2392     7.9823
  131.0000     8.0775    98.3867     2.3755     0.1611    -0.0216   -49.1180    11.5402     7.2091     7.8965
  131.5000     8.0775    98.4932     2.3847     0.1567    -0.0212   -49.1429    11.3823     7.1791     7.8965
  132.0000     8.0775    99.3156     2.3944     0.1494    -0.0123   -49.1678    11.2266     7.1492     7.8965
  132.5000     8.0775   100.1033     2.4166     0.1367    -0.0034   -49.1918    11.0990     7.1364     7.8965
  133.0000     8.0775   100.8862     2.4402     0.1240     0.0055   -49.2653    11.6153     7.1364     7.9680
  133.5000     8.0775   101.6705     2.4477     0.1172     0.0107   -49.3644    12.0755     7.1364     8.0951
  134.0000     8.0775   102.4560     2.4433     0.1219     0.0150   -49.4638    12.2812     7.1364     8.2243
  134.5000     8.0775   103.2555     2.4458     0.1191     0.0192   -49.5633    12.2355     7.1364     8.3555
  135.0000     8.0775   104.0518     2.4531     0.1143     0.0235   -49.6627    11.9579     7.1364     8.4889
  135.5000     8.0775   102.3090     2.4605     0.1094     0.0277   -49.7621    11.7290     7.1364     8.6575
  136.0000     8.0775   100.2992     2.4680     0.1044     0.0278   -49.8615    11.7949     7.1363     8.6477
  136.5000     8.0775    98.5148     2.4676     0.1057     0.0253   -49.9609    11.8520     7.1362     8.6347
  137.0000     8.0775    98.4942     2.4657     0.1071     0.0226   -50.0602    11.9388     7.1099     8.6217
  137.5000     8.0775    98.8688     2.4733     0.1022     0.0277   -50.1603    11.9125     7.0623     8.6087
  138.0000     8.0775    99.5999     2.4814     0.0932     0.0371   -50.1992    11.8135     7.0150     8.5957
  138.5000     8.0775   100.3308     2.4838     0.0962     0.0335   -50.1998    11.6897     6.9680     8.5828
  139.0000     8.0775   100.8645     2.4823     0.0992     0.0295   -50.1995    11.4244     6.9214     8.5699
  139.5000     8.0775   101.1918     2.4808     0.0996     0.0284   -50.2000    11.0990     6.8750     8.5570
  140.0000     8.0775   101.9979     2.4794     0.0982     0.0276   -50.2114    11.1495     6.8290     8.5440
  140.5000     8.0775   103.0064     2.4792     0.0972     0.0300   -49.8312    11.2185     6.7832     8.5313
  141.0000     8.0775   104.2393     2.4823     0.1063     0.0326   -49.3625    11.3046     6.7097     8.5184
  141.5000     8.0775   106.2336     2.4791     0.1152     0.0279   -48.8846    10.9821     6.5826     8.5056
  142.0000     8.0775   108.1872     2.4581     0.1229     0.0192   -48.4266    10.6989     6.4578     8.3510
  142.5000     8.0775   110.1418     2.4377     0.1267     0.0105   -48.8104    11.3052     6.3355     8.0791
  143.0000     8.0775   110.4942     2.4299     0.1305     0.0040   -49.2709    11.0668     6.2154     7.8161
  143.5000     8.0775   103.9401     2.4245     0.1343    -0.0028   -49.7483    10.7481     6.0977     7.5616
  144.0000     8.0775   101.5713     2.4190     0.1380    -0.0095   -50.2265    10.3475     5.9821     7.3154
