~VERSION INFORMATION
 VERS.                2.0:   CWLS LOG ASCII STANDARD - VERSION 2.0
 WRAP.                 NO:   ONE LINE PER DEPTH STEP
~WELL INFORMATION
#MNEM.UNIT      DATA TYPE    INFORMATION
#----------   ------------   ------------------------------
 STRT.F          100.0000:   START DEPTH
 STOP.F          780.0000:   STOP DEPTH
 STEP.F            0.5000:   STEP LENGTH
 NULL.          -999.2500:   NO VALUE
 COMP. U S NAVY-INTEX OIL:   COMPANY
 WELL.        NPR #34-S-2:   WELL
 FLD .             TEAPOT:   FIELD
 LOC .       S2 T38N R78W:   LOCATION
 CNTY.            NATRONA:   COUNTY
 STAT.            WYOMING:   STATE
 CTRY. UNITED STATES OF AMERICA:   COUNTRY
 SRVC.       Schlumberger:   SERVICE COMPANY
 DATE.        16-JUL-1962:   LOGDATE
 API .       490250644000:   API NUMBER
~CURVE INFORMATION
#MNEM.UNIT       API CODE    CURVE DESCRIPTION
#----------   ------------   ------------------------------
 DEPT.F                  :   
 ASN .OHMM   05 041 16 00:   AMPLIFIED SHORT NORMAL 16"
 CILD.MMHO   05 110 46 00:   CONDUCTIVITY INDUCTION LOG DEEP
 ILD .OHMM   05 120 46 00:   INDUCTION LOG DEEP
 SPR .MV     05 010 01 00:   SPONTANEOUS POTENTIAL FROM RES.
 CALM.IN     15 280 01 00:   CALIPER FROM MICRO LOG
 GR  .GAPI   30 310 01 00:   GAMMA RAY
~PARAMETER INFORMATION
#MNEM.UNIT          VALUE    DESCRIPTION
#----------   ------------   ------------------------------
 LMF .                 KB:   LOG MEASURED FROM
 DMF .                 KB:   DRILLING MEASURED FROM
 EKB .F              5130:   KELLING BUSHING
 EGL .F              5125:   GROUND LEVEL
 DATE.        16-JUL-1962:   RUN DATE
 RUN .                  1:   RUN NUMBER
 DD  .F               780:   DEPTH DRILLER
 DL  .F               781:   DEPTH LOGGER
 BLI .F               780:   BOTTOM LOG INTERVAL
 TLI .F               100:   TOP LOG INTERVAL
 CBD .F                10:   CASING BOTTOM DRILLER
 BS  .IN             6.75:   BIT SIZE
 BSD .F               780:   BIT SIZE AT DEPTH
 DFT .       OIL EMULSION:   DRILLING FLUID TYPE
 DFD .               10.3:   DRILLING FLUID DENSITY
 DFV .                 43:   DRILLING FLUID VISCOSITY
 DFL .                4.6:   DRILLING FLUID LOSS
 RMS .OHMM              4:   RESISTIVITY MUD SAMPLE
 MST .F                82:   MUD SAMPLE TEMPERATURE
 RMF .OHMM            3.1:   RESISTIVITY MUD FILTRATE SAMPLE
 MFST.F                82:   MUD FILTRATE SAMPLE TEMPERATURE
 RMC .OHMM            4.3:   RESISTIVITY MUD CAKE
 MCST.F                82:   MUD CAKE SAMPLE TEMPERATURE
 TCS .HRS             0.5:   TIME CURCULATED STOPPED
 LUN .               2503:   LOGGING UNIT NUMBER
 LUL .               CSPR:   LOGGING UNIT LOCATION
 ENGI.           ELLERMAN:   RECORDING ENGINEER
 WITN.          JORGENSON:   WITNESSED BY
 CLNT.            A2DTECH:   CLIENT CODE
 ORIG.           5" PRINT:   ORIGIN OF DATA
 UWI .       490250644000:   UNIQUE WELL ID
 DICO. A2D Technologies, Inc.:   DIGITIZING COMPANY
~OTHER INFORMATION
~A   DEPT       ASN       CILD         ILD      SPR       CALM         GR   
# ...
  568.0000     6.4288   167.0584     6.5955   -45.8634     6.4979   126.0433
  568.5000     6.6684   158.7881     6.9013   -46.1519     6.4085   115.4797
  569.0000     6.9827   149.7693     7.2842   -46.2952     6.3639   123.1705
  569.5000     7.1476   140.7504     7.5777   -46.4367     6.3193   131.0118
  570.0000     7.2825   133.9771     7.6544   -46.4276     6.2746   143.3783
  570.5000     7.3128   131.6948     7.7644   -46.3812     6.2449   130.4055
  571.0000     7.2834   131.6581     7.8077   -46.1153     6.2152   135.8339
  571.5000     7.2839   133.1183     7.8092   -45.8104     6.2004   142.0164
  572.0000     7.2843   134.5877     7.7351   -45.5055     6.1857   159.5115
  572.5000     7.2531   137.5357     7.5547   -45.6473     6.1858   152.7227
  573.0000     7.1657   140.4930     7.3625   -46.2349     6.1860   165.0892
  573.5000     7.0167   145.6957     7.1243   -46.5252     6.2011   180.4720
  574.0000     6.8676   152.4543     6.9143   -46.5139     6.2311   170.0633
  574.5000     6.7186   160.7356     6.6902   -46.2128     6.2760   162.8220
  575.0000     6.5546   166.7911     6.4286   -45.8829     6.3508   161.9155
  575.5000     6.4205   174.7310     6.1614   -45.0060     6.4255   158.2574
  576.0000     6.2416   193.4068     5.9318   -45.4452     6.4555   147.1313
  576.5000     5.8684   204.5976     5.7191   -46.1819     6.4706   152.5593
  577.0000     5.7044   213.5428     5.5702   -46.6228     6.4857   141.0948
  577.5000     5.4956   217.2577     5.4961   -46.7643     6.5008   135.2113
  578.0000     5.3166   216.4633     5.4228   -46.3088     6.5009   147.7287
  578.5000     5.4068   214.9295     5.4242   -46.3015     6.5165   139.2804
  579.0000     5.5268   213.3957     5.5009   -46.2941     6.5310   146.9712
  579.5000     5.5422   211.1134     5.5776   -46.4375     6.5312   152.3996
  580.0000     5.7070   207.3341     5.7294   -46.7259     6.5314   146.9682
  580.5000     6.0523   194.5728     6.0317   -47.0164     6.5315   139.5761
  581.0000     6.4956   172.7907     6.4091   -47.3076     6.5167   145.6078
  581.5000     6.8194   159.2043     6.7113   -47.5969     6.5318   149.6027
  582.0000     6.9047   151.5769     7.0175   -47.4187     6.5170   154.6864
  582.5000     6.9799   145.7638     7.3233   -47.1340     6.5023   158.1372
  583.0000     7.0401   144.2300     7.4971   -46.8304     6.5024   166.7180
  583.5000     7.1004   143.4447     7.6198   -46.6729     6.4876   159.6272
  584.0000     7.1755   142.6594     7.6965   -46.6656     6.5027   164.1509
  584.5000     7.2507   141.8741     7.6980   -46.6592     6.5028   148.7645
  585.0000     7.3408   139.5918     7.6992   -46.7473     6.4881   155.3995
  585.5000     7.4310   138.0580     7.7008   -46.9431     6.4882   158.5654
  586.0000     7.4912   137.2728     7.7776   -47.0833     6.4884   164.1447
  586.5000     7.5066   136.4875     7.7791   -47.2261     6.4885   153.7359
  587.0000     7.5220   136.4507     7.7805   -47.3661     6.4887   159.7676
  587.5000     7.5212   138.6594     7.7820   -47.5074     6.5038   161.4253
  588.0000     7.4607   142.3651     7.7083   -47.6488     6.5039   166.5068
  588.5000     7.3590   143.8254     7.6346   -47.7903     6.5040   152.0709
  589.0000     7.2847   143.7874     7.6361   -47.9504     6.5042   141.8747
  589.5000     7.2402   143.7426     7.5952   -48.0733     6.5043   145.3614
  590.0000     7.2107   143.7058     7.4886   -48.0641     6.5045   174.2380
  590.5000     7.1814   142.9205     7.4149   -48.0568     6.5046   181.4764
  591.0000     7.1818   142.1353     7.3412   -48.0495     6.5048   177.4025
  591.5000     7.1972   142.0985     7.2675   -47.8934     6.5049   177.0993
  592.0000     7.1976   142.8194     7.1186   -47.8102     6.5051   166.5398
  592.5000     7.1831   145.7674     6.8197   -47.7300     6.5052   165.6333
  593.0000     7.1238   162.1977     6.4452   -47.5738     6.5054   159.9003
  593.5000     6.9595   176.3825     5.9204   -47.2689     6.5055   163.2171
  594.0000     6.5758   186.0763     5.6960   -46.9640     6.5057   149.4905
  594.5000     6.1535   193.5245     5.6226   -46.6590     6.5058   154.0135
  595.0000     5.7803   197.9787     5.6241   -46.6468     6.5060   164.4193
  595.5000     5.7501   200.9360     5.7008   -46.9420     6.5061   151.8759
  596.0000     5.5687   202.3962     5.7023   -47.2323     6.5063   142.6907
  596.5000     5.3780   203.8564     5.7038   -47.3738     6.4915   130.6068
  597.0000     5.6327   202.3134     5.6300   -47.3647     6.4767   111.7735
  597.5000     5.8872   200.7796     5.5563   -47.3574     6.4769   118.4085
  598.0000     6.0820   200.7429     5.4074   -47.5007     6.4621   122.1781
  598.5000     6.0077   205.9456     5.2585   -47.4916     6.4473   109.6574
  599.0000     5.6643   218.6334     5.1100   -47.4843     6.4475   105.8852
  599.5000     5.3658   228.3271     5.0359   -47.3281     6.4327   116.5926
  600.0000     4.9476   234.2876     4.9622   -47.1720     6.4179   123.0768
  600.5000     5.2172   232.7446     4.8884   -46.8671     6.4031   123.9807
  601.0000     5.3821   231.9593     4.9655   -46.2645     6.3735   117.0407
  601.5000     5.2330   231.1740     5.0421   -46.1084     6.3139   115.3801
  602.0000     5.1882   228.8917     5.2692   -46.3987     6.2692   134.9864
  602.5000     5.4193   212.2772     5.6516   -46.8378     6.2097   147.5038
  603.0000     6.0819   187.1257     6.1072   -46.8304     6.1651   148.7089
  603.5000     6.3357   161.6767     6.6112   -46.5253     6.1205   146.7466
  604.0000     6.4550   151.1976     6.9865   -45.9463     6.0907   151.1078
  604.5000     6.5593   147.4551     7.0609   -45.4955     6.0916   155.3409
  605.0000     6.6188   146.7066     7.1354   -45.1835     6.4508   147.0435
  605.5000     6.6784   152.6946     7.0594   -44.8705     6.5556   141.4613
  606.0000     6.7378   166.1677     6.8329   -44.5884     6.6006   138.1419
  606.5000     6.7076   192.3653     6.3059   -44.5840     6.6009   141.1566
  607.0000     6.5130   208.8323     5.8540   -44.7296     6.5863   148.3950
  607.5000     6.0344   213.3233     5.4773   -44.7241     6.5716   145.0752
  608.0000     5.5243   215.5689     5.1758   -44.5709     6.5272   147.0345
  608.5000     5.4188   216.3174     5.0999   -44.4177     6.4976   153.9716
  609.0000     5.3608   217.0659     5.2496   -44.2645     6.4680   140.9984
  609.5000     5.3156   216.3174     5.4744   -44.1124     6.4534   150.8008
  610.0000     5.4499   211.0779     5.8496   -44.4056     6.4687   154.8721
  610.5000     5.8382   199.8503     6.3000   -44.6978     6.5137   118.6711
  611.0000     6.2714   174.4012     6.7504   -44.5446     6.5439   105.2458
  611.5000     6.7793   154.9401     7.0519   -43.7961     6.5591   104.1303
  612.0000     7.1229   138.4731     7.3504   -43.6429     6.5594   106.7673
  612.5000     7.4514   133.2335     7.5125   -43.9608     6.5435   111.3875
  613.0000     7.6305   130.2395     7.7249   -44.9724     6.4835   122.5073
  613.5000     7.7649   127.2455     7.8980   -45.1179     6.4260   139.0238
  614.0000     7.8705   125.7485     8.1138   -44.2196     6.4562   139.9277
  614.5000     7.9462   124.2515     8.2489   -43.0247     6.5162   134.1943
  615.0000     8.0179   122.0060     8.3234   -42.5739     6.5463   133.1370
  615.5000     8.0476   121.2575     8.3979   -42.2719     6.5615   125.1416
  616.0000     8.1070   120.4091     8.3969   -42.2675     6.5768   118.3531
  616.5000     8.1665   119.7605     8.3210   -42.2631     6.5771   125.7423
  617.0000     8.2110   120.5090     8.2451   -42.4075     6.5774   114.7299
  617.5000     8.2557   122.0060     8.1692   -42.7008     6.5776   121.2141
  618.0000     8.2703   125.0000     8.0932   -43.1428     6.5629   114.4252
  618.5000     8.2401   127.2455     8.0925   -43.7406     6.5633   118.4961
  619.0000     8.1800   129.4910     8.0917   -44.3245     6.5636   126.0361
  619.5000     8.1042   130.9880     8.2412   -43.8726     6.5639   122.8321
