~VERSION INFORMATION
 VERS.                2.0:   CWLS LOG ASCII STANDARD - VERSION 2.0
 WRAP.                 NO:   ONE LINE PER DEPTH STEP
~WELL INFORMATION
#MNEM.UNIT      DATA TYPE    INFORMATION
#----------   ------------   ------------------------------
 STRT.F           38.0000:   START DEPTH
 STOP.F          517.0000:   STOP DEPTH
 STEP.F            0.5000:   STEP LENGTH
 NULL.          -999.2500:   NO VALUE
 COMP. FENIX & SCISSON U.S. NAVY:   COMPANY
 WELL.     NPR 3 #88 S -3:   WELL
 FLD .             TEAPOT:   FIELD
 LOC .       S3 T38N R78W:   LOCATION
 CNTY.            NATRONA:   COUNTY
 STAT.            WYOMING:   STATE
 CTRY. UNITED STATES OF AMERICA:   COUNTRY
 SRVC.              Welex:   SERVICE COMPANY
 DATE.        10-APR-1977:   LOGDATE
 API .       490251033000:   API NUMBER
~CURVE INFORMATION
#MNEM.UNIT       API CODE    CURVE DESCRIPTION
#----------   ------------   ------------------------------
 DEPT.F                  :   
 GRD .GAPI   45 310 01 00:   GAMMA RAY FROM DENSITY LOG
 CALD.IN     45 280 60 00:   CALIPER FROM DENSITY LOG
 CORR.G/C3   45 356 01 00:   DENSITY CORRECTION
 RHOB.G/C3   45 350 01 00:   BULK DENSITY
 DPHI.DEC    45 890 12 00:   DENSITY POROSITY SANDSTONE
 SPR .MV     07 010 01 00:   SPONTANEOUS POTENTIAL
 ILD .OHMM   07 120 46 00:   INDUCTION LOG DEEP
 ILM .OHMM   07 120 44 00:   INDUCTION LOG MEDIUM
 SGRD.OHMM   07 221 05 00:   SHALLOW SHORT GUARD RESISTIVITY
~PARAMETER INFORMATION
#MNEM.UNIT          VALUE    DESCRIPTION
#----------   ------------   ------------------------------
 PD  .                 GL:   PERMANENT DATUM
 EPD .F              5120:   ELEVATION PERMANENT DATUM
 LMF .                 GL:   LOG MEASURED FROM
 DMF .                 GL:   DRILLING MEASURED FROM
 EGL .F              5120:   GROUND LEVEL
 DATE.        10-APR-1977:   RUN DATE
 RUN .                  1:   RUN NUMBER
 DD  .F               520:   DEPTH DRILLER
 DL  .F               519:   DEPTH LOGGER
 BLI .F               517:   BOTTOM LOG INTERVAL
 TLI .F                40:   TOP LOG INTERVAL
 CS  .IN            8.625:   CASING SIZE
 CBD .F                40:   CASING BOTTOM DRILLER
 CBL .F                42:   CASING BOTTOM LOGGER
 BS  .IN            7.875:   BIT SIZE
 BSD .F               520:   BIT SIZE AT DEPTH
 DFT .           KCL- GEL:   DRILLING FLUID TYPE
 DFD .                8.8:   DRILLING FLUID DENSITY
 DFV .                 38:   DRILLING FLUID VISCOSITY
 DFPH.                8.0:   DRILLING FLUID PH
 DFL .                6.4:   DRILLING FLUID LOSS
 MSS .            MUD PIT:   MUD SAMPLE SOURCE
 RMS .OHMM            .28:   RESISTIVITY MUD SAMPLE
 MST .F                55:   MUD SAMPLE TEMPERATURE
 RMF .OHMM            .23:   RESISTIVITY MUD FILTRATE SAMPLE
 MFST.F                55:   MUD FILTRATE SAMPLE TEMPERATURE
 RMC .OHMM            .32:   RESISTIVITY MUD CAKE
 MCST.F                55:   MUD CAKE SAMPLE TEMPERATURE
 MFSS.               MEAS:   MUD FILTRATE SAMPLE SOURCE
 MCSS.               MEAS:   MUD CAKE SAMPLE SOURCE
 RMB .OHMM            .24:   RESISTIVITY MUD AT BHT
 BHT .F                65:   BOTTOM HOLE TEMPERATURE
 TCS .HRS            0300:   TIME CURCULATED STOPPED
 MRT .F                65:   MAXIMUM RECORDED TEMPERATURE
 LUN .               0716:   LOGGING UNIT NUMBER
 LUL .             VERNAL:   LOGGING UNIT LOCATION
 ENGI.        E. CALLAHAN:   RECORDING ENGINEER
 WITN.            R. LYON:   WITNESSED BY
 CLNT.            A2DTECH:   CLIENT CODE
 ORIG.           5" PRINT:   ORIGIN OF DATA
 UWI .       490251033000:   UNIQUE WELL ID
 DICO. A2D Technologies, Inc.:   DIGITIZING COMPANY
~OTHER INFORMATION
~A   DEPT       GRD        CALD     CORR         RHOB     DPHI        SPR        ILD        ILM       SGRD   
# ...
  439.5000    85.1993     7.8760     0.0057     2.4381     0.1263   -31.2801    12.2459    11.8104    19.1810
  440.0000    85.7393     7.8776     0.0059     2.4333     0.1315   -31.4472    12.1461    12.1297    19.3032
  440.5000    86.5009     7.8793     0.0060     2.4330     0.1279   -31.3131    12.1335    12.2882    19.4181
  441.0000    86.5173     7.8809     0.0061     2.4413     0.1224   -31.3295    12.1210    12.2763    19.6744
  441.5000    85.4904     7.8826     0.0062     2.4496     0.1211   -31.4966    12.1084    12.3532    20.2140
  442.0000    85.5068     7.8693     0.0063     2.4520     0.1217   -31.8144    12.0119    12.3383    20.9181
  442.5000    85.8212     7.8709     0.0065     2.4400     0.1250   -31.9815    11.9994    12.5024    20.1804
  443.0000    86.7318     7.8576     0.0036     2.4280     0.1331   -31.9979    11.9870    12.5777    19.2032
  443.5000    87.1953     7.8593    -0.0023     2.4191     0.1375   -32.0144    11.8914    12.5625    18.9215
  444.0000    87.6588     7.8609    -0.0052     2.4147     0.1400   -32.0309    11.9622    12.5504    18.9058
  444.5000    87.6751     7.8626    -0.0051     2.4155     0.1382   -32.1980    11.9498    12.5382    18.7589
  445.0000    87.2444     7.8493    -0.0004     2.4268     0.1318   -32.2145    11.8545    12.7020    18.7433
  445.5000    86.2176     7.8510     0.0072     2.4382     0.1227   -32.2310    11.7600    12.9611    18.5976
  446.0000    85.6378     7.8525     0.0103     2.4495     0.1179   -32.0964    11.5046    12.4150    18.5821
  446.5000    85.2071     7.8542     0.0104     2.4578     0.1149   -32.1134    11.1766    12.0900    18.6973
  447.0000    84.9254     7.8558     0.0105     2.4631     0.1116   -32.1299    11.0105    11.8310    18.9440
  447.5000    84.9418     7.8575     0.0107     2.4685     0.1112   -32.1464    11.0760    11.7400    18.5359
  448.0000    86.2995     7.8740     0.0093     2.4700     0.1118   -32.4641    11.1424    11.4884    18.1371
  448.5000    86.9120     7.8757     0.0094     2.4641     0.1151   -32.7818    11.2087    11.5622    17.8711
  449.0000    86.7793     7.8773     0.0080     2.4552     0.1190   -32.7983    11.1967    11.8777    17.8562
  449.5000    86.0506     7.8790     0.0036     2.4432     0.1243   -32.8148    11.1851    12.1217    17.9663
  450.0000    85.3575     7.8806    -0.0013     2.4290     0.1313   -32.9819    11.0945    11.8597    18.2034
  450.5000    85.5566     7.8819    -0.0040     2.4231     0.1357   -32.9222    11.1658    12.4430    18.1870
  451.0000    86.3914     7.8833    -0.0080     2.4276     0.1330   -32.8592    11.3932    13.1487    18.1720
  451.5000    87.4480     7.8846    -0.0109     2.4292     0.1336   -33.0232    11.4642    12.0827    18.2878
  452.0000    88.0575     7.8710    -0.0123     2.4270     0.1351   -33.3377    11.2948    12.3286    18.2688
  452.5000    88.2199     7.8873    -0.0121     2.4222     0.1371   -33.3511    11.2078    12.4230    18.2537
  453.0000    87.3390     7.8737    -0.0105     2.4196     0.1386   -33.5151    11.2777    11.5617    18.3666
  453.5000    86.4582     7.8750    -0.0074     2.4201     0.1371   -33.5286    11.3502    12.4732    18.2235
  454.0000    86.1735     7.8615    -0.0058     2.4247     0.1266   -33.5422    11.5008    12.0336    18.2084
  454.5000    86.9320     7.8628    -0.0027     2.4330     0.1239   -33.5557    11.3308    12.3751    18.1932
  455.0000    88.2866     7.8641     0.0005     2.4413     0.1214   -33.5720    11.0109    12.8081    18.0517
  455.5000    89.1941     7.8655     0.0051     2.4474     0.1205   -33.5853    10.6999    12.3584    18.0366
  456.0000    89.8036     7.8519     0.0097     2.4493     0.1199   -33.4448    10.5438    10.6582    18.0215
  456.5000    90.2640     7.8532     0.0128     2.4510     0.1139   -33.4615    10.4606    12.4142    17.8813
  457.0000    91.0225     7.8396     0.0174     2.4690     0.1040   -33.1703    10.3097    11.6509    17.7394
  457.5000    91.6320     7.8559     0.0205     2.4778     0.1039   -33.0331    10.2303    11.0879    17.4793
  458.0000    92.3905     7.8572     0.0222     2.4752     0.1033   -32.8959    10.1514    11.2350    17.1033
  458.5000    93.0000     7.8735     0.0238     2.4805     0.1018   -32.9126    10.0017    11.3862    16.8525
  459.0000    93.1624     7.8748     0.0254     2.4836     0.1012   -33.0765     9.9247    11.6179    16.7215
  459.5000    93.0267     7.8762     0.0255     2.4761     0.1048   -33.3911     9.9172    11.6880    16.4763
  460.0000    93.0400     7.8775     0.0271     2.4694     0.1056   -33.5551     9.9097    11.6792    16.3483
  460.5000    93.0534     7.8789     0.0258     2.4770     0.1044   -33.5685     9.8334    10.9610    16.1086
  461.0000    93.0667     7.8802     0.0214     2.4756     0.1071   -33.5819     9.7577    10.2156    15.9834
  461.5000    93.3781     7.8965     0.0170     2.4659     0.1128   -33.7458     9.4821    10.2812    15.7490
  462.0000    93.5405     7.8978     0.0186     2.4502     0.1167   -33.7592     9.1503    10.3452    15.6266
  462.5000    94.0009     7.8991     0.0187     2.4540     0.1137   -33.7726     8.9542    10.2637    15.2905
  463.0000    95.0575     7.9005     0.0189     2.4646     0.1109   -33.7862     8.8852    10.1140    14.7544
  463.5000    96.1141     7.9018     0.0190     2.4744     0.1091   -33.6487     8.6343     9.8286    14.4370
  464.0000    96.8726     7.9032     0.0206     2.4790     0.1109   -33.6626     8.3322     9.4849    14.0283
  464.5000    97.9291     7.9045     0.0207     2.4753     0.1145   -33.6788     7.9293     9.0241    13.6312
  465.0000    98.9857     7.9058     0.0208     2.4573     0.1169   -33.6922     7.6518     8.5228    13.2453
  465.5000   100.1913     7.8924     0.0180     2.4529     0.1181   -33.7056     7.1810     8.1624    12.8704
  466.0000   101.2479     7.8938     0.0136     2.4484     0.1192   -33.8696     6.5465     7.8258    12.5060
  466.5000   102.1554     7.8951     0.0107     2.4395     0.1252   -33.8829     5.8055     7.1995    11.9004
  467.0000   102.6158     7.8965     0.0093     2.4290     0.1333   -34.0469     5.6524     6.1289    11.0066
  467.5000   102.0331     7.8977     0.0139     2.4269     0.1309   -34.0603     5.6472     5.5940     9.3191
  468.0000   101.0032     7.8991     0.0186     2.4367     0.1204   -34.0737     5.6835     5.6288     5.1419
  468.5000    99.6769     7.9004     0.0232     2.4668     0.1035   -33.9331     5.7982     6.0304     5.5045
  469.0000    98.8705     7.9018     0.0263     2.5060     0.0852   -33.9498     5.9576     6.7835    11.0711
  469.5000    98.1387     7.9031     0.0279     2.5090     0.0834   -33.9632     6.1643     6.9712    15.1142
  470.0000    97.9286     7.9045     0.0280     2.5061     0.0870   -33.8226     6.6506     7.5194    14.6863
  470.5000    98.0164     7.9058     0.0177     2.5001     0.0909   -33.8393     7.1753     8.2835    14.9812
  471.0000    98.2533     7.9072     0.0118     2.4912     0.0992   -33.8527     7.6877     8.9365    14.9688
  471.5000    98.6393     7.9085     0.0089     2.4785     0.1073   -33.8661     8.2366     9.5075    14.9564
  472.0000    99.2487     7.8949     0.0060     2.4665     0.1079   -33.7289     8.7633     9.7028    15.0486
  472.5000   100.0072     7.8964     0.0046     2.4749     0.1049   -33.7424     9.1308     9.4931    15.0361
  473.0000   100.6167     7.8828     0.0033     2.4772     0.1040   -33.7560     9.4476     9.8909    15.0237
  473.5000   102.0475     7.8842     0.0019     2.4780     0.1040   -33.7696     9.5730     9.9528    15.2220
  474.0000   102.8060     7.8855     0.0005     2.4781     0.1042   -33.6318     9.7003     9.9450    15.4230
  474.5000   102.0742     7.8719    -0.0009     2.4774     0.1049   -33.4945     9.7606     9.9374    15.7360
  475.0000   101.4914     7.8732    -0.0007     2.4760     0.1073   -33.3607     9.8214    10.1396    15.8362
  475.5000   102.9951     7.8746    -0.0006     2.4708     0.1091   -33.3740     9.8140    10.7161    16.1542
