~VERSION INFORMATION
 VERS.                2.0:   CWLS LOG ASCII STANDARD - VERSION 2.0
 WRAP.                 NO:   ONE LINE PER DEPTH STEP
~WELL INFORMATION
#MNEM.UNIT      DATA TYPE    INFORMATION
#----------   ------------   ------------------------------
 STRT.F          350.0000:   START DEPTH
 STOP.F         2259.0000:   STOP DEPTH
 STEP.F            0.5000:   STEP LENGTH
 NULL.          -999.2500:   NO VALUE
 COMP. LAWRENCE/ALLISON INC:   COMPANY
 WELL.        45 X #33-33:   WELL
 FLD .             TEAPOT:   FIELD
 LOC .      S33 T39N R78W:   LOCATION
 CNTY.            NATRONA:   COUNTY
 STAT.            WYOMING:   STATE
 CTRY. UNITED STATES OF AMERICA:   COUNTRY
 SRVC.      NL McCullough:   SERVICE COMPANY
 DATE.        19-MAY-1988:   LOGDATE
 API .       490251119400:   API NUMBER
~CURVE INFORMATION
#MNEM.UNIT       API CODE    CURVE DESCRIPTION
#----------   ------------   ------------------------------
 DEPT.F                  :   
 ROP .MIN/FT 91 810 01 00:   RATE OF DRILLING PENETRATION
 GR  .GAPI   81 310 01 00:   GAMMA RAY
 TGAS.UNITS  91 830 01 00:   TOTAL GAS FROM HOTWIRE
~PARAMETER INFORMATION
#MNEM.UNIT          VALUE    DESCRIPTION
#----------   ------------   ------------------------------
 PD  .                 GL:   PERMANENT DATUM
 EPD .F              5198:   ELEVATION PERMANENT DATUM
 LMF .                 KB:   LOG MEASURED FROM
 DAPD.F                11:   FEET ABOVE PERMANENT DATUM
 DMF .                 KB:   DRILLING MEASURED FROM
 EKB .F              5209:   KELLING BUSHING
 EGL .F              5198:   GROUND LEVEL
 DATE.            5-19-88:   RUN DATE
 RUN .                  1:   RUN NUMBER
 DD  .F              2232:   DEPTH DRILLER
 DL  .F               750:   DEPTH LOGGER
 BLI .F               746:   BOTTOM LOG INTERVAL
 TLI .F               350:   TOP LOG INTERVAL
 CS  .IN                7:   CASING SIZE
 CBD .F               808:   CASING BOTTOM DRILLER
 DFT .              WATER:   DRILLING FLUID TYPE
 TCS .HRS            0830:   TIME CURCULATED STOPPED
 TLAB.HRS            0930:   TIME LOGGER AT BOTTOM
 ENGI.          SANGERTER:   RECORDING ENGINEER
 WITN.             NORMAN:   WITNESSED BY
 CLNT.            A2DTECH:   CLIENT CODE
 ORIG.           5" PRINT:   ORIGIN OF DATA
 UWI .       490251119400:   UNIQUE WELL ID
 DICO. A2D Technologies, Inc.:   DIGITIZING COMPANY
~OTHER INFORMATION
~A   DEPT      ROP          GR      TGAS   
# ...
 2079.0000     0.5167  -999.2500    78.1737
 2079.5000     0.5271  -999.2500    77.6511
 2080.0000     0.5480  -999.2500    77.1285
 2080.5000     0.5689  -999.2500    76.6059
 2081.0000     0.5793  -999.2500    76.0833
 2081.5000     0.6106  -999.2500    75.5607
 2082.0000     0.6106  -999.2500    75.0381
 2082.5000     0.6106  -999.2500    74.5155
 2083.0000     0.6211  -999.2500    73.9929
 2083.5000     0.6106  -999.2500    73.4703
 2084.0000     0.6106  -999.2500    72.9477
 2084.5000     0.6002  -999.2500    72.4251
 2085.0000     0.5793  -999.2500    71.9025
 2085.5000     0.5689  -999.2500    71.3799
 2086.0000     0.5376  -999.2500    71.0756
 2086.5000     0.5271  -999.2500    70.9274
 2087.0000     0.5271  -999.2500    70.7793
 2087.5000     0.5271  -999.2500    70.6312
 2088.0000     0.5271  -999.2500    70.4830
 2088.5000     0.5271  -999.2500    70.3349
 2089.0000     0.5271  -999.2500    70.1868
 2089.5000     0.5376  -999.2500    70.0387
 2090.0000     0.5585  -999.2500    69.8905
 2090.5000     0.5689  -999.2500    69.7424
 2091.0000     0.5793  -999.2500    69.5943
 2091.5000     0.6002  -999.2500    69.4461
 2092.0000     0.6106  -999.2500    69.2980
 2092.5000     0.6106  -999.2500    69.1499
 2093.0000     0.6420  -999.2500    69.0017
 2093.5000     0.6628  -999.2500    68.8536
 2094.0000     0.7046  -999.2500    68.7055
 2094.5000     0.7046  -999.2500    68.5573
 2095.0000     0.6942  -999.2500    68.4092
 2095.5000     0.6733  -999.2500    68.2611
 2096.0000     0.6628  -999.2500    68.1129
 2096.5000     0.6524  -999.2500    67.9648
 2097.0000     0.6524  -999.2500    67.8167
 2097.5000     0.6524  -999.2500    67.6685
 2098.0000     0.6524  -999.2500    67.5204
 2098.5000     0.6524  -999.2500    67.3723
 2099.0000     0.6524  -999.2500    67.2241
 2099.5000     0.6524  -999.2500    67.0760
 2100.0000     0.6524  -999.2500    66.9279
 2100.5000     0.6420  -999.2500    66.7797
 2101.0000     0.6420  -999.2500    66.6316
 2101.5000     0.6211  -999.2500    66.4835
 2102.0000     0.6211  -999.2500    66.3354
 2102.5000     0.6211  -999.2500    66.1872
 2103.0000     0.6106  -999.2500    66.0391
 2103.5000     0.5793  -999.2500    65.8910
 2104.0000     0.5689  -999.2500    65.7428
 2104.5000     0.5689  -999.2500    65.5947
 2105.0000     0.5585  -999.2500    65.4986
 2105.5000     0.5718  -999.2500    65.4183
 2106.0000     0.5303  -999.2500    65.3380
 2106.5000     0.5201  -999.2500    65.2577
 2107.0000     0.4891  -999.2500    65.1775
 2107.5000     0.4789  -999.2500    65.0972
 2108.0000     0.4582  -999.2500    65.0169
 2108.5000     0.4480  -999.2500    64.9366
 2109.0000     0.4484  -999.2500    64.8564
 2109.5000     0.4904  -999.2500    64.7761
 2110.0000     0.5011  -999.2500    64.6958
 2110.5000     0.5327  -999.2500    64.6155
 2111.0000     0.5434  -999.2500    64.5352
 2111.5000     0.5645  -999.2500    64.4550
 2112.0000     0.5752  -999.2500    64.3747
 2112.5000     0.5754  -999.2500    64.2944
 2113.0000     0.5861  -999.2500    64.2141
 2113.5000     0.6073  -999.2500    64.1339
 2114.0000     0.6075  -999.2500    64.0536
 2114.5000     0.6078  -999.2500    63.9733
 2115.0000     0.6081  -999.2500    63.8930
 2115.5000     0.6188  -999.2500    63.8127
 2116.0000     0.5981  -999.2500    63.7325
 2116.5000     0.5879  -999.2500    63.6522
 2117.0000     0.6091  -999.2500    63.5719
 2117.5000     0.6094  -999.2500    63.4916
 2118.0000     0.6201  -999.2500    63.4113
 2118.5000     0.6203  -999.2500    63.3311
 2119.0000     0.6206  -999.2500    63.2508
 2119.5000     0.6209  -999.2500    63.1705
 2120.0000     0.6211  -999.2500    63.0902
 2120.5000     0.6214  -999.2500    63.0100
 2121.0000     0.6216  -999.2500    62.9297
 2121.5000     0.6219  -999.2500    62.8494
 2122.0000     0.6221  -999.2500    62.7691
 2122.5000     0.6328  -999.2500    62.6888
 2123.0000     0.6331  -999.2500    62.6086
 2123.5000     0.6334  -999.2500    62.5283
 2124.0000     0.6337  -999.2500    62.4480
 2124.5000     0.6339  -999.2500    62.3677
 2125.0000     0.6342  -999.2500    62.2874
 2125.5000     0.6344  -999.2500    62.2072
 2126.0000     0.6347  -999.2500    62.1269
 2126.5000     0.6350  -999.2500    62.0466
 2127.0000     0.6352  -999.2500    61.9663
 2127.5000     0.6564  -999.2500    61.8861
 2128.0000     0.6566  -999.2500    61.8058
 2128.5000     0.6673  -999.2500    61.7255
 2129.0000     0.6676  -999.2500    61.6452
 2129.5000     0.6678  -999.2500    61.5649
 2130.0000     0.6785  -999.2500    61.4847
 2130.5000     0.6788  -999.2500    61.4044
 2131.0000     0.6791  -999.2500    61.3241
 2131.5000     0.6793  -999.2500    61.2438
 2132.0000     0.6691  -999.2500    61.1636
 2132.5000     0.6694  -999.2500    61.0833
 2133.0000     0.6591  -999.2500    61.0030
 2133.5000     0.6385  -999.2500    60.9227
 2134.0000     0.6389  -999.2500    60.8424
 2134.5000     0.6705  -999.2500    60.7622
 2135.0000     0.7020  -999.2500    60.6819
 2135.5000     0.7232  -999.2500    60.6016
 2136.0000     0.7547  -999.2500    60.5213
 2136.5000     0.7654  -999.2500    60.4410
 2137.0000     0.7657  -999.2500    60.3608
 2137.5000     0.7764  -999.2500    60.2805
 2138.0000     0.7767  -999.2500    60.2002
 2138.5000     0.7874  -999.2500    60.1199
 2139.0000     0.7981  -999.2500    60.0397
 2139.5000     0.8505  -999.2500    59.9594
 2140.0000     0.8821  -999.2500    59.8791
 2140.5000     0.9241  -999.2500    59.7988
 2141.0000     0.9243  -999.2500    59.7185
 2141.5000     0.9351  -999.2500    59.6383
 2142.0000     0.9144  -999.2500    59.5580
 2142.5000     0.8730  -999.2500    59.4777
 2143.0000     0.8315  -999.2500    59.3974
 2143.5000     0.8003  -999.2500    59.3172
 2144.0000     0.7588  -999.2500    59.2369
 2144.5000     0.7278  -999.2500    59.1566
 2145.0000     0.7176  -999.2500    59.0763
 2145.5000     0.6866  -999.2500    58.9960
 2146.0000     0.6764  -999.2500    58.9158
 2146.5000     0.6662  -999.2500    58.8355
 2147.0000     0.6456  -999.2500    58.7552
 2147.5000     0.6355  -999.2500    58.6749
 2148.0000     0.6462  -999.2500    58.5946
 2148.5000     0.6465  -999.2500    58.5144
 2149.0000     0.6571  -999.2500    58.4341
 2149.5000     0.6365  -999.2500    58.3538
 2150.0000     0.6054  -999.2500    58.2735
 2150.5000     0.5848  -999.2500    58.1933
 2151.0000     0.5537  -999.2500    58.1130
 2151.5000     0.5122  -999.2500    58.0327
 2152.0000     0.4707  -999.2500    57.9524
 2152.5000     0.4397  -999.2500    57.8721
 2153.0000     0.4295  -999.2500    57.7919
 2153.5000     0.4298  -999.2500    57.7116
 2154.0000     0.4196  -999.2500    57.6313
 2154.5000     0.3990  -999.2500    57.5510
 2155.0000     0.3993  -999.2500    57.4708
 2155.5000     0.3890  -999.2500    57.3905
 2156.0000     0.3894  -999.2500    57.3102
 2156.5000     0.4001  -999.2500    57.2299
 2157.0000     0.4317  -999.2500    57.1496
 2157.5000     0.4424  -999.2500    57.0694
 2158.0000     0.4844  -999.2500    56.9891
 2158.5000     0.5160  -999.2500    56.9088
 2159.0000     0.5580  -999.2500    56.8285
 2159.5000     0.5802  -999.2500    56.7482
 2160.0000     0.6003  -999.2500    56.6680
 2160.5000     0.6109  -999.2500    56.5877
 2161.0000     0.6425  -999.2500    56.5074
 2161.5000     0.6428  -999.2500    56.4271
 2162.0000     0.6431  -999.2500    56.3469
 2162.5000     0.6433  -999.2500    56.2666
 2163.0000     0.6436  -999.2500    56.1863
 2163.5000     0.6438  -999.2500    56.1060
 2164.0000     0.6336  -999.2500    56.0257
 2164.5000     0.6339  -999.2500    55.9455
 2165.0000     0.6446  -999.2500    55.8652
 2165.5000     0.6449  -999.2500    55.7849
 2166.0000     0.6556  -999.2500    55.7046
 2166.5000     0.6871  -999.2500    55.6244
 2167.0000     0.6979  -999.2500    55.5441
 2167.5000     0.7294  -999.2500    55.4638
 2168.0000     0.7401  -999.2500    55.3835
 2168.5000     0.7404  -999.2500    55.3032
 2169.0000     0.7301  -999.2500    55.2230
 2169.5000     0.7305  -999.2500    55.1427
