~VERSION INFORMATION
 VERS.                2.0:   CWLS LOG ASCII STANDARD - VERSION 2.0
 WRAP.                 NO:   ONE LINE PER DEPTH STEP
~WELL INFORMATION
#MNEM.UNIT      DATA TYPE    INFORMATION
#----------   ------------   ------------------------------
 STRT.F           30.0000:   START DEPTH
 STOP.F          637.0000:   STOP DEPTH
 STEP.F            0.5000:   STEP LENGTH
 NULL.          -999.2500:   NO VALUE
 COMP.    FENIX & SCISSON:   COMPANY
 WELL.        NPR #82-S-3:   WELL
 FLD .             TEAPOT:   FIELD
 LOC .       S3 T38N R78W:   LOCATION
 CNTY.            NATRONA:   COUNTY
 STAT.            WYOMING:   STATE
 CTRY. UNITED STATES OF AMERICA:   COUNTRY
 SRVC.              Welex:   SERVICE COMPANY
 DATE.        08-MAY-1977:   LOGDATE
 API .       490251035100:   API NUMBER
~CURVE INFORMATION
#MNEM.UNIT       API CODE    CURVE DESCRIPTION
#----------   ------------   ------------------------------
 DEPT.F                  :   
 SPR .MV     07 010 01 00:   SPONTANEOUS POTENTIAL FROM RES.
 ILD .OHMM   07 120 46 00:   INDUCTION LOG DEEP
 ILM .OHMM   07 120 44 00:   INDUCTION LOG MEDIUM
 SGRD.OHMM   07 220 05 00:   SHALLOW GUARD RESISTIVITY
 GRD .GAPI   45 310 01 00:   GAMMA RAY FROM DENSITY LOG
 CALD.IN     45 280 60 00:   CALIPER FROM DENSITY LOG
 CORR.G/C3   45 356 01 00:   DENSITY CORRECTION
 RHOB.G/C3   45 350 01 00:   BULK DENSITY
 DPHI.DEC    45 890 12 00:   DENSITY POROSITY SANDSTONE
~PARAMETER INFORMATION
#MNEM.UNIT          VALUE    DESCRIPTION
#----------   ------------   ------------------------------
 PD  .                 GL:   PERMANENT DATUM
 EPD .F              5100:   ELEVATION PERMANENT DATUM
 LMF .                 GL:   LOG MEASURED FROM
 DMF .                 GL:   DRILLING MEASURED FROM
 EGL .F              5100:   GROUND LEVEL
 DATE.        08-MAY-1977:   RUN DATE
 RUN .                  1:   RUN NUMBER
 DD  .F               635:   DEPTH DRILLER
 DL  .F               640:   DEPTH LOGGER
 BLI .F               638:   BOTTOM LOG INTERVAL
 TLI .F                30:   TOP LOG INTERVAL
 CS  .IN            8.625:   CASING SIZE
 CBD .F                40:   CASING BOTTOM DRILLER
 CBL .F                38:   CASING BOTTOM LOGGER
 BS  .IN            7.875:   BIT SIZE
 BSD .F               635:   BIT SIZE AT DEPTH
 DFT .            KCL MUD:   DRILLING FLUID TYPE
 DFD .                8.8:   DRILLING FLUID DENSITY
 DFV .                 32:   DRILLING FLUID VISCOSITY
 DFPH.                7.5:   DRILLING FLUID PH
 MSS .           FLOWLINE:   MUD SAMPLE SOURCE
 RMS .OHMM            .25:   RESISTIVITY MUD SAMPLE
 MST .F                80:   MUD SAMPLE TEMPERATURE
 RMF .OHMM            .22:   RESISTIVITY MUD FILTRATE SAMPLE
 MFST.F                80:   MUD FILTRATE SAMPLE TEMPERATURE
 RMC .OHMM            .31:   RESISTIVITY MUD CAKE
 MCST.F                80:   MUD CAKE SAMPLE TEMPERATURE
 MFSS.               MEAS:   MUD FILTRATE SAMPLE SOURCE
 MCSS.               MEAS:   MUD CAKE SAMPLE SOURCE
 RMB .OHMM            .23:   RESISTIVITY MUD AT BHT
 BHT .F                87:   BOTTOM HOLE TEMPERATURE
 TCS .HRS            0130:   TIME CURCULATED STOPPED
 MRT .F                87:   MAXIMUM RECORDED TEMPERATURE
 LUN .               8611:   LOGGING UNIT NUMBER
 LUL .             CASPER:   LOGGING UNIT LOCATION
 ENGI.            C. DOAK:   RECORDING ENGINEER
 WITN.            R. LYON:   WITNESSED BY
 CLNT.            A2DTECH:   CLIENT CODE
 ORIG.           5" PRINT:   ORIGIN OF DATA
 UWI .       490251035100:   UNIQUE WELL ID
 DICO. A2D Technologies, Inc.:   DIGITIZING COMPANY
~OTHER INFORMATION
~A   DEPT      SPR        ILD        ILM       SGRD         GRD      CALD        CORR        RHOB     DPHI   
# ...
  249.0000   -46.7726    12.1253    13.6275    17.7644   111.4258     7.9592     0.0342     2.4883     0.1123
  249.5000   -46.6099    12.0478    13.1751    17.9011   110.6979     7.9604     0.0343     2.4861     0.1135
  250.0000   -46.5977    12.0542    13.0914    17.5092   115.4762     7.9613     0.0344     2.4843     0.1148
  250.5000   -46.5829    12.0616    13.1027    17.0772   114.7481     7.9559     0.0324     2.4795     0.1179
  251.0000   -46.5681    12.0690    13.1117    17.2072   113.5724     7.9510     0.0316     2.4736     0.1194
  251.5000   -46.5533    11.9936    13.0284    17.1007   112.9882     7.9496     0.0302     2.4728     0.1212
  252.0000   -46.6864    11.9176    12.7707    16.4219   112.4115     7.9507     0.0273     2.4751     0.1199
  252.5000   -46.5236    11.8442    12.5203    15.7674   111.8304     7.9517     0.0274     2.4722     0.1214
  253.0000   -46.6569    11.7701    12.3553    15.8874   111.1017     7.9527     0.0260     2.4640     0.1253
  253.5000   -46.6386    11.7774    12.2789    16.2305   111.5629     7.9538     0.0261     2.4625     0.1283
  254.0000   -46.4793    11.5417    12.2895    16.8113   113.6906     7.9548     0.0262     2.4663     0.1264
  254.5000   -46.3121    11.3146    12.2980    16.4785   110.2531     7.9559     0.0278     2.4671     0.1249
  255.0000   -46.0059    11.3217    12.4772    15.9312   108.6310     7.9569     0.0293     2.4627     0.1264
  255.5000   -45.9912    11.3315    12.7465    16.7303   108.9631     7.9580     0.0309     2.4597     0.1288
  256.0000   -46.1244    11.4930    13.2935    17.3290   110.1486     7.9590     0.0295     2.4597     0.1296
  256.5000   -46.2576    11.4211    13.7688    17.8258   108.3482     7.9600     0.0296     2.4568     0.1302
  257.0000   -46.3907    11.3497    14.0660    17.2337   107.1627     7.9611     0.0297     2.4546     0.1311
  257.5000   -46.5239    11.2787    14.1706    16.3201   106.3238     7.9621     0.0298     2.4516     0.1329
  258.0000   -46.5089    11.2083    13.6085    16.1050   107.8303     7.9632     0.0299     2.4539     0.1325
  258.5000   -46.6422    11.0617    13.1568    16.0053   109.0356     7.9642     0.0300     2.4577     0.1307
  259.0000   -46.7754    10.9882    12.8058    15.9063   110.5384     7.9652     0.0286     2.4562     0.1310
  259.5000   -46.9085    10.9193    12.2979    15.4870   112.1901     7.9663     0.0302     2.4540     0.1328
  260.0000   -46.8937    10.7811    11.9719    15.1778   108.9310     7.9673     0.0302     2.4488     0.1358
  260.5000   -47.0269    10.7086    12.1463    15.1909   109.0946     7.9684     0.0303     2.4496     0.1354
  261.0000   -47.0118    10.6415    12.4943    15.4124   111.3415     7.9694     0.0304     2.4556     0.1324
  261.5000   -46.9970    10.5022    12.5893    15.6371   114.1836     7.9704     0.0305     2.4609     0.1279
  262.0000   -46.9822    10.4363    12.3403    15.8651   115.3889     7.9715     0.0306     2.4632     0.1282
  262.5000   -46.9675    10.3054    11.8488    15.6587   115.7012     7.9725     0.0304     2.4528     0.1321
  263.0000   -46.9527    10.1707    12.1882    15.3487   113.1862     7.9736     0.0248     2.4468     0.1362
  263.5000   -46.9379    10.1072    12.5374    15.2534   112.1593     7.9746     0.0204     2.4454     0.1377
  264.0000   -47.0714    10.1136    12.0380    15.5832   110.9799     7.9756     0.0190     2.4484     0.1392
  264.5000   -47.2045    10.0502    11.7169    15.2748   112.1889     7.9767     0.0191     2.4425     0.1398
  265.0000   -47.1893     9.9807    11.9718    14.2670   113.9893     7.9777     0.0207     2.4373     0.1409
  265.5000   -47.3229     9.9250    12.3999    14.5752   113.5577     7.9788     0.0238     2.4463     0.1384
  266.0000   -47.3077     9.8630    12.3233    15.2012   111.0426     7.9798     0.0253     2.4494     0.1360
  266.5000   -47.2929     9.8693    11.9142    14.7979   109.2717     7.9808     0.0299     2.4517     0.1334
  267.0000   -47.2781     9.8754    11.7573    14.6053   108.0960     7.9819     0.0300     2.4548     0.1307
  267.5000   -47.2633     9.8815    11.8487    14.2178   108.2595     7.9829     0.0316     2.4593     0.1295
  268.0000   -47.2486     9.8876    12.0214    14.3261   109.4648     7.9841     0.0332     2.4639     0.1261
  268.5000   -47.2337     9.8938    11.6224    14.3359   110.2236     7.9700     0.0333     2.4667     0.1249
  269.0000   -47.2189     9.9086    11.3905    14.6456   110.6848     7.9562     0.0349     2.4652     0.1252
  269.5000   -47.3713     9.9745    11.7998    14.8591   111.4436     7.9575     0.0335     2.4637     0.1264
  270.0000   -47.6529     9.9120    12.2217    13.5947   111.9048     7.9585     0.0320     2.4601     0.1282
  270.5000   -47.9147     9.9183    12.3147    14.4749   111.1755     7.9447     0.0291     2.4459     0.1359
  271.0000   -48.2160     9.9930    12.0711    16.0629   109.3549     7.9457     0.0247     2.4362     0.1422
  271.5000   -48.4976     9.9992    11.7511    15.6367   103.9138     7.9468     0.0233     2.4251     0.1484
  272.0000   -48.7579    10.0054    11.4396    15.9745   100.1885     7.9478     0.0219     2.4258     0.1502
  272.5000   -49.0390     9.9327    11.2133    14.4151   101.6867     7.9488     0.0220     2.4221     0.1508
  273.0000   -49.1944     9.4707    10.9161    14.0326   105.4494     7.9499     0.0221     2.4237     0.1502
  273.5000   -49.4758     9.1556    10.6267    13.6604   109.9284     7.9509     0.0222     2.4260     0.1489
  274.0000   -49.7343     8.7297    10.4165    12.7591   109.1991     7.9519     0.0223     2.4275     0.1477
  274.5000   -49.8675     8.4392    10.1404    12.4206   109.3627     7.9529     0.0224     2.4298     0.1462
  275.0000   -50.0006     8.2147     9.9398    12.0081   110.7167     7.9540     0.0224     2.4313     0.1453
  275.5000   -49.9852     8.1725     9.8102    11.5284   112.2196     7.9550     0.0225     2.4328     0.1447
  276.0000   -49.9705     8.1778     9.7496    10.6918   114.6153     7.9412     0.0226     2.4291     0.1452
  276.5000   -49.9556     8.1829     9.9603    11.3252   113.5884     7.9422     0.0227     2.4247     0.1482
  277.0000   -49.9408     8.2445    10.2457    13.0846   110.6270     7.9284     0.0228     2.4187     0.1524
  277.5000   -49.8989     8.3173    10.3340    13.1793   110.1916     7.9294     0.0229     2.4218     0.1518
  278.0000   -49.7633     8.4271     9.9122    13.0077   111.4005     7.9305     0.0230     2.4255     0.1505
  278.5000   -49.7485     8.4435    10.3378    12.7462   112.6058     7.9315     0.0231     2.4256     0.1490
  279.0000   -49.7337     8.5073    10.3547    12.4978   112.6205     7.9325     0.0232     2.4256     0.1490
  279.5000   -49.5710     8.6309    10.2808    12.7894   112.3340     7.9336     0.0233     2.4257     0.1493
  280.0000   -49.4053     8.7452    10.0774    13.7831   112.0511     7.9197     0.0234     2.4264     0.1484
  280.5000   -49.3905     8.8112    10.0151    13.2273   111.3255     7.9208     0.0234     2.4325     0.1448
  281.0000   -49.3758     8.8776    10.0915    12.8758   110.1498     7.9219     0.0235     2.4362     0.1432
  281.5000   -49.3610     8.8831    10.4524    12.6277   110.0120     7.9231     0.0236     2.4310     0.1444
  282.0000   -49.3462     8.8886    10.4681    12.7240   113.8995     7.9241     0.0237     2.4281     0.1468
  282.5000   -49.4794     8.9556    10.0430    13.0078   115.7242     7.9400     0.0223     2.4274     0.1474
  283.0000   -49.4646     9.0230    10.2597    13.0977   114.0779     7.9410     0.0194     2.4274     0.1479
  283.5000   -49.4498     9.2172    10.6266    13.2078   114.5391     7.9421     0.0180     2.4267     0.1491
  284.0000   -49.4350     9.2866    11.0066    13.5986   116.1907     7.9431     0.0211     2.4350     0.1465
  284.5000   -49.2723     9.3566    11.1669    13.9773   115.7589     7.9290     0.0257     2.4455     0.1398
  285.0000   -49.2575     9.3624    11.2519    13.8783   115.1786     7.9303     0.0273     2.4470     0.1371
