~VERSION INFORMATION
 VERS.                2.0:   CWLS LOG ASCII STANDARD - VERSION 2.0
 WRAP.                 NO:   ONE LINE PER DEPTH STEP
~WELL INFORMATION
#MNEM.UNIT      DATA TYPE    INFORMATION
#----------   ------------   ------------------------------
 STRT.F           90.5000:   START DEPTH
 STOP.F          836.0000:   STOP DEPTH
 STEP.F            0.5000:   STEP LENGTH
 NULL.          -999.2500:   NO VALUE
 COMP.          U.S. NAVY:   COMPANY
 WELL.    NPR #3 #38-S-35:   WELL
 FLD .           TEAPOT E:   FIELD
 LOC .      S35 T39N R78W:   LOCATION
 CNTY.            NATRONA:   COUNTY
 STAT.            WYOMING:   STATE
 CTRY. UNITED STATES OF AMERICA:   COUNTRY
 SRVC. Schlumberger Well Surveying Corp:   SERVICE COMPANY
 DATE.        21-JUL-1963:   LOGDATE
 API .       490250649100:   API NUMBER
~CURVE INFORMATION
#MNEM.UNIT       API CODE    CURVE DESCRIPTION
#----------   ------------   ------------------------------
 DEPT.F                  :   
 SPR .MV     05 010 01 00:   SPONTANEOUS POTENTIAL FROM RES.
 ASN .OHMM   05 041 16 00:   AMPLIFIED SHORT NORMAL 16"
 ILD .OHMM   05 120 46 00:   INDUCTION LOG DEEP
 CILD.MMHO   05 110 46 00:   CONDUCTIVITY INDUCTION LOG DEEP
 DT  .US/F   60 520 33 00:   INTERVAL TRANSIT TIME
 GR  .GAPI   30 310 01 00:   GAMMA RAY
~PARAMETER INFORMATION
#MNEM.UNIT          VALUE    DESCRIPTION
#----------   ------------   ------------------------------
 LMF .                 KB:   LOG MEASURED FROM
 DMF .                 KB:   DRILLING MEASURED FROM
 EKB .F              5119:   KELLING BUSHING
 EGL .F              5114:   GROUND LEVEL
 DATE.          7-21-1963:   RUN DATE
 RUN .                  1:   RUN NUMBER
 DD  .F               836:   DEPTH DRILLER
 DL  .F               837:   DEPTH LOGGER
 BLI .F               836:   BOTTOM LOG INTERVAL
 TLI .F                90:   TOP LOG INTERVAL
 CBD .F                12:   CASING BOTTOM DRILLER
 BS  .IN             6.75:   BIT SIZE
 BSD .F               836:   BIT SIZE AT DEPTH
 DFT .            GEL-OIL:   DRILLING FLUID TYPE
 DFD .                9.2:   DRILLING FLUID DENSITY
 DFV .                 85:   DRILLING FLUID VISCOSITY
 DFPH.                  8:   DRILLING FLUID PH
 DFL .                3.6:   DRILLING FLUID LOSS
 MSS .           FLOWLINE:   MUD SAMPLE SOURCE
 RMS .OHMM           2.95:   RESISTIVITY MUD SAMPLE
 MST .F                88:   MUD SAMPLE TEMPERATURE
 RMF .OHMM           2.31:   RESISTIVITY MUD FILTRATE SAMPLE
 MFST.F                88:   MUD FILTRATE SAMPLE TEMPERATURE
 RMC .OHMM           2.65:   RESISTIVITY MUD CAKE
 MCST.F                88:   MUD CAKE SAMPLE TEMPERATURE
 MFSS.                  M:   MUD FILTRATE SAMPLE SOURCE
 MCSS.                  M:   MUD CAKE SAMPLE SOURCE
 TCS .HRS               1:   TIME CURCULATED STOPPED
 LUN .               2523:   LOGGING UNIT NUMBER
 LUL .              CSPR.:   LOGGING UNIT LOCATION
 ENGI.             KNOBEL:   RECORDING ENGINEER
 WITN.          JORGENSON:   WITNESSED BY
 CLNT.            A2DTECH:   CLIENT CODE
 ORIG.      2" , 5" PRINT:   ORIGIN OF DATA
 UWI .       490250649100:   UNIQUE WELL ID
 DICO. A2D Technologies, Inc.:   DIGITIZING COMPANY
~OTHER INFORMATION
~A   DEPT      SPR        ASN        ILD       CILD         DT         GR   
# ...
  558.5000   -17.2106     8.3854     6.9785   126.0717   102.6368    58.6613
  559.0000   -17.3632     8.2941     6.9089   126.6266   102.5469    57.5012
  559.5000   -17.5181     8.2031     6.8395   128.5214   102.4574    53.7904
  560.0000   -17.6718     8.1240     6.7701   130.3804   102.3695    50.3560
  560.5000   -17.8271     8.0711     6.7007   132.2394   102.3643    49.2018
  561.0000   -17.8945     8.0191     6.6313   134.0984   102.7174    49.8389
  561.5000   -17.6018     7.9574     6.5619   135.9574   103.0674    49.1702
  562.0000   -17.2825     7.8519     6.4925   137.8164   103.4173    53.9469
  562.5000   -17.0867     7.7478     6.4231   139.6754   103.5974    57.8582
  563.0000   -17.0598     7.6436     6.3537   141.6416   103.5969    61.1167
  563.5000   -17.0315     7.5385     6.2843   142.4591   103.5405    67.0753
  564.0000   -17.0037     7.4559     6.2148   142.8841   103.1411    65.8003
  564.5000   -16.9756     7.3910     6.1455   143.1902   103.0101    66.7726
  565.0000   -16.9475     7.3695     6.0721   143.4964   103.2967    64.1499
  565.5000   -16.9198     7.3468     6.1090   143.0199   102.7351    60.3157
  566.0000   -16.8997     7.3862     6.1829   141.8187   102.1843    59.1344
  566.5000   -16.9000     7.4703     6.2576   140.6406   101.8525    53.6215
  567.0000   -16.9000     7.5521     6.3320   139.3143   101.6927    47.6860
  567.5000   -16.9000     7.6370     6.4064   138.0130   101.5328    46.9575
  568.0000   -16.9000     7.6846     6.4812   136.7117   101.4805    49.5475
  568.5000   -16.9000     7.7227     6.5534   135.4104   101.9920    50.6006
  569.0000   -16.9001     7.7584     6.5880   134.1091   102.5035    49.9898
  569.5000   -16.9007     7.7931     6.6268   132.8078   102.9859    49.3926
  570.0000   -16.8967     7.8278     6.6661   131.5065   103.4292    48.7955
  570.5000   -16.7948     7.8624     6.7054   130.2038   103.8725    50.6861
  571.0000   -16.6887     7.8982     6.7447   128.8982   104.0344    53.8077
  571.5000   -16.5848     7.9590     6.7839   127.6276   103.8298    55.3648
  572.0000   -16.5964     8.0218     6.8232   127.8317   103.6253    54.8222
  572.5000   -17.2592     8.0845     6.8626   128.0319   103.4178    54.9587
  573.0000   -17.5147     8.1345     6.9017   128.2321   103.4030    55.0008
  573.5000   -17.6084     8.0925     6.9418   128.4323   103.6689    53.5138
  574.0000   -17.6980     8.0518     6.9033   128.6286   103.9357    50.1334
  574.5000   -17.8382     8.0112     6.8154   129.6897   104.2026    49.2919
  575.0000   -17.9860     7.9707     6.7263   130.6306   104.4694    51.4416
  575.5000   -18.0700     7.9302     6.6374   133.4835   104.6878    55.3065
  576.0000   -17.9002     7.8897     6.5485   136.0861   104.9009    55.3063
  576.5000   -17.7371     7.8556     6.4596   137.7054   104.9690    56.4507
  577.0000   -17.5742     7.8488     6.3708   137.8734   104.9225    55.6839
  577.5000   -17.4114     7.8414     6.2776   138.0413   104.7998    58.2390
  578.0000   -17.2486     7.8355     6.2859   138.2098   104.5673    62.6292
  578.5000   -17.0857     7.8309     6.3271   138.3781   104.0322    63.5369
  579.0000   -16.9226     7.8263     6.3690   138.5592   102.6439    64.3405
  579.5000   -16.7594     7.8212     6.4106   137.8328   101.7349    63.7527
  580.0000   -16.5994     7.8184     6.4549   136.0110   100.8824    62.0709
  580.5000   -16.5865     7.9542     6.5817   134.1892   100.0000    60.4739
  581.0000   -16.8091     8.1064     6.7205   132.3674    99.5887    54.0797
  581.5000   -17.0287     8.2583     6.8595   129.8063    99.4136    51.4350
  582.0000   -17.2492     8.4100     6.9983   126.7444    99.3040    49.3150
  582.5000   -17.4697     8.5618     7.1371   123.6825    99.2008    50.6508
  583.0000   -17.6908     8.7135     7.2759   121.0727    99.2820    52.6696
  583.5000   -17.8964     8.8621     7.4148   119.3936    99.3587    54.0402
  584.0000   -17.9014     8.9854     7.5535   117.7145    99.4355    50.0718
  584.5000   -17.8999     9.1102     7.6924   116.0354    99.4063    46.8280
  585.0000   -17.8702     9.2346     7.8312   114.3563    98.7595    44.9187
  585.5000   -17.8376     9.3808     7.9700   112.6772    98.1160    42.6249
  586.0000   -17.8051     9.5724     8.1088   110.9981    97.4720    48.0310
  586.5000   -17.7727     9.7642     8.2476   109.3190    96.8285    51.2702
  587.0000   -17.7402     9.9572     8.3864   107.6399    96.1850    51.2178
  587.5000   -17.7078     9.9148     8.5254   105.9608    95.5545    43.5464
  588.0000   -17.6754     9.8366     8.6641   104.2817    95.0430    42.2392
  588.5000   -17.6429     9.7665     8.8029   102.6026    94.5055    45.8738
  589.0000   -17.6105     9.9284     8.8120   101.7633    94.4614    46.9980
  589.5000   -17.5779    10.0628     8.6967   102.1637    94.4149    44.9657
  590.0000   -17.5457    10.0603     8.5807   102.6026    95.0614    48.0411
  590.5000   -17.5124    10.0601     8.4616   103.8572    96.1446    44.2645
  591.0000   -17.5708    10.0559     8.3467   105.2452    97.2305    42.6515
  591.5000   -17.6877    10.0444     8.2287   106.6333    98.0754    41.8732
  592.0000   -17.8058    10.0333     8.1104   108.0213    98.3307    39.1876
  592.5000   -17.9239    10.0199     7.9921   109.4094    98.3017    41.4977
  593.0000   -18.0418     9.8723     7.8738   110.8176    97.9165    44.4840
  593.5000   -18.1598     9.7078     7.7555   112.3555    97.5025    44.9427
  594.0000   -18.2780     9.5434     7.6372   113.8934    98.3325    42.2097
  594.5000   -18.3962     9.3785     7.5189   115.4313    99.2532    44.4850
  595.0000   -18.5082     9.2069     7.4006   116.9692   100.3628    46.4518
  595.5000   -18.5484     9.0457     7.2823   118.5071   101.5086    44.1195
  596.0000   -18.5917     8.8448     7.1638   120.0451   102.6543    50.6936
  596.5000   -18.6352     8.5834     7.0457   121.5829   103.8000    46.2525
  597.0000   -18.6759     8.3669     6.9442   123.1208   104.9950    45.8678
  597.5000   -18.5864     8.2062     6.8949   124.2093   108.3604    48.2905
  598.0000   -18.3547     8.0450     6.8454   125.0808   110.4895    50.6009
  598.5000   -18.1184     7.8843     6.7959   125.9498   104.0959    52.2185
  599.0000   -17.9426     7.7567     6.7463   126.8195   106.2717    51.0879
  599.5000   -18.4654     7.7718     6.6968   127.6896   107.8062    47.2069
  600.0000   -18.9205     7.7945     6.6472   128.5597   108.1389    45.5494
  600.5000   -19.2563     7.8296     6.5976   129.4298   107.6174    46.9306
  601.0000   -18.8343     7.8646     6.5481   130.2999   107.0958    43.9561
  601.5000   -18.4220     7.9001     6.4985   131.1700   106.5662    42.6646
  602.0000   -18.0114     7.9307     6.4489   132.3559   107.2945    45.1006
  602.5000   -17.5855     7.8553     6.3994   133.8946   108.2678    50.9242
  603.0000   -17.6425     7.7656     6.3498   135.4433   104.5954    46.3056
  603.5000   -17.8357     7.6761     6.3003   136.9905   107.7266    41.6620
  604.0000   -17.7708     7.5868     6.2507   138.5840   108.8296    39.2127
  604.5000   -17.5802     7.4974     6.2011   140.1735   109.5091    46.5465
  605.0000   -17.3851     7.4134     6.1515   141.7630   109.7503    51.0758
  605.5000   -17.1909     7.3326     6.1020   143.3524   109.9900    50.9343
  606.0000   -16.9970     7.2534     6.0554   144.9419   110.1402    54.1534
  606.5000   -16.9953     7.1829     6.0299   146.6467   110.1362    56.1849
  607.0000   -17.1856     7.1384     6.0055   146.1061   110.0558    53.5870
  607.5000   -17.3761     7.0934     5.9811   145.5233   109.8358    51.0289
  608.0000   -17.5670     7.1060     5.9567   144.9405   108.9868    49.3901
  608.5000   -17.7586     7.1710     5.9323   144.3577   107.7545    50.5234
  609.0000   -17.9490     7.2349     5.9079   143.7749   106.3177    51.4404
  609.5000   -18.0545     7.2266     5.8837   144.8048   104.2957    48.0508
  610.0000   -17.7720     7.1987     5.8620   146.3035   106.6933    49.8817
