~VERSION INFORMATION
 VERS.                2.0:   CWLS LOG ASCII STANDARD - VERSION 2.0
 WRAP.                 NO:   ONE LINE PER DEPTH STEP
~WELL INFORMATION
#MNEM.UNIT      DATA TYPE    INFORMATION
#----------   ------------   ------------------------------
 STRT.F           64.0000:   START DEPTH
 STOP.F          795.0000:   STOP DEPTH
 STEP.F            0.5000:   STEP LENGTH
 NULL.          -999.2500:   NO VALUE
 COMP. LAWRENCE/ALLISON INC:   COMPANY
 WELL.      23-61 SX #2-2:   WELL
 FLD .             TEAPOT:   FIELD
 LOC .       S2 T38N R78W:   LOCATION
 CNTY.            NATRONA:   COUNTY
 STAT.            WYOMING:   STATE
 CTRY. UNITED STATES OF AMERICA:   COUNTRY
 SRVC.              Welex:   SERVICE COMPANY
 DATE.        14-AUG-1985:   LOGDATE
 API .       490251103800:   API NUMBER
~CURVE INFORMATION
#MNEM.UNIT       API CODE    CURVE DESCRIPTION
#----------   ------------   ------------------------------
 DEPT.F                  :   
 SPR .MV     07 010 01 00:   SPONTANEOUS POTENTIAL
 ILD .OHMM   07 120 46 00:   INDUCTION LOG DEEP
 ILM .OHMM   07 120 44 00:   INDUCTION LOG MEDIUM
 SGRD.OHMM   07 221 05 00:   SHALLOW SHORT GUARD RESISTIVITY
 DPHI.DEC    45 890 12 00:   DENSITY POROSITY SANDSTONE
 NPHI.DEC    42 890 03 00:   NEUTRON POROSITY SANDSTONE
 GRD .GAPI   45 310 01 00:   GAMMA RAY FROM DENSITY LOG
 CALD.IN     45 280 60 00:   CALIPER FROM DENSITY
 CORR.G/C3   45 356 01 00:   DENSITY CORRECTION
 RHOB.G/C3   45 350 01 00:   BULK DENSITY
~PARAMETER INFORMATION
#MNEM.UNIT          VALUE    DESCRIPTION
#----------   ------------   ------------------------------
 PD  .                 GL:   PERMANENT DATUM
 EPD .F              5112:   ELEVATION PERMANENT DATUM
 LMF .                 GL:   LOG MEASURED FROM
 DMF .                 GL:   DRILLING MEASURED FROM
 EGL .F              5112:   GROUND LEVEL
 DATE.        14-AUG-1985:   RUN DATE
 RUN .                  1:   RUN NUMBER
 DD  .F               800:   DEPTH DRILLER
 DL  .F               797:   DEPTH LOGGER
 BLI .F               795:   BOTTOM LOG INTERVAL
 TLI .F                76:   TOP LOG INTERVAL
 CS  .IN            8.625:   CASING SIZE
 CBD .F                76:   CASING BOTTOM DRILLER
 CBL .F                76:   CASING BOTTOM LOGGER
 BS  .IN            7.875:   BIT SIZE
 BSD .F               800:   BIT SIZE AT DEPTH
 DFT .                KCL:   DRILLING FLUID TYPE
 MSS .               TANK:   MUD SAMPLE SOURCE
 RMS .OHMM           0.22:   RESISTIVITY MUD SAMPLE
 MST .F                64:   MUD SAMPLE TEMPERATURE
 MFSS.               MEAS:   MUD FILTRATE SAMPLE SOURCE
 TCS .HRS            2230:   TIME CURCULATED STOPPED
 TLAB.HRS            0200:   TIME LOGGER AT BOTTOM
 LUN .               1892:   LOGGING UNIT NUMBER
 LUL .             CASPER:   LOGGING UNIT LOCATION
 ENGI.         T. QUINLAN:   RECORDING ENGINEER
 WITN.        N. JENNINGS:   WITNESSED BY
 CLNT.            A2DTECH:   CLIENT CODE
 ORIG.        2" 5" PRINT:   ORIGIN OF DATA
 UWI .       490251103800:   UNIQUE WELL ID
 DICO. A2D Technologies, Inc.:   DIGITIZING COMPANY
 R1  . POROSITY WITH SANDSTONE:   REMARKS 1
~OTHER INFORMATION
~A   DEPT      SPR        ILD        ILM       SGRD       DPHI       NPHI         GRD      CALD       CORR       RHOB   
   64.0000  -999.2500  -999.2500  -999.2500  -999.2500  -999.2500  -999.2500    65.7179  -999.2500  -999.2500  -999.2500
   64.5000  -999.2500  -999.2500  -999.2500  -999.2500  -999.2500  -999.2500    65.4100  -999.2500  -999.2500  -999.2500
   65.0000  -999.2500  -999.2500  -999.2500  -999.2500  -999.2500  -999.2500    64.8192  -999.2500  -999.2500  -999.2500
   65.5000  -999.2500  -999.2500  -999.2500  -999.2500  -999.2500  -999.2500    61.5337  -999.2500  -999.2500  -999.2500
   66.0000  -999.2500  -999.2500  -999.2500  -999.2500  -999.2500     0.5533    59.1410  -999.2500  -999.2500  -999.2500
   66.5000  -999.2500  -999.2500  -999.2500  -999.2500  -999.2500     0.5651    59.1293  -999.2500  -999.2500  -999.2500
   67.0000  -999.2500  -999.2500  -999.2500  -999.2500  -999.2500     0.5712    60.3080  -999.2500  -999.2500  -999.2500
   67.5000  -999.2500  -999.2500  -999.2500  -999.2500  -999.2500     0.5630    61.4897  -999.2500  -999.2500  -999.2500
   68.0000  -999.2500  -999.2500  -999.2500  -999.2500  -999.2500     0.5304    62.9632  -999.2500  -999.2500  -999.2500
   68.5000  -999.2500  -999.2500  -999.2500  -999.2500  -999.2500     0.5413    61.4633  -999.2500  -999.2500  -999.2500
   69.0000  -999.2500  -999.2500  -999.2500  -999.2500  -999.2500     0.5653    57.5826  -999.2500  -999.2500  -999.2500
   69.5000  -999.2500  -999.2500  -999.2500  -999.2500  -999.2500     0.5835    53.1066  -999.2500  -999.2500  -999.2500
   70.0000  -999.2500  -999.2500  -999.2500  -999.2500  -999.2500     0.5802    51.9044  -999.2500  -999.2500  -999.2500
   70.5000  -999.2500  -999.2500  -999.2500  -999.2500  -999.2500     0.5420    54.2736  -999.2500  -999.2500  -999.2500
   71.0000  -999.2500  -999.2500  -999.2500  -999.2500  -999.2500     0.5025    56.0476  -999.2500  -999.2500  -999.2500
   71.5000  -999.2500  -999.2500  -999.2500  -999.2500  -999.2500     0.4791    55.4235  -999.2500  -999.2500  -999.2500
   72.0000  -999.2500  -999.2500  -999.2500  -999.2500  -999.2500     0.4958    55.1310  -999.2500  -999.2500  -999.2500
   72.5000  -999.2500  -999.2500  -999.2500  -999.2500  -999.2500     0.5149    55.1737  -999.2500  -999.2500  -999.2500
   73.0000  -999.2500  -999.2500  -999.2500  -999.2500  -999.2500     0.5303    56.5930  -999.2500  -999.2500  -999.2500
   73.5000  -999.2500  -999.2500  -999.2500  -999.2500  -999.2500     0.5328    58.9623  -999.2500  -999.2500  -999.2500
   74.0000  -999.2500  -999.2500  -999.2500  -999.2500  -999.2500     0.5196    61.0339  -999.2500  -999.2500  -999.2500
   74.5000  -999.2500  -999.2500  -999.2500  -999.2500  -999.2500     0.4804    62.5132  -999.2500  -999.2500  -999.2500
   75.0000  -999.2500  -999.2500  -999.2500     0.2016  -999.2500     0.4375    62.7991  -999.2500  -999.2500  -999.2500
   75.5000  -999.2500  -999.2500  -999.2500     0.2051  -999.2500     0.4178    62.4868  -999.2500  -999.2500  -999.2500
   76.0000    44.7603  1772.3580     0.2000     0.2086     0.1839     0.3960    62.1775     7.6197    -0.0063     2.2763
   76.5000    25.9207  1606.4999   795.9265     0.2664     0.1839     0.3711    68.4338     7.8414     0.0731     2.3164
   77.0000    17.2466  1140.2396  1591.6530     2.0833     0.1830     0.3489    77.0483     8.1230     0.1253     2.3534
   77.5000    10.9641   567.4454  1290.8699     4.1973     0.1912     0.3601    85.6628     8.2111     0.1350     2.3707
   78.0000     6.9237     2.1610     4.3377     5.1561     0.2146     0.3834    94.2773     8.2992     0.1190     2.3669
   78.5000     1.0897     0.5103     2.1727     4.7366     0.2420     0.3928    99.3213     8.3725     0.1045     2.2911
   79.0000    -7.7580     0.3538     1.9284     4.0874     0.2628     0.4041   100.5000     8.4308     0.0952     2.2638
   79.5000   -11.2088     0.2958     1.9818     3.6779     0.2586     0.4014   100.4673     8.4895     0.0860     2.2365
   80.0000   -13.1241     0.4620     2.2772     3.4269     0.2389     0.3805   100.1389     8.4285     0.0852     2.2554
   80.5000   -12.9522     0.8471     2.7342     3.5702     0.2151     0.3631    99.2715     8.1297     0.0873     2.2939
   81.0000   -12.3687     1.4386     3.4926     4.7154     0.2081     0.3430    98.9621     8.0393     0.0854     2.3219
   81.5000   -15.7809     3.3919     4.0082     5.5700     0.2124     0.3300    95.9742     8.0083     0.0691     2.3278
   82.0000   -18.4455     3.2501     4.4721     5.7638     0.2130     0.3285    93.2839     8.0072     0.0455     2.3255
   82.5000   -21.1510     3.3397     5.5007     5.3693     0.2122     0.3361    92.0846     8.0506     0.0390     2.3254
   83.0000   -21.9710     3.5290     6.1954     5.1088     0.2086     0.3443    94.4510     8.0643     0.0367     2.3314
   83.5000   -23.4702     3.8079     6.1485     5.1399     0.1977     0.3470    95.9273     8.0629     0.0381     2.3420
   84.0000   -28.7064     3.8858     5.6907     5.4681     0.1902     0.3434    95.6180     8.0617     0.0455     2.3548
   84.5000   -32.2983     3.9652     5.3784     5.7769     0.1893     0.3353    94.1182     8.0754     0.0492     2.3608
   85.0000   -34.0964     4.0463     5.0127     6.0184     0.1893     0.3311    93.5112     8.0742     0.0514     2.3607
   85.5000   -34.6988     4.0718     4.9066     6.0130     0.1879     0.3284    94.3924     8.0731     0.0543     2.3637
   86.0000   -35.8991     4.0407     4.9379     6.0076     0.1826     0.3287    96.1664     8.0871     0.0572     2.3697
   86.5000   -38.2952     4.0379     4.9341     5.7964     0.1821     0.3296    94.9642     8.1008     0.0593     2.3734
   87.0000   -39.4954     4.0071     4.7953     5.6712     0.1896     0.3303    93.1606     8.0994     0.0531     2.3635
   87.5000   -39.9483     3.9213     4.6604     5.6267     0.1981     0.3315    91.5919     8.0982     0.0462     2.3513
   88.0000   -40.1023     3.8108     4.5293     5.4669     0.2041     0.3327    89.5715     8.0970     0.0385     2.3444
   88.5000   -40.1067     3.7033     4.3713     5.1296     0.2093     0.3346    91.6405     8.1107     0.0293     2.3360
   89.0000   -40.1112     3.5739     4.2188     5.0188     0.2165     0.3397    94.3074     8.1095     0.0261     2.3246
   89.5000   -40.5641     3.3540     4.0716     5.1203     0.2202     0.3519    96.3790     8.1084     0.0283     2.3147
   90.0000   -43.1096     3.1477     3.9295     5.2240     0.2248     0.3707    97.8554     8.1221     0.0342     2.3056
   90.5000   -47.1500     3.0166     3.7139     4.9996     0.2397     0.3831    99.0371     8.1057     0.0387     2.2911
   91.0000   -52.0872     2.9726     3.5101     4.2476     0.2479     0.3871    99.9182     8.1046     0.0416     2.2699
   91.5000   -54.4833     2.9491     3.3407     3.6909     0.2488     0.3889    97.8202     8.1034     0.0438     2.2638
   92.0000   -53.8898     2.9054     3.3625     3.4971     0.2455     0.3902    95.7252     8.1022     0.0436     2.2728
   92.5000   -51.6521     2.8647     3.4071     3.9296     0.2374     0.3905    93.9277     8.1011     0.0427     2.2848
   93.0000   -50.3113     2.8428     3.5013     4.6136     0.2286     0.3875    90.6422     8.0999     0.0365     2.2969
   93.5000   -49.7167     2.8409     3.5483     4.9772     0.2259     0.3848    87.9519     8.0987     0.0311     2.3013
   94.0000   -51.5160     2.8385     3.4970     5.1146     0.2296     0.3836    85.8569     8.0976     0.0280     2.2930
   94.5000   -51.0720     2.7778     3.3051     4.6012     0.2451     0.3857    91.4999     8.0815     0.0271     2.2717
   95.0000   -50.3291     2.6995     3.1898     4.1984     0.2545     0.3997    94.1865     8.0655     0.0300     2.2610
   95.5000   -50.3336     2.6234     3.0564     3.7778     0.2585     0.4092    94.1548     8.0643     0.0314     2.2519
   96.0000   -55.4202     2.4792     2.9490     3.5695     0.2628     0.4306    93.5476     8.0631     0.0335     2.2412
   96.5000   -56.9195     2.3430     2.7633     3.6681     0.2676     0.4322    94.4263     8.0768     0.0349     2.2336
   97.0000   -56.6250     2.1836     2.5761     3.7423     0.2713     0.4125    95.9027     8.0905     0.0356     2.2290
