~VERSION INFORMATION
 VERS.                2.0:   CWLS LOG ASCII STANDARD - VERSION 2.0
 WRAP.                 NO:   ONE LINE PER DEPTH STEP
~WELL INFORMATION
#MNEM.UNIT      DATA TYPE    INFORMATION
#----------   ------------   ------------------------------
 STRT.F          148.5000:   START DEPTH
 STOP.F          882.5000:   STOP DEPTH
 STEP.F            0.5000:   STEP LENGTH
 NULL.          -999.2500:   NO VALUE
 COMP.               NAVY:   COMPANY
 WELL. RES 3 TEAPOT DOM #55S-11:   WELL
 FLD .             TEAPOT:   FIELD
 LOC .      S11 T38N R78W:   LOCATION
 CNTY.            NATRONA:   COUNTY
 STAT.            WYOMING:   STATE
 CTRY. UNITED STATES OF AMERICA:   COUNTRY
 SRVC.       Schlumberger:   SERVICE COMPANY
 DATE.        05-AUG-1961:   LOGDATE
 API .       490250634000:   API NUMBER
~CURVE INFORMATION
#MNEM.UNIT       API CODE    CURVE DESCRIPTION
#----------   ------------   ------------------------------
 DEPT.F                  :   
 GR  .GAPI   30 310 01 00:   GAMMA RAY
 SPR .MV     05 010 01 00:   SPONTANEOUS POTENTIAL FROM RES.
 CILD.MMHO   05 110 46 00:   CONDUCTIVITY INDUCTION LOG DEEP
 ASN .OHMM   05 041 16 00:   AMPLIFIED SHORT NORMAL 16"
 ILD .OHMM   05 120 46 00:   INDUCTION LOG DEEP
~PARAMETER INFORMATION
#MNEM.UNIT          VALUE    DESCRIPTION
#----------   ------------   ------------------------------
 PD  .                 GL:   PERMANENT DATUM
 EPD .F              5201:   ELEVATION PERMANENT DATUM
 LMF .                 KB:   LOG MEASURED FROM
 DAPD.F                 6:   FEET ABOVE PERMANENT DATUM
 DMF .                 KB:   DRILLING MEASURED FROM
 EKB .F              5207:   KELLING BUSHING
 EGL .F              5201:   GROUND LEVEL
 DATE.             8-5-61:   RUN DATE
 RUN .                  1:   RUN NUMBER
 DD  .F               880:   DEPTH DRILLER
 DL  .F               882:   DEPTH LOGGER
 BLI .F               881:   BOTTOM LOG INTERVAL
 TLI .F               150:   TOP LOG INTERVAL
 BS  .IN            7.875:   BIT SIZE
 BSD .F               880:   BIT SIZE AT DEPTH
 DFT .       OIL EMULSION:   DRILLING FLUID TYPE
 DFV .                 40:   DRILLING FLUID VISCOSITY
 MSS .           FLOWLINE:   MUD SAMPLE SOURCE
 RMS .OHMM            .96:   RESISTIVITY MUD SAMPLE
 MST .F                74:   MUD SAMPLE TEMPERATURE
 TCS .HRS               1:   TIME CURCULATED STOPPED
 LUN .               2544:   LOGGING UNIT NUMBER
 LUL .                 NC:   LOGGING UNIT LOCATION
 ENGI.            EARNEST:   RECORDING ENGINEER
 WITN.          JORGENSEN:   WITNESSED BY
 CLNT.            A2DTECH:   CLIENT CODE
 ORIG.       2", 5" PRINT:   ORIGIN OF DATA
 UWI .       490250634000:   UNIQUE WELL ID
 DICO. A2D Technologies, Inc.:   DIGITIZING COMPANY
~OTHER INFORMATION
~A   DEPT       GR        SPR       CILD        ASN        ILD   
# ...
  819.5000    31.8252   -44.1309   119.9928    10.1554     9.4837
  820.0000    31.3591   -43.9655   121.0772    10.2071     9.4924
  820.5000    28.6128   -43.8463   121.4859    10.2613     9.4745
  821.0000    26.2106   -43.6718   119.7523    10.3067     9.5743
  821.5000    24.4863   -43.6511   118.0656    10.4503     9.6683
  822.0000    21.9897   -43.8712   116.3789    10.6133     9.6043
  822.5000    24.2296   -44.0987   114.6921    10.7833     9.8569
  823.0000    25.6058   -44.3392   112.0677    11.0437    10.0860
  823.5000    22.9759   -44.7191   106.8541    11.3472    10.3659
  824.0000    22.1324   -45.2810   101.6405    11.6304    10.9469
  824.5000    25.3239   -45.7750    96.4269    11.8652    11.5415
  825.0000    29.9226   -46.2767    91.2133    12.1910    12.1726
  825.5000    33.5261   -46.7350    85.9998    12.6907    12.7547
  826.0000    36.6734   -47.2111    80.7862    13.1697    13.3868
  826.5000    37.8508   -47.6715    77.3092    13.6321    13.9918
  827.0000    36.3439   -48.1394    76.5894    14.1089    14.6441
  827.5000    37.5858   -48.3375    75.8109    14.5094    14.9659
  828.0000    33.4963   -48.4519    75.0324    14.7380    14.9885
  828.5000    34.7379   -48.3365    74.2539    14.9412    15.0588
  829.0000    31.5600   -48.0185    73.2932    15.1411    15.1241
  829.5000    30.9452   -47.7046    72.4096    15.3481    15.3868
  830.0000    28.2441   -47.6319    70.8526    15.5200    15.6723
  830.5000    31.6679   -47.8747    69.2956    15.6774    15.9783
  831.0000    31.6774   -48.0297    67.7386    15.8146    16.0140
  831.5000    30.5739   -48.1319    66.1816    15.9551    15.9553
  832.0000    32.8389   -48.2255    66.0883    16.0945    15.9477
  832.5000    25.6544   -48.0343    68.1124    16.2365    15.7483
  833.0000    28.1590   -47.8783    70.1366    16.3228    15.4187
  833.5000  -999.2500   -47.6976    72.1606    16.1204    15.1272
  834.0000  -999.2500   -47.5387    74.1847    15.9753    14.9392
  834.5000  -999.2500   -47.3496    76.2513    15.6797    14.8037
  835.0000  -999.2500   -47.2481    77.6858    15.3967    14.5915
  835.5000  -999.2500   -47.2625    78.9485    15.1302    14.3878
  836.0000  -999.2500   -47.2548    78.7328    14.8421    14.1808
  836.5000  -999.2500   -47.2621    77.7932    14.6447    13.9756
  837.0000  -999.2500   -47.1921    77.5979    14.5399    13.7695
  837.5000  -999.2500   -46.9746    78.1866    14.4186    13.5694
  838.0000  -999.2500   -46.3217    78.7813    14.3057    13.4576
  838.5000  -999.2500   -45.7009    79.3858    14.1899    13.3973
  839.0000  -999.2500   -45.1004    79.9811    14.0732    13.3299
  839.5000  -999.2500   -44.4582    80.5764    13.9576    13.2969
  840.0000  -999.2500   -44.0472    81.1718    13.8412    13.2543
  840.5000  -999.2500   -44.3580    81.7671    13.7258    13.1976
  841.0000  -999.2500   -44.7240    82.3624    13.6059    13.1447
  841.5000  -999.2500   -45.0635    82.9577    13.4838    13.0908
  842.0000  -999.2500   -45.4573    83.6977    13.3567    13.0351
  842.5000  -999.2500   -45.6166    84.6851    13.2305    12.9856
  843.0000  -999.2500   -45.3341    85.6724    13.1039    12.8601
  843.5000  -999.2500   -45.1207    86.6598    12.9774    12.7395
  844.0000  -999.2500   -44.8721    87.6472    12.8508    12.6136
  844.5000  -999.2500   -44.6641    88.6345    12.7241    12.5019
  845.0000  -999.2500   -44.7884    89.6219    12.5979    12.3037
  845.5000  -999.2500   -45.1032    90.6093    12.4707    12.0050
  846.0000  -999.2500   -45.0358    91.3655    12.3453    11.7252
  846.5000  -999.2500   -44.5109    92.6145    12.2162    11.4258
  847.0000  -999.2500   -44.0506    93.6265    12.1037    11.3670
  847.5000  -999.2500   -43.5985    94.6385    12.0442    11.3473
  848.0000  -999.2500   -43.0644    96.0222    11.9802    11.3177
  848.5000  -999.2500   -42.8262    98.4318    11.9172    11.2929
  849.0000  -999.2500   -43.1108   100.8415    11.8537    11.2651
  849.5000  -999.2500   -43.3379   103.2511    11.7903    11.2401
  850.0000  -999.2500   -43.5872   105.4217    11.7272    11.2112
  850.5000  -999.2500   -43.8521    99.3976    11.6632    11.1898
  851.0000  -999.2500   -44.0482    99.2309    11.6010    11.1569
  851.5000  -999.2500   -44.1152    98.7209    11.5341    11.1207
  852.0000  -999.2500   -44.2182    98.2108    11.4682    11.0861
  852.5000  -999.2500   -44.2962    97.7008    11.4017    11.0506
  853.0000  -999.2500   -44.4079    97.3896    11.3306    11.0158
  853.5000  -999.2500   -44.4021    99.3976    11.2611    10.9760
  854.0000  -999.2500   -44.4374   100.7738    11.1909    10.8051
  854.5000  -999.2500   -44.1754   102.1339    11.1206    10.6048
  855.0000  -999.2500   -43.7910   103.4137    11.0512    10.4240
  855.5000  -999.2500   -43.6991   105.4217    10.9799    10.2079
  856.0000  -999.2500   -43.5969   105.9561    10.9123    10.0765
  856.5000  -999.2500   -43.5136   106.7408    10.8356    10.1196
  857.0000  -999.2500   -43.4171   107.4297    10.7764    10.1751
  857.5000  -999.2500   -43.3320   107.8616    10.7428    10.2290
  858.0000  -999.2500   -43.2316   108.2466    10.7010    10.2931
  858.5000  -999.2500   -43.2004   108.6315    10.6633    10.2113
  859.0000  -999.2500   -43.2594   109.0164    10.6225    10.1399
  859.5000  -999.2500   -43.3085   109.4014    10.5902    10.0936
  860.0000  -999.2500   -43.3640   109.7863    10.5588     9.8971
  860.5000  -999.2500   -43.4147   110.1712    10.5343     9.9505
  861.0000  -999.2500   -43.4701   110.5562    10.5025    10.0661
  861.5000  -999.2500   -43.5196   110.9411    10.5099    10.1867
  862.0000  -999.2500   -43.5792   111.3261    10.5607    10.1495
  862.5000  -999.2500   -43.5727   111.0807    10.6049     9.9511
  863.0000  -999.2500   -43.4804   110.5508    10.6527     9.8867
  863.5000  -999.2500   -43.4013   110.0209    10.6947     9.9191
  864.0000  -999.2500   -43.3072   109.4910    10.7385    10.0132
  864.5000  -999.2500   -43.2367   108.9610    10.7785    10.1061
  865.0000  -999.2500   -43.0671   108.4311    10.8195    10.1965
  865.5000  -999.2500   -42.8235   107.9012    10.8588    10.2904
  866.0000  -999.2500   -42.5976   107.3713    10.9010    10.2413
  866.5000  -999.2500   -42.3916   106.8414    10.9380    10.1509
  867.0000  -999.2500   -42.3750   106.3115    10.9844    10.0426
  867.5000  -999.2500   -42.3769   105.7816    10.9595    10.0253
  868.0000  -999.2500   -42.3848   105.2517    10.8872    10.0990
  868.5000  -999.2500   -42.5065   104.7217    10.8256    10.0729
  869.0000  -999.2500   -42.6191   104.1918    10.7719    10.0684
  869.5000  -999.2500   -42.7281   103.6619    10.7354    10.0523
  870.0000  -999.2500   -42.8373   103.4137    10.6947    10.0428
  870.5000  -999.2500   -42.9655   105.6287    10.6559    10.0298
  871.0000  -999.2500   -42.8950   107.9827    10.6164    10.0189
  871.5000  -999.2500   -42.6763   109.4378    10.5768    10.0061
  872.0000  -999.2500   -42.4679   111.4458    10.5384     9.9959
  872.5000  -999.2500   -42.3713   110.0803    10.4975     9.9752
  873.0000  -999.2500   -42.3563   108.7202    10.4612     9.9462
  873.5000  -999.2500   -42.2679   107.4297    10.4145     9.9203
  874.0000  -999.2500   -42.1801   109.4378    10.4019     9.8902
  874.5000  -999.2500   -41.9966   110.0717    10.4538     9.8530
  875.0000  -999.2500   -41.7534   110.8003    10.5000     9.8091
  875.5000  -999.2500   -41.5323   111.5290    10.5511     9.7682
  876.0000  -999.2500   -41.2744   112.2576    10.5940     9.7227
  876.5000  -999.2500   -41.1622   112.9862    10.6346     9.6970
  877.0000  -999.2500   -41.3607   113.4538    10.6692     9.7535
  877.5000  -999.2500   -41.5448   112.7510    10.7517     9.8104
  878.0000  -999.2500   -41.7523   112.0224    10.9365     9.8669
  878.5000  -999.2500   -41.7171   111.2937    10.9754     9.9250
  879.0000  -999.2500   -41.5012   110.5651    10.7438     9.9749
  879.5000  -999.2500   -41.3144   109.8365    10.4571     9.8577
  880.0000  -999.2500   -41.0714   109.1079    10.2905     9.6674
