~VERSION INFORMATION
 VERS.                2.0:   CWLS LOG ASCII STANDARD - VERSION 2.0
 WRAP.                 NO:   ONE LINE PER DEPTH STEP
~WELL INFORMATION
#MNEM.UNIT      DATA TYPE    INFORMATION
#----------   ------------   ------------------------------
 STRT.F           28.0000:   START DEPTH
 STOP.F          636.0000:   STOP DEPTH
 STEP.F            0.5000:   STEP LENGTH
 NULL.          -999.2500:   NO VALUE
 COMP. FENIX & SCISSON INC:   COMPANY
 WELL.    NPR-3 #12S14-14:   WELL
 FLD .             TEAPOT:   FIELD
 LOC .      S14 T38N R78W:   LOCATION
 CNTY.            NATRONA:   COUNTY
 STAT.            WYOMING:   STATE
 CTRY. UNITED STATES OF AMERICA:   COUNTRY
 SRVC.           BIRDWELL:   SERVICE COMPANY
 DATE.        21-JUN-1978:   LOGDATE
 API .       490251065000:   API NUMBER
~CURVE INFORMATION
#MNEM.UNIT       API CODE    CURVE DESCRIPTION
#----------   ------------   ------------------------------
 DEPT.F                  :   
 SPR .MV     07 010 01 00:   SPONTANEOUS POTENTIAL
 ILD .OHMM   07 120 46 00:   INDUCTION LOG DEEP
 SN  .OHMM   07 040 16 00:   SHORT NORMAL 16"
 GRD .GAPI   45 310 01 00:   GAMMA RAY FROM DENSITY LOG
 CORR.G/C3   45 356 01 00:   DENSITY CORRECTION
 DEN .G/C3   45 350 01 00:   COMPENSATED BULK DENSTIY
 DPHI.DEC    45 890 12 00:   DENSITY POROSITY SANDSTONE
~PARAMETER INFORMATION
#MNEM.UNIT          VALUE    DESCRIPTION
#----------   ------------   ------------------------------
 PD  .                 GL:   PERMANENT DATUM
 EPD .F              5237:   ELEVATION PERMANENT DATUM
 LMF .                 KB:   LOG MEASURED FROM
 DMF .                 KB:   DRILLING MEASURED FROM
 EKB .F              5241:   KELLING BUSHING
 EGL .F              5237:   GROUND LEVEL
 DATE.        21-JUN-1978:   RUN DATE
 RUN .                  1:   RUN NUMBER
 DD  .F               637:   DEPTH DRILLER
 DL  .F               642:   DEPTH LOGGER
 BLI .F               636:   BOTTOM LOG INTERVAL
 TLI .F                40:   TOP LOG INTERVAL
 CS  .IN            8.625:   CASING SIZE
 CBD .F                40:   CASING BOTTOM DRILLER
 CBL .F                40:   CASING BOTTOM LOGGER
 BS  .IN            7.875:   BIT SIZE
 BSD .F               637:   BIT SIZE AT DEPTH
 DFT .                KCL:   DRILLING FLUID TYPE
 DFD .                8.7:   DRILLING FLUID DENSITY
 DFV .                 32:   DRILLING FLUID VISCOSITY
 DFPH.                 10:   DRILLING FLUID PH
 MSS .           FLOWLINE:   MUD SAMPLE SOURCE
 RMS .OHMM            .18:   RESISTIVITY MUD SAMPLE
 MST .F                84:   MUD SAMPLE TEMPERATURE
 RMF .OHMM            .17:   RESISTIVITY MUD FILTRATE SAMPLE
 MFST.F                72:   MUD FILTRATE SAMPLE TEMPERATURE
 RMC .OHMM            .28:   RESISTIVITY MUD CAKE
 MCST.F                82:   MUD CAKE SAMPLE TEMPERATURE
 MFSS.               MEAS:   MUD FILTRATE SAMPLE SOURCE
 MCSS.               MEAS:   MUD CAKE SAMPLE SOURCE
 BHT .F                72:   BOTTOM HOLE TEMPERATURE
 TCS .HRS            0230:   TIME CURCULATED STOPPED
 MRT .F                72:   MAXIMUM RECORDED TEMPERATURE
 LUN .               2958:   LOGGING UNIT NUMBER
 LUL .               CASP:   LOGGING UNIT LOCATION
 ENGI.             MILLER:   RECORDING ENGINEER
 WITN.           MCGINLEY:   WITNESSED BY
 CLNT.            A2DTECH:   CLIENT CODE
 ORIG.           5" PRINT:   ORIGIN OF DATA
 UWI .       490251065000:   UNIQUE WELL ID
 DICO. A2D Technologies, Inc.:   DIGITIZING COMPANY
~OTHER INFORMATION
~A   DEPT      SPR        ILD         SN        GRD       CORR        DEN       DPHI   
# ...
  483.0000   -47.3438     6.0962     7.8651    94.2431     0.0026     2.4693     0.1190
  483.5000   -47.3276     6.0995     7.8689    94.0776     0.0024     2.4730     0.1173
  484.0000   -47.3114     6.0600     7.8727    92.9830     0.0008     2.4767     0.1147
  484.5000   -47.2953     6.0641     7.8223    89.9143    -0.0009     2.4759     0.1122
  485.0000   -47.2791     6.0674     7.7723    85.6808    -0.0011     2.4728     0.1151
  485.5000   -47.5619     6.1128     7.7761    87.9014    -0.0012     2.4735     0.1204
  486.0000   -47.6952     6.1161     7.8431    91.7571     0.0016     2.4787     0.1140
  486.5000   -47.8285     6.1618     7.8924    86.7888     0.0045     2.4861     0.1041
  487.0000   -47.8117     6.2078     7.8961    84.3730     0.0073     2.4920     0.1007
  487.5000   -47.6427     6.2112     7.8999    86.1614     0.0071     2.4950     0.1025
  488.0000   -47.6266     6.2576     7.8484    87.6529     0.0024     2.4851     0.1067
  488.5000   -47.7639     6.3919     7.8531    84.4830    -0.0022     2.4813     0.1109
  489.0000   -47.7437     6.5744     7.8568    82.9681    -0.0069     2.4670     0.1155
  489.5000   -47.8811     6.6693     7.8056    83.1083    -0.0115     2.4385     0.1251
  490.0000   -47.7114     6.3411     7.7566    83.2450    -0.0132     2.4085     0.1372
  490.5000   -47.6952     5.7769     7.6015    82.9280    -0.0133     2.3823     0.1541
  491.0000   -47.6791     5.1403     7.2468    82.0137    -0.0120     2.3648     0.1663
  491.5000   -47.6629     4.7673     6.9087    82.4508    -0.0069     2.3425     0.1908
  492.0000   -47.6468     4.8029     6.3632    91.7456     0.0111     2.3431     0.1962
  492.5000   -47.4811     4.8388     6.0662   103.5941     0.0600     2.4304     0.1909
  493.0000   -46.7117     4.8749     5.9860   102.6798     0.0389     2.4699     0.1663
  493.5000   -45.8042     4.8776     6.0304    93.2070     0.0261     2.4977     0.1128
  494.0000   -45.1898     4.8802     6.0807    81.4819     0.0354     2.5075     0.0952
  494.5000   -45.0208     4.9167     6.7980    78.7691     0.0471     2.5142     0.0913
  495.0000   -44.7057     5.2707     7.4030    82.3560     0.0496     2.5209     0.0904
  495.5000   -44.6895     5.8084     7.9915    83.6973     0.0494     2.5290     0.0914
  496.0000   -44.5239     6.6255     8.5926    81.4284     0.0462     2.5140     0.0971
  496.5000   -44.5077     7.3519     8.9597    80.0670     0.0445     2.5021     0.1022
  497.0000   -44.3421     7.6155     8.9640    83.6539     0.0429     2.4899     0.1049
  497.5000   -44.1765     7.4108     8.9683    84.5414     0.0412     2.4988     0.1052
  498.0000   -43.8614     7.3087     8.9725    88.8824     0.0395     2.5006     0.1017
  498.5000   -43.6957     7.2170     8.9768    91.1216     0.0333     2.4822     0.1038
  499.0000   -43.2311     7.2719     8.9811    86.3030     0.0197     2.4731     0.1068
  499.5000   -42.7665     7.3262     9.0475    85.2386     0.0091     2.4731     0.1137
  500.0000   -42.1510     7.3803     9.3693    84.1742     0.0045     2.4731     0.1168
  500.5000   -41.6850     7.5939     9.5045    82.5753     0.0094     2.4549     0.1252
  501.0000   -40.9200     7.8138     9.7084    78.5969     0.0147     2.4512     0.1279
  501.5000   -40.3045     8.1957     9.9166    70.7786     0.0161     2.4496     0.1279
  502.0000   -39.3900     8.5456    10.3410    62.3598     0.0145     2.4313     0.1315
  502.5000   -38.9089     8.9721    10.7898    59.4965     0.0129     2.4208     0.1466
  503.0000   -38.4385     9.5507    11.1809    59.3359     0.0097     2.4127     0.1508
  503.5000   -37.9875    10.0273    11.5672    59.3255     0.0081     2.4027     0.1524
  504.0000   -37.8248    10.3121    11.8971    59.3151     0.0080     2.3573     0.1694
  504.5000   -37.9567    11.2843    12.0688    57.0524     0.0079     2.3453     0.1882
  505.0000   -37.9347    11.6047    12.2429    49.0840     0.0155     2.3856     0.1851
  505.5000   -37.9171    11.6095    12.3343    43.0676     0.0196     2.4028     0.1617
  506.0000   -37.8995    11.5343    12.5123    41.4054     0.0180     2.3930     0.1644
  506.5000   -37.8819    11.5390    12.6057    43.8653     0.0285     2.3817     0.1692
  507.0000   -37.8643    11.5438    12.6997    50.5889     0.0313     2.3734     0.1773
  507.5000   -37.8467    11.5486    12.7066    53.9868     0.0341     2.3614     0.1821
  508.0000   -37.8291    11.5543    12.8900    53.8038     0.0340     2.3621     0.1840
  508.5000   -37.8115    11.6390    12.8970    53.3383     0.0276     2.3628     0.1810
  509.0000   -38.2424    11.6437    12.9042    53.6526     0.0188     2.3365     0.1870
  509.5000   -38.2243    11.5672    12.9126    54.5431     0.0172     2.3147     0.2029
  510.0000   -38.2028    11.5730    12.9196    53.3314     0.0233     2.3004     0.2182
  510.5000   -38.1852    11.6579    12.9266    48.2159     0.0274     2.3071     0.2197
  511.0000   -38.1676    11.6626    12.7565    48.6559     0.0226     2.3190     0.2198
  511.5000   -38.1500    11.5063    12.7633    50.4473     0.0148     2.3212     0.2147
  512.0000   -38.1324    11.3544    12.6825    52.0885     0.0089     2.3279     0.2108
  512.5000   -38.1148    11.3590    12.6894    54.4805     0.0060     2.3458     0.2016
  513.0000   -38.0972    11.3636    12.6962    55.8214     0.0059     2.3495     0.1968
  513.5000   -38.0796    11.3683    12.7031    58.6638     0.0057     2.3824     0.1846
  514.0000   -38.0620    11.3731    12.7099    59.5543     0.0056     2.4003     0.1619
  514.5000   -38.0444    11.3786    12.8935    60.4447     0.0055     2.4055     0.1562
  515.0000   -38.0268    11.3833    12.9899    61.4854     0.0054     2.3927     0.1625
  515.5000   -38.0090    11.3879    13.0883    60.4239     0.0037     2.3956     0.1688
  516.0000   -37.9911    11.3925    13.0953    55.6086     0.0036     2.4053     0.1601
  516.5000   -38.1190    11.3971    13.1024    54.3970     0.0020     2.3992     0.1575
  517.0000   -38.1014    11.4018    13.1095    54.2364    -0.0026     2.3932     0.1656
  517.5000   -37.9344    11.4064    13.2073    54.5263    -0.0057     2.3871     0.1671
  518.0000   -38.3652    11.4110    13.3059    55.4168    -0.0043     2.3751     0.1719
  518.5000   -38.5015    11.4157    13.4052    54.9559    -0.0029     2.3601     0.1794
  519.0000   -38.4795    11.4203    13.4124    53.7442    -0.0031     2.3593     0.1867
  519.5000   -38.4619    11.2684    13.4197    53.5837    -0.0017     2.3561     0.1888
  520.0000   -38.4443    11.1185    13.3347    54.0237    -0.0018     2.3509     0.1924
  520.5000   -38.4267    11.0465    13.2502    55.5147     0.0026     2.3532     0.1939
  521.0000   -38.4091    10.8246    13.1663    58.5073     0.0040     2.3584     0.1871
  521.5000   -38.3915    10.5354    13.1752    59.0976     0.0068     2.3605     0.1889
  522.0000   -38.3737    10.2517    13.1823    59.3874     0.0067     2.3611     0.1874
  522.5000   -38.3558    10.1854    13.1894    59.9800     0.0081     2.3581     0.1844
  523.0000   -38.3343    10.2611    13.2878    60.8819     0.0079     2.3535     0.1878
  523.5000   -38.3167    10.1246    13.2037    62.0588     0.0094     2.3497     0.1926
  524.0000   -38.2991     9.9889    13.1183    61.8979     0.0092     2.3534     0.1911
  524.5000   -38.1320     9.9940    12.8567    62.0581     0.0091     2.3571     0.1881
  525.0000   -38.2683     9.9980    12.7767    63.5785     0.0090     2.3593     0.1870
  525.5000   -38.2463    10.0021    12.6960    64.8673     0.0118     2.3742     0.1846
  526.0000   -38.2287     9.9373    12.5290    66.5085     0.0117     2.3816     0.1724
  526.5000   -38.2111    10.0103    12.4425    69.2008     0.0131     2.3793     0.1736
  527.0000   -38.1935    10.0144    12.2014    66.7879     0.0130     2.3762     0.1772
  527.5000   -38.1759     9.9505    12.1241    66.4772     0.0144     2.3732     0.1808
  528.0000   -38.3079     9.9545    12.0473    64.6650     0.0142     2.3634     0.1779
