~VERSION INFORMATION
 VERS.                2.0:   CWLS LOG ASCII STANDARD - VERSION 2.0
 WRAP.                 NO:   ONE LINE PER DEPTH STEP
~WELL INFORMATION
#MNEM.UNIT      DATA TYPE    INFORMATION
#----------   ------------   ------------------------------
 STRT.F           80.0000:   START DEPTH
 STOP.F          679.5000:   STOP DEPTH
 STEP.F            0.5000:   STEP LENGTH
 NULL.          -999.2500:   NO VALUE
 COMP. U S NAVY/INTEX OIL CO:   COMPANY
 WELL.      NPR 3 #23-S-2:   WELL
 FLD .        TEAPOT DOME:   FIELD
 LOC .       S2 T38N R78W:   LOCATION
 CNTY.            NATRONA:   COUNTY
 STAT.            WYOMING:   STATE
 CTRY. UNITED STATES OF AMERICA:   COUNTRY
 SRVC.       Schlumberger:   SERVICE COMPANY
 DATE.        16-JUL-1962:   LOGDATE
 API .       490250645000:   API NUMBER
~CURVE INFORMATION
#MNEM.UNIT       API CODE    CURVE DESCRIPTION
#----------   ------------   ------------------------------
 DEPT.F                  :   
 GR  .GAPI   30 310 01 00:   GAMMA RAY
 SPR .MV     05 010 01 00:   SPONTANEOUS POTENTIAL FROM RES.
 ILD .OHMM   05 120 46 00:   INDUCTION LOG DEEP
 CILD.MMHO   05 110 46 00:   CONDUCTIVITY INDUCTION LOG DEEP
 ASN .OHMM   05 041 16 00:   AMPLIFIED SHORT NORMAL 16"
~PARAMETER INFORMATION
#MNEM.UNIT          VALUE    DESCRIPTION
#----------   ------------   ------------------------------
 PD  .                 GL:   PERMANENT DATUM
 EPD .F              5126:   ELEVATION PERMANENT DATUM
 LMF .                 KB:   LOG MEASURED FROM
 DAPD.F                 5:   FEET ABOVE PERMANENT DATUM
 DMF .                 KB:   DRILLING MEASURED FROM
 EKB .F              5131:   KELLING BUSHING
 EGL .F              5126:   GROUND LEVEL
 DATE.            7-17-62:   RUN DATE
 RUN .                  1:   RUN NUMBER
 DD  .F               680:   DEPTH DRILLER
 DL  .F               680:   DEPTH LOGGER
 BLI .F               679:   BOTTOM LOG INTERVAL
 TLI .F                87:   TOP LOG INTERVAL
 BS  .IN             6.75:   BIT SIZE
 BSD .F               680:   BIT SIZE AT DEPTH
 DFT .       OIL EMULSION:   DRILLING FLUID TYPE
 DFD .                 10:   DRILLING FLUID DENSITY
 DFV .                 41:   DRILLING FLUID VISCOSITY
 DFL .                2.9:   DRILLING FLUID LOSS
 RMS .OHMM           5.86:   RESISTIVITY MUD SAMPLE
 MST .F                73:   MUD SAMPLE TEMPERATURE
 RMF .OHMM           4.19:   RESISTIVITY MUD FILTRATE SAMPLE
 MFST.F                73:   MUD FILTRATE SAMPLE TEMPERATURE
 RMC .OHMM           5.66:   RESISTIVITY MUD CAKE
 MCST.F                73:   MUD CAKE SAMPLE TEMPERATURE
 TCS .HRS               1:   TIME CURCULATED STOPPED
 LUN .               2503:   LOGGING UNIT NUMBER
 LUL .               CSPR:   LOGGING UNIT LOCATION
 ENGI.             DANNER:   RECORDING ENGINEER
 WITN.          JORGENSON:   WITNESSED BY
 CLNT.            A2DTECH:   CLIENT CODE
 ORIG.       2", 5" PRINT:   ORIGIN OF DATA
 UWI .       490250645000:   UNIQUE WELL ID
 DICO. A2D Technologies, Inc.:   DIGITIZING COMPANY
~OTHER INFORMATION
~A   DEPT       GR        SPR          ILD      CILD         ASN 
# ...
  629.0000    42.6077   -47.2296    24.8058    31.5000    28.4516
  629.5000    45.1432   -47.5259    24.6891    31.5000    28.8749
  630.0000    47.4316   -46.0476    24.8431    31.5000    29.5422
  630.5000    40.5146   -45.1745    25.1522    31.5000    29.9526
  631.0000    48.2328   -45.5456    25.4375    31.4994    29.8574
  631.5000    36.8498   -45.8984    25.2500    31.4989    30.4975
  632.0000    29.8520   -45.2274    25.0434    31.4984    30.1033
  632.5000    27.0050   -43.7014    24.6755    31.9846    29.6040
  633.0000    24.0203   -41.9979    24.3124    32.7554    30.0185
  633.5000    30.6922   -41.5869    23.9185    33.5000    28.9800
  634.0000    42.1549   -42.0406    22.7309    35.4343    26.5497
  634.5000    48.0173   -42.6080    21.5578    37.5814    25.3120
  635.0000    55.5877   -43.1453    20.7400    39.7286    24.6300
  635.5000    62.5584   -43.1977    20.0588    41.8757    24.5500
  636.0000    63.3210   -43.2331    19.5526    43.6144    23.6424
  636.5000    57.6221   -43.2720    19.0854    44.0841    22.6785
  637.0000    58.9905   -43.3081    18.6119    44.5537    22.2070
  637.5000    55.4537   -43.3218    18.3251    45.0234    21.9981
  638.0000    58.5620   -44.0749    18.1300    45.4931    21.4739
  638.5000    60.4944   -44.9011    17.9361    45.9628    21.0549
  639.0000    68.2066   -45.4096    17.7423    46.4325    21.1353
  639.5000    64.4472   -44.7276    17.5486    47.3215    20.8426
  640.0000    69.0328   -44.7941    17.3551    48.2802    20.3801
  640.5000    52.2435   -45.1600    17.1403    49.2400    19.9154
  641.0000    56.2312   -45.5342    16.9001    50.1996    19.4737
  641.5000    59.1854   -46.0553    16.6603    51.1589    19.3919
  642.0000    53.3919   -46.7481    16.4208    52.1183    19.4405
  642.5000    69.5377   -47.1814    16.1810    53.0777    18.9810
  643.0000    54.8747   -47.3443    15.9173    54.0370    18.2585
  643.5000    54.4207   -48.0273    15.6488    54.9964    18.3355
  644.0000    55.0741   -48.6938    15.3838    55.2885    18.4574
  644.5000    48.3312   -49.3097    15.4670    54.8554    18.5510
  645.0000    42.0129   -49.6255    15.6013    54.4219    18.5482
  645.5000    53.1915   -49.5402    15.7364    53.9862    18.3660
  646.0000    67.2857   -49.3092    15.8710    53.5504    17.9898
  646.5000    74.9182   -49.0785    16.0056    53.3296    18.2062
  647.0000    68.7867   -48.9953    16.1397    53.1369    18.6315
  647.5000    57.6493   -49.3609    16.2742    52.9442    18.4231
  648.0000    55.0090   -49.7146    16.4177    52.7515    17.9734
  648.5000    56.6658   -50.0593    16.2475    52.5588    17.6833
  649.0000    46.1020   -49.8401    15.9601    53.5788    17.8315
  649.5000    43.2928   -49.5269    15.6683    55.1320    17.4013
  650.0000    41.7140   -48.0386    15.3599    56.6852    16.9011
  650.5000    52.0732   -46.4008    14.9413    58.2383    16.4396
  651.0000    59.2723   -44.9816    14.4911    59.7915    16.0473
  651.5000    63.4523   -45.5992    14.0387    61.5000    15.6832
  652.0000    55.1727   -46.0583    13.5770    63.3750    15.3315
  652.5000    68.9325   -44.3876    13.2182    65.4583    14.8470
  653.0000    76.8214   -43.9581    12.8828    67.5417    14.3820
  653.5000    72.2514   -43.9413    12.5424    69.6250    14.1159
  654.0000    74.4467   -43.5455    12.3261    71.5000    13.9773
  654.5000  -999.2500   -43.5521    12.1440    72.1111    13.8427
  655.0000  -999.2500   -43.6539    11.9573    72.6667    13.7099
  655.5000  -999.2500   -43.2712    11.8985    73.2222    13.5767
  656.0000  -999.2500   -42.4208    11.8442    73.7778    13.4433
  656.5000  -999.2500   -42.4508    11.7889    74.3333    13.3100
  657.0000  -999.2500   -42.8596    11.7333    74.7100    13.1767
  657.5000  -999.2500   -42.6578    11.6778    75.0100    13.0432
  658.0000  -999.2500   -40.6596    11.6222    75.3100    12.9190
  658.5000  -999.2500   -39.8046    11.5667    75.6100    12.8106
  659.0000  -999.2500   -39.8992    11.5111    75.9100    12.7035
  659.5000  -999.2500   -40.0515    11.4555    76.2100    12.5965
  660.0000  -999.2500   -40.1754    11.4001    76.5100    12.4894
  660.5000  -999.2500   -39.8375    11.3494    76.8100    12.3794
  661.0000  -999.2500   -39.4522    11.3266    77.1100    12.3249
  661.5000  -999.2500   -39.0462    11.3053    77.4100    12.2875
  662.0000  -999.2500   -38.5917    11.2840    77.5761    12.2511
  662.5000  -999.2500   -38.5315    11.2628    77.6848    12.2146
  663.0000  -999.2500   -38.4804    11.2415    77.7935    12.1780
  663.5000  -999.2500   -38.4311    11.2202    77.9022    12.1414
  664.0000  -999.2500   -38.4704    11.1989    78.0109    12.1050
  664.5000  -999.2500   -38.7727    11.1777    78.1196    12.0686
  665.0000  -999.2500   -39.0710    11.1560    78.2283    12.0721
  665.5000  -999.2500   -39.3681    11.1380    78.3370    12.1153
  666.0000  -999.2500   -38.7700    11.1207    78.4456    12.1587
  666.5000  -999.2500   -38.7464    11.1034    78.7326    12.2028
  667.0000  -999.2500   -38.9515    11.0862    79.1977    12.2478
  667.5000  -999.2500   -39.1777    11.0689    79.6628    12.2089
  668.0000  -999.2500   -39.4609    11.0506    80.1279    12.1622
  668.5000  -999.2500   -39.7686    11.0274    80.5930    12.1158
  669.0000  -999.2500   -40.1632    11.0025    81.0581    12.0694
  669.5000  -999.2500   -40.8464    10.9775    81.5233    12.0232
  670.0000  -999.2500   -41.5424    10.9525    81.9884    11.9768
  670.5000  -999.2500   -41.9770    10.9275    82.5000    11.9306
  671.0000  -999.2500   -42.1613    10.9025    82.9737    11.8842
  671.5000  -999.2500   -41.7146    10.8775    83.5000    11.8379
  672.0000  -999.2500   -40.7978    10.8525    84.0263    11.7918
  672.5000  -999.2500   -39.9052    10.8275    84.5000    11.7490
  673.0000  -999.2500   -39.0336    10.8025  -999.2500    11.7168
  673.5000  -999.2500   -38.0465    10.7773  -999.2500    11.6864
  674.0000  -999.2500   -34.4204    10.7510  -999.2500    11.6560
  674.5000  -999.2500   -30.8088    10.7404  -999.2500    11.6257
  675.0000  -999.2500   -30.6943    10.7302  -999.2500    11.5956
  675.5000  -999.2500   -30.8025    10.7198  -999.2500    11.5655
  676.0000  -999.2500   -30.6663    10.7094  -999.2500    11.5745
  676.5000  -999.2500   -30.2975    10.6990  -999.2500    11.6227
  677.0000  -999.2500   -29.9194    10.6885  -999.2500    11.6709
  677.5000  -999.2500   -29.4509    10.6779  -999.2500    11.7191
  678.0000  -999.2500   -27.9888    10.6672  -999.2500    11.7671
  678.5000  -999.2500   -25.7601    10.6582  -999.2500    11.8178
  679.0000  -999.2500   -24.3486    10.6898  -999.2500    11.9187
  679.5000  -999.2500  -999.2500    10.8438  -999.2500    12.1486
