~VERSION INFORMATION
 VERS.                2.0:   CWLS LOG ASCII STANDARD - VERSION 2.0
 WRAP.                 NO:   ONE LINE PER DEPTH STEP
~WELL INFORMATION
#MNEM.UNIT      DATA TYPE    INFORMATION
#----------   ------------   ------------------------------
 STRT.F          350.0000:   START DEPTH
 STOP.F         2259.0000:   STOP DEPTH
 STEP.F            0.5000:   STEP LENGTH
 NULL.          -999.2500:   NO VALUE
 COMP. LAWRENCE/ALLISON INC:   COMPANY
 WELL.        45 X #33-33:   WELL
 FLD .             TEAPOT:   FIELD
 LOC .      S33 T39N R78W:   LOCATION
 CNTY.            NATRONA:   COUNTY
 STAT.            WYOMING:   STATE
 CTRY. UNITED STATES OF AMERICA:   COUNTRY
 SRVC.      NL McCullough:   SERVICE COMPANY
 DATE.        19-MAY-1988:   LOGDATE
 API .       490251119400:   API NUMBER
~CURVE INFORMATION
#MNEM.UNIT       API CODE    CURVE DESCRIPTION
#----------   ------------   ------------------------------
 DEPT.F                  :   
 ROP .MIN/FT 91 810 01 00:   RATE OF DRILLING PENETRATION
 GR  .GAPI   81 310 01 00:   GAMMA RAY
 TGAS.UNITS  91 830 01 00:   TOTAL GAS FROM HOTWIRE
~PARAMETER INFORMATION
#MNEM.UNIT          VALUE    DESCRIPTION
#----------   ------------   ------------------------------
 PD  .                 GL:   PERMANENT DATUM
 EPD .F              5198:   ELEVATION PERMANENT DATUM
 LMF .                 KB:   LOG MEASURED FROM
 DAPD.F                11:   FEET ABOVE PERMANENT DATUM
 DMF .                 KB:   DRILLING MEASURED FROM
 EKB .F              5209:   KELLING BUSHING
 EGL .F              5198:   GROUND LEVEL
 DATE.            5-19-88:   RUN DATE
 RUN .                  1:   RUN NUMBER
 DD  .F              2232:   DEPTH DRILLER
 DL  .F               750:   DEPTH LOGGER
 BLI .F               746:   BOTTOM LOG INTERVAL
 TLI .F               350:   TOP LOG INTERVAL
 CS  .IN                7:   CASING SIZE
 CBD .F               808:   CASING BOTTOM DRILLER
 DFT .              WATER:   DRILLING FLUID TYPE
 TCS .HRS            0830:   TIME CURCULATED STOPPED
 TLAB.HRS            0930:   TIME LOGGER AT BOTTOM
 ENGI.          SANGERTER:   RECORDING ENGINEER
 WITN.             NORMAN:   WITNESSED BY
 CLNT.            A2DTECH:   CLIENT CODE
 ORIG.           5" PRINT:   ORIGIN OF DATA
 UWI .       490251119400:   UNIQUE WELL ID
 DICO. A2D Technologies, Inc.:   DIGITIZING COMPANY
~OTHER INFORMATION
~A   DEPT      ROP          GR      TGAS   
# ...
  987.0000     0.3702  -999.2500     8.1692
  987.5000     0.3706  -999.2500     8.1798
  988.0000     0.3710  -999.2500     8.1903
  988.5000     0.3714  -999.2500     8.2009
  989.0000     0.3613  -999.2500     8.2115
  989.5000     0.3619  -999.2500     8.2221
  990.0000     0.3623  -999.2500     8.2327
  990.5000     0.3522  -999.2500     8.2432
  991.0000     0.3421  -999.2500     8.2538
  991.5000     0.3426  -999.2500     8.2644
  992.0000     0.3431  -999.2500     8.2750
  992.5000     0.3329  -999.2500     8.2855
  993.0000     0.3335  -999.2500     8.2961
  993.5000     0.3443  -999.2500     8.3067
  994.0000     0.3447  -999.2500     8.3173
  994.5000     0.3452  -999.2500     8.3278
  995.0000     0.3351  -999.2500     8.3384
  995.5000     0.3355  -999.2500     8.3490
  996.0000     0.3360  -999.2500     8.3596
  996.5000     0.3364  -999.2500     8.3701
  997.0000     0.3368  -999.2500     8.3807
  997.5000     0.3372  -999.2500     8.3913
  998.0000     0.3376  -999.2500     8.4019
  998.5000     0.3381  -999.2500     8.4125
  999.0000     0.3385  -999.2500     8.4230
  999.5000     0.3389  -999.2500     8.4336
 1000.0000     0.3393  -999.2500     8.4442
 1000.5000     0.3710  -999.2500     8.4548
 1001.0000     0.4132  -999.2500     8.4653
 1001.5000     0.4658  -999.2500     8.4759
 1002.0000     0.4976  -999.2500     8.4865
 1002.5000     0.5084  -999.2500     8.4971
 1003.0000     0.5193  -999.2500     8.4923
 1003.5000     0.5197  -999.2500     8.4815
 1004.0000     0.5097  -999.2500     8.4708
 1004.5000     0.5101  -999.2500     8.4601
 1005.0000     0.5105  -999.2500     8.4494
 1005.5000     0.5109  -999.2500     8.4387
 1006.0000     0.5009  -999.2500     8.4280
 1006.5000     0.4908  -999.2500     8.4173
 1007.0000     0.4807  -999.2500     8.4065
 1007.5000     0.4707  -999.2500     8.3958
 1008.0000     0.4608  -999.2500     8.3851
 1008.5000     0.4299  -999.2500     8.3744
 1009.0000     0.4303  -999.2500     8.3637
 1009.5000     0.4098  -999.2500     8.3530
 1010.0000     0.3894  -999.2500     8.3422
 1010.5000     0.3794  -999.2500     8.3315
 1011.0000     0.3484  -999.2500     8.3208
 1011.5000     0.3280  -999.2500     8.3101
 1012.0000     0.3075  -999.2500     8.2994
 1012.5000     0.3080  -999.2500     8.2887
 1013.0000     0.3711  -999.2500     8.2780
 1013.5000     0.4237  -999.2500     8.2672
 1014.0000     0.4449  -999.2500     8.2565
 1014.5000     0.4558  -999.2500     8.2458
 1015.0000     0.4771  -999.2500     8.2351
 1015.5000     0.4880  -999.2500     8.2244
 1016.0000     0.4884  -999.2500     8.2137
 1016.5000     0.4888  -999.2500     8.2029
 1017.0000     0.4892  -999.2500     8.1922
 1017.5000     0.4896  -999.2500     8.1815
 1018.0000     0.4795  -999.2500     8.1708
 1018.5000     0.4800  -999.2500     8.1601
 1019.0000     0.4804  -999.2500     8.1494
 1019.5000     0.4808  -999.2500     8.1386
 1020.0000     0.4813  -999.2500     8.1279
 1020.5000     0.4817  -999.2500     8.1172
 1021.0000     0.4821  -999.2500     8.1065
 1021.5000     0.4720  -999.2500     8.0958
 1022.0000     0.4515  -999.2500     8.0851
 1022.5000     0.4415  -999.2500     8.0744
 1023.0000     0.4420  -999.2500     8.0636
 1023.5000     0.4424  -999.2500     8.0529
 1024.0000     0.4429  -999.2500     8.0422
 1024.5000     0.4327  -999.2500     8.0315
 1025.0000     0.4437  -999.2500     8.0208
 1025.5000     0.4441  -999.2500     8.0101
 1026.0000     0.4445  -999.2500     7.9993
 1026.5000     0.4449  -999.2500     7.9886
 1027.0000     0.4558  -999.2500     7.9779
 1027.5000     0.4562  -999.2500     7.9672
 1028.0000     0.4670  -999.2500     7.9565
 1028.5000     0.4569  -999.2500     7.9458
 1029.0000     0.4469  -999.2500     7.9350
 1029.5000     0.4474  -999.2500     7.9243
 1030.0000     0.4165  -999.2500     7.9136
 1030.5000     0.4065  -999.2500     7.9029
 1031.0000     0.4070  -999.2500     7.8922
 1031.5000     0.3865  -999.2500     7.8815
 1032.0000     0.3763  -999.2500     7.8708
 1032.5000     0.3663  -999.2500     7.8600
 1033.0000     0.3563  -999.2500     7.8493
 1033.5000     0.3358  -999.2500     7.8386
 1034.0000     0.3364  -999.2500     7.8279
 1034.5000     0.3262  -999.2500     7.8172
 1035.0000     0.3268  -999.2500     7.8065
 1035.5000     0.3518  -999.2500     7.7957
 1036.0000     0.3627  -999.2500     7.7850
 1036.5000     0.3945  -999.2500     7.7743
 1037.0000     0.4262  -999.2500     7.7636
 1037.5000     0.4581  -999.2500     7.7529
 1038.0000     0.4898  -999.2500     7.7422
 1038.5000     0.5216  -999.2500     7.7315
 1039.0000     0.5221  -999.2500     7.7207
 1039.5000     0.5226  -999.2500     7.7100
 1040.0000     0.5022  -999.2500     7.6993
 1040.5000     0.4816  -999.2500     7.6886
 1041.0000     0.4508  -999.2500     7.6779
 1041.5000     0.4408  -999.2500     7.6672
 1042.0000     0.4414  -999.2500     7.6564
 1042.5000     0.4313  -999.2500     7.6457
 1043.0000     0.4214  -999.2500     7.6350
 1043.5000     0.4322  -999.2500     7.6243
 1044.0000     0.4119  -999.2500     7.6136
 1044.5000     0.4229  -999.2500     7.6029
 1045.0000     0.4337  -999.2500     7.5921
 1045.5000     0.4447  -999.2500     7.5814
 1046.0000     0.4452  -999.2500     7.5707
 1046.5000     0.4456  -999.2500     7.5600
 1047.0000     0.4566  -999.2500     7.5493
 1047.5000     0.4675  -999.2500     7.5386
 1048.0000     0.4887  -999.2500     7.5279
 1048.5000     0.4579  -999.2500     7.5171
 1049.0000     0.4478  -999.2500     7.5064
 1049.5000     0.4170  -999.2500     7.4957
 1050.0000     0.3967  -999.2500     7.4850
 1050.5000     0.3658  -999.2500     7.4743
 1051.0000     0.3559  -999.2500     7.4636
 1051.5000     0.3354  -999.2500     7.4528
 1052.0000     0.3359  -999.2500     7.4421
 1052.5000     0.3365  -999.2500     7.4314
 1053.0000     0.3263  -999.2500     7.4207
 1053.5000     0.3270  -999.2500     7.4100
 1054.0000     0.3378  -999.2500     7.3993
 1054.5000     0.3696  -999.2500     7.3886
 1055.0000     0.4119  -999.2500     7.3778
 1055.5000     0.4437  -999.2500     7.3671
 1056.0000     0.4650  -999.2500     7.3564
 1056.5000     0.4654  -999.2500     7.3457
 1057.0000     0.4867  -999.2500     7.3350
 1057.5000     0.4977  -999.2500     7.3243
 1058.0000     0.4982  -999.2500     7.3135
 1058.5000     0.4987  -999.2500     7.3028
 1059.0000     0.4991  -999.2500     7.2921
 1059.5000     0.4787  -999.2500     7.2814
 1060.0000     0.4582  -999.2500     7.2707
 1060.5000     0.4483  -999.2500     7.2600
 1061.0000     0.4278  -999.2500     7.2492
 1061.5000     0.4179  -999.2500     7.2385
 1062.0000     0.4185  -999.2500     7.2278
 1062.5000     0.4188  -999.2500     7.2171
 1063.0000     0.4194  -999.2500     7.2064
 1063.5000     0.4199  -999.2500     7.1957
 1064.0000     0.4203  -999.2500     7.1850
 1064.5000     0.4312  -999.2500     7.1742
 1065.0000     0.4317  -999.2500     7.1635
 1065.5000     0.4634  -999.2500     7.1528
 1066.0000     0.4744  -999.2500     7.1421
 1066.5000     0.4748  -999.2500     7.1314
 1067.0000     0.4962  -999.2500     7.1207
 1067.5000     0.5071  -999.2500     7.1099
 1068.0000     0.5076  -999.2500     7.0992
 1068.5000     0.5080  -999.2500     7.0885
 1069.0000     0.5190  -999.2500     7.0778
 1069.5000     0.5194  -999.2500     7.0671
 1070.0000     0.5407  -999.2500     7.0564
 1070.5000     0.5412  -999.2500     7.0457
 1071.0000     0.5417  -999.2500     7.0349
 1071.5000     0.5422  -999.2500     7.0242
 1072.0000     0.5531  -999.2500     7.0135
 1072.5000     0.5536  -999.2500     7.0028
 1073.0000     0.5540  -999.2500     6.9921
 1073.5000     0.5439  -999.2500     6.9814
 1074.0000     0.5446  -999.2500     6.9706
 1074.5000     0.5344  -999.2500     6.9599
 1075.0000     0.5350  -999.2500     6.9492
 1075.5000     0.5460  -999.2500     6.9385
 1076.0000     0.5464  -999.2500     6.9278
 1076.5000     0.5259  -999.2500     6.9171
 1077.0000     0.5265  -999.2500     6.9063
 1077.5000     0.5269  -999.2500     6.8956
