~VERSION INFORMATION
 VERS.                2.0:   CWLS LOG ASCII STANDARD - VERSION 2.0
 WRAP.                 NO:   ONE LINE PER DEPTH STEP
~WELL INFORMATION
#MNEM.UNIT      DATA TYPE    INFORMATION
#----------   ------------   ------------------------------
 STRT.F            0.0000:   START DEPTH
 STOP.F          652.0000:   STOP DEPTH
 STEP.F            0.5000:   STEP LENGTH
 NULL.          -999.2500:   NO VALUE
 COMP. US DEPTMNT OF ENRGY:   COMPANY
 WELL. NPR ##3 14-14-SX-11:   WELL
 FLD .   TEAPOT NAVAL RES:   FIELD
 LOC .      S11 T38N R78W:   LOCATION
 CNTY.            NATRONA:   COUNTY
 STAT.            WYOMING:   STATE
 CTRY. UNITED STATES OF AMERICA:   COUNTRY
 SRVC.            Unknown:   SERVICE COMPANY
 DATE.        03-JAN-1985:   LOGDATE
 API .       490251102400:   API NUMBER
~CURVE INFORMATION
#MNEM.UNIT       API CODE    CURVE DESCRIPTION
#----------   ------------   ------------------------------
 DEPT.F                  :   
 CALD.IN     45 280 60 00:   CALIPER
 CORR.G/C3   45 356 01 00:   DENSITY CORRECTION
 PORD.DEC    45 890 12 00:   DENSITY POROSITY SANDSTONE
 CNC .DEC    42 890 03 00:   NEUTRON POROSITY SANDSTONE
 SPR .MV     11 010 01 00:   SPONTANEOUS POTENTIAL FROM RES.
 GRR .GAPI   11 310 01 00:   GAMMA RAY FROM RES.
 RS  .OHMM   11 220 09 00:   RESISTIVITY SHALLOW
 RD  .OHMM   11 220 10 00:   RESISTIVITY DEEP
 DEN .G/C3   45 350 01 00:   COMPENSATED BULK DENSTIY
~PARAMETER INFORMATION
#MNEM.UNIT          VALUE    DESCRIPTION
#----------   ------------   ------------------------------
 PD  .                 GL:   PERMANENT DATUM
 EPD .F            5197.3:   ELEVATION PERMANENT DATUM
 LMF .                 KB:   LOG MEASURED FROM
 DMF .                 KB:   DRILLING MEASURED FROM
 EKB .F            5197.3:   KELLING BUSHING
 EGL .F            5197.3:   GROUND LEVEL
 DATE.         3-JAN-1985:   RUN DATE
 RUN .                  1:   RUN NUMBER
 DD  .F               650:   DEPTH DRILLER
 DL  .F               653:   DEPTH LOGGER
 BLI .F               651:   BOTTOM LOG INTERVAL
 CS  .IN            8.625:   CASING SIZE
 CBD .F                20:   CASING BOTTOM DRILLER
 CBL .F                20:   CASING BOTTOM LOGGER
 BS  .IN             6.25:   BIT SIZE
 BSD .F               650:   BIT SIZE AT DEPTH
 DFT .                KCL:   DRILLING FLUID TYPE
 RMS .OHMM            .12:   RESISTIVITY MUD SAMPLE
 MST .F                70:   MUD SAMPLE TEMPERATURE
 RMF .OHMM            .09:   RESISTIVITY MUD FILTRATE SAMPLE
 MFST.F                70:   MUD FILTRATE SAMPLE TEMPERATURE
 RMC .OHMM            .15:   RESISTIVITY MUD CAKE
 MCST.F                70:   MUD CAKE SAMPLE TEMPERATURE
 MFSS.               CALC:   MUD FILTRATE SAMPLE SOURCE
 MCSS.               CALC:   MUD CAKE SAMPLE SOURCE
 RMB .OHMM             .1:   RESISTIVITY MUD AT BHT
 BHT .F                80:   BOTTOM HOLE TEMPERATURE
 TCS .HRS               3:   TIME CURCULATED STOPPED
 MRT .F                80:   MAXIMUM RECORDED TEMPERATURE
 LUN .               6274:   LOGGING UNIT NUMBER
 LUL .               GLTE:   LOGGING UNIT LOCATION
 ENGI.               MACK:   RECORDING ENGINEER
 WITN.               PAGE:   WITNESSED BY
 CLNT.            A2DTECH:   CLIENT CODE
 ORIG.       2", 5" PRINT:   ORIGIN OF DATA
 UWI .       490251102400:   UNIQUE WELL ID
 DICO. A2D Technologies, Inc.:   DIGITIZING COMPANY
~OTHER INFORMATION
~A    DEPT    CALD       CORR       PORD        CNC        SPR         GRR        RS         RD        DEN   
# ...
  547.5000     6.3398     0.0638     0.1314     0.2865   -51.2102   108.8304     5.1102     5.6556     2.4557
  548.0000     6.3401     0.0675     0.1249     0.2825   -51.2114   103.9814     5.0168     6.0455     2.4675
  548.5000     6.3404     0.0509     0.1179     0.2601   -50.8666   102.4931     5.7143     6.7676     2.4796
  549.0000     6.3408     0.0342     0.1134     0.2501   -50.4839   102.7122     6.4944     7.5760     2.4916
  549.5000     6.3411     0.0370     0.1095     0.2441   -50.0733    97.4545     7.9855     8.4809     2.4911
  550.0000     6.3414     0.0424     0.1103     0.2449   -49.6172    93.7358     9.0771     9.4939     2.4907
  550.5000     6.3417     0.0461     0.1119     0.2457   -49.1899    94.7515     9.1298    10.6279     2.4903
  551.0000     6.3421     0.0369     0.1156     0.2417   -49.1340    96.4599     9.1838    11.0120     2.4874
  551.5000     6.3424     0.0268     0.1203     0.2413   -49.0687    98.1281     9.2360    11.0513     2.4788
  552.0000     6.3427     0.0288     0.1224     0.2451   -48.9611    99.1648     9.2898    11.1023     2.4700
  552.5000     6.3430     0.0368     0.1235     0.2487   -48.5854   101.9035     9.4228    11.2360     2.4688
  553.0000     6.3433     0.0337     0.1235     0.2524   -48.2048   105.9308     9.5881    11.3712     2.4705
  553.5000     6.3437     0.0279     0.1228     0.2536   -47.8184   109.1882     9.7563    11.5082     2.4723
  554.0000     6.3440     0.0244     0.1208     0.2550   -47.5333   109.1627     9.9170    11.6465     2.4780
  554.5000     6.3443     0.0289     0.1170     0.2534   -47.2467   106.5581    10.0715    11.7870     2.4840
  555.0000     6.3446     0.0338     0.1139     0.2495   -46.9589   103.7811    10.2283    11.9345     2.4862
  555.5000     6.3450     0.0351     0.1139     0.2457   -46.6694   101.5929    10.3877    12.3124     2.4865
  556.0000     6.3453     0.0370     0.1139     0.2429   -46.3054   101.3247    10.6045    12.7302     2.4868
  556.5000     6.3456     0.0523     0.1139     0.2469   -45.9181   102.1715    10.9221    13.1383     2.4870
  557.0000     6.3459     0.0542     0.1128     0.2532   -45.5542   103.0238    11.2362    13.5718     2.4879
  557.5000     6.3462     0.0534     0.1114     0.2580   -45.3257   103.8620    11.4998    14.0196     2.4903
  558.0000     6.3465     0.0470     0.1103     0.2580   -45.0933   104.1619    11.7696    14.4426     2.4928
  558.5000     6.3469     0.0405     0.1089     0.2463   -44.8754   103.6309    12.0451    13.7625     2.4969
  559.0000     6.3472     0.0419     0.1058     0.2462   -44.6665   104.5002    12.1041    14.0813     2.5024
  559.5000     6.3475     0.0443     0.1028     0.2480   -44.4580   105.4117    12.1634    14.2048     2.5076
  560.0000     6.3478     0.0463     0.1009     0.2499   -44.2493   104.2921    12.2229    14.3288     2.5031
  560.5000     6.3482     0.0451     0.1034     0.2445   -44.0402   101.1147    12.3069    14.4539     2.4980
  561.0000     6.3485     0.0430     0.1079     0.2445   -43.8301    99.7141    12.4759    14.5802     2.4959
  561.5000     6.3488     0.0538     0.1076     0.2435   -43.7803   103.4393    12.6472    14.7536     2.5016
  562.0000     6.3491     0.0653     0.1028     0.2405   -43.7599   106.3784    12.8481    14.7306     2.5070
  562.5000     6.3494     0.0641     0.1018     0.2392   -43.7402   106.6966    12.7811    14.6946     2.5043
  563.0000     6.3498     0.0458     0.1068     0.2400   -43.7200   104.2297    12.7023    14.6588     2.4909
  563.5000     6.3501     0.0348     0.1127     0.2386   -43.6999   101.7440    12.6133    14.6182     2.4810
  564.0000     6.3504     0.0350     0.1187     0.2371   -43.6797    99.2680    12.6943    14.7825     2.4764
  564.5000     6.3507     0.0357     0.1193     0.2357   -43.6595    97.2993    12.7889    14.9735     2.4782
  565.0000     6.3510     0.0359     0.1186     0.2407   -43.6393    95.8647    12.8841    15.1649     2.4794
  565.5000     6.3514     0.0328     0.1171     0.2458   -43.6194    94.9002    12.9801    15.3078     2.4806
  566.0000     6.3517     0.0322     0.1171     0.2509   -43.5973    97.4650    13.2084    14.9707     2.4797
  566.5000     6.3520     0.0462     0.1185     0.2548   -43.6930    98.3723    13.0115    14.7918     2.4770
  567.0000     6.3523     0.0604     0.1198     0.2501   -43.8274    97.5931    12.7330    14.6150     2.4743
  567.5000     6.3527     0.0682     0.1211     0.2456   -43.9638    96.7498    12.3829    14.4403     2.4731
  568.0000     6.3530     0.0650     0.1219     0.2413   -44.1002    98.1310    12.4130    14.2194     2.4772
  568.5000     6.3533     0.0556     0.1200     0.2433   -44.2364   100.7740    12.4529    14.2392     2.4822
  569.0000     6.3536     0.0450     0.1160     0.2424   -44.3725   103.4791    12.4945    14.2667     2.4859
  569.5000     6.3539     0.0343     0.1154     0.2414   -44.5086   102.6396    12.5363    14.2943     2.4815
  570.0000     6.3543     0.0235     0.1186     0.2406   -44.6866   100.1209    12.5777    14.3219     2.4801
  570.5000     6.3546     0.0324     0.1158     0.2451   -44.9508    98.2876    12.6133    14.3511     2.4892
  571.0000     6.3545     0.0441     0.1111     0.2460   -45.2140   101.0438    12.4111    14.1945     2.4940
  571.5000     6.3542     0.0494     0.1064     0.2427   -45.4772   103.8563    12.2373    14.0318     2.4989
  572.0000     6.3539     0.0545     0.1054     0.2385   -45.7443   102.5213    12.0655    13.8675     2.4989
  572.5000     6.3535     0.0728     0.1057     0.2501   -45.9456    99.9286    11.8970    13.6884     2.4966
  573.0000     6.3532     0.0720     0.1067     0.2501   -46.1339    99.9481    11.7422    13.4354     2.4944
  573.5000     6.3529     0.0691     0.1107     0.2501   -46.3216   102.2747    11.6002    13.1884     2.4922
  574.0000     6.3526     0.0660     0.1094     0.2537   -46.5096   104.5622    11.4596    12.9460     2.4962
  574.5000     6.3523     0.0614     0.1062     0.2593   -46.6976   105.6444    11.3205    12.7081     2.4982
  575.0000     6.3519     0.0452     0.1054     0.2671   -46.8856   104.7389    11.2923    12.5940     2.4986
  575.5000     6.3516     0.0287     0.1052     0.2643   -47.0735   107.1561    11.2923    12.5616     2.4988
  576.0000     6.3513     0.0370     0.1037     0.2594   -47.2615   110.9719    11.2950    12.5292     2.5044
  576.5000     6.3509     0.0501     0.1013     0.2556   -47.4495   114.1181    11.0112    12.4976     2.5110
  577.0000     6.3506     0.0632     0.0983     0.2625   -47.6375   111.1867    10.6768    12.2958     2.5177
  577.5000     6.3503     0.0761     0.0942     0.2664   -47.8251   106.7052    10.3517    12.1007     2.5236
  578.0000     6.3500     0.0673     0.0920     0.2675   -48.0101   102.4568    10.1096    11.9087     2.5194
  578.5000     6.3496     0.0439     0.0947     0.2635   -48.2023   103.7936    10.1096    11.7197     2.5150
  579.0000     6.3493     0.0338     0.0975     0.2592   -48.3928   106.0447    10.1096    11.5337     2.5141
  579.5000     6.3490     0.0454     0.1000     0.2584   -48.5862   107.3514    10.0670    11.3880     2.5143
  580.0000     6.3487     0.0608     0.0985     0.2606   -48.4567   107.2718    10.0265    11.3553     2.5146
  580.5000     6.3484     0.0740     0.0969     0.2615   -48.2789   105.6441     9.9861    11.3223     2.5148
  581.0000     6.3480     0.0715     0.0964     0.2572   -48.0991   105.1533     9.9459    11.2925     2.5120
  581.5000     6.3477     0.0692     0.0981     0.2529   -47.9439   106.2319     9.9249    11.3408     2.5088
  582.0000     6.3474     0.0669     0.1000     0.2508   -47.8122   111.3863    10.0357    11.3870     2.5058
  582.5000     6.3471     0.0645     0.1020     0.2523   -48.1341   116.5845    10.1096    11.4330     2.5041
  583.0000     6.3467     0.0606     0.1020     0.2525   -48.6547   116.5276    10.1096    11.4792     2.5085
  583.5000     6.3464     0.0570     0.0999     0.2527   -49.1605   111.7504    10.1096    11.5024     2.5122
