~VERSION INFORMATION
 VERS.                2.0:   CWLS LOG ASCII STANDARD - VERSION 2.0
 WRAP.                 NO:   ONE LINE PER DEPTH STEP
~WELL INFORMATION
#MNEM.UNIT      DATA TYPE    INFORMATION
#----------   ------------   ------------------------------
 STRT.F           16.0000:   START DEPTH
 STOP.F          634.0000:   STOP DEPTH
 STEP.F            0.5000:   STEP LENGTH
 NULL.          -999.2500:   NO VALUE
 COMP. LAWRENCE/ALLISON INC:   COMPANY
 WELL.    14-15 SX #11-11:   WELL
 FLD .             TEAPOT:   FIELD
 LOC .      S11 T38N R78W:   LOCATION
 CNTY.            NATRONA:   COUNTY
 STAT.            WYOMING:   STATE
 CTRY. UNITED STATES OF AMERICA:   COUNTRY
 SRVC.      Dresser Atlas:   SERVICE COMPANY
 DATE.        06-JAN-1985:   LOGDATE
 API .       490251101700:   API NUMBER
~CURVE INFORMATION
#MNEM.UNIT       API CODE    CURVE DESCRIPTION
#----------   ------------   ------------------------------
 DEPT.F                  :   
 SPR .MV     11 010 01 00:   SPONTANEOUS POTENTIAL FROM RES.
 RD  .OHMM   11 220 10 00:   RESISTIVITY DEEP
 RS  .OHMM   11 220 09 00:   RESISTIVITY SHALLOW
 RMLL.OHMM   20 270 04 00:   RESISTIVITY MICROLATEROLOG
 AC  .US/F   60 520 00 00:   ACCOUSTIC SONIC
 CNC .DEC    42 890 03 00:   COMPENSATED NEUTRON POROSITY SANDSTONE
 PORD.DEC    45 890 12 00:   POROSITY DENSITY SANDSTONE
 GRD .GAPI   45 310 01 00:   GAMMA RAY FROM DENSITY LOG
 CALD.IN     45 280 60 00:   CALIPER FROM DENSITY
 CORR.G/C3   45 356 01 00:   DENSITY CORRECTION
 DEN .G/C3   45 350 01 00:   COMPENSATED BULK DENSTIY
~PARAMETER INFORMATION
#MNEM.UNIT          VALUE    DESCRIPTION
#----------   ------------   ------------------------------
 PD  .                 GL:   PERMANENT DATUM
 EPD .F            5196.8:   ELEVATION PERMANENT DATUM
 LMF .                 KB:   LOG MEASURED FROM
 DMF .                 KB:   DRILLING MEASURED FROM
 EKB .F            5196.8:   KELLING BUSHING
 EGL .F            5196.8:   GROUND LEVEL
 DATE.        06-JAN-1985:   RUN DATE
 RUN .                  1:   RUN NUMBER
 DD  .F               650:   DEPTH DRILLER
 DL  .F               636:   DEPTH LOGGER
 BLI .F               634:   BOTTOM LOG INTERVAL
 CS  .IN            8.625:   CASING SIZE
 CBD .F                20:   CASING BOTTOM DRILLER
 CBL .F                22:   CASING BOTTOM LOGGER
 BS  .IN             6.25:   BIT SIZE
 BSD .F               650:   BIT SIZE AT DEPTH
 DFT .        KCL POLYMER:   DRILLING FLUID TYPE
 RMS .OHMM           .105:   RESISTIVITY MUD SAMPLE
 MST .F                72:   MUD SAMPLE TEMPERATURE
 RMF .OHMM            .08:   RESISTIVITY MUD FILTRATE SAMPLE
 MFST.F                72:   MUD FILTRATE SAMPLE TEMPERATURE
 RMC .OHMM            .13:   RESISTIVITY MUD CAKE
 MCST.F                72:   MUD CAKE SAMPLE TEMPERATURE
 MFSS.               CALC:   MUD FILTRATE SAMPLE SOURCE
 MCSS.               CALC:   MUD CAKE SAMPLE SOURCE
 TCS .HRS               3:   TIME CURCULATED STOPPED
 LUN .               6307:   LOGGING UNIT NUMBER
 LUL .               GLTE:   LOGGING UNIT LOCATION
 ENGI.               MACK:   RECORDING ENGINEER
 WITN.               PAGE:   WITNESSED BY
 CLNT.            A2DTECH:   CLIENT CODE
 ORIG.           5" PRINT:   ORIGIN OF DATA
 UWI .       490251101700:   UNIQUE WELL ID
 DICO. A2D Technologies, Inc.:   DIGITIZING COMPANY
 R1  . POROSITY WITH SANDSTONE:   REMARKS 1
~OTHER INFORMATION
~A   DEPT      SPR         RD         RS       RMLL         AC        CNC       PORD        GRD       CALD       CORR        DEN   
# ...
  351.5000   -71.1623     9.7860     8.8210     9.2962   105.5685     0.2989     0.0679   127.9144     6.6526     0.1545     2.5706
  352.0000   -71.3178     9.7847     8.8204     7.9796   105.4196     0.2959     0.0755   124.5940     6.6523     0.1244     2.5596
  352.5000   -71.4734     9.7833     8.7588     7.2393   105.3459     0.2977     0.0815   125.2123     6.6520     0.1109     2.5511
  353.0000   -71.9310     9.7820     8.7582     6.3884   105.1970     0.3038     0.0839   124.7689     6.6517     0.1185     2.5482
  353.5000   -71.9355     9.7130     8.7576     5.9998   105.1233     0.3071     0.0846   122.8127     6.6514     0.1382     2.5444
  354.0000   -72.2421     9.7117     8.7570     5.5191   105.1358     0.3086     0.0858   117.3770     6.6511     0.1397     2.5392
  354.5000   -72.3977     9.7103     8.7564     5.1833   105.2770     0.3081     0.0927   117.8413     6.6507     0.1202     2.5309
  355.0000   -72.5532     9.7090     8.7558     4.9359   105.5792     0.3021     0.0936   120.1211     6.6657     0.1051     2.5279
  355.5000   -73.0109     9.7077     8.7552     4.7988   106.4078     0.3030     0.0949   120.8881     6.6653     0.1143     2.5271
  356.0000   -73.4686     9.7063     8.7457     4.3451   107.9882     0.3075     0.0958   120.2774     6.6650     0.1113     2.5256
  356.5000   -74.2284     9.6255     8.6935     3.5330   109.1175     0.3151     0.0985   118.6398     6.6647     0.0857     2.5219
  357.0000   -74.6860     9.3079     8.6927     3.4139   109.3445     0.3139     0.1045   118.8280     6.6644     0.0601     2.5136
  357.5000   -75.1437     8.9894     8.6921     3.6434   109.2705     0.3146     0.1154   121.5610     6.6489     0.0617     2.5007
  358.0000   -75.6014     8.5030     8.4537     4.0672   108.4453     0.3213     0.1251   130.4185     6.6486     0.0800     2.4674
  358.5000   -75.9080     8.2121     8.0526     4.4254   107.6949     0.3269     0.1287   136.9879     6.6483     0.0982     2.4667
  359.0000   -76.2146     7.9863     7.6174     4.8824   107.5456     0.3300     0.1251   136.8493     6.6480     0.1026     2.4766
  359.5000   -76.2191     7.9300     7.3065     5.0525   108.5249     0.3312     0.1164   133.0777     6.6477     0.0916     2.4857
  360.0000   -76.3746     8.0397     7.3059     4.5202   111.2331     0.3288     0.1118   133.2394     6.6474     0.0906     2.4948
  360.5000   -76.6813     8.2647     7.5632     3.9614   112.8887     0.3279     0.1058   133.4012     6.6471     0.0983     2.5039
  361.0000   -76.8369     8.4963     7.9942     3.1512   112.9664     0.3382     0.1043   132.8066     6.6316     0.1074     2.5100
  361.5000   -76.9924     8.7338     8.1618     3.1935   111.8074     0.3533     0.1053   132.0607     6.6161     0.1029     2.5085
  362.0000   -77.1480     8.2613     8.2181     3.9014   109.0778     0.3651     0.1154   131.6147     6.6158     0.1030     2.4926
  362.5000   -77.1274     7.2404     7.3543     4.5094   107.4311     0.3540     0.1255   128.9038     6.6003     0.1106     2.4714
  363.0000   -76.8548     6.4342     6.4013     4.8637   106.5807     0.3347     0.1228   124.6783     6.5999     0.1106     2.4737
  363.5000   -76.4072     6.1711     5.8897     4.9639   105.6800     0.3136     0.1163   119.5446     6.5996     0.1001     2.4851
  364.0000   -75.9585     6.1276     5.6493     4.8934   104.3281     0.3091     0.1048   121.8249     6.5993     0.1108     2.5041
  364.5000   -75.5098     6.4316     6.0546     5.0277   102.9762     0.3055     0.0890   122.4406     6.5990     0.1650     2.5295
  365.0000   -74.9101     7.3364     6.9550     5.0252   102.6765     0.3017     0.0824   119.1228     6.5987     0.2331     2.5465
  365.5000   -74.4603     8.3108     7.6636     4.9196   102.8373     0.2986     0.0858   112.9306     6.5984     0.2558     2.5415
  366.0000   -74.0128     8.7837     7.9887     4.9173   102.9050     0.2981     0.0924   113.3950     6.5981     0.2529     2.5284
  366.5000   -73.7151     9.0296     8.0997     5.0186   102.4558     0.2987     0.0906   115.6748     6.5978     0.2333     2.5314
  367.0000   -73.4164     9.0929     8.1007     5.1208   102.1561     0.3128     0.0888   117.8124     6.5975     0.2062     2.5375
  367.5000   -73.2698     9.1532     8.1550     5.0132   104.6392     0.3198     0.0879   119.5008     6.5972     0.1806     2.5413
  368.0000   -73.1244     9.2224     8.2112     4.4239   108.9264     0.3135     0.0849   121.0136     6.5969     0.1580     2.5443
  368.5000   -72.9767     9.4736     8.2106     3.5929   110.7324     0.3268     0.0843   121.1631     6.5966     0.1565     2.5421
  369.0000   -72.9823     9.6839     8.2672     2.8778   110.7338     0.3507     0.0916   117.9334     6.5963     0.1476     2.5262
  369.5000   -73.1379     9.7374     8.2665     2.8274   109.0020     0.3667     0.1042   117.7046     6.6112     0.1310     2.5164
  370.0000   -73.1424     9.4039     7.8198     3.3711   107.1128     0.3507     0.1151   124.5256     6.6413     0.1360     2.4619
  370.5000   -73.2979     7.3761     6.7594     4.1756   105.8978     0.3411     0.1317   126.5028     6.6562     0.1587     2.4566
  371.0000   -73.3024     6.2442     5.8025     4.2048   105.0587     0.3396     0.1302   125.3030     6.6711     0.1707     2.4665
  371.5000   -73.3069     6.0725     5.4133     4.2298   104.2003     0.3304     0.1209   121.8339     6.6708     0.1675     2.4809
  372.0000   -73.3114     6.0717     5.4886     4.5938   102.3972     0.3071     0.1136   121.9957     6.6705     0.1555     2.4908
  372.5000   -73.1646     6.4619     6.0899     5.0944   101.3461     0.3017     0.1134   122.6114     6.6702     0.1344     2.4923
  373.0000   -73.0181     7.1694     6.6640     5.3457   100.9716     0.3050     0.1119   123.3783     6.6547     0.1224     2.4954
  373.5000   -72.8716     7.8447     7.1421     5.5679   100.6724     0.3023     0.1073   123.6914     6.6544     0.1240     2.5075
  374.0000   -72.8762     8.5837     7.6545     5.6039   100.2979     0.2994     0.1037   121.5839     6.6389     0.1361     2.5106
  374.5000   -72.7296     9.2629     8.2037     5.5625    99.9235     0.2967     0.1013   117.8123     6.6386     0.1528     2.5075
  375.0000   -72.7341     9.9959     8.6112     5.5598    99.6990     0.2901     0.1080   119.1844     6.6383     0.1664     2.5008
  375.5000   -72.7387    10.2756     8.9144     5.5565    99.5501     0.2910     0.1077   121.4642     6.6380     0.1650     2.5046
  376.0000   -72.7432    10.4177     9.1012     5.5539    99.7775     0.3049     0.1002   122.0798     6.6377     0.1545     2.5182
  376.5000   -72.7477    10.5622     9.2277     5.6676    99.7790     0.3022     0.0920   120.2723     6.6374     0.1319     2.5266
  377.0000   -72.7523    10.7078     9.2913     5.7049    99.7053     0.2989     0.0918   120.1315     6.6523     0.1425     2.5273
  377.5000   -72.9079    10.8559     9.2907     5.8211    99.6316     0.2896     0.0927   119.8421     6.6520     0.1456     2.5266
  378.0000   -73.3665    10.8544     9.4198     5.7782    99.4075     0.2845     0.0930   117.4320     6.6517     0.1411     2.5298
  378.5000   -73.5220    10.9285     9.4847     5.8162    99.1769     0.2836     0.0881   113.2065     6.6514     0.1306     2.5381
  379.0000   -73.9797    11.0030     9.6165     5.8538    98.9484     0.2918     0.0851   113.0631     6.6511     0.1292     2.5412
  379.5000   -74.1352    11.0781     9.7520     5.9730    98.8104     0.2975     0.0840   115.7994     6.6507     0.1247     2.5435
  380.0000   -74.4418    11.1536     9.8903     5.8881    99.2634     0.2981     0.0830   118.5331     6.6504     0.1097     2.5464
  380.5000   -74.5974    11.1521     9.9538     5.8043    99.6409     0.2924     0.0816   118.2410     6.6501     0.0916     2.5472
  381.0000   -74.6019    11.2282     9.8843     5.6043    99.9431     0.2909     0.0823   111.5949     6.6651     0.0811     2.5465
  381.5000   -74.6064    11.3048     9.8836     5.4865   100.0949     0.2907     0.0849   111.7567     6.6647     0.0829     2.5442
