~VERSION INFORMATION
 VERS.                2.0:   CWLS LOG ASCII STANDARD - VERSION 2.0
 WRAP.                 NO:   ONE LINE PER DEPTH STEP
~WELL INFORMATION
#MNEM.UNIT      DATA TYPE    INFORMATION
#----------   ------------   ------------------------------
 STRT.F            8.5000:   START DEPTH
 STOP.F          642.0000:   STOP DEPTH
 STEP.F            0.5000:   STEP LENGTH
 NULL.          -999.2500:   NO VALUE
 COMP. FENIX & SCISSON INC:   COMPANY
 WELL. 26-36 S11 W1 #26-36 SX11:   WELL
 FLD .             TEAPOT:   FIELD
 LOC .      S11 T38N R78W:   LOCATION
 CNTY.            NATRONA:   COUNTY
 STAT.            WYOMING:   STATE
 CTRY. UNITED STATES OF AMERICA:   COUNTRY
 SRVC.      Dresser Atlas:   SERVICE COMPANY
 DATE.        16-JUL-1980:   LOGDATE
 API .       490251083500:   API NUMBER
~CURVE INFORMATION
#MNEM.UNIT       API CODE    CURVE DESCRIPTION
#----------   ------------   ------------------------------
 DEPT.F                  :   
 NPHI.DEC    42 890 03 00:   NEUTRON POROSITY SANDSTONE
 RHOB.G/C3   45 350 01 00:   BULK DENSITY
 CORR.G/C3   45 356 01 00:   DENSITY CORRECTION
 GRD .GAPI   45 310 01 00:   GAMMA RAY FROM DENSITY LOG
 CALD.IN     45 280 60 00:   CALIPER
 SPR .MV     07 010 01 00:   SPONTANEOUS POTENTIAL
 SFL .OHMM   07 220 01 00:   SHALLOW FOCUSED LOG RESISTIVITY
 ILD .OHMM   07 120 46 00:   INDUCTION LOG DEEP
 ILM .OHMM   07 120 44 00:   INDUCTION LOG MEDIUM
 DPHI.DEC    45 890 12 00:   DENSITY POROSITY SANDSTONE
~PARAMETER INFORMATION
#MNEM.UNIT          VALUE    DESCRIPTION
#----------   ------------   ------------------------------
 PD  .                 GL:   PERMANENT DATUM
 EPD .F              5184:   ELEVATION PERMANENT DATUM
 LMF .                 KB:   LOG MEASURED FROM
 DAPD.F                 5:   FEET ABOVE PERMANENT DATUM
 DMF .                 KB:   DRILLING MEASURED FROM
 EKB .F              5189:   KELLING BUSHING
 EGL .F              5184:   GROUND LEVEL
 DATE.            7-16-80:   RUN DATE
 RUN .                  1:   RUN NUMBER
 DD  .F               630:   DEPTH DRILLER
 DL  .F               637:   DEPTH LOGGER
 BLI .F               635:   BOTTOM LOG INTERVAL
 TLI .F                 8:   TOP LOG INTERVAL
 BS  .IN            7.875:   BIT SIZE
 BSD .F               630:   BIT SIZE AT DEPTH
 DFT .           CHEM GEL:   DRILLING FLUID TYPE
 DFD .                9.2:   DRILLING FLUID DENSITY
 DFV .                 65:   DRILLING FLUID VISCOSITY
 DFPH.                 10:   DRILLING FLUID PH
 DFL .                  8:   DRILLING FLUID LOSS
 MSS .           FLOWLINE:   MUD SAMPLE SOURCE
 RMS .OHMM            .61:   RESISTIVITY MUD SAMPLE
 MST .F                60:   MUD SAMPLE TEMPERATURE
 RMC .OHMM            .62:   RESISTIVITY MUD CAKE
 MCST.F                58:   MUD CAKE SAMPLE TEMPERATURE
 MFSS.               MEAS:   MUD FILTRATE SAMPLE SOURCE
 MCSS.               MEAS:   MUD CAKE SAMPLE SOURCE
 RMB .OHMM            .41:   RESISTIVITY MUD AT BHT
 BHT .F                90:   BOTTOM HOLE TEMPERATURE
 TCS .HRS               5:   TIME CURCULATED STOPPED
 MRT .F                90:   MAXIMUM RECORDED TEMPERATURE
 LUN .               6109:   LOGGING UNIT NUMBER
 LUL .              GLTTE:   LOGGING UNIT LOCATION
 ENGI.            GARONER:   RECORDING ENGINEER
 WITN.              AMEND:   WITNESSED BY
 CLNT.            A2DTECH:   CLIENT CODE
 ORIG.           5" PRINT:   ORIGIN OF DATA
 UWI .       490251083500:   UNIQUE WELL ID
 DICO. A2D Technologies, Inc.:   DIGITIZING COMPANY
~OTHER INFORMATION
~A    DEPT    NPHI       RHOB       CORR        GRD       CALD        SPR        SFL          ILD      ILM       DPHI   
# ...
   42.0000     0.3183     2.2955     0.2545    69.2446     7.4532   -31.1203     4.9183     2.5928     2.6375     0.2300
   42.5000     0.3090     2.3128     0.3646    68.9309     7.4385   -31.7532     4.9183     2.9719     2.9752     0.2176
   43.0000     0.3010     2.3035     0.3913    68.6141     7.4300   -32.4751     5.1145     3.2722     3.3379     0.2054
   43.5000     0.2991     2.2955     0.4175    68.5012     7.4420   -32.7583     5.3729     3.4077     3.4743     0.1932
   44.0000     0.2909     2.3123     0.4436    68.4948     7.5019   -32.7148     5.6457     3.5489     3.6101     0.1852
   44.5000     0.2850     2.3409     0.4698    68.4887     7.5607   -32.7341     5.9280     3.6958     3.7511     0.1937
   45.0000     0.2885     2.3683     0.4963    69.1002     7.6112   -32.8021     6.1327     3.8489     3.7983     0.2011
   45.5000     0.2923     2.3668     0.5004    70.0663     7.6546   -33.2351     5.7880     4.0083     3.6140     0.2032
   46.0000     0.2961     2.3503     0.4994    72.0010     7.6978   -33.4066     5.5812     4.1655     3.4248     0.1982
   46.5000     0.2989     2.3427     0.4983    73.9054     7.7410   -33.6445     6.1199     4.0093     3.2456     0.2078
   47.0000     0.2983     2.3495     0.4972    75.8106     7.7844   -33.8756     6.5725     3.5353     3.0757     0.2143
   47.5000     0.3323     2.3456     0.4966    77.7182     7.8279   -34.0950     5.1462     3.1164     3.0436     0.2202
   48.0000     0.3741     2.3166     0.4982    79.6282     7.8689   -34.3267     4.1635     2.7237     3.0952     0.2262
   48.5000     0.4091     2.2436     0.4073    80.6062     7.8646   -34.5531     2.9880     2.9190     3.1706     0.2322
   49.0000     0.3892     2.1336     0.2818    77.9806     7.8360   -34.7360     3.5354     3.3047     3.3026     0.2340
   49.5000     0.3551     2.1514     0.1589    75.3284     7.8083   -34.7381     5.2072     3.7413     3.5268     0.1990
   50.0000     0.3060     2.2126     0.0366    72.6872     7.7805   -34.7424     8.2463     4.2356     3.9681     0.1684
   50.5000     0.2722     2.3136     0.0064    70.2698     7.7527   -34.7402     7.8860     4.7952     4.5002     0.1347
   51.0000     0.2665     2.4074     0.0192    70.2330     7.7629   -34.7403     7.4643     5.4328     5.1034     0.1421
   51.5000     0.2627     2.4509     0.0322    70.8237     7.7776   -34.7424     7.1143     6.1511     5.7871     0.1479
   52.0000     0.2714     2.4392     0.0420    70.9008     7.7924   -34.7380     7.5110     6.9842     6.5624     0.1399
   52.5000     0.2787     2.4349     0.0384    70.9020     7.8070   -34.7360     7.8817     7.2012     7.3146     0.1439
   53.0000     0.2791     2.4388     0.0339    70.8944     7.8217   -34.5480     8.2707     7.4302     7.6448     0.1566
   53.5000     0.2791     2.4418     0.0338    71.2901     7.8364   -34.3139     8.6789     7.6666     7.9900     0.1708
   54.0000     0.2779     2.4320     0.0341    71.8905     7.8510   -34.0798     9.1072     7.9104     8.3507     0.1815
   54.5000     0.2733     2.4099     0.0237    72.5010     7.8657   -33.8453     9.5567     8.1621     8.7278     0.1878
   55.0000     0.2711     2.3882     0.0116    73.0827     7.8804   -33.6104     9.7365     8.4256     8.9913     0.1872
   55.5000     0.2786     2.3706     0.0011    72.9118     7.8952   -33.3861     9.8159     8.6940     9.1788     0.1901
   56.0000     0.2837     2.3657     0.0139    71.7846     7.9094   -33.1295     9.9894     8.8821     9.3837     0.1780
   56.5000     0.2874     2.3603     0.0323    70.6754     7.9183   -33.2968    10.1659     8.8753     9.3805     0.1714
   57.0000     0.2803     2.3745     0.0274    69.5468     7.9323   -33.6358    10.3456     8.8765     9.5630     0.1742
   57.5000     0.2748     2.3909     0.0238    69.1870     7.9469   -33.9712    10.4826     8.8778     9.5544     0.1881
   58.0000     0.2707     2.3927     0.0239    69.7243     7.9500   -34.2910    10.4826     8.9808     9.7797     0.1885
   58.5000     0.2760     2.3718     0.0239    70.1047     7.9500   -34.6215    10.4826     9.1995     9.9568     0.1953
   59.0000     0.2959     2.3637     0.0225    70.0983     7.9500   -34.9714    10.4826     9.4253    10.1373     0.1906
   59.5000     0.2987     2.3516     0.0134    70.1323     7.9501   -35.1566    10.8201     9.6551    10.3214     0.1865
   60.0000     0.2989     2.3582     0.0042    70.4133     7.9506   -35.1348    11.1136     9.8905    10.5091     0.1722
   60.5000     0.2975     2.3678     0.0001    70.6943     7.9303   -34.9652    11.4150    10.1316    10.7008     0.1574
   61.0000     0.2917     2.3690     0.0029    70.9056     7.9258   -34.7698    11.4961    10.3786    10.8959     0.1639
   61.5000     0.2859     2.4175     0.0121    71.0640     7.9199   -34.5650    11.6267    10.6317    11.0945     0.1701
   62.0000     0.2808     2.4137     0.0216    71.7889     7.9139   -34.3665    11.8529    10.8768    11.2858     0.1727
   62.5000     0.2761     2.4017     0.0220    72.4914     7.9079   -34.1665    11.9284    10.8753    11.3300     0.1750
   63.0000     0.2762     2.3930     0.0185    73.1955     7.9019   -33.9658    11.9284    10.8756    11.3720     0.1763
   63.5000     0.2752     2.3903     0.0159    73.2955     7.8958   -33.7661    11.9284    10.8760    11.4143     0.1821
   64.0000     0.2690     2.3888     0.0160    72.9022     7.8901   -33.5663    12.0245    10.9135    11.4566     0.1804
   64.5000     0.2643     2.3835     0.0140    71.8396     7.8898   -33.3665    12.4669    11.0824    11.4961     0.1817
   65.0000     0.2820     2.3774     0.0139    70.7992     7.8906   -33.1667    12.6075    11.2537    11.6878     0.1833
   65.5000     0.2963     2.3781     0.0139    69.7520     7.9097   -32.9666    12.6075    11.4275    11.8693     0.1812
   66.0000     0.2984     2.3787     0.0132    68.7295     7.9296   -32.7672    12.6075    11.6039    12.0537     0.1830
   66.5000     0.2999     2.3764     0.0120    68.7173     7.9496   -32.5672    12.7305    11.7832    12.2410     0.1798
   67.0000     0.3054     2.3743     0.0106    69.7662     7.9692   -32.3664    12.8538    11.9652    12.4312     0.1770
   67.5000     0.2969     2.3758     0.0090    70.8756     7.9701   -32.1698    12.9782    12.1501    12.6243     0.1839
   68.0000     0.2929     2.3789     0.0075    71.9901     7.9701   -31.9708    13.1038    12.3378    12.8204     0.1885
   68.5000     0.2878     2.3729     0.0059    72.4880     7.9590   -31.9251    13.2307    12.5283    13.0196     0.1885
   69.0000     0.2902     2.3664     0.0043    72.2719     7.9386   -31.9264    13.3253    12.7219    13.2218     0.1838
   69.5000     0.2939     2.3655     0.0040    72.0220     7.9181   -31.9293    13.3253    12.9186    13.3440     0.1732
   70.0000     0.2889     2.3704     0.0066    71.8939     7.8976   -31.9259    13.3253    13.1186    13.3819     0.1626
   70.5000     0.2799     2.3893     0.0136    72.2927     7.8769   -31.9256    13.8285    13.3219    13.4198     0.1522
   71.0000     0.2967     2.4079     0.0206    72.4071     7.8577   -31.7985    14.3463    13.5284    13.4579     0.1459
   71.5000     0.2998     2.4236     0.0276    70.6103     7.8283   -31.6369    15.8675    13.7379    13.4961     0.1411
   72.0000     0.2998     2.4334     0.0346    69.3094     7.8601   -31.4743    18.5766    13.9505    13.5344     0.1387
   72.5000     0.2998     2.4432     0.0377    70.1331     7.9033   -31.3136    17.8319    14.0871    13.5736     0.1493
   73.0000     0.2998     2.4498     0.0378    70.8847     7.8956   -31.1513    15.9360    14.0866    13.5126     0.1623
   73.5000     0.2945     2.4393     0.0364    71.0307     7.8693   -30.9903    14.3463    13.9089    13.4508     0.1778
   74.0000     0.2815     2.4093     0.0322    71.6622     7.8864   -30.8286    14.7124    13.6982    13.3892     0.1746
   74.5000     0.2701     2.3873     0.0279    71.6008     7.8765   -30.6640    16.1169    13.4909    13.3279     0.1714
   75.0000     0.2650     2.3927     0.0260    70.8795     7.8601   -30.5101    15.7334    13.2869    13.2669     0.1774
