~VERSION INFORMATION
 VERS.                2.0:   CWLS LOG ASCII STANDARD - VERSION 2.0
 WRAP.                 NO:   ONE LINE PER DEPTH STEP
~WELL INFORMATION
#MNEM.UNIT      DATA TYPE    INFORMATION
#----------   ------------   ------------------------------
 STRT.F         1500.0000:   START DEPTH
 STOP.F         3480.0000:   STOP DEPTH
 STEP.F            0.5000:   STEP LENGTH
 NULL.          -999.2500:   NO VALUE
 COMP. FLUOR DANIEL (NOPSR). INC.:   COMPANY
 WELL.   22-STX-26 #22-26:   WELL
 FLD .             NPR #3:   FIELD
 LOC .      S26 T38N R78W:   LOCATION
 CNTY.            NATRONA:   COUNTY
 STAT.            WYOMING:   STATE
 CTRY. UNITED STATES OF AMERICA:   COUNTRY
 SRVC.            Unknown:   SERVICE COMPANY
 DATE.        14-JUN-1995:   LOGDATE
 API .       490252272400:   API NUMBER
~CURVE INFORMATION
#MNEM.UNIT       API CODE    CURVE DESCRIPTION
#----------   ------------   ------------------------------
 DEPT.F                  :   
 ROP .MIN/FT 91 810 01 00:   RATE OF DRILLING PENETRATION
 TGAS.UNITS  91 830 01 00:   TOTAL GAS FROM HOTWIRE
~PARAMETER INFORMATION
#MNEM.UNIT          VALUE    DESCRIPTION
#----------   ------------   ------------------------------
 EKB .F              5348:   KELLING BUSHING
 EGL .F              5338:   GROUND LEVEL
 DATE.            6-14-95:   RUN DATE
 DD  .F              3480:   DEPTH DRILLER
 BLI .F              3480:   BOTTOM LOG INTERVAL
 TLI .F              1500:   TOP LOG INTERVAL
 CS  .IN            9.625:   CASING SIZE
 CBD .F                87:   CASING BOTTOM DRILLER
 ENGI.               HUSK:   RECORDING ENGINEER
 WITN.              TOWER:   WITNESSED BY
 CLNT.            A2DTECH:   CLIENT CODE
 ORIG.           5" PRINT:   ORIGIN OF DATA
 UWI .       490252272400:   UNIQUE WELL ID
 DICO. A2D Technologies, Inc.:   DIGITIZING COMPANY
~OTHER INFORMATION
~A  DEPT         ROP       TGAS 
 1500.0000     0.7964     2.9167
 1500.5000     0.7944     2.9050
 1501.0000     0.7923     2.8933
 1501.5000     0.7903     2.8816
 1502.0000     0.7883     2.8699
 1502.5000     0.7862     2.8582
 1503.0000     0.7842     2.8466
 1503.5000     0.7821     2.8349
 1504.0000     1.0222     2.8232
 1504.5000     1.0229     2.8115
 1505.0000     1.0236     2.7998
 1505.5000     1.0243     2.7881
 1506.0000     1.0249     2.7764
 1506.5000     0.8143     2.7647
 1507.0000     0.8121     2.7531
 1507.5000     0.8100     2.7414
 1508.0000     0.8076     2.7297
 1508.5000     1.0390     2.7180
 1509.0000     1.0385     2.7063
 1509.5000     1.0361     2.6946
 1510.0000     1.0337     2.6829
 1510.5000     1.0313     2.6713
 1511.0000     1.0289     2.6596
 1511.5000     1.0265     2.6479
 1512.0000     1.0241     2.6362
 1512.5000     1.0217     2.6245
 1513.0000     1.0193     2.6128
 1513.5000     1.0169     2.6011
 1514.0000     1.2876     2.5895
 1514.5000     1.2881     2.5778
 1515.0000     1.2888     2.5661
 1515.5000     1.2895     2.5544
 1516.0000     1.2901     2.5427
 1516.5000     1.0077     2.5310
 1517.0000     1.0085     2.5193
 1517.5000     1.0092     2.5077
 1518.0000     0.7898     2.4960
 1518.5000     0.8010     2.4843
 1519.0000     0.7910     2.4726
 1519.5000     0.7812     2.4609
 1520.0000     0.7925     2.4492
 1520.5000     0.7931     2.4375
 1521.0000     0.7938     2.4259
 1521.5000     0.7945     2.4142
 1522.0000     0.7952     2.4025
 1522.5000     0.7959     2.3908
 1523.0000     0.7965     2.3791
 1523.5000     0.7972     2.3674
 1524.0000     1.0077     2.3557
 1524.5000     1.0083     2.3441
 1525.0000     1.0090     2.3324
 1525.5000     1.0096     2.3207
 1526.0000     1.0103     2.3090
 1526.5000     1.0110     2.2973
 1527.0000     1.0116     2.2856
 1527.5000     1.0123     2.2739
 1528.0000     0.9438     2.2623
 1528.5000     0.8039     2.2506
 1529.0000     0.8047     2.2389
 1529.5000     0.8054     2.2272
 1530.0000     0.8061     2.2155
 1530.5000     0.8068     2.2038
 1531.0000     0.8074     2.1921
 1531.5000     0.8081     2.1903
 1532.0000     0.8089     2.2010
 1532.5000     1.0192     2.6264
 1533.0000     1.0198     3.2594
 1533.5000     1.0205     4.5181
 1534.0000     1.0212     7.0262
 1534.5000     1.0219    13.9098
 1535.0000     1.0225    20.5845
 1535.5000     1.0232    27.2599
 1536.0000     0.8037    30.3929
 1536.5000     0.7834    31.6516
 1537.0000     0.7842    32.0763
 1537.5000     0.7849    32.0843
 1538.0000     0.7855    32.0930
 1538.5000     0.7862    31.6837
 1539.0000     0.7869    31.2764
 1539.5000     0.7876    31.2844
 1540.0000     0.7883    30.6668
 1540.5000     0.7889    30.0512
 1541.0000     0.7896    29.4342
 1541.5000     0.7903    28.6082
 1542.0000     1.0112    27.3669
 1542.5000     1.0223    26.5409
 1543.0000     1.0230    25.7163
 1543.5000     1.0236    24.8930
 1544.0000     0.7938    24.6900
 1544.5000     0.7945    23.8654
 1545.0000     0.7951    23.0407
 1545.5000     0.7951    22.2161
 1546.0000     0.7950    21.3908
 1546.5000     0.7949    20.5668
 1547.0000     0.7948    19.7415
 1547.5000     0.7948    18.9169
 1548.0000     0.7947    18.0909
 1548.5000     0.7946    17.2663
 1549.0000     0.7946    16.4403
 1549.5000     0.7945    15.6163
 1550.0000     0.7944    14.7917
 1550.5000     0.7944    13.9670
 1551.0000     0.7943    13.1424
 1551.5000     0.7942    12.5234
 1552.0000     1.0353    11.7001
 1552.5000     1.0465    10.8761
 1553.0000     1.0472    10.0515
 1553.5000     1.0479     9.4345
 1554.0000     1.0485     8.4009
 1554.5000     1.2693     7.5756
 1555.0000     1.2699     7.1683
 1555.5000     1.2706     6.7570
 1556.0000     0.9779     6.5580
 1556.5000     0.9995     5.9403
 1557.0000     1.0105     5.7400
 1557.5000     1.0075     5.7514
 1558.0000     1.0050     5.7588
 1558.5000     1.0025     5.7681
 1559.0000     1.0000     5.7755
 1559.5000     0.9975     5.7848
 1560.0000     0.9950     5.7929
 1560.5000     0.9925     5.8016
 1561.0000     0.9900     5.8096
 1561.5000     0.9875     5.6073
 1562.0000     1.2272     5.1986
 1562.5000     1.2279     4.9990
 1563.0000     1.2412     4.7994
 1563.5000     1.2545     4.8087
 1564.0000     1.2678     5.0264
 1564.5000     0.7812     5.0344
 1565.0000     0.7846     5.2515
 1565.5000     0.7880     5.4678
 1566.0000     0.7914     5.8932
 1566.5000     0.7948     6.1095
 1567.0000     0.7982     6.7432
 1567.5000     0.8016     6.9596
 1568.0000     0.8051     7.5933
 1568.5000     0.8085     7.8097
 1569.0000     0.8119     8.4427
 1569.5000     0.8153     9.0757
 1570.0000     0.6510     9.5011
 1570.5000     0.6411    10.1348
 1571.0000     0.6430    10.3511
 1571.5000     0.6450    10.9848
 1572.0000     0.6471    11.2012
 1572.5000     0.6492    11.8349
 1573.0000     0.6512    12.0512
 1573.5000     0.6533    12.6849
 1574.0000     0.6554    12.9013
 1574.5000     0.7934    12.9100
 1575.0000     0.7941    12.7070
 1575.5000     0.7941    11.8830
 1576.0000     0.7940    11.0597
 1576.5000     0.7939    10.4427
 1577.0000     0.7939    10.2404
 1577.5000     0.7938     9.6235
 1578.0000     0.7937     9.4238
 1578.5000     0.7937     8.8082
 1579.0000     0.7936     8.6072
 1579.5000     0.7935     7.9922
 1580.0000     0.7935     7.7926
 1580.5000     0.7934     7.8013
 1581.0000     0.7933     7.6003
 1581.5000     0.7932     7.1923
 1582.0000     1.0133     7.2010
 1582.5000     1.0139     6.9994
 1583.0000     1.0146     7.0094
 1583.5000     1.0153     7.0181
 1584.0000     1.0159     7.0262
 1584.5000     1.0166     6.8238
 1585.0000     1.0173     6.4152
 1585.5000     1.0180     6.2156
 1586.0000     1.1722     6.2263
 1586.5000     1.3004     6.0239
 1587.0000     1.2982     5.6153
 1587.5000     1.2961     5.6253
 1588.0000     1.0215     5.4237
 1588.5000     1.0214     5.4344
 1589.0000     1.0212     5.2321
 1589.5000     1.0210     4.8241
 1590.0000     1.0208     4.8348
 1590.5000     1.0207     4.6325
 1591.0000     1.0205     4.6425
 1591.5000     1.0203     4.6512
 1592.0000     1.0201     4.6599
 1592.5000     1.0199     4.4569
 1593.0000     1.0197     4.4683
 1593.5000     1.0195     4.6840
 1594.0000     1.0193     4.6920
 1594.5000     1.3110     4.7014
 1595.0000     1.3063     4.7083
 1595.5000     1.3016     4.7174
 1596.0000     1.2969     4.7261
 1596.5000     1.2921     4.7348
 1597.0000     1.2874     4.7428
 1597.5000     1.2827     4.7515
 1598.0000     1.2780     4.5486
 1598.5000     1.0121     4.1406
 1599.0000     1.0074     3.9416
 1599.5000     1.0027     3.9516
 1600.0000     0.9980     3.1409
 1600.5000     0.7868     3.1299
 1601.0000     0.7875     3.1181
 1601.5000     0.7882     3.1062
 1602.0000     0.7889     3.0943
 1602.5000     0.7896     3.0824
 1603.0000     0.7903     3.0705
 1603.5000     0.7909     3.0587
 1604.0000     0.7916     3.0468
 1604.5000     0.7923     3.0349
 1605.0000     0.7930     3.0230
 1605.5000     0.7937     3.0111
 1606.0000     0.9990     2.9993
 1606.5000     0.9992     2.9874
 1607.0000     0.9995     2.9755
 1607.5000     0.9997     2.9636
 1608.0000     1.0000     2.9517
 1608.5000     0.8321     2.9399
 1609.0000     0.8306     2.9280
 1609.5000     0.8290     2.9161
 1610.0000     0.8275     2.9042
 1610.5000     0.8260     2.8923
 1611.0000     0.8244     2.8805
 1611.5000     0.8229     2.8686
 1612.0000     0.8214     2.8567
 1612.5000     0.8198     2.8448
 1613.0000     0.8183     2.8329
 1613.5000     0.8168     2.8211
 1614.0000     0.8152     2.8092
 1614.5000     0.8137     2.7973
 1615.0000     0.8122     2.7854
 1615.5000     0.8106     2.7736
 1616.0000     0.8091     2.7617
 1616.5000     0.8076     2.7498
 1617.0000     0.8060     2.7379
 1617.5000     0.8045     2.7260
 1618.0000     0.8030     2.7142
 1618.5000     0.8014     2.7023
 1619.0000     0.7999     2.6904
 1619.5000     0.7984     2.6785
 1620.0000     0.7023     2.6666
 1620.5000     0.7026     2.6548
 1621.0000     0.7028     2.6429
