~VERSION INFORMATION
 VERS.                2.0:   CWLS LOG ASCII STANDARD - VERSION 2.0
 WRAP.                 NO:   ONE LINE PER DEPTH STEP
~WELL INFORMATION
#MNEM.UNIT      DATA TYPE    INFORMATION
#----------   ------------   ------------------------------
 STRT.F           82.0000:   START DEPTH
 STOP.F         1194.0000:   STOP DEPTH
 STEP.F            0.5000:   STEP LENGTH
 NULL.          -999.2500:   NO VALUE
 COMP.       INTEX OIL CO:   COMPANY
 WELL.   76S-11 NPR #3-11:   WELL
 FLD .             TEAPOT:   FIELD
 LOC .      S11 T38N R78W:   LOCATION
 CNTY.            NATRONA:   COUNTY
 STAT.            WYOMING:   STATE
 CTRY. UNITED STATES OF AMERICA:   COUNTRY
 SRVC.       Schlumberger:   SERVICE COMPANY
 DATE.        30-AUG-1966:   LOGDATE
 API .       490250972800:   API NUMBER
~CURVE INFORMATION
#MNEM.UNIT       API CODE    CURVE DESCRIPTION
#----------   ------------   ------------------------------
 DEPT.F                  :   
 SPR .MV     05 010 01 00:   SPONTANEOUS POTENTIAL FROM RES.
 CILD.MMHO   05 110 46 00:   CONDUCTIVITY INDUCTION LOG DEEP
 ILD .OHMM   05 120 46 00:   INDUCTION LOG DEEP
 ASN .OHMM   05 041 16 00:   AMPLIFIED SHORT NORMAL 16"
 CALD.IN     45 280 60 00:   CALIPER FROM DENSITY LOG
 CORR.G/C3   45 356 01 00:   DENSITY CORRECTION
 RHOB.G/C3   45 350 01 00:   BULK DENSITY
 DPHI.DEC    45 890 12 00:   DENSITY POROSITY SANDSTONE
 GRD .GAPI   45 310 01 00:   GAMMA RAY FROM DENSITY LOG
~PARAMETER INFORMATION
#MNEM.UNIT          VALUE    DESCRIPTION
#----------   ------------   ------------------------------
 PD  .                 GL:   PERMANENT DATUM
 EPD .F              5261:   ELEVATION PERMANENT DATUM
 LMF .                 KB:   LOG MEASURED FROM
 DAPD.F                 5:   FEET ABOVE PERMANENT DATUM
 DMF .                 KB:   DRILLING MEASURED FROM
 EKB .F              5266:   KELLING BUSHING
 EGL .F              5261:   GROUND LEVEL
 DATE.            8-30-66:   RUN DATE
 RUN .                  1:   RUN NUMBER
 DD  .F              1191:   DEPTH DRILLER
 DL  .F              1191:   DEPTH LOGGER
 BLI .F              1190:   BOTTOM LOG INTERVAL
 TLI .F                87:   TOP LOG INTERVAL
 CS  .IN            8.625:   CASING SIZE
 CBD .F                10:   CASING BOTTOM DRILLER
 BS  .IN             6.75:   BIT SIZE
 BSD .F              1191:   BIT SIZE AT DEPTH
 DFT .           CHEM-GEL:   DRILLING FLUID TYPE
 DFD .                9.8:   DRILLING FLUID DENSITY
 DFV .                 60:   DRILLING FLUID VISCOSITY
 MSS .         CIRCULATED:   MUD SAMPLE SOURCE
 RMS .OHMM            .76:   RESISTIVITY MUD SAMPLE
 MST .F                85:   MUD SAMPLE TEMPERATURE
 RMF .OHMM            .46:   RESISTIVITY MUD FILTRATE SAMPLE
 MFST.F                88:   MUD FILTRATE SAMPLE TEMPERATURE
 MFSS.                  M:   MUD FILTRATE SAMPLE SOURCE
 RMB .OHMM           .695:   RESISTIVITY MUD AT BHT
 BHT .F                93:   BOTTOM HOLE TEMPERATURE
 TCS .HRS               1:   TIME CURCULATED STOPPED
 MRT .F                93:   MAXIMUM RECORDED TEMPERATURE
 LUN .               3527:   LOGGING UNIT NUMBER
 LUL .               CSPR:   LOGGING UNIT LOCATION
 ENGI.               HAUG:   RECORDING ENGINEER
 WITN.                MAY:   WITNESSED BY
 CLNT.            A2DTECH:   CLIENT CODE
 ORIG. 2", 2.5", 5" PRINT:   ORIGIN OF DATA
 UWI .       490250972800:   UNIQUE WELL ID
 DICO. A2D Technologies, Inc.:   DIGITIZING COMPANY
~OTHER INFORMATION
~A   DEPT      SPR        CILD       ILD          ASN     CALD       CORR       RHOB       DPHI        GRD   
# ...
  885.0000   -42.9371   145.4279     6.4518     9.0927     7.3393     0.0597     2.5044     0.0882   115.3542
  885.5000   -43.0300   145.9498     6.4354     9.1284     7.3135     0.0516     2.4948     0.0963   117.0635
  886.0000   -43.1159   146.4716     6.4381     9.1496     7.2922     0.0254     2.4668     0.1081   117.6768
  886.5000   -43.2081   146.9935     6.4430     9.1515     7.2639     0.0313     2.4634     0.1126   117.2500
  887.0000   -43.2640   147.2056     6.4503     9.1337     7.3065     0.0244     2.4569     0.1160   116.8960
  887.5000   -43.1297   147.2056     6.4566     9.1127     7.3560     0.0108     2.4327     0.1213   116.4703
  888.0000   -43.1349   147.2056     6.4634     9.0868     7.3586     0.0158     2.4235     0.1267   115.0920
  888.5000   -43.3975   147.2056     6.4699     9.0834     7.3190     0.0208     2.4427     0.1245   113.5009
  889.0000   -43.6435   147.2056     6.4766     9.1730     7.2837     0.0307     2.4597     0.1200   111.7196
  889.5000   -43.6876   147.2056     6.4832     9.2599     7.2432     0.0442     2.4796     0.1155   111.3613
  890.0000   -43.5603   147.2056     6.4898     9.2547     7.2560     0.0550     2.4907     0.1110   113.3615
  890.5000   -43.2237   147.2056     6.4964     9.2206     7.2851     0.0522     2.4928     0.1079   113.8944
  891.0000   -43.1139   147.2056     6.5030     9.1163     7.3139     0.0504     2.4953     0.1032   114.4525
  891.5000   -43.2755   147.2056     6.5096     9.0548     7.3422     0.0558     2.4985     0.0967   113.9921
  892.0000   -43.4464   147.2056     6.5162     9.1769     7.3705     0.0561     2.5005     0.0912   113.0561
  892.5000   -43.3103   147.2056     6.5228     9.1690     7.3987     0.0539     2.5057     0.0901   112.1841
  893.0000   -43.0820   147.2056     6.5297     9.1337     7.3985     0.0619     2.5109     0.0905   111.4875
  893.5000   -43.2218   147.2056     6.5364     9.1045     7.3718     0.0702     2.5155     0.0824   111.9268
  894.0000   -43.3867   147.2056     6.5383     9.0730     7.3483     0.0772     2.5199     0.0763   112.3143
  894.5000   -43.4635   147.2056     6.5367     9.0418     7.3218     0.0703     2.5017     0.0887   112.7498
  895.0000   -43.1464   147.2056     6.5398     9.0125     7.3342     0.0311     2.4797     0.1060   113.1717
  895.5000   -43.2155   147.4983     6.5348     8.9785     7.3600     0.0072     2.4347     0.1242   113.5888
  896.0000   -43.5063   148.6117     6.5458     8.9540     7.3869     0.0255     2.4425     0.1137   113.9901
  896.5000   -43.7911   150.5475     6.4520     8.8733     7.4019     0.0427     2.4866     0.1028   114.4774
  897.0000   -43.7182   153.4103     6.2379     8.7365     7.3983     0.0501     2.4921     0.0970   114.4047
  897.5000   -43.3473   156.2732     6.0111     8.6003     7.3964     0.0478     2.4969     0.0949   113.8566
  898.0000   -43.0994   160.0299     5.7846     8.3698     7.3942     0.0461     2.4993     0.0928   111.7942
  898.5000   -43.0682   166.8720     5.5509     8.1441     7.3918     0.0465     2.5036     0.0906   109.6355
  899.0000   -43.0712   176.5341     5.3343     7.9173     7.3896     0.0482     2.4895     0.0974   109.1147
  899.5000   -43.0815   186.1962     5.0760     7.7038     7.3873     0.0503     2.4827     0.0955   108.6522
  900.0000   -42.9404   191.9212     4.9281     7.4791     7.3850     0.0603     2.4984     0.0919   108.1545
  900.5000   -42.5969   194.1118     4.9727     7.2660     7.3828     0.0663     2.5059     0.0890   107.9790
  901.0000   -42.4579   194.1118     4.9919     7.0575     7.3805     0.0744     2.4973     0.0897   106.0621
  901.5000   -42.4749   194.1118     5.0204     6.9876     7.3782     0.0769     2.4943     0.0972   106.1792
  902.0000   -42.4633   192.1158     5.0837     7.0582     7.3759     0.0606     2.4737     0.1044   106.6926
  902.5000   -42.5075   188.3034     5.2202     7.4243     7.3737     0.0526     2.4641     0.1103   107.3428
  903.0000   -42.5834   183.0619     5.3520     7.7947     7.3714     0.0518     2.4780     0.1088   107.8802
  903.5000   -42.6557   177.8204     5.4901     8.1312     7.3692     0.0585     2.4910     0.1025   108.4442
  904.0000   -42.7275   172.5788     5.6199     8.1585     7.3669     0.0608     2.4885     0.0979   108.8472
  904.5000   -42.8067   167.3373     5.7654     8.1080     7.3646     0.0557     2.4812     0.0992   107.7191
  905.0000   -42.8381   163.3585     5.8617     8.1383     7.3622     0.0707     2.5008     0.0954   106.2951
  905.5000   -42.5087   161.3052     5.8948     8.3153     7.3610     0.0706     2.4998     0.0931   104.8278
  906.0000   -42.5227   159.2519     5.9414     8.4926     7.3611     0.0625     2.4961     0.0953   104.2217
  906.5000   -42.7069   157.1986     5.9802     8.4949     7.3611     0.0534     2.4917     0.0975   105.8123
  907.0000   -42.8307   155.1453     6.0253     8.4596     7.3611     0.0444     2.4873     0.0997   107.4081
  907.5000   -43.0294   153.1936     6.0633     8.4331     7.3611     0.0405     2.4828     0.0983   108.9333
  908.0000   -42.8199   153.7225     6.1139     8.4042     7.3611     0.0559     2.4966     0.0928   110.6612
  908.5000   -42.1985   154.1916     6.1245     8.3869     7.3611     0.0708     2.5188     0.0778   110.3297
  909.0000   -42.2100   156.8862     6.0603     8.3817     7.3610     0.0714     2.5253     0.0798   109.7658
  909.5000   -42.5535   159.4062     6.0037     8.3486     7.3614     0.0550     2.4939     0.0893   109.8624
  910.0000   -42.5464   162.1756     5.9395     8.2986     7.3610     0.0501     2.4818     0.1007   110.6980
  910.5000   -42.0991   165.5356     5.8831     8.1868     7.3606     0.0684     2.4972     0.0951   111.3269
  911.0000   -42.1613   168.8955     5.8111     8.0130     7.3711     0.0863     2.5163     0.0811   110.2630
  911.5000   -42.3546   176.1477     5.7250     7.8555     7.4028     0.0783     2.5123     0.0856   109.1946
  912.0000   -42.5483   181.2647     5.4818     7.6865     7.4410     0.0576     2.5004     0.0948   109.2920
  912.5000   -42.6246   188.1237     5.1432     7.5371     7.4093     0.0405     2.4788     0.1040   110.0909
  913.0000   -42.3142   197.9042     4.8330     7.3204     7.3409     0.0360     2.4604     0.1132   110.8175
  913.5000   -41.9986   210.9019     4.5063     7.0687     7.2835     0.0303     2.4438     0.1223   111.4625
  914.0000   -41.9468   223.8996     4.1928     6.7823     7.2828     0.0339     2.4419     0.1323   112.8637
  914.5000   -42.2232   237.0260     3.8661     6.4365     7.2810     0.0385     2.4536     0.1273   112.9778
  915.0000   -42.1614   241.0180     3.6679     6.0951     7.2820     0.0442     2.4543     0.1213   112.1180
  915.5000   -41.9051   240.7257     3.7911     5.7864     7.2817     0.0457     2.4468     0.1249   111.4991
  916.0000   -41.6938   240.0200     3.9142     5.6453     7.2817     0.0619     2.4528     0.1246   112.0431
  916.5000   -41.7196   236.8763     4.0478     5.7404     7.2817     0.0852     2.4564     0.1237   112.5316
  917.0000   -41.7917   231.8363     4.1461     6.0293     7.2816     0.1138     2.4464     0.1257   112.2744
  917.5000   -41.8660   222.7264     4.4118     6.2867     7.2824     0.1087     2.4384     0.1286   111.6189
  918.0000   -42.0345   208.5517     4.7301     6.7925     7.2735     0.0706     2.4354     0.1316   112.9941
  918.5000   -42.2738   194.3769     5.0156     7.3267     7.2479     0.0670     2.4724     0.1233   113.9375
  919.0000   -42.4685   180.9880     5.3160     7.5877     7.2240     0.0569     2.4886     0.1083   112.0725
  919.5000   -42.7489   171.8896     5.6115     7.7776     7.2027     0.0679     2.4943     0.1016   111.2391
  920.0000   -42.7151   167.1657     5.7146     7.8568     7.2547     0.0594     2.4899     0.0976   110.3019
  920.5000   -42.4609   162.8643     5.7873     7.9606     7.2753     0.0532     2.5007     0.0921   109.4015
  921.0000   -42.2887   161.8563     5.8692     8.0543     7.2555     0.0652     2.5231     0.0740   108.5401
