~VERSION INFORMATION
 VERS.                2.0:   CWLS LOG ASCII STANDARD - VERSION 2.0
 WRAP.                 NO:   ONE LINE PER DEPTH STEP
~WELL INFORMATION
#MNEM.UNIT      DATA TYPE    INFORMATION
#----------   ------------   ------------------------------
 STRT.F           20.0000:   START DEPTH
 STOP.F          672.0000:   STOP DEPTH
 STEP.F            0.5000:   STEP LENGTH
 NULL.          -999.2500:   NO VALUE
 COMP.              FENIX:   COMPANY
 WELL.    NPR ##3 23-S-11:   WELL
 FLD .        TEAPOT DOME:   FIELD
 LOC .      S11 T38N R78W:   LOCATION
 CNTY.            NATRONA:   COUNTY
 STAT.            WYOMING:   STATE
 CTRY. UNITED STATES OF AMERICA:   COUNTRY
 SRVC.           BIRDWELL:   SERVICE COMPANY
 DATE.        05-FEB-1978:   LOGDATE
 API .       490251057300:   API NUMBER
~CURVE INFORMATION
#MNEM.UNIT       API CODE    CURVE DESCRIPTION
#----------   ------------   ------------------------------
 DEPT.F                  :   
 ILD .OHMM   05 120 46 00:   INDUCTION LOG DEEP
 SN  .OHMM   05 040 16 00:   SHORT NORMAL 16"
 SPR .MV     05 010 01 00:   SPONTANEOUS POTENTIAL FROM RES.
 CALD.IN     45 280 60 00:   CALIPER FROM DENSITY LOG
 CORR.G/C3   45 356 01 00:   DENSITY CORRECTION
 DPHI.DEC    45 890 10 00:   DENSITY POROSITY LIMESTONE
 GRD .GAPI   45 310 01 00:   GAMMA RAY FROM DENSITY LOG
 RHOB.G/C3   45 350 01 00:   BULK DENSITY
~PARAMETER INFORMATION
#MNEM.UNIT          VALUE    DESCRIPTION
#----------   ------------   ------------------------------
 PD  .                 GL:   PERMANENT DATUM
 EPD .F              5175:   ELEVATION PERMANENT DATUM
 LMF .                 KB:   LOG MEASURED FROM
 DMF .                 KB:   DRILLING MEASURED FROM
 EKB .F              5178:   KELLING BUSHING
 EGL .F              5175:   GROUND LEVEL
 DATE.        05-FEB-1978:   RUN DATE
 RUN .                  1:   RUN NUMBER
 DD  .F               670:   DEPTH DRILLER
 DL  .F               675:   DEPTH LOGGER
 BLI .F               670:   BOTTOM LOG INTERVAL
 TLI .F                40:   TOP LOG INTERVAL
 CS  .IN            8.625:   CASING SIZE
 CBD .F                39:   CASING BOTTOM DRILLER
 CBL .F                40:   CASING BOTTOM LOGGER
 BS  .IN            7.875:   BIT SIZE
 BSD .F               670:   BIT SIZE AT DEPTH
 DFT .                KCL:   DRILLING FLUID TYPE
 DFD .                8.4:   DRILLING FLUID DENSITY
 DFV .                 32:   DRILLING FLUID VISCOSITY
 DFPH.                  8:   DRILLING FLUID PH
 DFL .                8.8:   DRILLING FLUID LOSS
 MSS .           FLOWLINE:   MUD SAMPLE SOURCE
 RMS .OHMM           0.58:   RESISTIVITY MUD SAMPLE
 MST .F                62:   MUD SAMPLE TEMPERATURE
 RMF .OHMM           0.58:   RESISTIVITY MUD FILTRATE SAMPLE
 MFST.F                62:   MUD FILTRATE SAMPLE TEMPERATURE
 RMC .OHMM            0.9:   RESISTIVITY MUD CAKE
 MCST.F                66:   MUD CAKE SAMPLE TEMPERATURE
 MFSS.               MEAS:   MUD FILTRATE SAMPLE SOURCE
 RMB .OHMM           0.55:   RESISTIVITY MUD AT BHT
 BHT .F                72:   BOTTOM HOLE TEMPERATURE
 TCS .HRS               1:   TIME CURCULATED STOPPED
 MRT .F                72:   MAXIMUM RECORDED TEMPERATURE
 LUN .               2958:   LOGGING UNIT NUMBER
 LUL .               CASP:   LOGGING UNIT LOCATION
 ENGI.            POINTER:   RECORDING ENGINEER
 WITN.         HARRINGTON:   WITNESSED BY
 CLNT.            A2DTECH:   CLIENT CODE
 ORIG.           5" PRINT:   ORIGIN OF DATA
 UWI .       490251057300:   UNIQUE WELL ID
 DICO. A2D Technologies, Inc.:   DIGITIZING COMPANY
~OTHER INFORMATION
~A   DEPT      ILD         SN        SPR       CALD       CORR       DPHI         GRD      RHOB   
# ...
  182.0000     7.1692     7.2530   -55.1154     7.9145     0.0149     0.1180    83.3815     2.4536
  182.5000     7.1678     7.2023   -55.1223     7.9132     0.0069     0.1189    83.8328     2.4573
  183.0000     7.0676     7.1520   -55.1287     7.9122     0.0046     0.1213    82.6297     2.4513
  183.5000     7.0662     7.1492   -55.1341     7.9112     0.0031     0.1231    80.9745     2.4378
  184.0000     7.0648     7.1016   -55.1405     7.9102     0.0024     0.1237    80.2230     2.4362
  184.5000     7.1125     7.1506   -55.1464     7.9090     0.0016     0.1237    80.0693     2.4377
  185.0000     7.1606     7.1500   -55.1524     7.9080     0.0031     0.1237    79.7740     2.4400
  185.5000     7.1588     7.1994   -55.1597     7.9070     0.0053     0.1237    79.1734     2.4400
  186.0000     7.2075     7.2489   -55.0131     7.9060     0.0068     0.1237    78.5724     2.4338
  186.5000     7.3572     7.3498   -54.8651     7.9050     0.0030     0.1237    78.5502     2.4317
  187.0000     7.4073     7.5039   -54.7186     7.9038     0.0008     0.1237    79.5070     2.4377
  187.5000     7.5089     7.5863   -54.5721     7.9028     0.0015     0.1240    81.2879     2.4376
  188.0000     7.5877     7.6606   -54.3598     7.9018     0.0060     0.1243    81.7412     2.4376
  188.5000     7.6633     7.6601   -54.1280     7.9158     0.0097     0.1244    81.7426     2.4376
  189.0000     7.7688     7.7131   -54.1341     7.9146     0.0105     0.1219    81.7651     2.4406
  189.5000     7.7672     7.7125   -54.1402     7.9136     0.0104     0.1175    80.0317     2.4579
  190.0000     7.8201     7.7657   -54.1472     7.9276     0.0134     0.1033    77.3798     2.4796
  190.5000     7.8726     7.7651   -54.1524     7.9266     0.0194     0.1009    76.9294     2.4841
  191.0000     7.8710     7.7646   -54.1590     7.9254     0.0269     0.0976    77.0814     2.4874
  191.5000     7.9242     7.7103   -54.1649     7.9397     0.0239     0.0840    78.7395     2.5006
  192.0000     7.9225     7.6564   -54.0183     7.9385     0.0104     0.0886    80.1084     2.5089
  192.5000     7.8661     7.6030   -54.0244     7.9525     0.0066     0.1031    80.2487     2.4931
  193.0000     7.8099     7.5498   -54.0305     7.9515     0.0073     0.1193    79.7984     2.4578
  193.5000     7.7544     7.5493   -54.0376     7.9503     0.0081     0.1196    78.2938     2.4502
  194.0000     7.4886     7.5488   -54.0427     7.9493     0.0073     0.1184    77.0904     2.4570
  194.5000     7.5401     7.7608   -54.0488     7.9636     0.0065     0.1169    77.1210     2.4585
  195.0000     7.7497     7.9788   -54.0558     7.9623     0.0050     0.1163    81.0093     2.4577
  195.5000     7.9107     8.0898   -54.0610     7.9611     0.0065     0.1166    82.2155     2.4532
  196.0000     7.9645     8.2023   -54.0671     7.9451     0.0087     0.1169    82.5182     2.4534
  196.5000     8.0742     8.2587   -54.0732     7.9441     0.0132     0.1172    83.1220     2.4599
  197.0000     8.1920     8.4319   -54.0804     7.9431     0.0155     0.1160    84.1948     2.4659
  197.5000     8.3607     8.6088   -53.9324     7.9418     0.0154     0.1052    84.9325     2.4711
  198.0000     8.5336     8.6681   -54.0922     7.9408     0.0147     0.1040    84.1809     2.4734
  198.5000     8.6506     8.6674   -53.9457     7.9398     0.0147     0.1097    83.7305     2.4719
  199.0000     8.7685     8.6668   -53.9516     7.9388     0.0146     0.1125    84.0332     2.4704
  199.5000     8.8259     8.6663   -53.7386     7.9378     0.0146     0.1115    84.5060     2.4688
  200.0000     8.8228     8.6234   -53.6585     7.9215     0.0143     0.1125    85.9820     2.4661
  200.5000     8.7518     8.3603   -53.9545     7.9205     0.0128     0.1143    86.4318     2.4629
  201.0000     8.6947     8.3067   -54.2811     7.9195     0.0124     0.1161    86.2819     2.4597
  201.5000     8.6918     8.5369   -54.2870     7.9185     0.0108     0.1167    85.8321     2.4565
  202.0000     8.8110     8.7136   -54.2930     7.9173     0.0093     0.1164    85.0825     2.4533
  202.5000     8.8222     8.8885   -54.2989     7.9632     0.0093     0.1155    86.7316     2.4493
  203.0000     8.9228     9.1412   -54.2246     7.9472     0.0101     0.1134    85.5322     2.4525
  203.5000     9.0234     9.3954   -54.1585     7.9164     0.0123     0.1101    82.5337     2.4598
  204.0000     9.1093     9.6567   -54.1646     7.9006     0.0138     0.1095    83.7331     2.4651
  204.5000     9.0425     9.7883   -54.1392     7.8997     0.0123     0.1071    85.8321     2.4636
  205.0000     9.1025     9.7842   -54.0244     7.8990     0.0033     0.1059    87.3313     2.4644
  205.5000     9.1627     9.7815   -54.0310     7.8983     0.0033     0.1065    88.3808     2.4673
  206.0000     9.2918     9.8466   -54.0366     7.8976     0.0070     0.1101    86.5817     2.4493
  206.5000     9.5448    10.1195   -54.1963     7.8967     0.0198     0.1197    77.1364     2.4463
  207.0000     9.6748    10.4009   -54.2012     7.8960     0.0303     0.1180    73.5382     2.4584
  207.5000     9.8075    10.6170   -54.2076     7.8953     0.0310     0.1096    69.5279     2.4748
  208.0000     9.8033    10.7610   -54.2135     7.9097     0.0280     0.1042    67.2414     2.4853
  208.5000     9.6650    10.6799   -54.2204     7.8937     0.0212     0.0959    69.7901     2.4884
  209.0000     9.5287    10.3752   -54.2264     7.8930     0.0160     0.0924    71.1394     2.4763
  209.5000     9.3657    10.0982   -54.2317     7.8923     0.0115     0.1030    74.8156     2.4583
  210.0000     9.2297     9.9532   -54.2382     7.8914     0.0100     0.1114    79.3853     2.4553
  210.5000     9.0642     9.7472   -54.2439     7.9058     0.0115     0.1138    77.5862     2.4538
  211.0000     9.0015     9.5431   -54.2500     7.9051     0.0115     0.1174    78.3358     2.4523
  211.5000     8.8337     9.4492   -54.2561     7.9044     0.0122     0.1195    86.5817     2.4515
  212.0000     8.6888     9.3118   -54.2622     7.9187     0.0129     0.1180    86.4318     2.4553
  212.5000     8.5663     9.2083   -54.1168     7.9178     0.0122     0.1150    86.1319     2.4576
  213.0000     8.5042     9.1695   -54.1219     7.9324     0.0122     0.1132    85.6792     2.4576
  213.5000     8.5013     9.1383   -54.2805     7.9465     0.0122     0.1132    84.3328     2.4577
  214.0000     8.4985     9.0714   -54.2870     7.9609     0.0122     0.1138    83.2834     2.4583
  214.5000     8.5336     9.0684   -54.2930     7.9600     0.0122     0.1120    82.8336     2.4598
  215.0000     8.5519     9.1292   -54.4513     7.9593     0.0121     0.1096    82.5187     2.4628
  215.5000     8.5488     9.1897   -54.4573     7.9577     0.0121     0.1100    82.3838     2.4658
  216.0000     8.6048     9.1858   -54.4634     7.9427     0.0121     0.1115    82.5337     2.4666
  216.5000     8.6019     9.3111   -54.4695     7.9419     0.0121     0.1127    82.5337     2.4666
  217.0000     8.5990     9.3728   -54.4756     7.9262     0.0121     0.1127    81.9340     2.4658
  217.5000     8.5961     9.3041   -54.4824     7.9104     0.0129     0.1115    82.5337     2.4658
  218.0000     8.5934     9.1727   -54.3344     7.8945     0.0128     0.1100    83.7331     2.4658
  218.5000     8.5310     8.9807   -54.3415     7.8938     0.0113     0.1076    84.6327     2.4666
  219.0000     8.5221     8.9155   -54.3477     7.8931     0.0098     0.1089    84.7826     2.4658
  219.5000     8.4656     8.9125   -54.3537     7.8923     0.0113     0.1109    83.4333     2.4635
  220.0000     8.4043     8.9095   -54.3598     7.9067     0.0143     0.1115    81.3343     2.4598
  220.5000     8.4014     8.9065   -54.3659     7.9209     0.0173     0.1106    80.7346     2.4598
  221.0000     8.4578     8.9035   -54.3729     7.9202     0.0181     0.1079    79.9850     2.4658
  221.5000     8.4542     8.9625   -54.5009     7.9345     0.0173     0.1031    80.4348     2.4748
  222.0000     8.4514     9.0219   -54.5366     7.9336     0.0064     0.1049    81.0345     2.4726
