~VERSION INFORMATION
 VERS.                2.0:   CWLS LOG ASCII STANDARD - VERSION 2.0
 WRAP.                 NO:   ONE LINE PER DEPTH STEP
~WELL INFORMATION
#MNEM.UNIT      DATA TYPE    INFORMATION
#----------   ------------   ------------------------------
 STRT.F           14.0000:   START DEPTH
 STOP.F          500.0000:   STOP DEPTH
 STEP.F            0.1000:   STEP LENGTH
 NULL.          -999.2500:   NO VALUE
 COMP. LAWRENCE/ALLISON INC:   COMPANY
 WELL.    72-46 SX #10-10:   WELL
 FLD .             TEAPOT:   FIELD
 LOC .      S10 T38N R78W:   LOCATION
 CNTY.            NATRONA:   COUNTY
 STAT.            WYOMING:   STATE
 CTRY. UNITED STATES OF AMERICA:   COUNTRY
 SRVC.           Gearhart:   SERVICE COMPANY
 DATE.        22-MAY-1988:   LOGDATE
 API .       490251122600:   API NUMBER
~CURVE INFORMATION
#MNEM.UNIT       API CODE    CURVE DESCRIPTION
#----------   ------------   ------------------------------
 DEPT.F                  :   
 GRR .GAPI   07 310 01 00:   GAMMA RAY
 RILD.OHMM   07 120 46 00:   INDUCTION LOG DEEP RESISTIVITY
 RILM.OHMM   07 120 44 00:   INDUCTION LOG MEDIUM RESISTIVITY
~PARAMETER INFORMATION
#MNEM.UNIT          VALUE    DESCRIPTION
#----------   ------------   ------------------------------
 PD  .                 GL:   PERMANENT DATUM
 EPD .F              5173:   ELEVATION PERMANENT DATUM
 LMF .                 KB:   LOG MEASURED FROM
 DAPD.F              10.2:   FEET ABOVE PERMANENT DATUM
 DMF .                 KB:   DRILLING MEASURED FROM
 EKB .F            5183.2:   KELLING BUSHING
 EGL .F              5173:   GROUND LEVEL
 DATE.        22-MAY-1988:   RUN DATE
 RUN .                  1:   RUN NUMBER
 DD  .F               505:   DEPTH DRILLER
 DL  .F               504:   DEPTH LOGGER
 BLI .F               500:   BOTTOM LOG INTERVAL
 TLI .F                50:   TOP LOG INTERVAL
 CS  .IN            9.625:   CASING SIZE
 CBD .F                52:   CASING BOTTOM DRILLER
 CBL .F                50:   CASING BOTTOM LOGGER
 BS  .IN             8.75:   BIT SIZE
 BSD .F               505:   BIT SIZE AT DEPTH
 DFT .                AIR:   DRILLING FLUID TYPE
 TLAB.HRS            1339:   TIME LOGGER AT BOTTOM
 LUN .               7597:   LOGGING UNIT NUMBER
 LUL .           GILLETTE:   LOGGING UNIT LOCATION
 ENGI.          HUCKFELDT:   RECORDING ENGINEER
 WITN.             STRONG:   WITNESSED BY
 CLNT.            A2DTECH:   CLIENT CODE
 ORIG.           5" PRINT:   ORIGIN OF DATA
 UWI .       490251122600:   UNIQUE WELL ID
 DICO. A2D Technologies, Inc.:   DIGITIZING COMPANY
~OTHER INFORMATION
~A   DEPT       GRR      RILD       RILM   
# ...
  341.6000    87.8076    17.3950    17.6994
  341.7000    88.0597    17.3950    17.6994
  341.8000    88.3118    17.3950    17.6994
  341.9000    88.5838    17.3950    17.6994
  342.0000    89.1574    17.3950    17.6994
  342.1000    89.3723    17.3950    17.6994
  342.2000    89.6244    17.4532    17.6994
  342.3000    89.8764    17.5168    17.6994
  342.4000    90.0870    17.5168    17.6994
  342.5000    90.0916    17.5168    17.6994
  342.6000    90.0956    17.5168    17.6994
  342.7000    90.0999    17.5168    17.6994
  342.8000    89.9847    17.5168    17.6994
  342.9000    89.8040    17.5423    17.6994
  343.0000    89.8081    17.6394    17.6994
  343.1000    89.5586    17.6394    17.6994
  343.2000    89.1179    17.6394    17.6994
  343.3000    88.7672    17.6394    17.6994
  343.4000    88.4395    17.6766    17.6994
  343.5000    87.9480    17.7629    17.6994
  343.6000    87.3990    17.7629    17.6994
  343.7000    86.9654    17.7629    17.6994
  343.8000    86.4742    17.7629    17.6994
  343.9000    85.9829    17.8120    17.6994
  344.0000    85.4914    17.8873    17.6994
  344.1000    84.9846    17.8873    17.6994
  344.2000    84.5089    17.8873    17.6994
  344.3000    84.2009    17.8873    17.6994
  344.4000    83.9574    17.8873    17.6994
  344.5000    83.7138    17.8873    17.6616
  344.6000    83.4835    17.8873    17.5763
  344.7000    83.4887    17.8873    17.5763
  344.8000    83.4923    17.8873    17.5763
  344.9000    83.6445    17.8150    17.5763
  345.0000    83.8052    17.7629    17.5274
  345.1000    83.8441    17.7359    17.4540
  345.2000    84.1185    17.6349    17.4540
  345.3000    84.3483    17.5168    17.4540
  345.4000    84.6002    17.5168    17.4540
  345.5000    84.7397    17.4567    17.3941
  345.6000    84.8000    17.3573    17.3325
  345.7000    85.0527    17.2740    17.3168
  345.8000    85.3041    17.2740    17.2119
  345.9000    85.3656    17.1818    17.2119
  346.0000    85.5039    17.0839    17.1416
  346.1000    85.7558    17.0346    17.0439
  346.2000    85.9873    17.0081    16.9732
  346.3000    85.9921    16.9112    16.9682
  346.4000    85.9957    16.7986    16.8551
  346.5000    86.0000    16.7986    16.7754
  346.6000    86.1029    16.7404    16.7378
  346.7000    86.3129    16.6818    16.7009
  346.8000    86.3175    16.6660    16.6213
  346.9000    86.3215    16.5658    16.6213
  347.0000    86.3257    16.5658    16.5319
  347.1000    86.3300    16.4976    16.5057
  347.2000    86.3343    16.4506    16.5057
  347.3000    86.3452    16.4244    16.4794
  347.4000    86.5971    16.3362    16.3853
  347.5000    86.6514    16.3362    16.2768
  347.6000    86.7970    16.2583    16.2768
  347.7000    87.0491    16.2226    16.2768
  347.8000    87.2731    16.1862    16.2403
  347.9000    87.2778    16.1098    16.1635
  348.0000    87.5008    16.1098    16.1635
  348.1000    87.7528    16.1098    16.0759
  348.2000    87.8989    16.0429    16.0510
  348.3000    87.8539    15.9978    16.0510
  348.4000    87.6032    15.9717    16.0248
  348.5000    87.3668    15.8866    15.9393
  348.6000    87.1234    15.8866    15.9393
  348.7000    86.8798    15.8103    15.8627
  348.8000    86.6362    15.7761    15.8284
  348.9000    86.3926    15.7761    15.8284
  349.0000    86.1073    15.7761    15.8122
  349.1000    85.7007    15.7761    15.7183
  349.2000    85.5062    15.6901    15.7183
  349.3000    85.5105    15.6664    15.7183
  349.4000    85.5502    15.6664    15.6722
  349.5000    85.8238    15.6664    15.6089
  349.6000    86.0543    15.6664    15.6089
  349.7000    86.4762    15.6664    15.6089
  349.8000    86.9758    15.6664    15.6089
  349.9000    87.5687    15.6664    15.5530
  350.0000    88.4771    15.6590    15.5001
  350.1000    89.3854    15.6408    15.4997
  350.2000    90.2938    15.6225    15.4993
  350.3000    91.2021    15.6043    15.4989
  350.4000    92.1104    15.5861    15.4985
  350.5000    92.8580    15.5679    15.4827
  350.6000    92.5565    15.5236    15.3898
  350.7000    92.3139    15.4478    15.3894
  350.8000    92.2569    15.4476    15.3216
  350.9000    91.9769    15.3630    15.2815
  351.0000    91.5636    15.3397    15.2811
  351.1000    91.3136    15.2924    15.2684
  351.2000    91.0492    15.2326    15.1739
  351.3000    91.0515    15.2325    15.1734
  351.4000    91.0539    15.2322    15.1730
  351.5000    90.9223    15.2320    15.1726
  351.6000    90.7543    15.2318    15.1722
  351.7000    90.7568    15.2316    15.1718
  351.8000    90.7594    15.2314    15.1713
  351.9000    90.7617    15.2312    15.1709
  352.0000    90.7641    15.2309    15.1705
  352.1000    90.7665    15.2308    15.1701
  352.2000    90.7689    15.2305    15.1697
  352.3000    90.7714    15.2303    15.1693
  352.4000    90.7741    15.2301    15.1687
  352.5000    90.7762    15.2334    15.1683
  352.6000    90.6074    15.3363    15.1679
  352.7000    90.4767    15.3361    15.1675
  352.8000    90.4791    15.3359    15.1887
  352.9000    90.4816    15.3728    15.2730
  353.0000    90.4844    15.4428    15.2725
  353.1000    90.7024    15.4426    15.3458
  353.2000    90.7933    15.5321    15.3787
  353.3000    90.7958    15.5503    15.4156
  353.4000    90.7982    15.6029    15.5046
  353.5000    90.8087    15.6587    15.5937
  353.6000    91.1079    15.6741    15.5932
  353.7000    91.1099    15.7679    15.6649
  353.8000    91.1123    15.7677    15.7016
  353.9000    91.2196    15.8365    15.7361
  354.0000    91.4216    15.9280    15.8270
  354.1000    91.4240    15.9886    15.9211
  354.2000    91.4265    16.0007    16.0104
  354.3000    91.4289    16.1001    16.0318
  354.4000    91.4314    16.0999    16.0832
  354.5000    91.4338    16.0997    16.1432
  354.6000    91.3908    16.0995    16.1561
  354.7000    91.1343    16.1273    16.2554
  354.8000    90.8908    16.2118    16.3433
  354.9000    90.6406    16.2115    16.3684
  355.0000    90.2485    16.2113    16.4176
  355.1000    89.7462    16.2111    16.4822
  355.2000    89.2819    16.2109    16.4817
  355.3000    89.0181    16.2353    16.4812
  355.4000    88.7816    16.3239    16.4808
  355.5000    88.3448    16.3236    16.4804
  355.6000    87.8424    16.3235    16.4799
  355.7000    87.4228    16.3232    16.4795
  355.8000    87.1422    16.3230    16.4790
  355.9000    86.5975    16.3227    16.4784
  356.0000    86.3683    16.3225    16.4780
  356.1000    86.1183    16.3223    16.4776
  356.2000    85.7408    16.3986    16.4771
  356.3000    85.3139    16.4362    16.4767
  356.4000    85.0638    16.4359    16.4762
  356.5000    84.7857    16.4357    16.4757
  356.6000    84.3397    16.4354    16.4753
  356.7000    84.0093    16.4352    16.4748
  356.8000    83.8794    16.4350    16.4744
  356.9000    83.8137    16.3816    16.4739
  357.0000    83.5638    16.3202    16.4734
  357.1000    83.2783    16.3201    16.4729
  357.2000    83.2804    16.3198    16.3964
  357.3000    83.1179    16.3196    16.3575
  357.4000    82.9808    16.2507    16.3204
  357.5000    82.9224    16.2057    16.2427
  357.6000    82.6812    16.1760    16.2422
  357.7000    82.6841    16.0925    16.2418
  357.8000    82.6862    16.0923    16.1695
  357.9000    82.6886    16.0921    16.1279
  358.0000    82.5855    16.0277    16.1274
  358.1000    82.3890    15.9351    16.1133
  358.2000    82.3915    15.8684    16.0143
  358.3000    82.3944    15.8619    16.0139
  358.4000    82.1941    15.7576    15.9457
  358.5000    82.0944    15.6793    15.9015
  358.6000    82.0968    15.6476    15.8717
  358.7000    82.0530    15.6072    15.7798
  358.8000    81.7973    15.5171    15.6797
  358.9000    81.7997    15.4274    15.5973
  359.0000    81.8022    15.3226    15.5697
  359.1000    81.6617    15.2498    15.5250
  359.2000    81.5026    15.2156    15.4350
  359.3000    81.5050    15.1797    15.3454
  359.4000    81.5076    15.0921    15.2452
  359.5000    81.5099    15.0042    15.1681
  359.6000    81.3247    15.0040    15.1383
  359.7000    81.2103    14.9360    15.0978
