~VERSION INFORMATION
 VERS.                2.0:   CWLS LOG ASCII STANDARD - VERSION 2.0
 WRAP.                 NO:   ONE LINE PER DEPTH STEP
~WELL INFORMATION
#MNEM.UNIT      DATA TYPE    INFORMATION
#----------   ------------   ------------------------------
 STRT.F           60.0000:   START DEPTH
 STOP.F          894.0000:   STOP DEPTH
 STEP.F            0.5000:   STEP LENGTH
 NULL.          -999.2500:   NO VALUE
 COMP.           U S NAVY:   COMPANY
 WELL. RES 3 TEAPOT DOM #27S-35:   WELL
 FLD .        TEAPOT DOME:   FIELD
 LOC .      S35 T39N R78W:   LOCATION
 CNTY.            NATRONA:   COUNTY
 STAT.            WYOMING:   STATE
 CTRY. UNITED STATES OF AMERICA:   COUNTRY
 SRVC. Schlumberger Well Surveying Corp:   SERVICE COMPANY
 DATE.        30-JUL-1959:   LOGDATE
 API .       490250650600:   API NUMBER
~CURVE INFORMATION
#MNEM.UNIT       API CODE    CURVE DESCRIPTION
#----------   ------------   ------------------------------
 DEPT.F                  :   
 SPS .MV     60 010 01 00:   SPONTANEOUS POTENTIAL FROM SONIC
 DT  .US/F   60 520 32 00:   INTERVAL TRANSIT TIME
~PARAMETER INFORMATION
#MNEM.UNIT          VALUE    DESCRIPTION
#----------   ------------   ------------------------------
 PD  .                 GL:   PERMANENT DATUM
 EPD .F              5101:   ELEVATION PERMANENT DATUM
 LMF .                 KB:   LOG MEASURED FROM
 DAPD.F                 4:   FEET ABOVE PERMANENT DATUM
 DMF .                 KB:   DRILLING MEASURED FROM
 EKB .F              5105:   KELLING BUSHING
 EGL .F              5101:   GROUND LEVEL
 DATE.        30-JUL-1959:   RUN DATE
 RUN .                  1:   RUN NUMBER
 DD  .F               897:   DEPTH DRILLER
 DL  .F               897:   DEPTH LOGGER
 BLI .F               894:   BOTTOM LOG INTERVAL
 TLI .F                73:   TOP LOG INTERVAL
 CBD .F                17:   CASING BOTTOM DRILLER
 BS  .IN             6.75:   BIT SIZE
 BSD .F               897:   BIT SIZE AT DEPTH
 DFT .       OIL EMULSION:   DRILLING FLUID TYPE
 DFD .                9.0:   DRILLING FLUID DENSITY
 DFV .                 55:   DRILLING FLUID VISCOSITY
 DFPH.                  9:   DRILLING FLUID PH
 DFL .                3.8:   DRILLING FLUID LOSS
 RMS .OHMM            4.0:   RESISTIVITY MUD SAMPLE
 MST .F                79:   MUD SAMPLE TEMPERATURE
 RMF .OHMM            3.6:   RESISTIVITY MUD FILTRATE SAMPLE
 MFST.F                79:   MUD FILTRATE SAMPLE TEMPERATURE
 RMB .OHMM            4.0:   RESISTIVITY MUD AT BHT
 BHT .F                79:   BOTTOM HOLE TEMPERATURE
 TCS .HRS            0100:   TIME CURCULATED STOPPED
 LUN .               2545:   LOGGING UNIT NUMBER
 LUL .                RIV:   LOGGING UNIT LOCATION
 ENGI.           STAFFORD:   RECORDING ENGINEER
 WITN.             MARTIN:   WITNESSED BY
 CLNT.            A2DTECH:   CLIENT CODE
 ORIG.       2", 5" PRINT:   ORIGIN OF DATA
 UWI .       490250650600:   UNIQUE WELL ID
 DICO. A2D Technologies, Inc.:   DIGITIZING COMPANY
~OTHER INFORMATION
~A   DEPT      SPS         DT   
# ...
  303.0000   -40.6248   115.8597
  303.5000   -40.6256   107.7154
  304.0000   -40.7052   104.5209
  304.5000   -40.7680   104.5326
  305.0000   -40.7688   107.0210
  305.5000   -40.7694   108.2782
  306.0000   -40.7710   108.2076
  306.5000   -40.9118   107.9245
  307.0000   -40.9450   105.4462
  307.5000   -41.3365   102.5532
  308.0000   -41.5421   100.6258
  308.5000   -41.7609    99.5744
  309.0000   -41.7616    98.6988
  309.5000   -41.6810    97.8960
  310.0000   -41.3400    97.1120
  310.5000   -40.9864    96.7297
  311.0000   -40.7598    97.4359
  311.5000   -40.6368    98.1147
  312.0000   -40.5886    98.8569
  312.5000   -40.4972    99.1879
  313.0000   -40.4979    99.3537
  313.5000   -40.4986    99.2746
  314.0000   -40.4994    98.8923
  314.5000   -40.5000    98.5043
  315.0000   -40.5007    98.2069
  315.5000   -40.5014    97.8643
  316.0000   -40.5021    97.5660
  316.5000   -40.5029    97.3547
  317.0000   -40.5035    97.3012
  317.5000   -40.6453    97.4339
  318.0000   -40.6461    98.1864
  318.5000   -40.6888    98.6489
  319.0000   -40.7885    98.7909
  319.5000   -40.9302    98.7913
  320.0000   -40.9309    98.6830
  320.5000   -40.9317    98.0691
  321.0000   -40.9826    95.8158
  321.5000   -41.0741    94.7984
  322.0000   -41.2976    93.9029
  322.5000   -41.3846    93.6056
  323.0000   -41.4994    92.6440
  323.5000   -41.5000    91.2818
  324.0000   -41.6418    90.7406
  324.5000   -41.7325    90.2004
  325.0000   -41.8195    89.3456
  325.5000   -41.9260    87.9182
  326.0000   -42.0677    84.4798
  326.5000   -41.9273    86.0357
  327.0000   -41.7872    91.5677
  327.5000   -41.6032    85.8275
  328.0000   -41.3653    83.7800
  328.5000   -40.6429    84.1981
  329.0000   -40.2181    93.4021
  329.5000   -40.0980   110.1244
  330.0000   -40.0987   127.1271
  330.5000   -40.2405   152.6087
  331.0000   -40.2412   161.9480
  331.5000   -40.2419   162.0627
  332.0000   -40.2427   158.0666
  332.5000   -40.2433   138.8430
  333.0000   -40.5468   133.0604
  333.5000   -41.3653   125.1655
  334.0000   -42.0113    94.7619
  334.5000   -42.5029    90.4673
  335.0000   -42.7127    79.3126
  335.5000   -42.9408    79.7589
  336.0000   -43.2103    81.7427
  336.5000   -43.0249    82.0549
  337.0000   -42.6474    78.7452
  337.5000   -42.3543    77.8260
  338.0000   -42.0414    80.0829
  338.5000   -41.5213    76.5198
  339.0000   -41.3277    74.0000
  339.5000   -41.2405    78.9559
  340.0000   -41.3822    86.7434
  340.5000   -41.3829   101.3576
  341.0000   -41.3837   100.9875
  341.5000   -41.3843    99.5156
  342.0000   -41.3850    96.6329
  342.5000   -41.3858    91.2244
  343.0000   -41.7828    83.0745
  343.5000   -42.5156    78.1023
  344.0000   -42.9375    75.7007
  344.5000   -43.2370    77.5484
  345.0000   -43.6461    81.7009
  345.5000   -43.7877    86.2655
  346.0000   -44.0705    87.5972
  346.5000   -44.3679    89.1010
  347.0000   -44.6822    87.3607
  347.5000   -44.9190    82.7799
  348.0000   -44.9196    78.4713
  348.5000   -44.9203    75.7076
  349.0000   -44.9210    75.7940
  349.5000   -44.9217    75.9919
  350.0000   -44.9225    76.1103
  350.5000   -44.9859    76.2761
  351.0000   -45.0649    81.3849
  351.5000   -45.0656    86.6911
  352.0000   -45.0663    88.2545
  352.5000   -45.0670    85.8168
  353.0000   -44.7137    83.6409
  353.5000   -44.3631    82.8598
  354.0000   -44.5051    79.8619
  354.5000   -44.8354    80.8147
  355.0000   -45.2116    84.6516
  355.5000   -45.6528    85.4844
  356.0000   -46.0837    86.8399
  356.5000   -46.6242    87.4449
  357.0000   -46.8778    87.9036
  357.5000   -47.1909    88.2253
  358.0000   -47.4189    88.2587
  358.5000   -47.4732    88.2591
  359.0000   -47.4740    87.4911
  359.5000   -47.3463    85.4958
  360.0000   -46.7419    85.0142
  360.5000   -46.0657    84.7877
  361.0000   -45.8843    84.7881
  361.5000   -45.6439    86.6594
  362.0000   -45.7894    99.3483
  362.5000   -47.7081   109.7362
  363.0000   -54.5319   114.5415
  363.5000   -57.0903   118.5957
  364.0000   -59.0466   124.5190
  364.5000   -59.9137   124.9039
  365.0000   -60.0352   122.7782
  365.5000   -55.5227   105.3321
  366.0000   -51.1585    93.4380
  366.5000   -48.7513    81.3994
  367.0000   -48.6135    74.1484
  367.5000   -48.7894    74.0202
  368.0000   -49.1792    74.1084
  368.5000   -49.5275    77.9862
  369.0000   -49.8966    91.3707
  369.5000   -50.1687    96.2261
  370.0000   -50.3526    97.9058
  370.5000   -50.5931    99.0344
  371.0000   -50.5938    99.2530
  371.5000   -50.5945    99.1117
  372.0000   -50.5953    98.2615
  372.5000   -50.5959    96.2775
  373.0000   -50.3145    95.8526
  373.5000   -49.5409    95.7112
  374.0000   -48.0094    96.3494
  374.5000   -46.5085    98.9011
  375.0000   -45.0517    98.6889
  375.5000   -42.9638    93.9164
  376.0000   -41.9182    91.6024
  376.5000   -41.3627    91.9572
  377.0000   -41.1523    99.8932
  377.5000   -41.1530   100.6750
  378.0000   -41.1537    98.2658
  378.5000   -41.1546    97.6576
  379.0000   -41.1989    97.6995
  379.5000   -41.4380    98.4199
  380.0000   -41.4386    99.1980
  380.5000   -41.7623    99.3307
  381.0000   -42.2864    99.2799
  381.5000   -42.2870    97.6304
  382.0000   -42.1467    89.3082
  382.5000   -41.7819    85.8381
  383.0000   -41.5552    86.0085
  383.5000   -41.4436    95.7665
  384.0000   -41.3032    97.0057
  384.5000   -41.3039    97.4171
  385.0000   -41.3047    97.5620
  385.5000   -41.3423    97.2080
  386.0000   -41.4472    96.1491
  386.5000   -41.4478    95.6344
  387.0000   -41.4622    95.5592
  387.5000   -41.5904    95.9810
  388.0000   -41.7772    96.5719
  388.5000   -41.8738    96.8246
  389.0000   -42.0921    96.6161
  389.5000   -42.1573    95.3682
  390.0000   -42.1581    94.9291
  390.5000   -42.1587    94.7310
  391.0000   -42.1594    95.3976
  391.5000   -42.1601    97.1698
  392.0000   -42.1909    98.4883
  392.5000   -42.4437    99.1974
  393.0000   -42.4443    98.9992
  393.5000   -42.2971    95.9380
  394.0000   -41.9774    94.8431
  394.5000   -41.7411    94.5156
  395.0000   -41.6009    95.9438
  395.5000   -41.6016    99.1694
  396.0000   -41.6023   100.7675
  396.5000   -41.6031    98.8573
  397.0000   -41.6037    80.0652
  397.5000   -41.6044    79.2576
  398.0000   -41.6051    78.9017
  398.5000   -41.6058    78.6489
  399.0000   -41.6066    83.8230
  399.5000   -41.6620    87.8298
  400.0000   -41.8900    88.5681
  400.5000   -42.0393    88.7308
  401.0000   -42.1887    88.8934
  401.5000   -42.3380    89.0560
  402.0000   -42.4542    89.2187
  402.5000   -42.4542    89.5789
  403.0000   -42.4542    91.0524
  403.5000   -42.4542    91.4706
  404.0000   -42.3131    91.7706
  404.5000   -42.3131    92.0429
  405.0000   -42.3131    92.3104
  405.5000   -42.2466    92.7534
  406.0000   -42.1721    93.3439
  406.5000   -42.0806    94.4702
  407.0000   -41.9977    95.0921
  407.5000   -41.8900    94.4985
  408.0000   -41.8900    93.1077
  408.5000   -41.8900    92.9105
  409.0000   -41.8068    92.8242
  409.5000   -41.7238    92.9359
  410.0000   -41.6079    92.6589
  410.5000   -41.6079    91.6194
  411.0000   -41.6079    90.6804
  411.5000   -41.6829    89.9185
  412.0000   -41.7659    89.9563
  412.5000   -42.0310    90.5652
  413.0000   -42.1721    91.7612
  413.5000   -42.3131    92.3175
  414.0000   -42.5209    92.4203
  414.5000   -42.6039    91.4488
  415.0000   -42.7362    90.1606
  415.5000   -42.9109    89.4667
  416.0000   -43.1594    88.9405
  416.5000   -43.3590    88.6428
  417.0000   -43.4415    88.4692
  417.5000   -43.1335    88.3593
  418.0000   -42.7109    89.6775
  418.5000   -42.4542    90.6999
  419.0000   -42.3131    91.6903
  419.5000   -42.1721    92.2313
  420.0000   -42.1721    92.6825
  420.5000   -42.1721    92.9790
  421.0000   -42.3131    93.2755
  421.5000   -42.4962    93.6038
  422.0000   -42.7362    93.7975
  422.5000   -42.9443    93.4621
  423.0000   -43.3094    92.8101
  423.5000   -43.5334    92.5407
  424.0000   -43.8646    92.6116
