~VERSION INFORMATION
 VERS.                2.0:   CWLS LOG ASCII STANDARD - VERSION 2.0
 WRAP.                 NO:   ONE LINE PER DEPTH STEP
~WELL INFORMATION
#MNEM.UNIT      DATA TYPE    INFORMATION
#----------   ------------   ------------------------------
 STRT.F           30.0000:   START DEPTH
 STOP.F          634.0000:   STOP DEPTH
 STEP.F            0.5000:   STEP LENGTH
 NULL.          -999.2500:   NO VALUE
 COMP. FENIX & SCISSON INC:   COMPANY
 WELL.     26-S-11 #26-11:   WELL
 FLD .             TEAPOT:   FIELD
 LOC .      S11 T38N R78W:   LOCATION
 CNTY.            NATRONA:   COUNTY
 STAT.            WYOMING:   STATE
 CTRY. UNITED STATES OF AMERICA:   COUNTRY
 SRVC.              Welex:   SERVICE COMPANY
 DATE.        26-APR-1977:   LOGDATE
 API .       490251034300:   API NUMBER
~CURVE INFORMATION
#MNEM.UNIT       API CODE    CURVE DESCRIPTION
#----------   ------------   ------------------------------
 DEPT.F                  :   
 SPR .MV     07 010 01 00:   SPONTANEOUS POTENTIAL
 ILD .OHMM   07 120 46 00:   INDUCTION LOG DEEP
 ILM .OHMM   07 120 44 00:   INDUCTION LOG MEDIUM
 SGRD.OHMM   07 221 05 00:   SHALLOW SHORT GUARD RESISTIVITY
 CALD.IN     45 280 60 00:   CALIPER FROM DENSITY LOG
 GRD .GAPI   45 310 01 00:   GAMMA RAY FROM DENSITY LOG
 CORR.G/C3   45 356 01 00:   DENSITY CORRECTION
 DPHI.DEC    45 890 12 00:   DENSITY POROSITY SANDSTONE
 RHOB.G/C3   45 350 01 00:   BULK DENSITY
~PARAMETER INFORMATION
#MNEM.UNIT          VALUE    DESCRIPTION
#----------   ------------   ------------------------------
 PD  .                 GL:   PERMANENT DATUM
 EPD .F              5179:   ELEVATION PERMANENT DATUM
 LMF .                 GL:   LOG MEASURED FROM
 DMF .                 GL:   DRILLING MEASURED FROM
 EGL .F              5179:   GROUND LEVEL
 DATE.          4-24-1977:   RUN DATE
 RUN .                  1:   RUN NUMBER
 DD  .F               645:   DEPTH DRILLER
 DL  .F               634:   DEPTH LOGGER
 BLI .F               632:   BOTTOM LOG INTERVAL
 TLI .F                40:   TOP LOG INTERVAL
 CS  .IN            8.625:   CASING SIZE
 CBD .F                40:   CASING BOTTOM DRILLER
 CBL .F                42:   CASING BOTTOM LOGGER
 BS  .IN            7.875:   BIT SIZE
 BSD .F               645:   BIT SIZE AT DEPTH
 DFT .            KCL MUD:   DRILLING FLUID TYPE
 DFD .                8.8:   DRILLING FLUID DENSITY
 DFV .                 33:   DRILLING FLUID VISCOSITY
 DFPH.                7.5:   DRILLING FLUID PH
 DFL .                 96:   DRILLING FLUID LOSS
 MSS .           FLOWLINE:   MUD SAMPLE SOURCE
 RMS .OHMM            .17:   RESISTIVITY MUD SAMPLE
 MST .F                81:   MUD SAMPLE TEMPERATURE
 RMF .OHMM            .16:   RESISTIVITY MUD FILTRATE SAMPLE
 MFST.F                81:   MUD FILTRATE SAMPLE TEMPERATURE
 RMC .OHMM            .21:   RESISTIVITY MUD CAKE
 MCST.F                81:   MUD CAKE SAMPLE TEMPERATURE
 MFSS.           FANN KIT:   MUD FILTRATE SAMPLE SOURCE
 MCSS.           FANN KIT:   MUD CAKE SAMPLE SOURCE
 RMB .OHMM            .19:   RESISTIVITY MUD AT BHT
 BHT .F                72:   BOTTOM HOLE TEMPERATURE
 TCS .HRS             1.5:   TIME CURCULATED STOPPED
 MRT .F                72:   MAXIMUM RECORDED TEMPERATURE
 LUN .                861:   LOGGING UNIT NUMBER
 LUL .           GILLETTE:   LOGGING UNIT LOCATION
 ENGI.             JOYNER:   RECORDING ENGINEER
 WITN.           ROB LYON:   WITNESSED BY
 CLNT.            A2DTECH:   CLIENT CODE
 ORIG.         2.5" PRINT:   ORIGIN OF DATA
 UWI .       490251034300:   UNIQUE WELL ID
 DICO. A2D Technologies, Inc.:   DIGITIZING COMPANY
~OTHER INFORMATION
~A   DEPT      SPR        ILD        ILM       SGRD       CALD        GRD       CORR       DPHI       RHOB   
# ...
  614.0000   -24.5136     7.5195     8.4861    12.2215     7.9355   115.1026     0.0193     0.0887     2.5008
  614.5000   -24.5151     7.5185     8.4849    12.2189     7.9355   112.5219     0.0193     0.0917     2.4963
  615.0000   -24.5166     7.5174     8.4837    12.2163     7.9648   113.3431     0.0193     0.0947     2.4904
  615.5000   -24.5181     7.3507     8.4825    12.2138     7.9648   115.5279     0.0223     0.0964     2.4889
  616.0000   -24.5035     7.3073     8.6020    12.2112     7.9648   113.1643     0.0223     0.0958     2.4889
  616.5000   -24.2190     7.1043     8.6006    12.2086     7.9648   101.7130     0.0223     0.0935     2.4888
  617.0000   -24.2205     7.1033     8.5993    12.2060     7.9648    50.4594     0.0252     0.0911     2.4903
  617.5000   -24.2220     7.1023     8.7203    12.3770     7.9355    50.0000     0.0252     0.0899     2.5006
  618.0000   -24.2235     7.1013     8.7190    12.2009     7.9062    50.0000     0.0252     0.0911     2.4994
  618.5000   -23.9043     7.3022     8.7178    12.1983     7.8768  -999.2500     0.0252     0.0953     2.4914
  619.0000   -23.3010     7.4043     8.7166    12.1957     7.8768  -999.2500     0.0252     0.0964     2.4864
  619.5000   -22.6980     7.6137     8.7153    12.1599     7.8768  -999.2500     0.0252     0.0982     2.4834
  620.0000   -22.3967     7.8291     8.8379    11.9861     7.8768  -999.2500     0.0252     0.1000     2.4790
  620.5000   -21.7935     7.9386     8.8367    11.8489     7.8768  -999.2500     0.0252     0.1012     2.4768
  621.0000   -21.1691     8.1631     9.2173    11.6805     7.8475  -999.2500     0.0252     0.1036     2.4768
  621.5000   -20.2850     8.2772    10.6120    11.6429     7.8475  -999.2500     0.0252     0.1042     2.4775
  622.0000   -19.6817     8.3931    12.5673    11.4416     7.8475  -999.2500     0.0252     0.1012     2.4820
  622.5000   -19.4033     8.6304    14.4690    11.1542     7.8475  -999.2500     0.0252     0.0958     2.4878
  623.0000   -19.1027     8.7511    14.0645    10.8409     7.8475  -999.2500     0.0252     0.1006     2.4854
  623.5000   -19.1043     9.1256    11.0644    10.5363     7.8475  -999.2500     0.0252     0.1119     2.4729
  624.0000   -19.1058     9.2531     9.8824    10.2404     7.8475  -999.2500     0.0252     0.1160     2.4619
  624.5000   -18.8051     9.3826     9.8351     9.9528     7.8475  -999.2500     0.0252     0.1196     2.4524
  625.0000   -18.4794     9.6479    11.3762     9.6398     7.8475  -999.2500     0.0252     0.1241     2.4429
  625.5000   -17.5740     9.9208    14.0546     9.2048     7.8475  -999.2500     0.0252     0.1285     2.4326
  626.0000   -16.6426     9.9194    16.4112     8.6961     7.8475  -999.2500     0.0252     0.1338     2.4223
  626.5000   -15.4347    10.0582    18.1116     8.1008     7.8768  -999.2500     0.0252     0.1386     2.4140
  627.0000   -14.2265    10.0567    22.0625     7.6530     7.8768  -999.2500     0.0282     0.1457     2.4040
  627.5000   -12.6612     9.9153    27.6441     7.0027     7.8768  -999.2500     0.0282     0.1546     2.3902
  628.0000   -10.8197     9.6398    38.7752     6.1829     7.8768  -999.2500     0.0282     0.1682     2.3730
  628.5000    -8.4020     9.3720    60.8851     5.0525     7.8768  -999.2500     0.0312     0.1783     2.3603
  629.0000    -5.6819     9.1116   111.6477     3.9874     7.8768  -999.2500     0.0371     0.1908     2.3451
  629.5000    -2.1151     8.8584   222.8136     3.3301     7.8768  -999.2500     0.0430     0.1979     2.3283
  630.0000    -0.3625     8.4924   827.1016     3.1343     7.8768  -999.2500     0.0430     0.2074     2.3072
  630.5000    -0.0771     8.3730  1127.8730     3.4862     7.8768  -999.2500     0.0430     0.1979     2.3003
  631.0000    -0.0514     8.2553  1127.7140     4.0149     7.8768  -999.2500     0.0430     0.1766     2.3158
  631.5000    -0.0257     8.2542  1143.5714     4.8242     7.8768  -999.2500     0.0430     0.1599     2.3536
  632.0000     0.0000     8.3696  1143.4370     6.0938     7.8475  -999.2500     0.0460     0.1457     2.3977
  632.5000  -999.2500  -999.2500  -999.2500  -999.2500     7.8353  -999.2500     0.0519     0.1243     2.4373
  633.0000  -999.2500  -999.2500  -999.2500  -999.2500     7.8055  -999.2500     0.0549     0.1166     2.4544
  633.5000  -999.2500  -999.2500  -999.2500  -999.2500     7.7889  -999.2500     0.0549     0.1190     2.4506
  634.0000  -999.2500  -999.2500  -999.2500  -999.2500     7.7595  -999.2500     0.0549     0.1244     2.4384
