~VERSION INFORMATION
 VERS.                2.0:   CWLS LOG ASCII STANDARD - VERSION 2.0
 WRAP.                 NO:   ONE LINE PER DEPTH STEP
~WELL INFORMATION
#MNEM.UNIT      DATA TYPE    INFORMATION
#----------   ------------   ------------------------------
 STRT.F           31.0000:   START DEPTH
 STOP.F         1450.0000:   STOP DEPTH
 STEP.F            0.5000:   STEP LENGTH
 NULL.          -999.2500:   NO VALUE
 COMP. FENIX & SCISSON INC:   COMPANY
 WELL.    NPR-3 SX #86-14:   WELL
 FLD .             TEAPOT:   FIELD
 LOC .      S14 T38N R78W:   LOCATION
 CNTY.            NATRONA:   COUNTY
 STAT.            WYOMING:   STATE
 CTRY. UNITED STATES OF AMERICA:   COUNTRY
 SRVC.            Unknown:   SERVICE COMPANY
 DATE.        05-APR-1978:   LOGDATE
 API .       490251060800:   API NUMBER
~CURVE INFORMATION
#MNEM.UNIT       API CODE    CURVE DESCRIPTION
#----------   ------------   ------------------------------
 DEPT.F                  :   
 CALD.IN     45 280 60 00:   CALIPER
 GRD .GAPI   45 310 01 00:   GAMMA RAY FROM DENSITY LOG
 RHOB.G/C3   45 350 01 00:   BULK DENSITY
 CORR.G/C3   45 356 01 00:   DENSITY CORRECTION
 DPHI.DEC    45 890 12 00:   DENSITY POROSITY SANDSTONE
 SPR .MV     05 010 01 00:   SPONTANEOUS POTENTIAL FROM RES.
 SN  .OHMM   05 040 16 00:   SHORT NORMAL 16"
 ILD .OHMM   05 120 46 00:   INDUCTION LOG DEEP
~PARAMETER INFORMATION
#MNEM.UNIT          VALUE    DESCRIPTION
#----------   ------------   ------------------------------
 PD  .                 GL:   PERMANENT DATUM
 EPD .F              5367:   ELEVATION PERMANENT DATUM
 LMF .                 KB:   LOG MEASURED FROM
 DMF .                 KB:   DRILLING MEASURED FROM
 EKB .F              5371:   KELLING BUSHING
 EGL .F              5369:   GROUND LEVEL
 DATE.           4-5-1978:   RUN DATE
 RUN .                  1:   RUN NUMBER
 DD  .F              1455:   DEPTH DRILLER
 DL  .F              1446:   DEPTH LOGGER
 BLI .F              1440:   BOTTOM LOG INTERVAL
 TLI .F               100:   TOP LOG INTERVAL
 CS  .IN            8.625:   CASING SIZE
 CBD .F                40:   CASING BOTTOM DRILLER
 BS  .IN            7.875:   BIT SIZE
 BSD .F              1455:   BIT SIZE AT DEPTH
 DFT .                KCL:   DRILLING FLUID TYPE
 DFD .                8.6:   DRILLING FLUID DENSITY
 DFV .                 31:   DRILLING FLUID VISCOSITY
 DFPH.                 10:   DRILLING FLUID PH
 DFL .                8.4:   DRILLING FLUID LOSS
 MSS .           FLOWLINE:   MUD SAMPLE SOURCE
 RMS .OHMM            .95:   RESISTIVITY MUD SAMPLE
 MST .F                54:   MUD SAMPLE TEMPERATURE
 RMF .OHMM            .95:   RESISTIVITY MUD FILTRATE SAMPLE
 MFST.F                62:   MUD FILTRATE SAMPLE TEMPERATURE
 RMC .OHMM             .8:   RESISTIVITY MUD CAKE
 MCST.F                62:   MUD CAKE SAMPLE TEMPERATURE
 MFSS.               MEAS:   MUD FILTRATE SAMPLE SOURCE
 RMB .OHMM            .66:   RESISTIVITY MUD AT BHT
 BHT .F                78:   BOTTOM HOLE TEMPERATURE
 TCS .HRS               6:   TIME CURCULATED STOPPED
 MRT .F                78:   MAXIMUM RECORDED TEMPERATURE
 LUN .               2958:   LOGGING UNIT NUMBER
 LUL .               CASP:   LOGGING UNIT LOCATION
 ENGI.             MILLER:   RECORDING ENGINEER
 WITN.           MCGINLEY:   WITNESSED BY
 CLNT.            A2DTECH:   CLIENT CODE
 ORIG.        2" 5" PRINT:   ORIGIN OF DATA
 UWI .       490251060800:   UNIQUE WELL ID
 DICO. A2D Technologies, Inc.:   DIGITIZING COMPANY
~OTHER INFORMATION
~A   DEPT     CALD         GRD      RHOB       CORR       DPHI        SPR         SN        ILD   
# ...
 1124.5000     8.2194    82.1109     2.4388     0.0117     0.1114   -17.4679     8.1436     6.8113
 1125.0000     8.2180    81.6525     2.4508     0.0117     0.1233   -17.4667     8.1134     6.9326
 1125.5000     8.2166    84.3317     2.4361     0.0111     0.1246   -17.4649     8.0976     7.0029
 1126.0000     8.2153    88.0139     2.4307     0.0105     0.1236   -17.4640     8.0818     6.9420
 1126.5000     8.2139    88.1358     2.4274     0.0095     0.1262   -17.5050     8.0660     6.8921
 1127.0000     8.2125    88.9429     2.4242     0.0084     0.1271   -17.5531     8.0503     6.6819
 1127.5000     8.2111    90.7694     2.4252     0.0129     0.1278   -17.6015     7.9090     6.3945
 1128.0000     8.2097    91.5041     2.4312     0.0164     0.1309   -17.6497     7.7077     6.1195
 1128.5000     8.2083    90.7972     2.4175     0.0176     0.1313   -17.6978     7.5115     5.9328
 1129.0000     8.2069    89.1252     2.4280     0.0189     0.1268   -17.7461     7.3202     5.7615
 1129.5000     8.2056    86.4049     2.4292     0.0203     0.1222   -17.7941     7.2364     5.7138
 1130.0000     8.2042    86.4164     2.4359     0.0264     0.1207   -17.8428     7.1999     5.7364
 1130.5000     8.2028    86.6887     2.4364     0.0262     0.1223   -17.8212     7.2550     5.7675
 1131.0000     8.2014    86.7029     2.4352     0.0262     0.1216   -17.7440     7.3038     5.7988
 1131.5000     8.2000    86.6973     2.4339     0.0262     0.1209   -17.6659     7.4032     5.8302
 1132.0000     8.1986    86.5631     2.4347     0.0262     0.1193   -17.5879     7.5893     5.8619
 1132.5000     8.1973    86.1404     2.4395     0.0303     0.1120   -17.5122     7.7800     5.9328
 1133.0000     8.1959    87.0831     2.4500     0.0365     0.1055   -17.5610     7.9709     6.0309
 1133.5000     8.1945    87.1012     2.4609     0.0372     0.0974   -17.7966     7.9285     6.1307
 1134.0000     8.1931    87.9189     2.4701     0.0358     0.1043   -18.0295     7.8873     6.2322
 1134.5000     8.1917    89.5498     2.4644     0.0343     0.1078   -18.2621     7.8463     6.3256
 1135.0000     8.1903    90.1014     2.4589     0.0328     0.1078   -18.4972     7.8248     6.2924
 1135.5000     8.1911    90.4827     2.4537     0.0332     0.1122   -18.7911     7.8403     6.2614
 1136.0000     8.1926    91.1823     2.4492     0.0349     0.1182   -19.3153     7.8508     6.2306
 1136.5000     8.1940    92.4469     2.4474     0.0366     0.1082   -19.8215     7.8613     6.2097
 1137.0000     8.1955    93.6934     2.4530     0.0382     0.1129   -20.3274     7.8718     6.2869
 1137.5000     8.1969    93.8621     2.4494     0.0379     0.1138   -20.8342     7.8825     6.3461
 1138.0000     8.1984    92.6980     2.4473     0.0376     0.1138   -21.3539     7.8975     6.3844
 1138.5000     8.1998    92.0563     2.4513     0.0372     0.1102   -21.4571     7.8335     6.2955
 1139.0000     8.2013    91.8752     2.4539     0.0369     0.1125   -21.4585     7.7226     6.2309
 1139.5000     8.2027    88.0717     2.4536     0.0366     0.1176   -21.4573     7.6131     6.1669
 1140.0000     8.2042    87.1392     2.4494     0.0363     0.1249   -21.4571     7.5053     6.1037
 1140.5000     8.2057    85.6647     2.4324     0.0397     0.1311   -21.4568     7.4025     6.0410
 1141.0000     8.2071    84.0151     2.4280     0.0434     0.1313   -21.4539     7.2472     5.9790
 1141.5000     8.2086    84.3883     2.4262     0.0471     0.1314   -21.4538     7.1000     5.9177
 1142.0000     8.2100    84.8949     2.4233     0.0509     0.1342   -21.6588     6.9559     5.8569
 1142.5000     8.2084    85.2085     2.4175     0.0528     0.1388   -22.8294     6.9385     5.7968
 1143.0000     8.2065    86.6878     2.4086     0.0540     0.1457   -23.9759     6.9105     5.6531
 1143.5000     8.2045    85.4576     2.3954     0.0624     0.1495   -24.2926     6.6441     5.2898
 1144.0000     8.2025    84.0793     2.3855     0.0749     0.1347   -24.7311     6.3879     4.9499
 1144.5000     8.2006    84.1018     2.4275     0.0646     0.1235   -25.6566     6.1415     4.6318
 1145.0000     8.1986    83.9026     2.4287     0.0452     0.1164   -25.8488     5.9047     4.3341
 1145.5000     8.1967    82.3224     2.4412     0.0444     0.1118   -25.8491     5.6770     4.2110
 1146.0000     8.1947    84.5676     2.4550     0.0449     0.1100   -25.5811     5.4556     4.2355
 1146.5000     8.1927    87.7030     2.4511     0.0453     0.1110   -25.2267     5.4556     4.3700
 1147.0000     8.1908    87.7095     2.4479     0.0457     0.1087   -23.9691     5.5496     4.4553
 1147.5000     8.1906    87.0690     2.4567     0.0461     0.1149   -23.0347     5.6450     4.4743
 1148.0000     8.1916    89.6648     2.4478     0.0477     0.1072   -22.5343     6.6249     4.4926
 1148.5000     8.1927    93.4510     2.4553     0.0487     0.0974   -22.2532     7.1337     5.0154
 1149.0000     8.1937    92.5505     2.4676     0.0407     0.1028   -22.2556     7.3908     5.5734
 1149.5000     8.1947    91.3888     2.4663     0.0393     0.1034   -22.2552     7.6425     5.9151
 1150.0000     8.1958    90.1890     2.4683     0.0409     0.0986   -22.2555     7.8672     6.1147
 1150.5000     8.1968    89.7966     2.4693     0.0423     0.1012   -22.2555     8.0119     6.3256
 1151.0000     8.1978    89.6249     2.4678     0.0423     0.0926   -22.2555     8.1593     6.3710
 1151.5000     8.1988    88.9507     2.4833     0.0356     0.0978   -22.2555     8.3095     6.4209
 1152.0000     8.1999    88.0660     2.4638     0.0260     0.1090   -22.2555     8.4337     6.4869
 1152.5000     8.2009    87.9916     2.4489     0.0262     0.1049   -22.2555     8.5498     6.5660
 1153.0000     8.2019    87.8087     2.4610     0.0262     0.0981   -22.2555     8.6675     6.6464
 1153.5000     8.2030    85.9553     2.4732     0.0265     0.0959   -22.2555     8.7869     6.7277
 1154.0000     8.2040    82.0051     2.4787     0.0171     0.1029   -22.2554     8.9064     6.8100
 1154.5000     8.2050    80.5932     2.4602     0.0127     0.1126   -22.2554     8.9299     6.8908
 1155.0000     8.2060    83.9380     2.4515     0.0134     0.1094   -22.2560     8.9532     6.9648
 1155.5000     8.2071    86.9662     2.4564     0.0140     0.1066   -22.3002     8.9765     7.0395
 1156.0000     8.2081    87.1683     2.4594     0.0100     0.1088   -22.4050     8.9891     7.1149
 1156.5000     8.2091    88.1218     2.4501     0.0056     0.1173   -22.6245     8.9247     7.1998
 1157.0000     8.2102    90.1660     2.4389     0.0057     0.1186   -22.9839     8.8807     7.1626
 1157.5000     8.2112    90.8568     2.4460     0.0080     0.1089   -23.3403     8.8246     7.1209
 1158.0000     8.2122    88.7299     2.4569     0.0061     0.1023   -23.6620     8.8540     7.0680
 1158.5000     8.2132    87.4430     2.4659     0.0037     0.1067   -23.6540     8.8956     7.0934
 1159.0000     8.2143    86.3662     2.4594     0.0030     0.1091   -23.6528     8.9374     7.1285
 1159.5000     8.2153    85.0568     2.4553     0.0057     0.1098   -23.6527     9.0727     7.1638
 1160.0000     8.2163    84.4784     2.4548     0.0081     0.1077   -23.6527     9.0524     7.1999
 1160.5000     8.2174    86.2350     2.4558     0.0077     0.1064   -23.6527     9.0171     7.1587
 1161.0000     8.2184    86.3717     2.4590     0.0072     0.1070   -23.6527     8.9819     7.1169
 1161.5000     8.2194    86.4577     2.4579     0.0068     0.1089   -23.6527     8.9469     7.0755
 1162.0000     8.2204    87.2627     2.4546     0.0063     0.1118   -23.6527     8.9120     7.0175
 1162.5000     8.2215    90.2958     2.4523     0.0062     0.1086   -23.6527     8.8156     6.9569
 1163.0000     8.2225    90.5707     2.4567     0.0062     0.1034   -23.6526     8.7084     6.8968
 1163.5000     8.2235    90.8003     2.4622     0.0062     0.1127   -23.6498     8.6025     6.8371
 1164.0000     8.2245    89.9944     2.4659     0.0033     0.1222   -23.6330     8.4979     6.7782
 1164.5000     8.2256    88.6545     2.4519    -0.0012     0.1265   -24.2956     8.3959     6.6888
