~VERSION INFORMATION
 VERS.                2.0:   CWLS LOG ASCII STANDARD - VERSION 2.0
 WRAP.                 NO:   ONE LINE PER DEPTH STEP
~WELL INFORMATION
#MNEM.UNIT      DATA TYPE    INFORMATION
#----------   ------------   ------------------------------
 STRT.F           28.0000:   START DEPTH
 STOP.F          884.0000:   STOP DEPTH
 STEP.F            0.5000:   STEP LENGTH
 NULL.          -999.2500:   NO VALUE
 COMP. U S NAVY-INTEX OIL:   COMPANY
 WELL. NPR 3 TEAPOT DOM #43-SX-2:   WELL
 FLD .             TEAPOT:   FIELD
 LOC .       S2 T38N R78W:   LOCATION
 CNTY.            NATRONA:   COUNTY
 STAT.            WYOMING:   STATE
 CTRY. UNITED STATES OF AMERICA:   COUNTRY
 SRVC.       Schlumberger:   SERVICE COMPANY
 DATE.        19-JUL-1963:   LOGDATE
 API .       490250967900:   API NUMBER
~CURVE INFORMATION
#MNEM.UNIT       API CODE    CURVE DESCRIPTION
#----------   ------------   ------------------------------
 DEPT.F                  :   
 ASN .OHMM   05 041 16 00:   AMPLIFIED SHORT NORMAL 16"
 CILD.MMHO   05 110 46 00:   CONDUCTIVITY INDUCTION LOG DEEP
 ILD .OHMM   05 120 46 00:   INDUCTION LOG DEEP
 SPR .MV     05 010 01 00:   SPONTANEOUS POTENTIAL FROM RES.
 GR  .GAPI   30 310 01 00:   GAMMA RAY
~PARAMETER INFORMATION
#MNEM.UNIT          VALUE    DESCRIPTION
#----------   ------------   ------------------------------
 LMF .                 KB:   LOG MEASURED FROM
 DMF .                 KB:   DRILLING MEASURED FROM
 EKB .F              5151:   KELLING BUSHING
 EGL .F              5146:   GROUND LEVEL
 DATE.        19-JUL-1963:   RUN DATE
 RUN .                  1:   RUN NUMBER
 DD  .F               881:   DEPTH DRILLER
 DL  .F               885:   DEPTH LOGGER
 BLI .F               884:   BOTTOM LOG INTERVAL
 TLI .F                30:   TOP LOG INTERVAL
 CS  .IN            8.625:   CASING SIZE
 CBD .F                12:   CASING BOTTOM DRILLER
 BS  .IN             6.75:   BIT SIZE
 BSD .F               881:   BIT SIZE AT DEPTH
 DFT .           GEL- OIL:   DRILLING FLUID TYPE
 DFD .                9.6:   DRILLING FLUID DENSITY
 DFV .                 39:   DRILLING FLUID VISCOSITY
 DFPH.                8.5:   DRILLING FLUID PH
 DFL .                4.4:   DRILLING FLUID LOSS
 RMS .OHMM           2.58:   RESISTIVITY MUD SAMPLE
 MST .F                72:   MUD SAMPLE TEMPERATURE
 RMF .OHMM           2.26:   RESISTIVITY MUD FILTRATE SAMPLE
 MFST.F                72:   MUD FILTRATE SAMPLE TEMPERATURE
 TCS .HRS               3:   TIME CURCULATED STOPPED
 LUN .               4507:   LOGGING UNIT NUMBER
 LUL .             CASPER:   LOGGING UNIT LOCATION
 ENGI.            WINKLER:   RECORDING ENGINEER
 WITN.          JORGENSEN:   WITNESSED BY
 CLNT.            A2DTECH:   CLIENT CODE
 ORIG.      2.5" 5" PRINT:   ORIGIN OF DATA
 UWI .       490250967900:   UNIQUE WELL ID
 DICO. A2D Technologies, Inc.:   DIGITIZING COMPANY
~OTHER INFORMATION
~A   DEPT      ASN         CILD       ILD       SPR         GR   
# ...
  577.0000     8.7856   131.8703     7.6924   -32.8560    66.5779
  577.5000     8.8477   130.3580     7.7336   -32.8619    66.4310
  578.0000     8.9440   130.3653     7.8455   -32.8677    67.1869
  578.5000     9.0680   130.3727     7.9028   -33.1748    69.2983
  579.0000     9.1850   128.8604     8.0632   -33.1878    74.8735
  579.5000     9.2471   128.8678     8.1508   -33.4879    75.1776
  580.0000     9.2991   127.3554     8.1515   -33.4940    72.4705
  580.5000     9.2992   127.3632     8.3038   -33.5000    71.4192
  581.0000     9.3296   125.8504     8.3047   -33.5060    70.6684
  581.5000     9.3746   124.3380     8.3054   -33.5121    72.0275
  582.0000     9.4367   122.3811     8.3062   -33.5181    70.6750
  582.5000     9.5290   121.3133     8.3069   -33.5241    69.0213
  583.0000     9.6324   120.7041     8.3076   -33.2289    68.5717
  583.5000     9.7533   119.8100     8.3084   -33.2349    68.7260
  584.0000     9.8441   119.8176     8.3091   -33.2410    67.2229
  584.5000     9.9047   119.8252     8.3098   -33.2481    68.9610
  585.0000     9.8444   121.3539     8.3106   -33.5551    74.3078
  585.5000     9.7841   122.8811     8.3114   -33.2590    76.5698
  586.0000     9.7239   125.9280     8.3121   -33.2657    74.1631
  586.5000     9.6636   125.9354     8.3129   -33.2715    69.7985
  587.0000     9.6325   127.4625     8.3136   -33.2774    66.3376
  587.5000     9.5733   127.4699     8.1628   -32.9819    65.7374
  588.0000     9.5392   127.4773     8.1636   -32.6867    67.3977
  588.5000     9.4829   127.4394     8.0977   -32.6928    66.3464
  589.0000     9.4831   125.9723     8.0136   -33.0000    65.5783
  589.5000     9.4832   124.4600     8.0144   -33.3072    62.8884
  590.0000     9.4834   122.9476     8.0153   -33.3133    65.7535
  590.5000     9.4951   121.4352     8.0160   -33.3193    67.4124
  591.0000     9.5270   119.9229     8.0168   -33.6265    63.1992
  591.5000     9.6485   117.8497     8.1690   -33.6325    62.7496
  592.0000     9.8183   115.3799     8.1698   -33.6386    64.1087
  592.5000     9.6956   113.1333     8.3220   -33.6446    65.9181
  593.0000     9.6958   110.0151     8.4743   -33.6506    63.0603
  593.5000     9.7488   107.8040     8.7780   -33.6577    60.6536
  594.0000     9.9982   104.7733     8.7828   -33.6636    57.1927
  594.5000    10.1494   103.2599     8.9311   -33.6695    60.3590
  595.0000    10.3761   100.2288     9.0833   -33.6753    62.3198
  595.5000    10.5349    97.1967     9.2639   -33.6812    61.5697
  596.0000    10.7541    95.6843     9.4243   -33.6871    59.7647
  596.5000    10.9053    92.6522     9.7361   -33.6929    58.1117
  597.0000    11.2076    91.1398     9.9955   -33.6988    54.1990
  597.5000    11.5098    89.5517    10.2083   -33.7048    53.1470
  598.0000    11.8121    86.4336    10.5202   -33.7108    55.1085
  598.5000    12.1144    84.8352    10.8321   -33.7676    56.7681
  599.0000    12.4166    83.2372    11.2106   -34.0241    54.6054
  599.5000    12.5678    80.5385    11.5145   -34.1140    49.6964
  600.0000    12.6888    82.0687    11.6667   -34.3378    45.9335
  600.5000    12.6884    83.6094    11.8189   -34.6420    47.4212
  601.0000    12.6879    83.6322    11.8197   -34.6449    49.4068
  601.5000    12.6875    83.6550    11.8205   -34.6479    54.3810
  602.0000    12.6870    83.6778    11.7990   -34.6508    53.9056
  602.5000    12.6866    83.7006    11.5189   -34.6538    52.2825
  603.0000    12.5350    84.0728    11.4864   -34.6567    51.9846
  603.5000    12.4958    85.2660    11.3688   -34.6597    52.4419
  604.0000    12.3831    86.8085    11.3253   -34.6627    53.6511
  604.5000    12.3826    88.3511    11.2188   -34.6827    56.0652
  605.0000    12.3268    88.3739    11.2197   -34.6685    57.1238
  605.5000    12.2307    88.3967    11.2205   -34.6717    56.5258
  606.0000    12.2302    88.4194    11.2212   -34.6184    53.9699
  606.5000    12.1578    89.1997    11.2220   -34.0750    51.3581
  607.0000    12.0782    89.9848    11.2227   -34.1606    46.9004
  607.5000    11.9267    91.5274    11.2235   -34.3825    48.4119
  608.0000    11.7752    91.5545    11.1353   -34.6862    49.7718
  608.5000    11.6236    93.0966    10.9220   -34.3880    55.0473
  609.0000    11.6232    94.6387    10.7712   -34.3916    52.7926
  609.5000    11.6227    94.6611    10.6205   -34.6958    49.7850
  610.0000    11.6223    94.6835    10.4698   -34.6988    52.5002
  610.5000    11.6219    94.7058    10.3190   -34.8755    50.9986
  611.0000    11.4704    96.2480    10.3198   -35.0066    47.6819
  611.5000    11.4699    96.2703    10.1689   -34.7078    50.2303
  612.0000    11.4695    96.2927    10.1697   -34.4101    52.0671
  612.5000    11.4690    97.8348    10.1705   -34.4130    53.4269
  613.0000    11.3175    97.8572    10.1712   -34.1145    55.6904
  613.5000    11.1660    97.8799    10.1720   -34.1177    57.0502
  614.0000    11.1656    99.4225    10.1727   -34.1207    56.1499
  614.5000    11.1651    99.6151    10.0219   -34.1236    55.4121
  615.0000    11.0136   100.9878    10.0227   -33.8254    55.7080
  615.5000    11.0131   101.2969    10.0028   -33.8283    59.1762
  616.0000    10.8616   102.5532     9.8464   -33.8313    60.0842
  616.5000    10.8612   102.9788     9.7219   -33.5330    58.1308
  617.0000    10.8235   104.1185     9.6854   -33.5361    58.1363
  617.5000    10.6664   106.1803     9.5719   -33.5944    57.7485
  618.0000    10.5094   107.7811     9.5242   -33.8434    53.7776
  618.5000    10.4062   108.7462     9.4218   -34.2289    51.6725
  619.0000    10.4057   110.2887     9.4227   -34.4518    53.6358
  619.5000    10.2542   110.3116     9.4235   -34.7560    55.8993
  620.0000    10.2538   110.3344     9.4242   -34.7590    56.8073
  620.5000    10.2533   110.3571     9.4250   -34.7620    61.6491
  621.0000    10.3018   111.9041     9.4258   -34.6185    62.8402
  621.5000    10.3466   111.9264     9.4265   -34.4669    60.1349
  622.0000    10.1612   111.9488     9.4274   -34.2972    59.5368
  622.5000    10.1004   111.9712     9.4282   -34.1717    59.8425
  623.0000    10.1302   111.9935     9.4289   -34.1752    60.2987
  623.5000    10.1901   112.0159     9.4296   -34.1781    63.4657
  624.0000    10.1970   112.0383     9.2788   -33.8795    67.0846
  624.5000    10.1590   110.5395     9.2796   -33.8828    67.0406
  625.0000    10.1586   109.0425     9.1288   -33.8858    68.1476
  625.5000    10.1581   112.1054     8.9780   -33.5873    71.9170
  626.0000    10.0368   115.1673     8.8273   -33.5905    63.1865
  626.5000     9.9155   118.2779     8.8281   -33.5934    63.6438
  627.0000     9.7943   121.3980     8.6773   -33.5964    64.7024
  627.5000     9.5808   124.5186     8.5265   -33.5994    63.0502
  628.0000     9.3337   127.6391     8.3757   -33.6024    59.8909
  628.5000     9.0542   130.7597     8.2250   -33.6054    63.0590
  629.0000     8.7840   133.8806     8.0550   -33.6084    62.6116
  629.5000     8.6341   135.4814     7.7472   -33.6114    63.9714
  630.0000     8.5408   138.1459     7.6211   -33.6145    69.8493
  630.5000     8.4920   138.1687     7.5861   -33.6175    67.7916
  631.0000     8.6289   136.6675     7.6227   -33.3188    63.5339
  631.5000     8.7515   135.1748     7.6235   -33.6229    62.4841
  632.0000     8.8439   132.9888     7.7758   -33.3253    60.2284
  632.5000     8.9132   131.4336     7.9280   -33.1827    61.1375
  633.0000     8.9429   129.8784     8.0803   -33.0301    59.4853
  633.5000     8.9562   129.1869     8.0811   -33.0331    53.7668
  634.0000     9.0173   127.6900     8.0818   -33.0367    53.6085
  634.5000     9.0944   126.1930     8.0826   -32.7380    56.2293
  635.0000     9.0750   126.2193     8.0833   -32.7414    59.6536
  635.5000     9.0312   126.2417     8.0842   -32.7444    61.4662
  636.0000     9.0307   126.2641     8.0850   -32.7473    67.3441
  636.5000     9.0303   126.2865     8.2372   -33.0515    66.5955
  637.0000     9.0298   126.3088     8.2380   -33.0544    63.1349
  637.5000     9.0898   124.8114     8.2387   -33.0574    63.5922
