~VERSION INFORMATION
 VERS.                2.0:   CWLS LOG ASCII STANDARD - VERSION 2.0
 WRAP.                 NO:   ONE LINE PER DEPTH STEP
~WELL INFORMATION
#MNEM.UNIT      DATA TYPE    INFORMATION
#----------   ------------   ------------------------------
 STRT.F           60.0000:   START DEPTH
 STOP.F          482.0000:   STOP DEPTH
 STEP.F            0.5000:   STEP LENGTH
 NULL.          -999.2500:   NO VALUE
 COMP. BROWN JOHN E&C INC:   COMPANY
 WELL. NPR 3 68 SX-3 #68-1-3:   WELL
 FLD .             TEAPOT:   FIELD
 LOC .       S3 T38N R78W:   LOCATION
 CNTY.            NATRONA:   COUNTY
 STAT.            WYOMING:   STATE
 CTRY. UNITED STATES OF AMERICA:   COUNTRY
 SRVC.     Atlas Wireline:   SERVICE COMPANY
 DATE.        29-SEP-1991:   LOGDATE
 API .       490252244800:   API NUMBER
~CURVE INFORMATION
#MNEM.UNIT       API CODE    CURVE DESCRIPTION
#----------   ------------   ------------------------------
 DEPT.F                  :   
 CALD.IN     45 280 60 00:   CALIPER FROM DENSITY LOG
 CNC .DEC    42 890 03 00:   NEUTRON POROSITY SANDSTONE
 CORR.G/C3   45 356 01 00:   DENSITY CORRECTION
 GRD .GAPI   45 310 01 00:   GAMMA RAY FROM DENSITY LOG
 PORD.DEC    45 890 12 00:   POROSITY DENSITY SANDSTONE
 RHOB.G/C3   45 350 01 00:   BULK DENSITY
 RFOC.OHMM   07 220 04 00:   RESISTIVITY FOCUSED LOG
 RILD.OHMM   07 120 46 00:   RESISTIVITY INDUCTION LOG DEEP
 RILM.OHMM   07 120 44 00:   RESISTIVITY INDUCTION LOG MEDIUM
~PARAMETER INFORMATION
#MNEM.UNIT          VALUE    DESCRIPTION
#----------   ------------   ------------------------------
 PD  .                 GL:   PERMANENT DATUM
 EPD .F              5153:   ELEVATION PERMANENT DATUM
 LMF .                 KB:   LOG MEASURED FROM
 DAPD.F                10:   FEET ABOVE PERMANENT DATUM
 DMF .                 KB:   DRILLING MEASURED FROM
 EKB .F              5163:   KELLING BUSHING
 EGL .F              5153:   GROUND LEVEL
 DATE.        29-SEP-1991:   RUN DATE
 RUN .                  1:   RUN NUMBER
 DD  .F               485:   DEPTH DRILLER
 DL  .F               485:   DEPTH LOGGER
 BLI .F               482:   BOTTOM LOG INTERVAL
 CS  .IN            8.625:   CASING SIZE
 CBD .F                98:   CASING BOTTOM DRILLER
 CBL .F               100:   CASING BOTTOM LOGGER
 BS  .IN            7.875:   BIT SIZE
 BSD .F               485:   BIT SIZE AT DEPTH
 DFT .           CHEM GEL:   DRILLING FLUID TYPE
 DFD .               15.4:   DRILLING FLUID DENSITY
 DFV .                 38:   DRILLING FLUID VISCOSITY
 DFPH.                9.0:   DRILLING FLUID PH
 DFL .                8.0:   DRILLING FLUID LOSS
 MSS .           FLOWLINE:   MUD SAMPLE SOURCE
 RMS .OHMM           1.65:   RESISTIVITY MUD SAMPLE
 MST .F                90:   MUD SAMPLE TEMPERATURE
 RMF .OHMM           1.32:   RESISTIVITY MUD FILTRATE SAMPLE
 MFST.F                90:   MUD FILTRATE SAMPLE TEMPERATURE
 RMC .OHMM           2.06:   RESISTIVITY MUD CAKE
 MCST.F                90:   MUD CAKE SAMPLE TEMPERATURE
 MFSS.               CALC:   MUD FILTRATE SAMPLE SOURCE
 MCSS.               CALC:   MUD CAKE SAMPLE SOURCE
 RMB .OHMM           1.65:   RESISTIVITY MUD AT BHT
 BHT .F                90:   BOTTOM HOLE TEMPERATURE
 TCS .HRS               1:   TIME CURCULATED STOPPED
 MRT .F                90:   MAXIMUM RECORDED TEMPERATURE
 LUN .            HL 6272:   LOGGING UNIT NUMBER
 LUL .             CASPER:   LOGGING UNIT LOCATION
 ENGI. WADDELL/ OTTERHOLT:   RECORDING ENGINEER
 WITN.             STRONG:   WITNESSED BY
 CLNT.            A2DTECH:   CLIENT CODE
 ORIG.           5" PRINT:   ORIGIN OF DATA
 UWI .       490252244800:   UNIQUE WELL ID
 DICO. A2D Technologies, Inc.:   DIGITIZING COMPANY
~OTHER INFORMATION
~A   DEPT     CALD        CNC       CORR         GRD      PORD       RHOB       RFOC       RILD       RILM   
# ...
  206.0000     8.4439     0.3438     0.0055   102.1963     0.0873     2.5042     6.9495     6.0587     5.7294
  206.5000     8.4441     0.3437     0.0055   103.0980     0.0818     2.5110     7.1008     6.5909     6.2000
  207.0000     8.4597     0.3447     0.0040   104.3023     0.0809     2.5141     7.1546     6.9788     6.4153
  207.5000     8.4598     0.3498     0.0056   104.9017     0.0830     2.5095     7.1594     7.1740     6.6474
  208.0000     8.4754     0.3555     0.0056   104.5930     0.0824     2.5088     7.1633     7.2275     6.7925
  208.5000     8.4756     0.3579     0.0056   102.4447     0.0799     2.5126     7.1671     7.3838     6.8925
  209.0000     8.4912     0.3561     0.0071    99.7156     0.0799     2.5141     7.2721     7.4911     6.8971
  209.5000     8.4913     0.3531     0.0071    98.8260     0.0805     2.5141     7.4826     7.5479     6.9501
  210.0000     8.4915     0.3503     0.0072    98.8188     0.0802     2.5133     7.6992     7.6043     6.9548
  210.5000     8.4917     0.3497     0.0087    98.8128     0.0786     2.5143     7.7619     7.6078     6.9606
  211.0000     8.4918     0.3530     0.0087    99.4135     0.0765     2.5209     7.8721     7.6113     6.9158
  211.5000     8.4920     0.3579     0.0102    98.8009     0.0744     2.5232     7.9317     7.6149     6.8735
  212.0000     8.4943     0.3627     0.0118    98.4939     0.0740     2.5248     7.9360     7.5136     6.8303
  212.5000     8.5090     0.3606     0.0118   100.6044     0.0755     2.5232     7.9960     7.4640     6.8349
  213.0000     8.5233     0.3581     0.0118   103.0190     0.0774     2.5232     8.0565     7.4164     6.8396
  213.5000     8.5235     0.3578     0.0118   104.5259     0.0803     2.5209     8.0608     7.3682     6.7966
  214.0000     8.5391     0.3584     0.0088   104.8240     0.0836     2.5171     8.0653     7.3725     6.7539
  214.5000     8.5393     0.3590     0.0058   104.2114     0.0870     2.5110     8.0707     7.2728     6.7596
  215.0000     8.5394     0.3569     0.0043   103.2977     0.0842     2.5057     7.9617     7.0759     6.7642
  215.5000     8.5396     0.3559     0.0058   104.1995     0.0809     2.5095     7.8563     7.0307     6.7688
  216.0000     8.5397     0.3574     0.0058   104.4962     0.0799     2.5156     7.7513     7.0834     6.7733
  216.5000     8.5399     0.3562     0.0074   103.5824     0.0809     2.5164     7.7555     7.1870     6.7779
  217.0000     8.5400     0.3533     0.0089   102.0514     0.0835     2.5140     7.7056     7.2914     6.8299
  217.5000     8.5402     0.3517     0.0089   101.1498     0.0844     2.5102     7.7099     7.2432     6.8402
  218.0000     8.5403     0.3547     0.0059   101.1437     0.0814     2.5095     7.6077     7.1970     6.8881
  218.5000     8.5405     0.3553     0.0044   101.1365     0.0777     2.5149     7.5050     7.1013     6.8928
  219.0000     8.5406     0.3547     0.0074   101.7372     0.0759     2.5187     7.4057     6.7189     6.7547
  219.5000     8.5253     0.3562     0.0090   103.2426     0.0777     2.5225     7.4617     6.3129     6.1306
  220.0000     8.5255     0.3613     0.0090   105.9598     0.0825     2.5248     7.5710     6.1850     5.8425
  220.5000     8.5257     0.3759     0.0058   109.5847     0.0874     2.5034     7.5751     6.2755     5.6857
  221.0000     8.5103     0.3940     0.0029   114.1173     0.0930     2.4950     6.9380     6.2784     5.6472
  221.5000     8.4950     0.4009     0.0029   115.3231     0.0985     2.4874     6.1911     6.1935     5.6943
  222.0000     8.4952     0.3991     0.0045   114.4079     0.0997     2.4821     6.5055     6.0266     5.8593
  222.5000     8.4954     0.3939     0.0045   113.1917     0.0957     2.4851     6.8358     5.8206     5.7419
  223.0000     8.4955     0.3912     0.0060   111.3703     0.0951     2.4912     7.1329     5.4714     5.5489
  223.5000     8.4957     0.3872     0.0015   109.5489     0.0948     2.4943     7.2881     4.9645     5.1070
  224.0000     8.4958     0.3839     0.0000   107.4249     0.0951     2.4943     7.3949     4.5998     4.5710
  224.5000     8.4960     0.3836     0.0000   105.9061     0.1011     2.4903     7.0956     4.4442     4.2052
  225.0000     8.4961     0.3996     0.0000   105.2950     0.1186     2.4815     6.4368     4.4467     3.9769
  225.5000     8.4963     0.4387     0.0000   104.0424     0.1462     2.4539     5.1841     4.5429     3.9847
  226.0000     8.4964     0.4399    -0.0015   102.7897     0.1659     2.4273     4.7685     4.6411     3.9874
  226.5000     8.4966     0.4293    -0.0015   100.6838     0.1516     2.3740     4.9416     4.8081     3.9901
  227.0000     8.4968     0.3955    -0.0017    99.8234     0.1237     2.3899     5.4533     5.0554     4.4640
  227.5000     8.5129     0.3617    -0.0030    99.8174     0.1085     2.4212     6.4886     5.4193     4.7563
  228.0000     8.5280     0.3535    -0.0014    99.8114     0.0894     2.4608     7.3771     5.8953     5.1389
  228.5000     8.5347     0.3577    -0.0014   100.1081     0.0858     2.4935     7.4329     6.2367     5.7644
  229.0000     8.5437     0.3599    -0.0029   101.6165     0.0863     2.5057     7.2824     6.5063     6.3000
  229.5000     8.5439     0.3577    -0.0044   103.1219     0.0857     2.5080     7.1841     6.6016     6.5736
  230.0000     8.5441     0.3550    -0.0044   102.2082     0.0854     2.5065     7.0396     6.3338     6.8114
  230.5000     8.5442     0.3516    -0.0044   100.6894     0.0850     2.5072     6.9943     6.0769     6.9117
  231.0000     8.5289     0.3480    -0.0044   103.4065     0.0832     2.5095     6.9981     5.7497     6.8194
  231.5000     8.5291     0.3444    -0.0044   105.2160     0.0826     2.5111     7.0028     5.3197     6.2338
  232.0000     8.5292     0.3422    -0.0044   106.4203     0.0826     2.5126     7.0557     4.8682     5.6032
  232.5000     8.5139     0.3437    -0.0028   105.2041     0.0874     2.5110     7.3623     4.6060     4.6584
  233.0000     8.4986     0.3513    -0.0043   101.5673     0.1074     2.5027     7.4180     4.4808     4.0548
  233.5000     8.4988     0.3912    -0.0043   101.8699     0.1243     2.4730     6.6358     4.4834     3.9178
  234.0000     8.4989     0.4073    -0.0058   104.5811     0.1468     2.4250     5.0534     4.4860     4.0040
  234.5000     8.4991     0.3988    -0.0073   103.8850     0.1267     2.4006     4.5842     4.5195     4.0914
  235.0000     8.4992     0.3809    -0.0058   100.9368     0.1137     2.4379     5.4645     4.7479     4.4205
  235.5000     8.4994     0.3527     0.0003   103.9565     0.1006     2.4577     6.5586     5.2375     4.7798
  236.0000     8.4996     0.3367     0.0034   106.3712     0.0963     2.4844     6.9887     6.0772     5.1973
  236.5000     8.4997     0.3312     0.0034   106.6693     0.0936     2.4989     7.1910     6.6933     5.5376
  237.0000     8.4998     0.3218     0.0034   103.0309     0.0872     2.5072     7.3992     7.2306     6.1095
  237.5000     8.4845     0.3112     0.0019    99.0915     0.0784     2.5164     7.6134     7.7567     6.8351
  238.0000     8.4847     0.3088    -0.0026    97.8753     0.0772     2.5202     7.8420     7.9245     7.3850
  238.5000     8.4694     0.3075    -0.0026    98.4745     0.0772     2.5217     7.9495     8.0968     7.5989
  239.0000     8.4696     0.3072    -0.0008    99.3762     0.0765     2.5232     8.1226     8.1005     7.5512
  239.5000     8.4697     0.3067     0.0004   100.2780     0.0756     2.5248     8.1830     8.2182     7.4517
  240.0000     8.4699     0.3117     0.0005   101.1812     0.0741     2.5263     8.1303     8.0517     7.3024
  240.5000     8.4700     0.3146     0.0035    96.0301     0.0725     2.5293     8.1358     7.8885     7.1075
  241.0000     8.4547     0.3172     0.0035    91.4855     0.0713     2.5324     8.0834     7.8373     7.1123
  241.5000     8.4549     0.3190     0.0051    93.2950     0.0691     2.5347     7.9753     7.7864     7.0665
  242.0000     8.4550     0.3208     0.0051    94.8139     0.0682     2.5362     7.9240     7.6015     7.0233
