~VERSION INFORMATION
 VERS.                2.0:   CWLS LOG ASCII STANDARD - VERSION 2.0
 WRAP.                 NO:   ONE LINE PER DEPTH STEP
~WELL INFORMATION
#MNEM.UNIT      DATA TYPE    INFORMATION
#----------   ------------   ------------------------------
 STRT.F            0.0000:   START DEPTH
 STOP.F          539.0000:   STOP DEPTH
 STEP.F            0.5000:   STEP LENGTH
 NULL.          -999.2500:   NO VALUE
 COMP. FENIX & SCISSON INC:   COMPANY
 WELL.     NPR 3 SX #23-3:   WELL
 FLD .             TEAPOT:   FIELD
 LOC .       S3 T38N R78W:   LOCATION
 CNTY.            NATRONA:   COUNTY
 STAT.            WYOMING:   STATE
 CTRY. UNITED STATES OF AMERICA:   COUNTRY
 SRVC.           BIRDWELL:   SERVICE COMPANY
 DATE.        27-JUL-1978:   LOGDATE
 API .       490251067500:   API NUMBER
~CURVE INFORMATION
#MNEM.UNIT       API CODE    CURVE DESCRIPTION
#----------   ------------   ------------------------------
 DEPT.F                  :   
 ILD .OHMM   05 120 40 00:   INDUCTION LOG DEEP
 SPR .MV     05 010 01 00:   SPONTANEOUS POTENTIAL
 SN  .OHMM   05 040 16 00:   SHORT NORMAL 16"
 CALD.IN     45 280 60 00:   CALIPER FROM DENSITY LOG
 CORR.G/C3   45 356 01 00:   DENSITY CORRECTION
 DPHI.DEC    45 890 12 00:   DENSITY POROSITY SANDSTONE
 GRD .GAPI   45 310 01 00:   GAMMA RAY FROM DENSITY LOG
 RHOB.G/C3   45 350 01 00:   BULK DENSITY
~PARAMETER INFORMATION
#MNEM.UNIT          VALUE    DESCRIPTION
#----------   ------------   ------------------------------
 PD  .                 GL:   PERMANENT DATUM
 EPD .F              5787:   ELEVATION PERMANENT DATUM
 LMF .                 KB:   LOG MEASURED FROM
 DAPD.F                 4:   FEET ABOVE PERMANENT DATUM
 DMF .                 KB:   DRILLING MEASURED FROM
 EKB .F              5191:   KELLING BUSHING
 EGL .F              5187:   GROUND LEVEL
 DATE.         7-JUL-1978:   RUN DATE
 RUN .                  1:   RUN NUMBER
 DD  .F               540:   DEPTH DRILLER
 DL  .F               540:   DEPTH LOGGER
 BLI .F               539:   BOTTOM LOG INTERVAL
 CS  .IN            8.625:   CASING SIZE
 CBD .F                40:   CASING BOTTOM DRILLER
 BS  .IN            7.875:   BIT SIZE
 BSD .F               540:   BIT SIZE AT DEPTH
 DFT .                KCL:   DRILLING FLUID TYPE
 DFD .                8.6:   DRILLING FLUID DENSITY
 DFV .                 30:   DRILLING FLUID VISCOSITY
 DFPH.                  9:   DRILLING FLUID PH
 MSS .           FLOWLINE:   MUD SAMPLE SOURCE
 MRT .F                74:   MAXIMUM RECORDED TEMPERATURE
 LUN .               2958:   LOGGING UNIT NUMBER
 LUL .               CASP:   LOGGING UNIT LOCATION
 ENGI.            POINTER:   RECORDING ENGINEER
 WITN.              AMEND:   WITNESSED BY
 CLNT.            A2DTECH:   CLIENT CODE
 ORIG.           5" PRINT:   ORIGIN OF DATA
 UWI .       490251067500:   UNIQUE WELL ID
 DICO. A2D Technologies, Inc.:   DIGITIZING COMPANY
~OTHER INFORMATION
~A    DEPT     ILD        SPR         SN         CALD     CORR       DPHI         GRD      RHOB   
# ...
  202.5000     7.7289   -30.8829     8.3454     7.3505     0.0173     0.1375    76.4559     2.4166
  203.0000     7.6268   -30.7215     8.2354     7.4245     0.0084     0.1358    76.2898     2.4226
  203.5000     7.6324   -30.5714     8.1292     7.5140     0.0038     0.1346    76.7327     2.4278
  204.0000     7.4299   -30.8577     7.9695     7.5887    -0.0007     0.1325    77.1756     2.4315
  204.5000     7.3771   -31.1411     7.9186     7.6778    -0.0023     0.1346    77.4670     2.4345
  205.0000     7.2373   -31.4302     7.7089     7.7054    -0.0009     0.1385    77.1494     2.4390
  205.5000     7.1438   -30.8207     7.5059     7.7648     0.0035     0.1400    76.9891     2.4374
  206.0000     7.0495   -30.5118     7.3072     7.8384     0.0065     0.1382    78.0352     2.4119
  206.5000     7.0547   -30.7334     7.1637     7.8827     0.0108     0.1334    78.6325     2.4134
  207.0000     7.0105   -30.7866     7.0703     7.9418     0.0167     0.1299    78.0118     2.4225
  207.5000     6.9666   -30.7724     6.9781     7.9708     0.0226     0.1267    77.6970     2.4313
  208.0000     6.9717   -30.7611     7.0312     7.9997     0.0225     0.1243    77.0765     2.4403
  208.5000     7.0559   -30.7500     7.1324     7.9980     0.0179     0.1228    76.4588     2.4470
  209.0000     7.1078   -30.7381     7.3349     7.9967     0.0118     0.1222    75.8411     2.4515
  209.5000     7.2591   -30.7241     7.5211     7.9498     0.0043     0.1243    75.2234     2.4522
  210.0000     7.4653   -30.7128     7.5788     7.9333     0.0042     0.1255    74.9087     2.4522
  210.5000     7.6241   -30.8502     7.7438     7.9320     0.0026     0.1235    74.2909     2.4521
  211.0000     7.6801   -30.9881     7.8032     7.9307     0.0040     0.1217    74.2764     2.4536
  211.5000     7.6836   -31.2739     7.8094     7.9294     0.0039     0.1205    74.2648     2.4581
  212.0000     7.6871   -31.2597     7.9429     7.9281     0.0038     0.1196    75.0107     2.4625
  212.5000     7.4832   -31.2483     8.0390     7.9267     0.0037     0.1193    76.0626     2.4640
  213.0000     7.4866   -31.3858     8.0455     7.9252     0.0036     0.1194    75.4419     2.4640
  213.5000     7.4388   -31.2256     8.0533     7.9393     0.0036     0.1194    74.8242     2.4640
  214.0000     7.2905   -31.2142     8.0596     7.9529     0.0035     0.1212    74.8121     2.4639
  214.5000     7.1880   -30.7536     8.0475     7.9665     0.0034     0.1254    74.1919     2.4609
  215.0000     7.0997   -30.7422     7.9608     7.9804     0.0033     0.1332    73.5742     2.4549
  215.5000     7.1037   -30.5821     7.8602     7.9790     0.0032     0.1356    73.7141     2.4488
  216.0000     7.1070   -30.5707     7.6552     7.9776     0.0031     0.1351    74.4600     2.4394
  216.5000     6.9177   -30.5593     7.4540     7.9761     0.0051     0.1291    75.2059     2.4315
  217.0000     6.7274   -30.5476     7.2568     7.9748     0.0074     0.1243    75.8162     2.4308
  217.5000     6.3773   -30.5338     6.8764     7.9887     0.0088     0.1327    76.5433     2.4457
  218.0000     6.1229   -30.5224     6.6956     7.9873     0.0087     0.1453    77.1377     2.4539
  218.5000     5.8785   -30.8087     6.3822     7.9860     0.0146     0.1561    77.1261     2.4487
  219.0000     5.8410   -31.0949     6.1768     7.9695     0.0190     0.1580    77.1144     2.4108
  219.5000     5.7246   -31.0833     6.0157     7.9679     0.0205     0.1481    76.0422     2.3879
  220.0000     5.7279   -31.0693     6.0205     7.9666     0.0144     0.1382    73.3032     2.4036
  220.5000     5.7305   -31.0580     6.1504     7.9653     0.0143     0.1280    76.3190     2.4328
  221.0000     5.8123   -31.0466     6.3698     7.9640     0.0127     0.1226    76.9163     2.4485
  221.5000     5.8954   -31.0352     6.6893     7.9627     0.0111     0.1209    74.0229     2.4552
  222.0000     6.1941   -30.7262     6.9756     7.9613     0.0110     0.1209    72.1931     2.4560
  222.5000     6.5864   -31.0097     7.3241     7.9597     0.0079     0.1215    71.5754     2.4521
  223.0000     6.9613   -30.9983     7.6901     7.9433     0.0078     0.1233    71.5636     2.4454
  223.5000     7.3576   -31.1386     7.9644     7.9269     0.0078     0.1233    73.9734     2.4439
  224.0000     7.5658   -31.5737     8.0332     7.9257     0.0077     0.1222    75.7799     2.4483
  224.5000     7.7801   -31.5595     8.2002     7.9243     0.0076     0.1201    76.9804     2.4573
  225.0000     7.8380   -30.9500     8.4348     7.9381     0.0092     0.1174    77.5748     2.4663
  225.5000     7.9500   -30.3434     8.4414     7.9216     0.0119     0.1174    78.1721     2.4692
  226.0000     7.9536   -30.3320     8.6828     7.9200     0.0133     0.1196    78.7636     2.4632
  226.5000     8.0121   -30.9159     8.6897     7.9036     0.0132     0.1204    79.2283     2.4602
  227.0000     8.0159   -31.2022     8.6982     7.8872     0.0131     0.1199    79.9495     2.4601
  227.5000     8.0203   -31.4884     8.7649     7.8859     0.0160     0.1187    80.0894     2.4613
  228.0000     8.0240   -30.8790     8.7718     7.8392     0.0189     0.1163    80.3807     2.4631
  228.5000     8.0277   -30.4212     8.8391     7.8217     0.0188     0.1139    80.6721     2.4661
  229.0000     8.0314   -29.8146     8.9068     7.7608     0.0247     0.1130    82.1756     2.4713
  229.5000     8.0352   -29.5056     8.9141     7.7444     0.0246     0.1152    84.8041     2.4735
  230.0000     8.0390   -29.4942     8.9226     7.6977     0.0290     0.1158    83.2100     2.4720
  230.5000     8.0433   -29.6317     8.9296     7.6964     0.0304     0.1143    83.0468     2.4712
  231.0000     8.0470   -29.6175     8.9366     7.6951     0.0333     0.1128    83.3382     2.4719
  231.5000     8.0507   -29.6061     8.9437     7.6938     0.0339     0.1113    83.4810     2.4749
  232.0000     8.0545   -30.0412     8.8897     7.6665     0.0362     0.1117    84.0727     2.4778
  232.5000     8.0583   -30.1786     8.8983     7.6606     0.0361     0.1147    85.3131     2.4778
  233.0000     8.0627   -30.1644     8.7824     7.6593     0.0390     0.1174    88.8947     2.4770
  233.5000     8.0663   -30.1530     8.7910     7.6580     0.0419     0.1195    88.7315     2.4732
  234.0000     8.0700   -30.2905     8.7979     7.6567     0.0418     0.1213    86.4472     2.4635
  234.5000     8.0738   -30.5767     8.8048     7.6554     0.0447     0.1234    85.8294     2.4552
  235.0000     8.0231   -30.7143     8.6918     7.6692     0.0476     0.1228    85.0602     2.4537
  235.5000     7.8632   -30.8745     8.5803     7.6827     0.0475     0.1239    82.5798     2.4566
  236.0000     7.8668   -31.1379     8.5887     7.6814     0.0489     0.1286    77.6097     2.4566
  236.5000     7.6573   -30.9749     8.5154     7.6801     0.0518     0.1316    76.6890     2.4476
  237.0000     7.5427   -30.6659     8.3694     7.6787     0.0532     0.1319    76.9804     2.4386
  237.5000     7.4567   -30.6545     8.2012     7.6925     0.0531     0.1316    77.5748     2.4363
  238.0000     7.2590   -30.9722     8.1561     7.7366     0.0549     0.1323    77.8691     2.4370
  238.5000     7.2126   -31.2270     7.9418     7.7352     0.0590     0.1335    76.1878     2.4377
  239.0000     7.0688   -31.2128     7.7347     7.7944     0.0604     0.1353    75.4182     2.4362
  239.5000     7.0174   -31.2015     7.6354     7.8380     0.0648     0.1383    78.4343     2.4339
  240.0000     6.8837   -30.7437     7.4859     7.8669     0.0647     0.1518    80.8469     2.4294
  240.5000     6.7004   -30.5833     7.1423     7.9261     0.0692     0.1542    80.8353     2.4234
  241.0000     6.5227   -30.2717     6.9533     7.9701     0.0705     0.1557    80.8236     2.4023
  241.5000     6.3489   -29.9655     6.5888     8.0292     0.0764     0.1588    80.5089     2.3933
  242.0000     6.0846   -30.5466     6.3284     8.0275     0.0763     0.1650    79.5232     2.3888
  242.5000     5.7338   -31.1304     5.9139     8.0262     0.0822     0.1735    77.6039     2.3842
