~VERSION INFORMATION
 VERS.                2.0:   CWLS LOG ASCII STANDARD - VERSION 2.0
 WRAP.                 NO:   ONE LINE PER DEPTH STEP
~WELL INFORMATION
#MNEM.UNIT      DATA TYPE    INFORMATION
#----------   ------------   ------------------------------
 STRT.F           38.0000:   START DEPTH
 STOP.F          663.5000:   STOP DEPTH
 STEP.F            0.5000:   STEP LENGTH
 NULL.          -999.2500:   NO VALUE
 COMP. FENIX & SCISSON INC:   COMPANY
 WELL.   NPR SX #3 #35-34:   WELL
 FLD .             TEAPOT:   FIELD
 LOC .      S34 T39N R78W:   LOCATION
 CNTY.            NATRONA:   COUNTY
 STAT.            WYOMING:   STATE
 CTRY. UNITED STATES OF AMERICA:   COUNTRY
 SRVC.       Schlumberger:   SERVICE COMPANY
 DATE.        21-MAR-1977:   LOGDATE
 API .       490251031500:   API NUMBER
~CURVE INFORMATION
#MNEM.UNIT       API CODE    CURVE DESCRIPTION
#----------   ------------   ------------------------------
 DEPT.F                  :   
 SPR .MV     07 010 01 00:   SPONTANEOUS POTENTIAL
 LL8 .OHMM   07 220 08 00:   LATEROLOG-8 RES.
 ILD .OHMM   07 120 46 00:   INDUCTION LOG DEEP
 ILM .OHMM   07 120 44 00:   INDUCTION LOG MEDIUM
 CALD.IN     45 280 60 00:   CALIPER
 RHOB.G/C3   45 350 01 00:   BULK DENSITY
 DPHI.DEC    45 890 12 00:   DENSITY POROSITY SANDSTONE
 CORR.G/C3   45 356 01 00:   DENSITY CORRECTION
 GRD .GAPI   45 310 01 00:   GAMMA RAY FROM DENSITY LOG
~PARAMETER INFORMATION
#MNEM.UNIT          VALUE    DESCRIPTION
#----------   ------------   ------------------------------
 PD  .                 GL:   PERMANENT DATUM
 EPD .F              5081:   ELEVATION PERMANENT DATUM
 LMF .                 GL:   LOG MEASURED FROM
 DMF .                 KB:   DRILLING MEASURED FROM
 EKB .F              5086:   KELLING BUSHING
 EGL .F              5081:   GROUND LEVEL
 DATE.          3-21-1977:   RUN DATE
 RUN .                  1:   RUN NUMBER
 DD  .F               670:   DEPTH DRILLER
 DL  .F               665:   DEPTH LOGGER
 BLI .F               659:   BOTTOM LOG INTERVAL
 TLI .F                40:   TOP LOG INTERVAL
 CS  .IN            8.625:   CASING SIZE
 CBD .F                40:   CASING BOTTOM DRILLER
 CBL .F                40:   CASING BOTTOM LOGGER
 BS  .IN            7.875:   BIT SIZE
 BSD .F               670:   BIT SIZE AT DEPTH
 DFT .           CHEM GEL:   DRILLING FLUID TYPE
 DFV .                 33:   DRILLING FLUID VISCOSITY
 MSS .           MUD TANK:   MUD SAMPLE SOURCE
 RMS .OHMM           4.98:   RESISTIVITY MUD SAMPLE
 MST .F                53:   MUD SAMPLE TEMPERATURE
 RMF .OHMM           4.94:   RESISTIVITY MUD FILTRATE SAMPLE
 MFST.F                53:   MUD FILTRATE SAMPLE TEMPERATURE
 RMC .OHMM            2.5:   RESISTIVITY MUD CAKE
 MCST.F                53:   MUD CAKE SAMPLE TEMPERATURE
 MFSS.                  M:   MUD FILTRATE SAMPLE SOURCE
 MCSS.                  C:   MUD CAKE SAMPLE SOURCE
 RMB .OHMM              4:   RESISTIVITY MUD AT BHT
 BHT .F                65:   BOTTOM HOLE TEMPERATURE
 TCS .HRS            1000:   TIME CURCULATED STOPPED
 TLAB.HRS            1400:   TIME LOGGER AT BOTTOM
 MRT .F                65:   MAXIMUM RECORDED TEMPERATURE
 LUN .               7742:   LOGGING UNIT NUMBER
 LUL .                GLT:   LOGGING UNIT LOCATION
 ENGI.               LANE:   RECORDING ENGINEER
 WITN.              BURKE:   WITNESSED BY
 CLNT.            A2DTECH:   CLIENT CODE
 ORIG.       2", 5" PRINT:   ORIGIN OF DATA
 UWI .       490251031500:   UNIQUE WELL ID
 DICO. A2D Technologies, Inc.:   DIGITIZING COMPANY
~OTHER INFORMATION
~A   DEPT      SPR        LL8        ILD        ILM       CALD       RHOB       DPHI       CORR         GRD  
# ...
  403.0000   -60.2270     9.5496     7.6916     6.1602     8.1469     2.4742     0.1074     0.0182   138.9494
  403.5000   -60.0109     9.7943     7.6916     6.2492     8.1473     2.4722     0.1097     0.0202   140.5166
  404.0000   -59.7949     9.9387     7.6916     6.3394     8.1476     2.4752     0.1037     0.0219   141.4589
  404.5000   -59.5789    10.0412     7.6916     6.4310     8.1480     2.4679     0.1098     0.0174   139.8082
  405.0000   -59.3628    10.1445     7.6916     6.5239     8.1484     2.4619     0.1150     0.0226   136.7031
  405.5000   -59.1468    10.0845     7.6742     6.6358     8.1488     2.4763     0.1006     0.0374   132.6598
  406.0000   -58.9308    10.0220     7.6518     6.6039     8.1491     2.4811     0.1078     0.0305   131.4219
  406.5000   -58.7991     9.9606     7.6296     6.5649     8.1495     2.4689     0.1130     0.0269   134.0086
  407.0000   -58.7611     9.8995     7.6075     6.5261     8.1499     2.4795     0.1041     0.0335   136.8734
  407.5000   -58.7228     9.8388     7.5854     6.4875     8.1491     2.4908     0.0966     0.0327   139.7474
  408.0000   -58.6843     9.7785     7.5634     6.4496     8.1480     2.4870     0.1033     0.0235   142.6150
  408.5000   -58.6463     9.7186     7.5415     6.4150     8.1468     2.4701     0.1124     0.0143   145.4931
  409.0000   -58.6443     9.6590     7.5197     6.3805     8.1456     2.4482     0.1216     0.0048   145.7946
  409.5000   -58.7845     9.5997     7.4980     6.3462     8.1444     2.4484     0.1270     0.0048   142.0706
  410.0000   -58.9204     9.5403     7.4819     6.3121     8.1432     2.4497     0.1179     0.0071   138.4014
  410.5000   -59.0563     9.5105     7.5609     6.2782     8.1420     2.4490     0.1227     0.0094   134.8361
  411.0000   -59.1921     9.5888     7.6253     6.2443     8.1408     2.4478     0.1248     0.0120   138.5453
  411.5000   -59.3279     9.6425     7.6916     6.2103     8.1396     2.4425     0.1284     0.0032   145.3511
  412.0000   -59.4636     9.6874     7.3717     6.1676     8.1384     2.4361     0.1327    -0.0033   151.3152
  412.5000   -59.5960     9.5542     7.0477     6.2180     8.1372     2.4292     0.1356     0.0033   154.9757
  413.0000   -59.7745     9.4229     6.7381     6.0177     8.1360     2.4216     0.1388     0.0099   157.6136
  413.5000   -59.9567     9.6583     6.4420     5.7366     8.1348     2.4212     0.1414     0.0164   156.3506
  414.0000   -60.1391     9.8678     6.1587     5.3457     8.1336     2.4171     0.1440     0.0227   152.9177
  414.5000   -60.3214     7.8476     5.8883     4.9842     8.1325     2.4121     0.1450     0.0356   150.9720
  415.0000   -60.5047     6.0744     5.6296     4.5038     8.1313     2.4146     0.1439     0.0383   148.7559
  415.5000   -60.6858     5.4166     5.5175     4.6083     8.1301     2.4299     0.1384     0.0279   148.7312
  416.0000   -60.7598     6.8369     5.5835     4.8035     8.1289     2.4592     0.1230     0.0272   148.5882
  416.5000   -60.4531     8.3577     5.6329     5.0071     8.1277     2.4549     0.1169     0.0250   147.1105
  417.0000   -60.1572     8.3376     5.6828     5.1368     8.1265     2.4485     0.1188     0.0192   148.6939
  417.5000   -60.0698     8.2851     5.7327     5.1639     8.1253     2.4545     0.1207     0.0184   151.4462
  418.0000   -60.1552     8.6040     5.7788     5.2203     8.1241     2.4417     0.1272     0.0152   155.7868
  418.5000   -60.2439     8.9974     5.7138     5.2051     8.1229     2.4248     0.1406     0.0092   156.8371
  419.0000   -60.3327     8.5127     5.6440     4.9628     8.1217     2.4077     0.1514     0.0120   155.6279
  419.5000   -60.4212     6.8746     5.5748     4.6925     8.1206     2.3907     0.1584     0.0132   148.1806
  420.0000   -60.5099     5.0726     5.5063     4.4383     8.1194     2.3750     0.1655     0.0101   142.0469
  420.5000   -60.6048     5.0714     5.4166     4.3007     8.1182     2.3774     0.1660     0.0070   140.1348
  421.0000   -60.5258     6.4957     5.4875     4.6886     8.1170     2.4028     0.1455     0.0108   138.2161
  421.5000   -60.2792     7.9485     5.5970     5.0264     8.1158     2.4318     0.1264     0.0157   136.7587
  422.0000   -59.5946     8.7523     5.6203     5.3146     8.1146     2.4527     0.1184     0.0206   140.3136
  422.5000   -59.5556     8.7409     6.0367     5.4590     8.1134     2.4624     0.1128     0.0256   145.3479
  423.0000   -59.5045     8.7308     6.4303     5.6073     8.1122     2.4631     0.1110     0.0261   148.3671
  423.5000   -59.4540     8.7207     6.8512     5.7596     8.1110     2.4584     0.1185     0.0185   145.7369
  424.0000   -59.4326     8.7106     7.2773     5.9161     8.1091     2.4554     0.1185     0.0200   142.7238
  424.5000   -59.4786     8.7005     7.2773     5.9936     8.1027     2.4630     0.1166     0.0222   139.6792
  425.0000   -59.5233     8.6905     7.2773     6.0509     8.0962     2.4580     0.1193     0.0195   141.5759
  425.5000   -59.5678     8.6804     6.9717     6.1070     8.0898     2.4520     0.1232     0.0145   144.3013
  426.0000   -59.6071     8.6719     6.5293     6.1070     8.0834     2.4629     0.1181     0.0232   146.8472
  426.5000   -59.8306     9.2437     6.1149     5.8316     8.0768     2.4684     0.1107     0.0323   147.7622
  427.0000   -60.0765     9.6874     5.7268     5.3117     8.0704     2.4704     0.1107     0.0435   149.5935
  427.5000   -60.3233     7.9808     5.3630     4.8310     8.0794     2.4667     0.1092     0.0301   152.7521
  428.0000   -60.5648     6.2958     5.0221     4.3938     8.0898     2.4697     0.1110     0.0693   162.4159
  428.5000   -61.0788     4.6302     4.6731     4.0317     8.1001     2.4488     0.1205     0.0501   156.5174
  429.0000   -61.2061     5.2132     4.8071     4.2623     8.1104     2.4224     0.1397     0.0279   149.8227
  429.5000   -60.6856     6.1666     5.0040     4.4848     8.1207     2.4515     0.1191     0.0260   146.3824
  430.0000   -60.1713     7.2994     5.2440     4.7189     8.1300     2.4574     0.1211     0.0153   146.1249
  430.5000   -59.6540     8.6483     5.6723     4.9652     8.1309     2.4650     0.1214     0.0120   144.3166
  431.0000   -59.1385     8.9748     6.1355     5.2244     8.1316     2.4939     0.0959     0.0297   139.9727
  431.5000   -58.6199     9.0485     6.6366     5.4971     8.1323     2.5073     0.0869     0.0467   138.8226
  432.0000   -58.3384     9.1228     7.1786     5.7840     8.1331     2.5064     0.0929     0.0391   139.3643
  432.5000   -58.2018     9.1977     7.7649     6.0859     8.1338     2.5013     0.0879     0.0352   137.7738
  433.0000   -58.0685     9.2732     8.1512     6.4036     8.1346     2.5157     0.0817     0.0370   136.7400
  433.5000   -57.9349     9.3743     8.2159     6.7378     8.1353     2.5136     0.0815     0.0286   138.1381
  434.0000   -57.8012     9.5989     8.2811     6.9492     8.1361     2.5212     0.0838     0.0261   140.5131
  434.5000   -57.6674     9.7765     8.3469     6.6141     8.1368     2.5326     0.0709     0.0340   142.4796
  435.0000   -57.5336     9.7142     8.4131     6.3956     8.1376     2.5161     0.0795     0.0320   141.7859
  435.5000   -57.3998     9.6826     8.4799     6.3793     8.1383     2.5212     0.0762     0.0390   140.0781
  436.0000   -57.2656     9.6726     8.5248     6.3642     8.1391     2.5196     0.0770     0.0378   137.5316
  436.5000   -57.1314     9.6627     8.5477     6.3492     8.1398     2.5076     0.0875     0.0285   132.2747
  437.0000   -57.0142     9.6527     8.5707     6.3341     8.1406     2.5004     0.0897     0.0320   125.9541
  437.5000   -57.0507     9.6428     8.5938     6.3191     8.1413     2.5004     0.0866     0.0251   120.5087
  438.0000   -57.0844     9.6328     8.6169     6.3041     8.1421     2.4904     0.0984     0.0115   117.3485
  438.5000   -57.1178     9.6229     8.6400     6.2892     8.1428     2.4856     0.1010     0.0153   115.9912
  439.0000   -57.1509     9.6130     8.6632     6.2784     8.1436     2.4862     0.0981     0.0218   121.7424
