~VERSION INFORMATION
 VERS.                2.0:   CWLS LOG ASCII STANDARD - VERSION 2.0
 WRAP.                 NO:   ONE LINE PER DEPTH STEP
~WELL INFORMATION
#MNEM.UNIT      DATA TYPE    INFORMATION
#----------   ------------   ------------------------------
 STRT.F           18.0000:   START DEPTH
 STOP.F          449.0000:   STOP DEPTH
 STEP.F            0.5000:   STEP LENGTH
 NULL.          -999.2500:   NO VALUE
 COMP.   LAWRENCE-ALLISON:   COMPANY
 WELL. NPR 3 #52-51SX10OB5:   WELL
 FLD .             TEAPOT:   FIELD
 LOC .      S10 T38N R78W:   LOCATION
 CNTY.            NATRONA:   COUNTY
 STAT.            WYOMING:   STATE
 CTRY. UNITED STATES OF AMERICA:   COUNTRY
 SRVC.      Dresser Atlas:   SERVICE COMPANY
 DATE.        20-DEC-1984:   LOGDATE
 API .       490251101000:   API NUMBER
~CURVE INFORMATION
#MNEM.UNIT       API CODE    CURVE DESCRIPTION
#----------   ------------   ------------------------------
 DEPT.F                  :   
 CALD.IN     45 280 60 00:   CALIPER FROM DENSITY LOG
 CNC .DEC    42 890 03 00:   NEUTRON POROSITY SANDSTONE
 CORR.G/C3   45 356 01 00:   DENSITY CORRECTION
 DEN .G/C3   45 350 01 00:   COMPENSATED BULK DENSTIY
 GRD .GAPI   45 310 01 00:   GAMMA RAY FROM DENSITY LOG
 PORD.DEC    45 890 12 00:   POROSITY DENSITY SANDSTONE
 DT  .US/F   60 520 00 00:   INTERVAL TRANSIT TIME
~PARAMETER INFORMATION
#MNEM.UNIT          VALUE    DESCRIPTION
#----------   ------------   ------------------------------
 PD  .                 GL:   PERMANENT DATUM
 EPD .F              5159:   ELEVATION PERMANENT DATUM
 LMF .                 GL:   LOG MEASURED FROM
 DMF .                 GL:   DRILLING MEASURED FROM
 EGL .F              5159:   GROUND LEVEL
 DATE.        20-DEC-1984:   RUN DATE
 RUN .                  1:   RUN NUMBER
 DD  .F               451:   DEPTH DRILLER
 DL  .F               451:   DEPTH LOGGER
 BLI .F               449:   BOTTOM LOG INTERVAL
 TLI .F                20:   TOP LOG INTERVAL
 CS  .IN            8.625:   CASING SIZE
 CBD .F                20:   CASING BOTTOM DRILLER
 CBL .F                20:   CASING BOTTOM LOGGER
 BS  .IN             6.25:   BIT SIZE
 BSD .F               451:   BIT SIZE AT DEPTH
 DFT .          KCL/WATER:   DRILLING FLUID TYPE
 MSS .            MUDTANK:   MUD SAMPLE SOURCE
 RMS .OHMM           .141:   RESISTIVITY MUD SAMPLE
 MST .F                54:   MUD SAMPLE TEMPERATURE
 RMF .OHMM           .106:   RESISTIVITY MUD FILTRATE SAMPLE
 MFST.F                54:   MUD FILTRATE SAMPLE TEMPERATURE
 RMC .OHMM           .176:   RESISTIVITY MUD CAKE
 MCST.F                54:   MUD CAKE SAMPLE TEMPERATURE
 MFSS.               CALC:   MUD FILTRATE SAMPLE SOURCE
 MCSS.               CALC:   MUD CAKE SAMPLE SOURCE
 TCS .HRS               2:   TIME CURCULATED STOPPED
 MRT .F               100:   MAXIMUM RECORDED TEMPERATURE
 LUN .               6270:   LOGGING UNIT NUMBER
 LUL .                 FM:   LOGGING UNIT LOCATION
 ENGI.        TOM GAUGHAN:   RECORDING ENGINEER
 WITN.              LUERS:   WITNESSED BY
 CLNT.            A2DTECH:   CLIENT CODE
 ORIG.           5" PRINT:   ORIGIN OF DATA
 UWI .       490251101000:   UNIQUE WELL ID
 DICO. A2D Technologies, Inc.:   DIGITIZING COMPANY
~OTHER INFORMATION
~A   DEPT     CALD         CNC      CORR        DEN         GRD      PORD         DT   
# ...
   63.5000     6.2120     0.2745    -0.0005     2.4683    89.1124     0.1285    99.8226
   64.0000     6.2125     0.2652     0.0176     2.4668    93.2544     0.1261   100.6726
   64.5000     6.2129     0.2642     0.0356     2.4639    93.8462     0.1285   101.4547
   65.0000     6.2134     0.2723     0.0537     2.4639    94.5365     0.1302   101.7494
   65.5000     6.2287     0.2785     0.0717     2.4685    98.5799     0.1284   101.9681
   66.0000     6.2735     0.2737     0.0659     2.4760   100.3550     0.1257   102.0396
   66.5000     6.2591     0.2719     0.0540     2.4805    96.8047     0.1224   102.0342
   67.0000     6.2447     0.2782     0.0512     2.4843    93.2544     0.1208   101.7309
   67.5000     6.2155     0.2805     0.0483     2.4851    93.2544     0.1188   101.0937
   68.0000     6.2161     0.2778     0.0589     2.4822    91.0059     0.1163   100.3759
   68.5000     6.2017     0.2718     0.0665     2.4792    89.7041     0.1187   100.5210
   69.0000     6.2021     0.2682     0.0606     2.4733    89.1124     0.1223   101.1146
   69.5000     6.1876     0.2670     0.0513     2.4681    92.0710     0.1246   101.5587
   70.0000     6.1882     0.2765     0.0369     2.4636    97.9882     0.1270   102.3017
   70.5000     6.1886     0.2813     0.0310     2.4584    99.5971     0.1312   102.9700
   71.0000     6.1595     0.2836     0.0252     2.4547    99.0129     0.1341   103.4889
   71.5000     6.1599     0.2890     0.0193     2.4585   100.2088     0.1347   103.7835
   72.0000     6.1603     0.3042     0.0254     2.4563   100.2189     0.1326   104.0023
   72.5000     6.1608     0.3039     0.0375     2.4556    98.7519     0.1332   102.0547
   73.0000     6.1612     0.2931     0.0481     2.4587    95.9512     0.1335   101.8262
   73.5000     6.1766     0.2736     0.0512     2.4647    92.5588     0.1327   101.6724
   74.0000     6.1918     0.2583     0.0498     2.4767    91.9746     0.1259   101.8175
   74.5000     6.1774     0.2523     0.0470     2.4835    93.7622     0.1196   102.2616
   75.0000     6.1778     0.2762     0.0441     2.4858    95.5473     0.1184   102.7927
   75.5000     6.1931     0.2846     0.0442     2.4858    96.0011     0.1178   103.2235
   76.0000     6.1786     0.2833     0.0473     2.4731    95.4219     0.1181   103.5928
   76.5000     6.1643     0.2714     0.0504     2.4672    96.1715     0.1255   103.7390
   77.0000     6.1796     0.2737     0.0506     2.4650    97.9566     0.1279   104.0326
   77.5000     6.1801     0.2767     0.0447     2.4643    96.1914     0.1279   104.0282
   78.0000     6.1953     0.2856     0.0418     2.4606    90.2842     0.1293   104.0239
   78.5000     6.2106     0.2928     0.0345     2.4442    87.0182     0.1410   104.1034
   79.0000     6.2110     0.2963     0.0331     2.4412    86.7539     0.1421   104.3142
   79.5000     6.1966     0.2999     0.0332     2.4413    87.3581     0.1433   104.3088
   80.0000     6.1970     0.2939     0.0393     2.4383    89.8828     0.1448   104.3792
   80.5000     6.1976     0.2798     0.0514     2.4346    96.4017     0.1469   104.3748
   81.0000     6.2128     0.2795     0.0455     2.4294    98.0389     0.1489   104.2958
   81.5000     6.2280     0.2950    -0.0007     2.4265    95.6820     0.1516   104.1419
   82.0000     6.2285     0.3210     0.0099     2.4355    91.8817     0.1502   104.2930
   82.5000     6.2289     0.3129     0.0519     2.4505    90.3765     0.1375   104.7301
   83.0000     6.2293     0.2997     0.0400     2.4506    90.3889     0.1360   104.8763
   83.5000     6.2299     0.2782     0.0282     2.4446    89.6593     0.1383   104.4972
   84.0000     6.2599     0.2829     0.0178     2.4507    88.3379     0.1401   103.8950
   84.5000     6.2752     0.2862     0.0344     2.4612    87.4603     0.1326   103.0685
   85.0000     6.2607     0.2826     0.0360     2.4635    87.4704     0.1287   103.0642
   85.5000     6.2316     0.2754     0.0346     2.4628    89.7017     0.1290   103.0598
   86.0000     6.2024     0.2786     0.0408     2.4612    91.6347     0.1310   103.9513
   86.5000     6.2029     0.2924     0.0842     2.4569    94.0115     0.1334   105.5164
   87.0000     6.2181     0.2875     0.0664     2.4524    95.2049     0.1364   106.0353
   87.5000     6.2334     0.2887     0.0424     2.4420    96.6942     0.1405   106.9278
   88.0000     6.2338     0.2935     0.0338     2.4420    99.3669     0.1420   107.5225
   88.5000     6.2342     0.2875     0.0294     2.4443    99.9686     0.1405   106.6202
   89.0000     6.2495     0.2839     0.0295     2.4482    95.3953     0.1369   105.7190
   89.5000     6.2647     0.2829     0.0296     2.4601    94.0714     0.1318   105.0224
   90.0000     6.2355     0.2838     0.0268     2.4564    93.9334     0.1314   105.3355
   90.5000     6.2360     0.2874     0.0209     2.4483    97.0524     0.1375   105.7796
   91.0000     6.2365     0.3083     0.0121     2.4363    98.8375     0.1514   106.2985
   91.5000     6.2556     0.3154     0.0047     2.4244   100.2056     0.1535   106.2941
   92.0000     6.2849     0.3070     0.0018     2.4274   100.9310     0.1496   106.1403
   92.5000     6.3009     0.2914     0.0064     2.4305    99.4616     0.1484   105.6875
   93.0000     6.2869     0.2765     0.0125     2.4335    94.7379     0.1472   105.3777
   93.5000     6.2884     0.2815     0.0426     2.4388    93.4165     0.1437   105.0799
   94.0000     6.2895     0.2943     0.0307     2.4456    93.5744     0.1411   105.0755
   94.5000     6.2610     0.2955     0.0204     2.4434    94.7678     0.1408   105.0712
   95.0000     6.2772     0.2934     0.0190     2.4434    96.7604     0.1411   105.1427
   95.5000     6.2932     0.2838     0.0191     2.4450    97.0067     0.1408   105.2120
   96.0000     6.2943     0.2667     0.0132     2.4435    94.5043     0.1407   105.2077
   96.5000     6.2955     0.2571     0.0074     2.4428    91.4078     0.1407   103.2471
   97.0000     6.2966     0.2583     0.0075     2.4428    91.2674     0.1404   102.3578
   97.5000     6.2978     0.2655     0.0196     2.4534    92.4633     0.1401   102.0546
   98.0000     6.2992     0.2831     0.0376     2.4669    97.2070     0.1269   102.1997
   98.5000     6.3003     0.3055     0.0437     2.4654    96.3319     0.1268   102.9427
   99.0000     6.3014     0.3117     0.0439     2.4617    96.0435     0.1292   103.5363
   99.5000     6.3026     0.3126     0.0380     2.4580    96.0559     0.1317   104.7278
  100.0000     6.3037     0.3030     0.0321     2.4521    97.8411     0.1363   105.3214
  100.5000     6.3051     0.3006     0.0203     2.4409   100.2154     0.1423   105.6160
  101.0000     6.3063     0.3113     0.0084     2.4357    98.6007     0.1459   105.6106
  101.5000     6.3074     0.3146     0.0325     2.4377    97.2047     0.1447   105.4568
  102.0000     6.3085     0.3034     0.0416     2.4568    96.5496     0.1344   104.7050
  102.5000     6.3097     0.2831     0.0235     2.4763    97.1513     0.1213   103.9533
  103.0000     6.3108     0.2724    -0.0060     2.4748    96.1258     0.1207   103.5005
  103.5000     6.3122     0.2736     0.0016     2.4625    95.5440     0.1275   103.7952
  104.0000     6.3134     0.2771     0.0062     2.4469    97.1837     0.1394   104.0538
  104.5000     6.3145     0.2783     0.0142     2.4447    97.1937     0.1406   104.2690
  105.0000     6.3156     0.2663     0.0159     2.4448    96.7599     0.1406   104.4195
  105.5000     6.3168     0.2663     0.0190     2.4472   100.0268     0.1394   104.7727
  106.0000     6.3179     0.2716     0.0281     2.4563   102.5490     0.1322   104.6146
  106.5000     6.3193     0.2949     0.0283     2.4609    98.8307     0.1298   104.3070
  107.0000     6.3205     0.3104     0.0210     2.4647    96.3343     0.1276   103.9994
  107.5000     6.3216     0.3122    -0.0013     2.4745    97.5408     0.1249   103.6918
  108.0000     6.3227     0.2984     0.0004     2.4806    98.1464     0.1200   103.6831
  108.5000     6.3239     0.2733     0.0170     2.4747    95.8026     0.1189   103.9970
