~VERSION INFORMATION
 VERS.                2.0:   CWLS LOG ASCII STANDARD - VERSION 2.0
 WRAP.                 NO:   ONE LINE PER DEPTH STEP
~WELL INFORMATION
#MNEM.UNIT      DATA TYPE    INFORMATION
#----------   ------------   ------------------------------
 STRT.F           60.0000:   START DEPTH
 STOP.F          945.0000:   STOP DEPTH
 STEP.F            0.5000:   STEP LENGTH
 NULL.          -999.2500:   NO VALUE
 COMP.          U.S. NAVY:   COMPANY
 WELL. RES 3 TEAPOT DOM #48S-35:   WELL
 FLD .           TEAPOT E:   FIELD
 LOC .      S35 T39N R78W:   LOCATION
 CNTY.            NATRONA:   COUNTY
 STAT.            WYOMING:   STATE
 CTRY. UNITED STATES OF AMERICA:   COUNTRY
 SRVC.       Schlumberger:   SERVICE COMPANY
 DATE.        15-JUL-1964:   LOGDATE
 API .       490250649200:   API NUMBER
~CURVE INFORMATION
#MNEM.UNIT       API CODE    CURVE DESCRIPTION
#----------   ------------   ------------------------------
 DEPT.F                  :   
 SPR .MV     05 010 01 00:   SPONTANEOUS POTENTIAL FROM RES.
 ILD .OHMM   05 120 46 00:   INDUCTION LOG DEEP
 ASN .OHMM   05 041 18 00:   AMPLIFIED SHORT NORMAL 18"
 CILD.MMHO   05 110 46 00:   CONDUCTIVITY INDUCTION LOG DEEP
 CALS.IN     60 280 50 00:   CALIPER FROM SONIC LOG
 DT  .US/F   60 520 00 00:   INTERVAL TRANSIT TIME
 GR  .GAPI   30 310 01 00:   GAMMA RAY
~PARAMETER INFORMATION
#MNEM.UNIT          VALUE    DESCRIPTION
#----------   ------------   ------------------------------
 PD  .                 GL:   PERMANENT DATUM
 EPD .F              5123:   ELEVATION PERMANENT DATUM
 LMF .                 KB:   LOG MEASURED FROM
 DAPD.F                 5:   FEET ABOVE PERMANENT DATUM
 DMF .                 KB:   DRILLING MEASURED FROM
 EKB .F              5128:   KELLING BUSHING
 EGL .F              5123:   GROUND LEVEL
 DATE.        15-JUL-1964:   RUN DATE
 RUN .                  1:   RUN NUMBER
 DD  .F               945:   DEPTH DRILLER
 DL  .F               946:   DEPTH LOGGER
 BLI .F               945:   BOTTOM LOG INTERVAL
 TLI .F                94:   TOP LOG INTERVAL
 CS  .IN            8.625:   CASING SIZE
 CBD .F                10:   CASING BOTTOM DRILLER
 BS  .IN             6.75:   BIT SIZE
 BSD .F               945:   BIT SIZE AT DEPTH
 DFT .                GEL:   DRILLING FLUID TYPE
 DFD .                9.5:   DRILLING FLUID DENSITY
 DFV .                 44:   DRILLING FLUID VISCOSITY
 DFPH.                8.0:   DRILLING FLUID PH
 DFL .               10.5:   DRILLING FLUID LOSS
 MSS .           FLOWLINE:   MUD SAMPLE SOURCE
 RMS .OHMM           3.37:   RESISTIVITY MUD SAMPLE
 MST .F                74:   MUD SAMPLE TEMPERATURE
 RMF .OHMM           2.97:   RESISTIVITY MUD FILTRATE SAMPLE
 MFST.F                78:   MUD FILTRATE SAMPLE TEMPERATURE
 MFSS.                 FP:   MUD FILTRATE SAMPLE SOURCE
 TCS .HRS             1.5:   TIME CURCULATED STOPPED
 MRT .F       T. L. T. M.:   MAXIMUM RECORDED TEMPERATURE
 LUN .               3527:   LOGGING UNIT NUMBER
 LUL .               CSPR:   LOGGING UNIT LOCATION
 ENGI.            WINKLER:   RECORDING ENGINEER
 WITN.          JORGENSEN:   WITNESSED BY
 CLNT.            A2DTECH:   CLIENT CODE
 ORIG.           2" PRINT:   ORIGIN OF DATA
 UWI .       490250649200:   UNIQUE WELL ID
 DICO. A2D Technologies, Inc.:   DIGITIZING COMPANY
~OTHER INFORMATION
~A   DEPT      SPR        ILD        ASN       CILD         CALS       DT         GR   
# ...
  333.0000   -52.7736     3.5895     4.7578   244.9529     6.5885   129.7786  -999.2500
  333.5000   -53.0260     3.7692     4.8121   228.9051     6.5885   130.8343  -999.2500
  334.0000   -53.3783     4.0361     4.9901   206.5762     6.5885   131.2872  -999.2500
  334.5000   -53.5232     4.2790     5.1986   185.7529     6.6188   126.6157  -999.2500
  335.0000   -53.6732     4.4587     5.4466   183.1825     6.7095   114.0316  -999.2500
  335.5000   -53.6732     4.6399     5.6059   182.7229     6.8003   114.8613  -999.2500
  336.0000   -53.8231     4.8663     5.7712   185.7305     6.7398   111.2448  -999.2500
  336.5000   -53.8231     4.9699     5.8124   192.3306     6.6188   112.6774  -999.2500
  337.0000   -53.8231     5.0932     5.8782   201.2418     6.6188   110.4175  -999.2500
  337.5000   -53.8231     5.0188     5.9516   208.3326     6.6339   109.0430  -999.2500
  338.0000   -53.8231     4.8030     5.9666   215.2333     6.6339   108.4598  -999.2500
  338.5000   -53.7844     4.5202     5.9361   236.7379     6.6339   108.6112  -999.2500
  339.0000   -53.6732     3.8933     5.6215   294.2831     6.6339   108.9887  -999.2500
  339.5000   -53.5232     3.4398     5.1757   312.1037     6.6339   108.4620  -999.2500
  340.0000   -53.3733     3.0226     4.7537   323.1771     6.6339   107.6036  -999.2500
  340.5000   -53.3696     2.6173     4.3905   328.1974     6.6339   107.1823  -999.2500
  341.0000   -53.0735     2.5428     4.2743   329.6983     6.6339   108.0121  -999.2500
  341.5000   -52.7124     2.5233     4.2405   330.4464     6.6339   109.3693  -999.2500
  342.0000   -52.4588     2.4692     4.2706   324.3229     6.6490   111.4047  -999.2500
  342.5000   -52.3238     2.5188     4.2361   312.3290     6.6490   116.1531  -999.2500
  343.0000   -52.5463     2.6977     4.1953   298.7787     6.6490   121.2028  -999.2500
  343.5000   -53.0997     3.0774     4.2311   257.1884     6.6490   123.9164  -999.2500
  344.0000   -53.3733     3.4497     4.5862   236.8918     6.6490   124.0677  -999.2500
  344.5000   -53.3733     3.7819     4.7918   228.7506     6.6490   122.8539  -999.2500
  345.0000   -53.3733     4.0602     4.9527   223.2027     6.6490   121.1305  -999.2500
  345.5000   -53.3733     4.2790     5.0819   221.0324     6.6339   118.8705  -999.2500
  346.0000   -53.2234     4.3549     5.2082   220.2715     6.6339   116.3090  -999.2500
  346.5000   -53.2234     4.3557     5.3300   220.2639     6.6339   114.0490  -999.2500
  347.0000   -53.2234     4.2813     5.4125   221.0100     6.6339   113.2961  -999.2500
  347.5000   -53.2234     4.1654     5.4508   221.0030     6.6339   114.6535  -999.2500
  348.0000   -53.0135     4.0391     5.4576   223.0770     6.6339   114.8801  -999.2500
  348.5000   -52.9098     3.8324     5.4277   227.7750     6.6339   114.2028  -999.2500
  349.0000   -52.7736     3.6180     5.2932   236.4554     6.6339   113.2238  -999.2500
  349.5000   -52.7736     3.4113     5.0546   256.6184     6.6339   111.8879  -999.2500
  350.0000   -52.6237     3.1579     4.8874   282.8054     6.6490   110.6945    76.3916
  350.5000   -52.6237     3.0084     4.7073   298.6336     6.6341   110.1406    75.7067
  351.0000   -52.5412     2.9053     4.6395   309.6481     6.6191   110.1356    73.3678
  351.5000   -52.3238     2.8542     4.5370   315.2115     6.6192   110.5478    70.2026
  352.0000   -52.1739     2.6347     4.4072   315.2025     6.6194   112.1703    68.2405
  352.5000   -52.0802     2.5602     4.3202   315.5227     6.6195   113.8282    68.8348
  353.0000   -52.0240     2.4752     4.2209   319.3216     6.6197   114.5818    71.9854
  353.5000   -52.0240     2.3362     4.1522   327.2465     6.6198   114.8832    72.2789
  354.0000   -52.0240     2.2977     4.0988   333.6145     6.6200   114.9585    71.2182
  354.5000   -52.1739     2.2623     4.0346   339.5699     6.6201   115.1299    67.7514
  355.0000   -52.1739     2.2632     3.9572   342.3071     6.6203   117.7468    64.7366
  355.5000   -52.1739     2.2639     3.8856   343.1347     6.6356   119.5554    63.8271
  356.0000   -52.1739     2.2436     3.8246   345.2787     6.6811   120.8365    63.8199
  356.5000   -52.1739     2.1151     3.7472   352.0887     6.8476   121.8161    66.0683
  357.0000   -52.1739     1.9910     3.6824   390.3630     6.9386   122.1929    71.3233
  357.5000   -52.0240     1.8384     3.6062   425.6777     6.9387   120.7662    77.9317
  358.0000   -51.7241     1.6661     3.5048   473.4841     6.8481   118.5757    81.5334
  358.5000   -51.5742     1.5918     3.3872   484.0332     6.7424   117.3700    82.8796
  359.0000   -51.4818     1.5925     3.2767   478.3561     6.6820   119.8568    82.5716
  359.5000   -51.4243     1.5932     3.1255   463.3066     6.6519   121.9668    80.1584
  360.0000   -51.4243     1.5941     3.0961   444.7952     6.7125   124.9812    78.3466
  360.5000   -51.4243     1.7067     3.2140   429.5996     6.7959   127.2928    80.3685
  361.0000   -51.4818     1.7594     3.3179   413.2183     6.8339   129.0505    84.6461
  361.5000   -51.7354     1.8971     3.3876   394.2449     6.8643   130.1809    84.0373
  362.0000   -52.1739     2.0993     3.4280   365.7295     6.8947   132.5923    80.4211
  362.5000   -52.3926     2.3120     3.5792   330.8819     6.9100   134.6270    81.4665
  363.0000   -52.4738     2.5760     3.8383   293.9209     6.8950   133.1952    82.6622
  363.5000   -52.4738     2.8970     4.0981   270.2801     6.8800   129.8856    82.2782
  364.0000   -52.4738     3.1278     4.2727   257.3654     6.8197   125.5087    78.5858
  364.5000   -52.4738     3.2549     4.3643   256.1912     6.7744   122.4943    77.8267
  365.0000   -52.4738     3.2556     4.4092   265.8371     6.7443   117.8222    79.7743
  365.5000   -52.4738     3.2521     4.4184   275.5732     6.7142   115.4861    80.0678
  366.0000   -52.3238     3.1069     4.3595   284.8264     6.6993   114.8078    76.7523
  366.5000   -52.3238     2.9666     4.2142   297.5783     6.6994   115.6496    76.5947
  367.0000   -52.1739     2.6942     4.1266   317.1300     6.6844   116.7671    73.3535
  367.5000   -52.1177     2.2820     4.0424   331.9635     6.6846   117.5207    71.3152
  368.0000   -52.0140     2.0191     3.9592   354.1767     6.6998   118.2743    71.6087
  368.5000   -51.7241     1.8027     3.8974   373.7395     6.7000   118.7264    73.8571
  369.0000   -51.5742     1.6827     3.8143   401.0443     6.7002   119.0279    73.6995
  369.5000   -51.5530     1.6083     3.7041   436.3565     6.7003   119.1814    73.3916
  370.0000   -51.2744     1.6090     3.6081   444.9974     6.7156   119.7061    74.4361
  370.5000   -51.1244     1.6098     3.5067   442.4365     6.7157   120.6104    76.2324
  371.0000   -51.1244     1.6105     3.4191   429.5468     6.7310   121.6654    77.2778
  371.5000   -51.1244     1.6865     3.3441   409.5701     6.7312   122.4943    75.9172
  372.0000   -51.1244     1.7644     3.4162   387.0968     6.7313   123.7001    71.6994
  372.5000   -51.1244     1.9137     3.5739   359.3887     6.7315   124.9172    70.0380
  373.0000   -51.2744     2.1258     3.7047   345.0224     6.7468   128.8244    69.5797
  373.5000   -51.5742     2.3879     3.7541   332.6981     6.7469   131.3112    69.7971
  374.0000   -51.7791     2.8181     4.0225   301.2970     6.7319   128.6737    70.4656
  374.5000   -51.8828     3.0767     4.6658   254.1874     6.7321   126.0362    69.1050
  375.0000   -52.0240     3.3083     4.8686   219.3314     6.7247   123.4740    64.7368
  375.5000   -52.0902     3.6474     5.0091   212.2240     6.6870   120.9872    61.1206
  376.0000   -52.1739     3.9970     5.2667   206.2430     6.6418   116.3061    61.8652
  376.5000   -52.1739     4.2860     5.4061   204.8893     6.6419   114.5064    62.9097
  377.0000   -52.1739     4.4767     5.5076   202.2172     6.6421   114.7325    64.2549
  377.5000   -52.1739     4.6742     5.6573   197.1709     6.6271   115.3353    65.7515
  378.0000   -52.1739     4.9002     5.8447   191.4131     6.6272   115.8628    69.2029
