~VERSION INFORMATION
 VERS.                2.0:   CWLS LOG ASCII STANDARD - VERSION 2.0
 WRAP.                 NO:   ONE LINE PER DEPTH STEP
~WELL INFORMATION
#MNEM.UNIT      DATA TYPE    INFORMATION
#----------   ------------   ------------------------------
 STRT.F           30.0000:   START DEPTH
 STOP.F         2423.0000:   STOP DEPTH
 STEP.F            0.5000:   STEP LENGTH
 NULL.          -999.2500:   NO VALUE
 COMP. DEPARTMENT OF ENERGY:   COMPANY
 WELL.   NPR-3 #35-1 X 10:   WELL
 FLD .        TEAPOT DOME:   FIELD
 LOC .      S10 T38N R78W:   LOCATION
 CNTY.            NATRONA:   COUNTY
 STAT.            WYOMING:   STATE
 CTRY. UNITED STATES OF AMERICA:   COUNTRY
 SRVC.       Schlumberger:   SERVICE COMPANY
 DATE.        15-JAN-1999:   LOGDATE
 API .       490252282200:   API NUMBER
~CURVE INFORMATION
#MNEM.UNIT       API CODE    CURVE DESCRIPTION
#----------   ------------   ------------------------------
 DEPT.F                  :   
 GRR .GAPI   06 310 01 00:   GAMMA RAY FROM RESISTIVITY
 SPR .MV     06 010 01 00:   SPONTANEOUS POTENTIAL FROM RES.
 HD  .IN     06 280 01 00:   HOLE DIAMETER
 AT90.OHMM   06 120 90 00:   90-IN. RESISTIVITY, 2-FT RESOLUTION
 AT30.OHMM   06 120 30 00:   30-IN. RESISTIVITY, 2-FT RESOLUTION
 AT10.OHMM   06 120 10 00:   10-IN. RESISTIVITY, 2-FT RESOLUTION
~PARAMETER INFORMATION
#MNEM.UNIT          VALUE    DESCRIPTION
#----------   ------------   ------------------------------
 PD  .                 GL:   PERMANENT DATUM
 EPD .F              5228:   ELEVATION PERMANENT DATUM
 LMF .                 KB:   LOG MEASURED FROM
 DAPD.F                10:   FEET ABOVE PERMANENT DATUM
 DMF .                 KB:   DRILLING MEASURED FROM
 EKB .F              5238:   KELLING BUSHING
 EDF .F              5237:   DRILLING FLOOR
 EGL .F              5228:   GROUND LEVEL
 DATE.        15-JAN-1999:   RUN DATE
 RUN .                  1:   RUN NUMBER
 DD  .F              2400:   DEPTH DRILLER
 DL  .F              2421:   DEPTH LOGGER
 BLI .F              2393:   BOTTOM LOG INTERVAL
 TLI .F                30:   TOP LOG INTERVAL
 CS  .IN            9.625:   CASING SIZE
 CBD .F               778:   CASING BOTTOM DRILLER
 CBL .F               773:   CASING BOTTOM LOGGER
 BS  .IN              8.5:   BIT SIZE
 BSD .F              2400:   BIT SIZE AT DEPTH
 DFT .            GEL/KCL:   DRILLING FLUID TYPE
 DFD .                8.9:   DRILLING FLUID DENSITY
 DFV .                 39:   DRILLING FLUID VISCOSITY
 DFPH.                  9:   DRILLING FLUID PH
 DFL .                8.8:   DRILLING FLUID LOSS
 MSS .            MUD PIT:   MUD SAMPLE SOURCE
 RMS .OHMM            .29:   RESISTIVITY MUD SAMPLE
 MST .F                65:   MUD SAMPLE TEMPERATURE
 RMF .OHMM            .22:   RESISTIVITY MUD FILTRATE SAMPLE
 MFST.F                65:   MUD FILTRATE SAMPLE TEMPERATURE
 RMC .OHMM            .43:   RESISTIVITY MUD CAKE
 MCST.F                65:   MUD CAKE SAMPLE TEMPERATURE
 MFSS.          MUD PRESS:   MUD FILTRATE SAMPLE SOURCE
 MCSS.         CALCULATED:   MUD CAKE SAMPLE SOURCE
 RMB .OHMM           .195:   RESISTIVITY MUD AT BHT
 BHT .F               100:   BOTTOM HOLE TEMPERATURE
 TCS .HRS            2015:   TIME CURCULATED STOPPED
 TLAB.HRS            2315:   TIME LOGGER AT BOTTOM
 MRT .F               100:   MAXIMUM RECORDED TEMPERATURE
 LUN .               2102:   LOGGING UNIT NUMBER
 LUL .             CASPER:   LOGGING UNIT LOCATION
 ENGI.    TISOVEC/PIERSON:   RECORDING ENGINEER
 WITN.           ESMERSON:   WITNESSED BY
 CLNT.            A2DTECH:   CLIENT CODE
 ORIG.       2", 5" PRINT:   ORIGIN OF DATA
 UWI .       490252282200:   UNIQUE WELL ID
 DICO. A2D Technologies, Inc.:   DIGITIZING COMPANY
~OTHER INFORMATION
~A   DEPT       GRR       SPR         HD       AT90       AT30       AT10   
# ...
 1850.0000   124.9692    -9.4494     8.3733     7.4133     7.0711     6.7576
 1850.5000   126.1141    -9.4382     8.3734     7.4567     7.2771     6.8875
 1851.0000   125.8248    -9.4216     8.3721     7.4824     7.2336     6.9580
 1851.5000   124.2787    -9.4148     8.3710     7.4133     7.2099     6.9883
 1852.0000   123.4952    -9.3892     8.3697     7.5521     7.3449     7.0120
 1852.5000   124.6634    -9.4765     8.3686     7.3745     7.1284     6.9612
 1853.0000   126.9626    -9.6489     8.3673     7.0774     6.9473     6.9120
 1853.5000   130.6185    -9.7976     8.3661     7.2695     7.1307     6.8631
 1854.0000   138.0750    -9.9581     8.3649     7.4133     7.2099     6.8146
 1854.5000   143.4809   -10.1106     8.3637     7.3121     7.1221     6.7566
 1855.0000   144.5588   -10.2698     8.3625     7.2099     7.0157     6.8633
 1855.5000   141.6806   -10.4230     8.3613     7.3537     7.1831     6.9999
 1856.0000   135.2774   -10.5840     8.3601     7.5318     7.3502     7.1392
 1856.5000   121.7772   -10.4825     8.3589     7.7143     7.5210     7.2813
 1857.0000   122.7874   -10.3098     8.3577     7.9011     7.6957     7.4262
 1857.5000   124.9207   -10.1532     8.3565     8.0924     7.8750     7.5740
 1858.0000   129.4965    -9.9849     8.3553     8.2861     8.0578     7.6935
 1858.5000   131.9899    -9.8306     8.3540     7.9832     7.8258     7.7652
 1859.0000   132.9979    -9.6540     8.3535     7.6946     7.5497     7.4501
 1859.5000   133.8148    -9.6413     8.3535     7.4717     7.2835     7.2047
 1860.0000   134.5103    -9.7633     8.3535     7.3109     7.0120     6.9673
 1860.5000   136.4454    -9.8163     8.3535     7.1812     6.9636     6.7867
 1861.0000   136.8207    -9.8523     8.3535     7.1024     6.9125     6.6964
 1861.5000   134.5276    -9.8851     8.3535     7.0120     6.8618     6.6073
 1862.0000   131.7600    -9.9183     8.3535     7.0120     6.8114     6.5193
 1862.5000   131.7803    -9.9538     8.3535     7.0120     6.7566     6.3909
 1863.0000   134.2609    -9.9834     8.3535     7.0120     6.7715     6.4791
 1863.5000   135.5986   -10.0404     8.3535     7.0120     6.8196     6.6943
 1864.0000   133.8906   -10.1193     8.3535     7.1932     6.9625     6.8822
 1864.5000   132.1767   -10.1923     8.3535     7.5181     7.3476     7.2771
 1865.0000   132.1411   -10.2659     8.3535     7.8376     7.3245     7.1235
 1865.5000   131.7496   -10.3448     8.3535     7.3701     6.9822     6.7906
 1866.0000   130.7797   -10.3855     8.3535     6.9540     6.6559     6.4732
 1866.5000   130.2347   -10.2282     8.3535     6.6557     6.4687     6.3498
 1867.0000   132.1649   -10.0718     8.3535     6.5451     6.3909     6.2734
 1867.5000   134.8088    -9.9128     8.3535     6.4364     6.2990     6.2136
 1868.0000   137.4661    -9.7574     8.3535     6.3295     6.1852     6.1153
 1868.5000   138.0078    -9.5971     8.3535     6.2533     6.0734     6.0185
 1869.0000   134.7095    -9.4482     8.3535     6.2107     5.9338     5.9232
 1869.5000   131.0662    -9.3236     8.3535     6.1684     6.0426     5.8791
 1870.0000   129.0333    -9.2097     8.3535     6.3431     6.2527     6.0698
 1870.5000   129.3443    -9.1041     8.3535     6.6943     6.5106     6.2734
 1871.0000   131.7160    -8.9965     8.3535     6.4811     6.2607     6.0721
 1871.5000   134.6569    -8.8868     8.3535     5.9338     5.9681     5.7177
 1872.0000   135.9572    -8.8011     8.3535     6.1131     5.7710     5.9193
 1872.5000   135.6427    -8.8792     8.3535     6.7540     6.4430     6.3509
 1873.0000   133.4560    -8.9709     8.3535     7.4824     7.2771     6.8140
 1873.5000   131.2511    -9.0614     8.3535     7.4133     7.2771     7.2099
 1874.0000   129.5515    -9.1516     8.3535     7.6225     7.4133     7.2771
 1874.5000   130.5403    -9.2423     8.3535     7.4763     7.2993     7.1790
 1875.0000   132.2347    -9.3326     8.3535     7.2560     7.0540     6.9675
 1875.5000   132.7529    -9.4229     8.3535     6.9473     6.7566     6.7621
 1876.0000   130.9919    -9.5143     8.3535     7.0256     6.7833     6.6325
 1876.5000   124.8518    -9.5924     8.3535     7.1433     6.8760     6.6417
 1877.0000   118.7838    -9.5880     8.3535     7.0868     6.8643     6.6514
 1877.5000   116.8805    -9.5704     8.3535     7.0120     6.8409     6.6610
 1878.0000   118.5244    -9.5557     8.3535     7.0200     6.8185     6.6706
 1878.5000   121.7987    -9.5401     8.3535     7.0368     6.7957     6.6817
 1879.0000   124.0835    -9.5249     8.3535     7.0537     6.7542     6.6922
 1879.5000   123.1526    -9.5095     8.3535     7.0706     6.7590     6.6968
 1880.0000   120.9857    -9.4939     8.3535     7.2283     7.0423     6.9591
 1880.5000   118.3763    -9.4787     8.3535     7.6130     7.3408     7.2352
 1881.0000   117.4194    -9.4626     8.3535     7.9843     7.6273     7.5561
 1881.5000   121.0173    -9.4485     8.3535     7.8964     7.5680     7.4884
 1882.0000   127.9494    -9.4307     8.3535     7.7715     7.4475     7.2843
 1882.5000   126.1516    -9.4197     8.3535     7.5739     7.1515     6.9255
 1883.0000   120.5510    -9.3946     8.3535     7.2585     6.8131     6.5843
 1883.5000   118.5549    -9.4476     8.3535     7.0774     6.5664     6.2734
 1884.0000   118.9918    -9.5919     8.3535     7.3142     7.0374     6.7357
 1884.5000   120.5083    -9.7282     8.3535     8.3633     8.0559     7.6225
 1885.0000   120.0309    -9.8652     8.3535     7.9827     7.7195     7.4074
 1885.5000   121.7982   -10.0093     8.3535     7.4807     7.2617     7.0131
 1886.0000   126.5541   -10.1338     8.3535     6.9679     6.8196     6.5712
 1886.5000   128.1419   -10.3592     8.3535     7.0014     6.7730     6.6036
 1887.0000   127.4698   -10.6808     8.3535     7.0687     6.7258     6.6325
 1887.5000   129.8405   -10.9599     8.3535     7.1433     6.6584     6.5408
 1888.0000   134.2083   -11.2813     8.3535     6.9404     6.5917     6.4373
 1888.5000   136.6537   -11.4307     8.3535     6.6325     6.5106     6.3354
 1889.0000   136.4455   -11.3988     8.3535     6.6992     6.5428     6.2734
 1889.5000   136.6489   -11.2223     8.3535     6.8764     6.5989     6.4546
 1890.0000   138.2041   -11.0013     8.3535     7.0166     6.6556     6.5712
 1890.5000   139.0888   -10.7846     8.3535     7.0066     6.7127     6.4731
 1891.0000   138.2800   -10.5783     8.3535     7.0052     6.7703     6.3319
 1891.5000   137.4010   -10.3355     8.3535     7.1968     6.8196     6.5272
 1892.0000   137.1837   -10.1870     8.3535     7.5791     7.1776     6.8037
 1892.5000   138.0454   -10.2068     8.3535     8.0654     7.6935     7.1433
 1893.0000   138.8966   -10.1952     8.3535     7.8652     7.6239     7.1433
 1893.5000   139.7108   -10.2039     8.3535     7.5706     7.3453     6.9007
 1894.0000   140.7712   -10.1949     8.3535     7.2863     7.0769     6.6773
 1894.5000   140.6430   -10.2074     8.3535     7.0125     6.8183     6.4504
 1895.0000   136.0414   -10.1851     8.3535     6.9473     6.7566     6.4616
 1895.5000   133.1722   -10.3538     8.3535     6.9473     6.7566     6.4763
 1896.0000   133.3881   -10.6558     8.3535     6.9473     6.7566     6.4911
 1896.5000   137.0260   -10.9122     8.3535     6.9150     6.7046     6.5106
 1897.0000   139.1313   -11.1948     8.3535     6.7957     6.5933     6.4679
 1897.5000   138.6645   -11.4146     8.3535     6.6972     6.4837     6.4063
 1898.0000   138.6681   -11.5252     8.3535     6.6567     6.3760     6.3000
 1898.5000   136.8541   -11.6183     8.3535     6.4634     6.2144     6.1581
 1899.0000   132.6918   -11.7136     8.3535     5.9850     5.9891     5.8248
 1899.5000   127.0167   -11.8090     8.3535     4.7559     4.8423     4.4259
 1900.0000   122.8618   -11.9019     8.3535     4.7851     3.8729     3.3080
 1900.5000   122.0327   -11.9989     8.3535     4.8698     4.5103     4.1337
 1901.0000   126.9010   -12.0881     8.3535     6.1013     5.8791     5.2908
 1901.5000   131.5294   -12.1915     8.3535     6.0600     5.9338     5.8843
