~VERSION INFORMATION
 VERS.                2.0:   CWLS LOG ASCII STANDARD - VERSION 2.0
 WRAP.                 NO:   ONE LINE PER DEPTH STEP
~WELL INFORMATION
#MNEM.UNIT      DATA TYPE    INFORMATION
#----------   ------------   ------------------------------
 STRT.F           80.0000:   START DEPTH
 STOP.F          679.5000:   STOP DEPTH
 STEP.F            0.5000:   STEP LENGTH
 NULL.          -999.2500:   NO VALUE
 COMP. U S NAVY/INTEX OIL CO:   COMPANY
 WELL.      NPR 3 #23-S-2:   WELL
 FLD .        TEAPOT DOME:   FIELD
 LOC .       S2 T38N R78W:   LOCATION
 CNTY.            NATRONA:   COUNTY
 STAT.            WYOMING:   STATE
 CTRY. UNITED STATES OF AMERICA:   COUNTRY
 SRVC.       Schlumberger:   SERVICE COMPANY
 DATE.        16-JUL-1962:   LOGDATE
 API .       490250645000:   API NUMBER
~CURVE INFORMATION
#MNEM.UNIT       API CODE    CURVE DESCRIPTION
#----------   ------------   ------------------------------
 DEPT.F                  :   
 GR  .GAPI   30 310 01 00:   GAMMA RAY
 SPR .MV     05 010 01 00:   SPONTANEOUS POTENTIAL FROM RES.
 ILD .OHMM   05 120 46 00:   INDUCTION LOG DEEP
 CILD.MMHO   05 110 46 00:   CONDUCTIVITY INDUCTION LOG DEEP
 ASN .OHMM   05 041 16 00:   AMPLIFIED SHORT NORMAL 16"
~PARAMETER INFORMATION
#MNEM.UNIT          VALUE    DESCRIPTION
#----------   ------------   ------------------------------
 PD  .                 GL:   PERMANENT DATUM
 EPD .F              5126:   ELEVATION PERMANENT DATUM
 LMF .                 KB:   LOG MEASURED FROM
 DAPD.F                 5:   FEET ABOVE PERMANENT DATUM
 DMF .                 KB:   DRILLING MEASURED FROM
 EKB .F              5131:   KELLING BUSHING
 EGL .F              5126:   GROUND LEVEL
 DATE.            7-17-62:   RUN DATE
 RUN .                  1:   RUN NUMBER
 DD  .F               680:   DEPTH DRILLER
 DL  .F               680:   DEPTH LOGGER
 BLI .F               679:   BOTTOM LOG INTERVAL
 TLI .F                87:   TOP LOG INTERVAL
 BS  .IN             6.75:   BIT SIZE
 BSD .F               680:   BIT SIZE AT DEPTH
 DFT .       OIL EMULSION:   DRILLING FLUID TYPE
 DFD .                 10:   DRILLING FLUID DENSITY
 DFV .                 41:   DRILLING FLUID VISCOSITY
 DFL .                2.9:   DRILLING FLUID LOSS
 RMS .OHMM           5.86:   RESISTIVITY MUD SAMPLE
 MST .F                73:   MUD SAMPLE TEMPERATURE
 RMF .OHMM           4.19:   RESISTIVITY MUD FILTRATE SAMPLE
 MFST.F                73:   MUD FILTRATE SAMPLE TEMPERATURE
 RMC .OHMM           5.66:   RESISTIVITY MUD CAKE
 MCST.F                73:   MUD CAKE SAMPLE TEMPERATURE
 TCS .HRS               1:   TIME CURCULATED STOPPED
 LUN .               2503:   LOGGING UNIT NUMBER
 LUL .               CSPR:   LOGGING UNIT LOCATION
 ENGI.             DANNER:   RECORDING ENGINEER
 WITN.          JORGENSON:   WITNESSED BY
 CLNT.            A2DTECH:   CLIENT CODE
 ORIG.       2", 5" PRINT:   ORIGIN OF DATA
 UWI .       490250645000:   UNIQUE WELL ID
 DICO. A2D Technologies, Inc.:   DIGITIZING COMPANY
~OTHER INFORMATION
~A   DEPT       GR        SPR          ILD      CILD         ASN 
# ...
  202.0000  -999.2500   -36.5114     6.5161   149.6836     6.8840
  202.5000  -999.2500   -36.1154     6.4850   150.5036     6.8892
  203.0000  -999.2500   -36.1012     6.4539   151.0430     6.8489
  203.5000  -999.2500   -36.2178     6.4349   151.5070     6.8023
  204.0000  -999.2500   -36.3392     6.4178   152.1024     6.7547
  204.5000  -999.2500   -36.0908     6.4006   152.3429     6.7133
  205.0000  -999.2500   -35.6030     6.3832   151.7164     6.6921
  205.5000  -999.2500   -35.6131     6.3650   150.2930     6.6743
  206.0000  -999.2500   -35.4910     6.3553   148.4568     6.6968
  206.5000  -999.2500   -34.9820     6.5007   146.6221     6.7657
  207.0000  -999.2500   -34.4920     6.6465   144.7874     6.8687
  207.5000  -999.2500   -34.7497     6.7913   141.2692     7.0331
  208.0000  -999.2500   -35.4384     6.9359   137.4396     7.1958
  208.5000  -999.2500   -35.7785     7.0808   133.9459     7.3038
  209.0000  -999.2500   -35.7154     7.2254   131.6185     7.3732
  209.5000  -999.2500   -35.6527     7.2697   129.2920     7.4419
  210.0000  -999.2500   -35.7166     7.2936   127.5733     7.5097
  210.5000  -999.2500   -35.9502     7.3170   127.9053     7.5771
  211.0000  -999.2500   -35.7578     7.3415   128.2373     7.6229
  211.5000  -999.2500   -35.3805     7.2945   128.8467     7.6299
  212.0000  -999.2500   -35.0248     7.2054   130.5067     7.6190
  212.5000  -999.2500   -34.9705     7.1378   132.1667     7.5349
  213.0000  -999.2500   -34.9270     7.1053   133.8267     7.4423
  213.5000  -999.2500   -34.8827     7.0728   135.5000     7.3489
  214.0000  -999.2500   -34.8294     7.0407   138.6757     7.2556
  214.5000  -999.2500   -35.3159     7.0085   141.8771     7.1622
  215.0000  -999.2500   -36.0755     6.9765   144.5529     7.0689
  215.5000  -999.2500   -36.8017     6.9438   144.8665     7.0076
  216.0000  -999.2500   -36.0102     6.9133   145.1559     7.0388
  216.5000  -999.2500   -34.8479     6.8817   145.4515     7.0674
  217.0000  -999.2500   -34.8139     6.8520   143.6067     7.0450
  217.5000  -999.2500   -34.7237     6.9058   141.1000     7.0241
  218.0000  -999.2500   -34.2637     6.9652   138.3319     7.0439
  218.5000  -999.2500   -33.8446     7.0243   135.0638     7.1624
  219.0000  -999.2500   -34.0391     7.1355   131.7956     7.3547
  219.5000  -999.2500   -34.2518     7.2878   128.5275     7.5503
  220.0000  -999.2500   -34.4592     7.4408   125.2594     7.7461
  220.5000  -999.2500   -34.6164     7.5943   121.9912     7.9432
  221.0000  -999.2500   -34.5525     7.7464   118.5000     8.1413
  221.5000  -999.2500   -34.4933     7.8391   119.0800     8.2067
  222.0000  -999.2500   -34.4300     7.7899   119.8240     8.2683
  222.5000  -999.2500   -34.5715     7.7312   121.5000     8.2576
  223.0000  -999.2500   -34.7505     7.5788   124.6125     8.1062
  223.5000  -999.2500   -34.9298     7.4252   127.7250     7.9080
  224.0000  -999.2500   -35.1074     7.2718   131.0400     7.7088
  224.5000  -999.2500   -35.0687     7.1171   136.0200     7.5092
  225.0000  -999.2500   -34.6709     6.9563   141.5000     7.3035
  225.5000  -999.2500   -35.2501     6.8987   143.1291     7.2067
  226.0000  -999.2500   -36.0279     6.8502   144.9400     7.1134
  226.5000  -999.2500   -36.7734     6.8497   145.2133     7.0690
  227.0000  -999.2500   -36.3838     6.8501   144.7983     7.0294
  227.5000  -999.2500   -35.9428     6.8503   143.6385     7.0400
  228.0000  -999.2500   -35.4986     6.8885   140.5739     7.0862
  228.5000  -999.2500   -35.5482     6.9688   137.5092     7.2340
  229.0000  -999.2500   -35.7083     7.0490   134.4446     7.4299
  229.5000  -999.2500   -35.7181     7.1294   131.3800     7.6830
  230.0000  -999.2500   -35.4583     7.2098   128.5000     7.8681
  230.5000  -999.2500   -35.2021     7.2898   126.8500     7.6932
  231.0000  -999.2500   -34.9458     7.3594   125.2937     7.5814
  231.5000  -999.2500   -34.6930     7.3916   123.7375     7.9708
  232.0000  -999.2500   -34.4116     7.4248   123.5000     8.0212
  232.5000  -999.2500   -33.4455     7.4580   124.0818     7.8191
  233.0000  -999.2500   -33.3203     7.4913   124.9873     7.7671
  233.5000  -999.2500   -33.4359     7.5241   125.0453     7.7825
  234.0000  -999.2500   -33.8315     7.5517   123.9968     7.8924
  234.5000  -999.2500   -33.8281     7.5799   122.9484     8.0069
  235.0000  -999.2500   -33.8717     7.6093   121.9000     8.0091
  235.5000  -999.2500   -34.1449     7.6394   121.7200     8.0548
  236.0000  -999.2500   -34.4143     7.6132   122.0757     8.1094
  236.5000  -999.2500   -34.3681     7.5543   122.4314     8.0991
  237.0000  -999.2500   -34.3036     7.4951   123.9265     8.0508
  237.5000  -999.2500   -34.2312     7.4357   125.6936     8.0058
  238.0000  -999.2500   -34.5064     7.3764   127.4606     7.8945
  238.5000  -999.2500   -34.9493     7.3171   129.2277     7.7778
  239.0000  -999.2500   -35.8267     7.2576   130.9948     7.6617
  239.5000  -999.2500   -36.4201     7.1988   132.7619     7.5702
  240.0000  -999.2500   -36.3022     7.1456   133.8625     7.5206
  240.5000  -999.2500   -35.5427     7.1316   134.4850     7.4997
  241.0000  -999.2500   -34.7740     7.1161   135.1075     7.4863
  241.5000  -999.2500   -34.2419     7.1005   135.4387     7.4734
  242.0000  -999.2500   -34.4095     7.0849   135.2727     7.4508
  242.5000  -999.2500   -34.6178     7.0694   135.1067     7.4261
  243.0000  -999.2500   -34.4796     7.0536   134.9407     7.4112
  243.5000  -999.2500   -34.2816     7.0680   134.7747     7.4215
  244.0000  -999.2500   -34.0734     7.0994   134.6087     7.4352
  244.5000  -999.2500   -34.2095     7.1311   134.1560     7.4707
  245.0000  -999.2500   -34.4054     7.1630   133.1600     7.5066
  245.5000  -999.2500   -34.2623     7.1948   132.0800     7.5440
  246.0000  -999.2500   -34.2631     7.2266   130.8350     7.5906
  246.5000  -999.2500   -34.3106     7.2583   129.5900     7.6360
  247.0000  -999.2500   -34.3593     7.2902   128.4278     7.6818
  247.5000  -999.2500   -34.4161     7.3218   127.8481     7.7276
  248.0000  -999.2500   -33.6802     7.3503   127.2683     7.7429
  248.5000  -999.2500   -34.1924     7.3948   126.6886     7.7308
  249.0000  -999.2500   -34.2976     7.4437   126.1088     7.7690
  249.5000  -999.2500   -34.3676     7.4927   125.5291     7.8603
  250.0000  -999.2500   -34.4465     7.5416   124.9494     7.9598
  250.5000  -999.2500   -34.9227     7.5906   124.3697     8.0207
  251.0000  -999.2500   -35.3922     7.6395   123.7871     8.0419
  251.5000  -999.2500   -35.0396     7.6885   123.1340     8.1378
  252.0000  -999.2500   -34.4284     7.7374   122.4879     8.1604
  252.5000  -999.2500   -34.0613     7.7863   120.6667     8.1274
  253.0000  -999.2500   -34.1208     7.8358   119.0000     8.1472
  253.5000  -999.2500   -34.1848     7.8951   117.3333     8.3102
  254.0000  -999.2500   -34.3827     7.9597   115.5000     8.4930
  254.5000  -999.2500   -34.9847     8.0242   115.3448     8.5995
  255.0000  -999.2500   -35.5965     8.0888   115.1724     8.6798
  255.5000  -999.2500   -35.8172     8.1531   115.0000     8.7087
  256.0000  -999.2500   -35.5693     8.2174   114.8276     8.6879
  256.5000  -999.2500   -34.4213     8.2364   114.6552     8.6626
  257.0000  -999.2500   -33.4510     8.2104   114.5000     8.6363
  257.5000  -999.2500   -33.6970     8.1843   113.5833     8.6430
  258.0000  -999.2500   -33.9627     8.1548   112.7500     8.6608
  258.5000  -999.2500   -33.9002     8.2479   111.9167     8.7208
  259.0000  -999.2500   -33.7248     8.3857   111.0833     8.8355
  259.5000  -999.2500   -33.8235     8.5240   109.8889     9.0013
  260.0000  -999.2500   -34.2093     8.6549   107.8519     9.1639
  260.5000  -999.2500   -34.2300     8.7938   105.8148     9.3260
  261.0000  -999.2500   -34.2332     8.9261   103.7778     9.4886
  261.5000  -999.2500   -34.7321     9.0583   101.7407     9.6175
  262.0000  -999.2500   -36.1339     9.1932    99.5000     9.6975
  262.5000  -999.2500   -37.5946     9.3487    98.0000     9.7598
