~VERSION INFORMATION
 VERS.                2.0:   CWLS LOG ASCII STANDARD - VERSION 2.0
 WRAP.                 NO:   ONE LINE PER DEPTH STEP
~WELL INFORMATION
#MNEM.UNIT      DATA TYPE    INFORMATION
#----------   ------------   ------------------------------
 STRT.F           36.0000:   START DEPTH
 STOP.F         2324.5000:   STOP DEPTH
 STEP.F            0.5000:   STEP LENGTH
 NULL.          -999.2500:   NO VALUE
 COMP. FENIX & SCISSON INC:   COMPANY
 WELL.           SX #57-3:   WELL
 FLD .             TEAPOT:   FIELD
 LOC .       S3 T38N R78W:   LOCATION
 CNTY.            NATRONA:   COUNTY
 STAT.            WYOMING:   STATE
 CTRY. UNITED STATES OF AMERICA:   COUNTRY
 SRVC.           BIRDWELL:   SERVICE COMPANY
 DATE.        15-JUN-1978:   LOGDATE
 API .       490251028800:   API NUMBER
~CURVE INFORMATION
#MNEM.UNIT       API CODE    CURVE DESCRIPTION
#----------   ------------   ------------------------------
 DEPT.F                  :   
 CALD.IN     45 280 60 00:   CALIPER FROM DENSITY LOG
 GRD .GAPI   45 310 01 00:   GAMMA RAY FROM DENSITY LOG
 CORR.G/C3   45 356 01 00:   DENSITY CORRECTION
 RHOB.G/C3   45 350 01 00:   BULK DENSITY
 DPHI.DEC    45 890 12 00:   DENSITY POROSITY SANDSTONE
 SPR .MV     07 010 01 00:   SPONTANEOUS POTENTIAL
 ILD .OHMM   07 120 46 00:   INDUCTION LOG DEEP
 ILM .OHMM   07 120 44 00:   INDUCTION LOG MEDIUM
 SGRD.OHMM   07 220 05 00:   SHALLOW GUARD RESISTIVITY
~PARAMETER INFORMATION
#MNEM.UNIT          VALUE    DESCRIPTION
#----------   ------------   ------------------------------
 PD  .                 GL:   PERMANENT DATUM
 EPD .F              5184:   ELEVATION PERMANENT DATUM
 LMF .                 KB:   LOG MEASURED FROM
 DAPD.F                10:   FEET ABOVE PERMANENT DATUM
 DMF .                 KB:   DRILLING MEASURED FROM
 EKB .F              5184:   KELLING BUSHING
 EGL .F              5184:   GROUND LEVEL
 DATE.            6-15-78:   RUN DATE
 RUN .                  1:   RUN NUMBER
 DD  .F              2340:   DEPTH DRILLER
 DL  .F              2324:   DEPTH LOGGER
 BLI .F              2324:   BOTTOM LOG INTERVAL
 TLI .F                50:   TOP LOG INTERVAL
 CS  .IN            9.625:   CASING SIZE
 CBD .F               600:   CASING BOTTOM DRILLER
 CBL .F               601:   CASING BOTTOM LOGGER
 BS  .IN             8.75:   BIT SIZE
 BSD .F              2340:   BIT SIZE AT DEPTH
 DFT .           AIR MIST:   DRILLING FLUID TYPE
 BHT .F                68:   BOTTOM HOLE TEMPERATURE
 MRT .F                68:   MAXIMUM RECORDED TEMPERATURE
 LUN .               2958:   LOGGING UNIT NUMBER
 LUL .               CASP:   LOGGING UNIT LOCATION
 ENGI.           REYNOLDS:   RECORDING ENGINEER
 WITN.           MCGINLEY:   WITNESSED BY
 CLNT.            A2DTECH:   CLIENT CODE
 ORIG.   2" 2.5" 5" PRINT:   ORIGIN OF DATA
 UWI .       490251028800:   UNIQUE WELL ID
 DICO. A2D Technologies, Inc.:   DIGITIZING COMPANY
~OTHER INFORMATION
~A   DEPT       CALD      GRD        CORR      RHOB         DPHI      SPR        ILD        ILM       SGRD   
# ...
 1861.0000     8.4614   173.7993     0.0149     2.4777     0.0451  -999.2500  -999.2500  -999.2500  -999.2500
 1861.5000     8.4388   176.2347     0.0119     2.4790     0.0417  -999.2500  -999.2500  -999.2500  -999.2500
 1862.0000     8.4195   171.7034     0.0088     2.4856     0.0424  -999.2500  -999.2500  -999.2500  -999.2500
 1862.5000     8.4004   171.8602     0.0083     2.4883     0.0437  -999.2500  -999.2500  -999.2500  -999.2500
 1863.0000     8.3802   172.6837     0.0091     2.4821     0.0450  -999.2500  -999.2500  -999.2500  -999.2500
 1863.5000     8.3609   173.2090     0.0099     2.4841     0.0463  -999.2500  -999.2500  -999.2500  -999.2500
 1864.0000     8.3416   171.7631     0.0106     2.4818     0.0474  -999.2500  -999.2500  -999.2500  -999.2500
 1864.5000     8.3202   169.7272     0.0113     2.4777     0.0466  -999.2500  -999.2500  -999.2500  -999.2500
 1865.0000     8.3211   171.2069     0.0120     2.4792     0.0459  -999.2500  -999.2500  -999.2500  -999.2500
 1865.5000     8.3357   181.6739     0.0127     2.4811     0.0451  -999.2500  -999.2500  -999.2500  -999.2500
 1866.0000     8.3513   179.8331     0.0135     2.4830     0.0488  -999.2500  -999.2500  -999.2500  -999.2500
 1866.5000     8.3333   172.1569     0.0142     2.4793     0.0538  -999.2500  -999.2500  -999.2500  -999.2500
 1867.0000     8.3093   177.8069     0.0149     2.4750     0.0517  -999.2500  -999.2500  -999.2500  -999.2500
 1867.5000     8.2838   181.0376     0.0156     2.4719     0.0491  -999.2500  -999.2500  -999.2500  -999.2500
 1868.0000     8.2601   181.1840     0.0163     2.4742     0.0466  -999.2500  -999.2500  -999.2500  -999.2500
 1868.5000     8.2366   180.5200     0.0171     2.4764     0.0459  -999.2500  -999.2500  -999.2500  -999.2500
 1869.0000     8.2355   179.1243     0.0178     2.4786     0.0453  -999.2500  -999.2500  -999.2500  -999.2500
 1869.5000     8.2350   174.6153     0.0185     2.4809     0.0438  -999.2500  -999.2500  -999.2500  -999.2500
 1870.0000     8.2354   172.4648     0.0192     2.4831     0.0418  -999.2500  -999.2500  -999.2500  -999.2500
 1870.5000     8.2353   173.4298     0.0195     2.4853     0.0411  -999.2500  -999.2500  -999.2500  -999.2500
 1871.0000     8.2352   174.8277     0.0184     2.4876     0.0419  -999.2500  -999.2500  -999.2500  -999.2500
 1871.5000     8.2352   176.2397     0.0173     2.4899     0.0429  -999.2500  -999.2500  -999.2500  -999.2500
 1872.0000     8.2354   177.8147     0.0162     2.4899     0.0399  -999.2500  -999.2500  -999.2500  -999.2500
 1872.5000     8.2347   180.2022     0.0151     2.4857     0.0332  -999.2500  -999.2500  -999.2500  -999.2500
 1873.0000     8.2400   183.4199     0.0140     2.4913     0.0332  -999.2500  -999.2500  -999.2500  -999.2500
 1873.5000     8.2500   185.1682     0.0130     2.5004     0.0348  -999.2500  -999.2500  -999.2500  -999.2500
 1874.0000     8.2578   182.7516     0.0118     2.4990     0.0360  -999.2500  -999.2500  -999.2500  -999.2500
 1874.5000     8.2678   179.2246     0.0108     2.4969     0.0373  -999.2500  -999.2500  -999.2500  -999.2500
 1875.0000     8.2785   175.8775     0.0097     2.4962     0.0385  -999.2500  -999.2500  -999.2500  -999.2500
 1875.5000     8.3282   172.4821     0.0085     2.4955     0.0395  -999.2500  -999.2500  -999.2500  -999.2500
 1876.0000     8.3690   171.1146     0.0078     2.4929     0.0466  -999.2500  -999.2500  -999.2500  -999.2500
 1876.5000     8.4159   174.7797     0.0079     2.4873     0.0474  -999.2500  -999.2500  -999.2500  -999.2500
 1877.0000     8.4256   179.4456     0.0079     2.4814     0.0469  -999.2500  -999.2500  -999.2500  -999.2500
 1877.5000     8.4102   183.9411     0.0079     2.4796     0.0459  -999.2500  -999.2500  -999.2500  -999.2500
 1878.0000     8.3972   185.9212     0.0079     2.4806     0.0502  -999.2500  -999.2500  -999.2500  -999.2500
 1878.5000     8.3845   179.9263     0.0079     2.4805     0.0538  -999.2500  -999.2500  -999.2500  -999.2500
 1879.0000     8.3719   179.2310     0.0079     2.4716     0.0559  -999.2500  -999.2500  -999.2500  -999.2500
 1879.5000     8.3560   179.2894     0.0079     2.4663     0.0553  -999.2500  -999.2500  -999.2500  -999.2500
 1880.0000     8.3706   179.4446     0.0079     2.4660     0.0578  -999.2500  -999.2500  -999.2500  -999.2500
 1880.5000     8.4058   178.2782     0.0084     2.4601     0.0593  -999.2500  -999.2500  -999.2500  -999.2500
 1881.0000     8.4295   177.2380     0.0088     2.4583     0.0574  -999.2500  -999.2500  -999.2500  -999.2500
 1881.5000     8.4107   176.6492     0.0093     2.4619     0.0558  -999.2500  -999.2500  -999.2500  -999.2500
 1882.0000     8.3961   177.2711     0.0098     2.4625     0.0602  -999.2500  -999.2500  -999.2500  -999.2500
 1882.5000     8.3788   182.0373     0.0102     2.4592     0.0632  -999.2500  -999.2500  -999.2500  -999.2500
 1883.0000     8.3629   181.1869     0.0107     2.4563     0.0623  -999.2500  -999.2500  -999.2500  -999.2500
 1883.5000     8.3462   179.1303     0.0112     2.4537     0.0609  -999.2500  -999.2500  -999.2500  -999.2500
 1884.0000     8.3303   176.9093     0.0116     2.4556     0.0551  -999.2500  -999.2500  -999.2500  -999.2500
 1884.5000     8.3150   176.3531     0.0121     2.4570     0.0501  -999.2500  -999.2500  -999.2500  -999.2500
 1885.0000     8.3229   175.5682     0.0126     2.4638     0.0466  -999.2500  -999.2500  -999.2500  -999.2500
 1885.5000     8.3313   174.9022     0.0130     2.4737     0.0464  -999.2500  -999.2500  -999.2500  -999.2500
 1886.0000     8.3403   174.5001     0.0135     2.4801     0.0461  -999.2500  -999.2500  -999.2500  -999.2500
 1886.5000     8.3500   171.2013     0.0140     2.4805     0.0459  -999.2500  -999.2500  -999.2500  -999.2500
 1887.0000     8.3474   172.8542     0.0144     2.4818     0.0435  -999.2500  -999.2500  -999.2500  -999.2500
 1887.5000     8.3351   175.8824     0.0149     2.4829     0.0427  -999.2500  -999.2500  -999.2500  -999.2500
 1888.0000     8.3247   178.3564     0.0154     2.4836     0.0419  -999.2500  -999.2500  -999.2500  -999.2500
 1888.5000     8.3152   177.5433     0.0158     2.4850     0.0410  -999.2500  -999.2500  -999.2500  -999.2500
 1889.0000     8.3308   175.7361     0.0153     2.4864     0.0402  -999.2500  -999.2500  -999.2500  -999.2500
 1889.5000     8.3445   174.8529     0.0149     2.4877     0.0393  -999.2500  -999.2500  -999.2500  -999.2500
 1890.0000     8.3744   179.0681     0.0144     2.4891     0.0387  -999.2500  -999.2500  -999.2500  -999.2500
 1890.5000     8.4168   183.1629     0.0140     2.4904     0.0387  -999.2500  -999.2500  -999.2500  -999.2500
 1891.0000     8.4327   186.8925     0.0135     2.4919     0.0401  -999.2500  -999.2500  -999.2500  -999.2500
 1891.5000     8.4310   185.6158     0.0131     2.4930     0.0452  -999.2500  -999.2500  -999.2500  -999.2500
 1892.0000     8.4316   181.5099     0.0126     2.4867     0.0502  -999.2500  -999.2500  -999.2500  -999.2500
 1892.5000     8.4314   179.3131     0.0122     2.4719     0.0530  -999.2500  -999.2500  -999.2500  -999.2500
 1893.0000     8.4303   180.1524     0.0117     2.4697     0.0524  -999.2500  -999.2500  -999.2500  -999.2500
 1893.5000     8.4180   180.5692     0.0113     2.4692     0.0516  -999.2500  -999.2500  -999.2500  -999.2500
 1894.0000     8.4076   180.9336     0.0109     2.4695     0.0507  -999.2500  -999.2500  -999.2500  -999.2500
 1894.5000     8.3964   175.9107     0.0104     2.4715     0.0499  -999.2500  -999.2500  -999.2500  -999.2500
 1895.0000     8.3858   170.7522     0.0099     2.4733     0.0490  -999.2500  -999.2500  -999.2500  -999.2500
 1895.5000     8.3744   172.0577     0.0095     2.4733     0.0482  -999.2500  -999.2500  -999.2500  -999.2500
 1896.0000     8.3640   176.3429     0.0091     2.4732     0.0492  -999.2500  -999.2500  -999.2500  -999.2500
 1896.5000     8.3550   174.9964     0.0086     2.4726     0.0502  -999.2500  -999.2500  -999.2500  -999.2500
 1897.0000     8.3725   174.8737     0.0081     2.4722     0.0514  -999.2500  -999.2500  -999.2500  -999.2500
