~VERSION INFORMATION
 VERS.                2.0:   CWLS LOG ASCII STANDARD - VERSION 2.0
 WRAP.                 NO:   ONE LINE PER DEPTH STEP
~WELL INFORMATION
#MNEM.UNIT      DATA TYPE    INFORMATION
#----------   ------------   ------------------------------
 STRT.F           28.5000:   START DEPTH
 STOP.F          625.0000:   STOP DEPTH
 STEP.F            0.5000:   STEP LENGTH
 NULL.          -999.2500:   NO VALUE
 COMP. FENIX & SCISSON INC:   COMPANY
 WELL.    NPR ##3 13-SX-3:   WELL
 FLD .             TEAPOT:   FIELD
 LOC .       S3 T38N R78W:   LOCATION
 CNTY.            NATRONA:   COUNTY
 STAT.            WYOMING:   STATE
 CTRY. UNITED STATES OF AMERICA:   COUNTRY
 SRVC.       Schlumberger:   SERVICE COMPANY
 DATE.        25-FEB-1977:   LOGDATE
 API .       490251028400:   API NUMBER
~CURVE INFORMATION
#MNEM.UNIT       API CODE    CURVE DESCRIPTION
#----------   ------------   ------------------------------
 DEPT.F                  :   
 SPR .MV     07 010 01 00:   SPONTANEOUS POTENTIAL
 ILD .OHMM   07 120 46 00:   INDUCTION LOG DEEP
 LL8 .OHMM   07 220 08 00:   LATEROLOG-8 RES.
 ILM .OHMM   07 120 44 00:   INDUCTION LOG MEDIUM
 GRD .GAPI   45 310 01 00:   GAMMA RAY FROM DENSITY LOG
 CALD.IN     45 280 60 00:   CALIPER
 RHOB.G/C3   45 350 01 00:   BULK DENSITY
 CORR.G/C3   45 356 01 00:   DENSITY CORRECTION
 DPOR.DEC    45 890 12 00:   DENSITY POROSITY SANDSTONE
~PARAMETER INFORMATION
#MNEM.UNIT          VALUE    DESCRIPTION
#----------   ------------   ------------------------------
 PD  .                 GL:   PERMANENT DATUM
 EPD .F              5227:   ELEVATION PERMANENT DATUM
 LMF .                 GL:   LOG MEASURED FROM
 DMF .                 GL:   DRILLING MEASURED FROM
 EKB .F              5232:   KELLING BUSHING
 EGL .F              5227:   GROUND LEVEL
 DATE.          2-25-1977:   RUN DATE
 RUN .                  1:   RUN NUMBER
 DD  .F               629:   DEPTH DRILLER
 DL  .F               626:   DEPTH LOGGER
 BLI .F               620:   BOTTOM LOG INTERVAL
 TLI .F                40:   TOP LOG INTERVAL
 CS  .IN            8.625:   CASING SIZE
 CBD .F                40:   CASING BOTTOM DRILLER
 CBL .F                40:   CASING BOTTOM LOGGER
 BS  .IN            7.875:   BIT SIZE
 BSD .F               629:   BIT SIZE AT DEPTH
 DFT .                KCL:   DRILLING FLUID TYPE
 DFD .                8.8:   DRILLING FLUID DENSITY
 DFV .                 45:   DRILLING FLUID VISCOSITY
 DFPH.                  8:   DRILLING FLUID PH
 DFL .                8.2:   DRILLING FLUID LOSS
 MSS .                PIT:   MUD SAMPLE SOURCE
 RMS .OHMM           .508:   RESISTIVITY MUD SAMPLE
 MST .F                60:   MUD SAMPLE TEMPERATURE
 RMF .OHMM           .419:   RESISTIVITY MUD FILTRATE SAMPLE
 MFST.F                58:   MUD FILTRATE SAMPLE TEMPERATURE
 MFSS.                  M:   MUD FILTRATE SAMPLE SOURCE
 RMB .OHMM            .41:   RESISTIVITY MUD AT BHT
 BHT .F                75:   BOTTOM HOLE TEMPERATURE
 TCS .HRS            1700:   TIME CURCULATED STOPPED
 TLAB.HRS            2130:   TIME LOGGER AT BOTTOM
 MRT .F                75:   MAXIMUM RECORDED TEMPERATURE
 LUN .               5642:   LOGGING UNIT NUMBER
 LUL .               CSPR:   LOGGING UNIT LOCATION
 ENGI.             MARTIN:   RECORDING ENGINEER
 CLNT.            A2DTECH:   CLIENT CODE
 ORIG.       2", 5" PRINT:   ORIGIN OF DATA
 UWI .       490251028400:   UNIQUE WELL ID
 DICO. A2D Technologies, Inc.:   DIGITIZING COMPANY
~OTHER INFORMATION
~A   DEPT      SPR        ILD        LL8        ILM         GRD      CALD         RHOB     CORR       DPOR   
# ...
  101.5000  -118.3988     8.0449  1579.8663     7.3589   128.2853     8.2670     2.4232     0.0045     0.1406
  102.0000  -117.5101     7.9671  1579.8663     7.1325   129.4415     8.2823     2.4312     0.0085     0.1348
  102.5000  -116.5244     7.8946  1579.8663     7.1325   130.6427     8.2975     2.4391     0.0056     0.1318
  103.0000  -116.0950     8.0094  1579.8663     7.2656   130.3742     8.2905     2.4441     0.0078     0.1288
  103.5000  -116.5615     8.1477  1579.8663     7.3776   129.6262     8.2612     2.4365     0.0122     0.1274
  104.0000  -117.0321     8.2936  1579.8663     7.5349   127.0254     8.2320     2.4252     0.0019     0.1341
  104.5000  -117.5704     8.4422  1579.8663     7.6953   123.2859     8.2055     2.4129    -0.0040     0.1481
  105.0000  -115.0844     8.5934  1579.8663     7.8624   117.8862     8.1988     2.4009     0.0002     0.1565
  105.5000  -111.6473     8.7472  1579.8663     8.0445   112.3954     8.1927     2.3949     0.0152     0.1522
  106.0000  -108.2234     8.9039  1579.8663     8.0436   109.8604     8.1866     2.4101     0.0132     0.1451
  106.5000  -108.5388     9.0710  1579.8663     8.2371   110.6726     8.1805     2.4219     0.0097     0.1381
  107.0000  -108.1627     9.1112  1579.8663     8.3420   111.3733     8.1744     2.4337     0.0156     0.1318
  107.5000  -105.3224     9.1536  1579.8663     8.4483   111.9269     8.1683     2.4446     0.0162     0.1266
  108.0000  -101.3687     9.1962  1579.8663     8.5559   110.8912     8.1622     2.4582     0.0149     0.1235
  108.5000   -99.9966     9.2390  1579.9783     8.6612   109.8780     8.1561     2.4694     0.0189     0.1176
  109.0000   -99.5595     9.2820  1580.8248     8.6612   108.4688     8.1500     2.4811     0.0227     0.1118
  109.5000   -98.2310     9.3262  1581.5444     8.6612   106.6552     8.1469     2.4768     0.0143     0.1140
  110.0000   -96.8475     9.2425  1569.5634     8.6332   104.8796     8.1519     2.4698     0.0046     0.1165
  110.5000   -94.3040     9.1356  1294.9797     8.6046   103.7053     8.1566     2.4634    -0.0094     0.1191
  111.0000   -91.7896     9.0331   794.4823     8.5024   106.7378     8.1614     2.4719    -0.0034     0.1168
  111.5000   -90.4222     8.9828  2043.5868     8.2721   109.1489     8.1661     2.4896     0.0096     0.1102
  112.0000   -89.3373     9.0741  2015.9764     8.0424   111.5552     8.1709     2.5192     0.0203     0.1130
  112.5000   -89.0485     9.0433  2031.0802     8.1555   112.8962     8.1757     2.4737     0.0045     0.1186
  113.0000   -88.8911     9.0231  2009.2688     8.4253   112.8419     8.1805     2.4542     0.0076     0.1230
  113.5000   -88.7119     9.0033  2009.2688     8.4268   112.5918     8.1853     2.4438    -0.0032     0.1238
  114.0000   -88.5327     8.9875  2009.2688     8.4242   112.9811     8.1729     2.4353     0.0057     0.1313
  114.5000   -88.3550     8.9875  1972.4496     8.2658   113.7897     8.1586     2.4501     0.0251     0.1264
  115.0000   -88.1730     8.9057   806.1751     8.1673   114.5992     8.1442     2.4650     0.0444     0.1216
  115.5000   -88.3207     8.8064   192.1717     8.0701   115.3929     8.1298     2.4597     0.0333     0.1223
  116.0000   -88.6335     8.7083    45.6563     7.9740   115.6663     8.1162     2.4529     0.0188     0.1230
  116.5000   -87.9913     8.6113    11.4291     7.8790   114.4407     8.1218     2.4459     0.0062     0.1237
  117.0000   -86.7224     8.5153     8.8412     7.7852   113.2519     8.1835     2.4511     0.0087     0.1232
  117.5000   -85.2051     8.4242     8.0754     7.7515   112.0326     8.2264     2.4575     0.0112     0.1199
  118.0000   -83.6614     8.4242     8.0643     7.8172   112.3907     8.2248     2.4656     0.0137     0.1175
  118.5000   -82.8950     8.4213     8.0126     7.8632   111.0677     8.2242     2.4744     0.0123     0.1154
  119.0000   -82.5068     8.5063     7.9737     7.9095   109.3153     8.2236     2.4707     0.0070     0.1154
  119.5000   -84.2442     8.4992     7.9345     7.9560   107.4584     8.2230     2.4716     0.0017     0.1154
  120.0000   -86.9513     8.5030     7.8954     8.0029   105.6907     8.2224     2.4714    -0.0028     0.1184
  120.5000   -92.1318     8.5024     7.8564     8.0500   105.1897     8.2218     2.4587     0.0009     0.1227
  121.0000   -92.8780     8.5025     7.8176     8.0974   107.6459     8.2212     2.4469     0.0044     0.1258
  121.5000   -93.6534     8.5025     7.7795     8.1450   108.7480     8.2206     2.4511     0.0052     0.1214
  122.0000   -94.4288     8.5013     7.7515     8.1930   108.7436     8.2201     2.4483    -0.0017     0.1290
  122.5000   -95.2083     8.5327     7.8738     8.2412   109.8726     8.2195     2.4565     0.0016     0.1249
  123.0000   -95.9782     8.5763     7.9712     8.2897   112.2277     8.2189     2.4672     0.0057     0.1170
  123.5000   -96.2220     8.6207     8.0698     8.3385   114.5725     8.2183     2.4613     0.0099     0.1193
  124.0000   -96.3894     8.6653     8.1696     8.3876   114.8241     8.2177     2.4556     0.0097     0.1234
  124.5000   -96.5631     8.7101     8.2710     8.4370   114.3710     8.2171     2.4550     0.0079     0.1214
  125.0000   -96.7485     8.7651     8.3728     8.4867   113.8880     8.2165     2.4638     0.0061     0.1187
  125.5000   -97.0924     8.8442     8.4242     8.5366   113.4074     8.2159     2.4721     0.0043     0.1138
  126.0000   -97.0290     8.9241     8.2978     8.6612   112.4451     8.2153     2.4769     0.0030     0.1180
  126.5000   -96.3906     9.0046     8.1923     8.7249   110.9985     8.2147     2.4546     0.0033     0.1245
  127.0000   -95.4594     9.0860     8.2532     8.7956   109.5615     8.2142     2.4468     0.0036     0.1248
  127.5000   -94.9636     9.1675     8.3725     8.8669   108.1211     8.2136     2.4558     0.0038     0.1198
  128.0000   -94.5162     9.2412     8.4933     8.9395   107.6650     8.2130     2.4591     0.0008     0.1253
  128.5000   -94.9667     9.2596     8.6154     8.9883   109.4300     8.2124     2.4563    -0.0057     0.1230
  129.0000   -95.3920     9.2807     8.7394     8.9878   110.5818     8.2118     2.4634    -0.0031     0.1182
  129.5000   -95.0756     9.3018     8.8228     8.9875   111.2639     8.2112     2.4695     0.0003     0.1150
  130.0000   -94.5295     9.3228     8.5814     8.9875   111.9449     8.2106     2.4632     0.0037     0.1204
  130.5000   -94.5577     9.3440     8.6042     8.9875   112.6313     8.2100     2.4550     0.0070     0.1249
  131.0000   -95.0515     9.3652     8.6350     8.9874   113.3734     8.2094     2.4478     0.0102     0.1233
  131.5000   -95.5520     9.3866     8.6612     8.9874   112.1869     8.2088     2.4520     0.0069     0.1215
  132.0000   -96.0522     9.4096     8.6612     8.9883   110.4146     8.2083     2.4561    -0.0018     0.1196
  132.5000   -96.4863     9.5243     8.6968     8.9875   111.7941     8.2077     2.4602     0.0022     0.1178
  133.0000   -96.3022     9.7274     8.9240     9.1930   114.3113     8.2071     2.4642     0.0061     0.1160
  133.5000   -96.0807     9.9143     9.1572     9.3473   116.8658     8.2065     2.4680     0.0100     0.1141
  134.0000   -96.2294    10.0690     9.3964     9.5042   117.6154     8.2059     2.4967     0.0141     0.1123
  134.5000   -96.5029    10.2260     9.5460     9.6637   116.5576     8.2053     2.4886     0.0094     0.1118
  135.0000   -96.6293    10.3962     9.6690     9.8258   115.4999     8.2047     2.4752     0.0012     0.1134
  135.5000   -96.4526    10.5872     9.7936     9.9907   114.4320     8.2041     2.4657     0.0006     0.1158
  136.0000   -95.7188    10.7817     9.9198    10.1584   113.3638     8.2035     2.4736     0.0114     0.1182
  136.5000   -95.5132    10.9797    10.0477    10.3288   112.2603     8.2029     2.4717     0.0140     0.1150
  137.0000   -95.0953    11.1814    10.1772    10.5022   112.2600     8.2023     2.4661     0.0090     0.1168
  137.5000   -94.7047    11.3869    10.2298    10.6784   112.4993     8.2018     2.4676     0.0094     0.1198
