~VERSION INFORMATION
 VERS.                2.0:   CWLS LOG ASCII STANDARD - VERSION 2.0
 WRAP.                 NO:   ONE LINE PER DEPTH STEP
~WELL INFORMATION
#MNEM.UNIT      DATA TYPE    INFORMATION
#----------   ------------   ------------------------------
 STRT.F           30.0000:   START DEPTH
 STOP.F         2432.5000:   STOP DEPTH
 STEP.F            0.5000:   STEP LENGTH
 NULL.          -999.2500:   NO VALUE
 COMP. FENIX & SCISSON INC:   COMPANY
 WELL.     72 SHX 4 #72-4:   WELL
 FLD .             TEAPOT:   FIELD
 LOC .       S4 T38N R78W:   LOCATION
 CNTY.            NATRONA:   COUNTY
 STAT.            WYOMING:   STATE
 CTRY. UNITED STATES OF AMERICA:   COUNTRY
 SRVC.           BIRDWELL:   SERVICE COMPANY
 DATE.        05-MAR-1979:   LOGDATE
 API .       490251074300:   API NUMBER
~CURVE INFORMATION
#MNEM.UNIT       API CODE    CURVE DESCRIPTION
#----------   ------------   ------------------------------
 DEPT.F                  :   
 SPR .MV     05 010 01 00:   SPONTANEOUS POTENTIAL FROM RES.
 SN  .OHMM   05 040 16 00:   SHORT NORMAL 16"
 ILD .OHMM   05 120 46 00:   INDUCTION LOG DEEP
 CALD.IN     45 280 60 00:   CALIPER
 GRD .GAPI   45 310 01 00:   GAMMA RAY FROM DENSITY LOG
 RHOB.G/C3   45 350 01 00:   BULK DENSITY
 CORR.G/C3   45 356 01 00:   DENSITY CORRECTION
 DPHI.DEC    45 890 12 00:   DENSITY POROSITY SANDSTONE
~PARAMETER INFORMATION
#MNEM.UNIT          VALUE    DESCRIPTION
#----------   ------------   ------------------------------
 PD  .                 GL:   PERMANENT DATUM
 EPD .F              5194:   ELEVATION PERMANENT DATUM
 LMF .                 KB:   LOG MEASURED FROM
 DAPD.F                10:   FEET ABOVE PERMANENT DATUM
 DMF .                 KB:   DRILLING MEASURED FROM
 EKB .F              5204:   KELLING BUSHING
 EGL .F              5194:   GROUND LEVEL
 DATE.             3-5-79:   RUN DATE
 RUN .                  1:   RUN NUMBER
 DD  .F              2560:   DEPTH DRILLER
 DL  .F              2432:   DEPTH LOGGER
 BLI .F              2432:   BOTTOM LOG INTERVAL
 TLI .F               400:   TOP LOG INTERVAL
 CS  .IN            9.625:   CASING SIZE
 CBD .F               685:   CASING BOTTOM DRILLER
 CBL .F               685:   CASING BOTTOM LOGGER
 BS  .IN             8.75:   BIT SIZE
 BSD .F              2560:   BIT SIZE AT DEPTH
 DFT .                AIR:   DRILLING FLUID TYPE
 TCS .HRS               5:   TIME CURCULATED STOPPED
 LUN .               3006:   LOGGING UNIT NUMBER
 LUL .             CASPER:   LOGGING UNIT LOCATION
 ENGI.         B. ROLLINS:   RECORDING ENGINEER
 WITN.           DINSMORE:   WITNESSED BY
 CLNT.            A2DTECH:   CLIENT CODE
 ORIG.           5" PRINT:   ORIGIN OF DATA
 UWI .       490251074300:   UNIQUE WELL ID
 DICO. A2D Technologies, Inc.:   DIGITIZING COMPANY
~OTHER INFORMATION
~A   DEPT      SPR         SN        ILD        CALD       GRD       RHOB         CORR      DPHI  
# ...
 2055.0000  -999.2500  -999.2500  -999.2500     8.8324   103.3434     2.5018     0.0388     0.0247
 2055.5000  -999.2500  -999.2500  -999.2500     8.8307   106.3212     2.5052     0.0512     0.0197
 2056.0000  -999.2500  -999.2500  -999.2500     8.8290   108.6539     2.5128     0.0636     0.0147
 2056.5000  -999.2500  -999.2500  -999.2500     8.8274   108.1850     2.5203     0.0759     0.0097
 2057.0000  -999.2500  -999.2500  -999.2500     8.8257   106.3666     2.5278     0.0827     0.0047
 2057.5000  -999.2500  -999.2500  -999.2500     8.8241   104.0189     2.5353     0.0836     0.0000
 2058.0000  -999.2500  -999.2500  -999.2500     8.8224   101.6120     2.5368     0.0834     0.0012
 2058.5000  -999.2500  -999.2500  -999.2500     8.8207   101.0419     2.5361     0.0787     0.0042
 2059.0000  -999.2500  -999.2500  -999.2500     8.8190   101.8328     2.5327     0.0741     0.0072
 2059.5000  -999.2500  -999.2500  -999.2500     8.8193   103.0646     2.5293     0.0700     0.0103
 2060.0000  -999.2500  -999.2500  -999.2500     8.8327   104.3296     2.5259     0.0699     0.0121
 2060.5000  -999.2500  -999.2500  -999.2500     8.8462   104.7411     2.5226     0.0698     0.0132
 2061.0000  -999.2500  -999.2500  -999.2500     8.8596   102.8986     2.5225     0.0696     0.0144
 2061.5000  -999.2500  -999.2500  -999.2500     8.8730   100.9960     2.5226     0.0694     0.0156
 2062.0000  -999.2500  -999.2500  -999.2500     8.8865    99.1148     2.5236     0.0692     0.0122
 2062.5000  -999.2500  -999.2500  -999.2500     8.8999    97.6808     2.5267     0.0690     0.0095
 2063.0000  -999.2500  -999.2500  -999.2500     8.9133    98.3907     2.5286     0.0688     0.0111
 2063.5000  -999.2500  -999.2500  -999.2500     8.9111    97.2883     2.5285     0.0686     0.0101
 2064.0000  -999.2500  -999.2500  -999.2500     8.8969    94.0223     2.5307     0.0685     0.0069
 2064.5000  -999.2500  -999.2500  -999.2500     8.8826    92.5613     2.5337     0.0683     0.0037
 2065.0000  -999.2500  -999.2500  -999.2500     8.8684    94.7787     2.5359     0.0673     0.0012
 2065.5000  -999.2500  -999.2500  -999.2500     8.8614    97.3623     2.5365     0.0630     0.0039
 2066.0000  -999.2500  -999.2500  -999.2500     8.8803    97.7315     2.5321     0.0524     0.0145
 2066.5000  -999.2500  -999.2500  -999.2500     8.8983    97.9435     2.5179     0.0412     0.0251
 2067.0000  -999.2500  -999.2500  -999.2500     8.9164    98.4125     2.5045     0.0318     0.0297
 2067.5000  -999.2500  -999.2500  -999.2500     8.9344    98.9882     2.4988     0.0318     0.0251
 2068.0000  -999.2500  -999.2500  -999.2500     8.9529   100.4282     2.5045     0.0315     0.0196
 2068.5000  -999.2500  -999.2500  -999.2500     8.9498   105.1588     2.5102     0.0313     0.0164
 2069.0000  -999.2500  -999.2500  -999.2500     8.9382   110.2841     2.5105     0.0311     0.0178
 2069.5000  -999.2500  -999.2500  -999.2500     8.9266   115.4843     2.5075     0.0308     0.0239
 2070.0000  -999.2500  -999.2500  -999.2500     8.9149   118.2341     2.5046     0.0306     0.0266
 2070.5000  -999.2500  -999.2500  -999.2500     8.9033   115.1607     2.5042     0.0304     0.0233
 2071.0000  -999.2500  -999.2500  -999.2500     8.8917   110.4191     2.5116     0.0301     0.0157
 2071.5000  -999.2500  -999.2500  -999.2500     8.8797   105.7365     2.5184     0.0301     0.0124
 2072.0000  -999.2500  -999.2500  -999.2500     8.8828   104.9428     2.5175     0.0301     0.0124
 2072.5000  -999.2500  -999.2500  -999.2500     8.8892   104.3198     2.5162     0.0301     0.0140
 2073.0000  -999.2500  -999.2500  -999.2500     8.8957   104.0196     2.5149     0.0301     0.0173
 2073.5000  -999.2500  -999.2500  -999.2500     8.9021   104.8991     2.5136     0.0301     0.0204
 2074.0000  -999.2500  -999.2500  -999.2500     8.9085   105.7927     2.5127     0.0306     0.0201
 2074.5000  -999.2500  -999.2500  -999.2500     8.9149   104.5907     2.5140     0.0344     0.0194
 2075.0000  -999.2500  -999.2500  -999.2500     8.9213    98.6966     2.5178     0.0445     0.0152
 2075.5000  -999.2500  -999.2500  -999.2500     8.9277    93.1801     2.5275     0.0544     0.0019
 2076.0000  -999.2500  -999.2500  -999.2500     8.9341    89.7914     2.5386     0.0643    -0.0089
 2076.5000  -999.2500  -999.2500  -999.2500     8.9379    89.3819     2.5498     0.0701    -0.0069
 2077.0000  -999.2500  -999.2500  -999.2500     8.9379    91.0191     2.5531     0.0658     0.0022
 2077.5000  -999.2500  -999.2500  -999.2500     8.9379    92.6460     2.5405     0.0558     0.0112
 2078.0000  -999.2500  -999.2500  -999.2500     8.9379    93.1263     2.5266     0.0461     0.0189
 2078.5000  -999.2500  -999.2500  -999.2500     8.9379    92.7945     2.5126     0.0391     0.0192
 2079.0000  -999.2500  -999.2500  -999.2500     8.9379    93.7492     2.5057     0.0366     0.0222
 2079.5000  -999.2500  -999.2500  -999.2500     8.9379    96.0015     2.5027     0.0341     0.0240
 2080.0000  -999.2500  -999.2500  -999.2500     8.9379    98.2409     2.4998     0.0316     0.0240
 2080.5000  -999.2500  -999.2500  -999.2500     8.9379   100.4694     2.4982     0.0269     0.0257
 2081.0000  -999.2500  -999.2500  -999.2500     8.9377   101.8665     2.4973     0.0184     0.0300
 2081.5000  -999.2500  -999.2500  -999.2500     8.9327   102.0567     2.4911     0.0118     0.0343
 2082.0000  -999.2500  -999.2500  -999.2500     8.9276   103.3923     2.4853     0.0115     0.0345
 2082.5000  -999.2500  -999.2500  -999.2500     8.9225   104.5879     2.4857     0.0111     0.0335
 2083.0000  -999.2500  -999.2500  -999.2500     8.9174   104.9379     2.4864     0.0107     0.0348
 2083.5000  -999.2500  -999.2500  -999.2500     8.9123   106.0275     2.4871     0.0103     0.0373
 2084.0000  -999.2500  -999.2500  -999.2500     8.9073   107.6350     2.4879     0.0107     0.0373
 2084.5000  -999.2500  -999.2500  -999.2500     8.9022   108.2092     2.4885     0.0140     0.0262
 2085.0000  -999.2500  -999.2500  -999.2500     8.8971   105.7149     2.4960     0.0229     0.0160
 2085.5000  -999.2500  -999.2500  -999.2500     8.8920   103.5656     2.5093     0.0319     0.0060
 2086.0000  -999.2500  -999.2500  -999.2500     8.8870   103.6179     2.5228     0.0303     0.0060
 2086.5000  -999.2500  -999.2500  -999.2500     8.8819   103.2234     2.5277     0.0220     0.0170
 2087.0000  -999.2500  -999.2500  -999.2500     8.8768    99.7170     2.5153     0.0137     0.0273
 2087.5000  -999.2500  -999.2500  -999.2500     8.8717    96.1789     2.4994     0.0107     0.0294
 2088.0000  -999.2500  -999.2500  -999.2500     8.8666    92.6624     2.4931     0.0089     0.0287
 2088.5000  -999.2500  -999.2500  -999.2500     8.8616    90.7383     2.4923     0.0072     0.0280
 2089.0000  -999.2500  -999.2500  -999.2500     8.8565    92.7880     2.4914     0.0073     0.0304
 2089.5000  -999.2500  -999.2500  -999.2500     8.8514    95.6440     2.4838     0.0036     0.0358
 2090.0000  -999.2500  -999.2500  -999.2500     8.8463    96.5036     2.4754     0.0002     0.0412
 2090.5000  -999.2500  -999.2500  -999.2500     8.8412    95.0473     2.4719     0.0008     0.0466
 2091.0000  -999.2500  -999.2500  -999.2500     8.8385    93.5353     2.4716     0.0013     0.0461
 2091.5000  -999.2500  -999.2500  -999.2500     8.8473    93.7518     2.4720     0.0018     0.0436
 2092.0000  -999.2500  -999.2500  -999.2500     8.8560    94.7254     2.4727     0.0068     0.0388
 2092.5000  -999.2500  -999.2500  -999.2500     8.8647    94.2395     2.4841     0.0127     0.0302
 2093.0000  -999.2500  -999.2500  -999.2500     8.8735    95.2113     2.4960     0.0298     0.0215
 2093.5000  -999.2500  -999.2500  -999.2500     8.8822    94.1281     2.5045     0.0470     0.0172
 2094.0000  -999.2500  -999.2500  -999.2500     8.8909    94.9317     2.5107     0.0508     0.0190
 2094.5000  -999.2500  -999.2500  -999.2500     8.8996    97.3246     2.5105     0.0550     0.0209
 2095.0000  -999.2500  -999.2500  -999.2500     8.9083    99.6064     2.5105     0.0599     0.0214
