~VERSION INFORMATION
 VERS.                2.0:   CWLS LOG ASCII STANDARD - VERSION 2.0
 WRAP.                 NO:   ONE LINE PER DEPTH STEP
~WELL INFORMATION
#MNEM.UNIT      DATA TYPE    INFORMATION
#----------   ------------   ------------------------------
 STRT.F           50.0000:   START DEPTH
 STOP.F         1561.5000:   STOP DEPTH
 STEP.F            0.5000:   STEP LENGTH
 NULL.          -999.2500:   NO VALUE
 COMP. FENIX & SCISSON INC:   COMPANY
 WELL.  72 SH 3 STX #72-3:   WELL
 FLD .             TEAPOT:   FIELD
 LOC .       S3 T38N R78W:   LOCATION
 CNTY.            NATRONA:   COUNTY
 STAT.            WYOMING:   STATE
 CTRY. UNITED STATES OF AMERICA:   COUNTRY
 SRVC.           BIRDWELL:   SERVICE COMPANY
 DATE.        31-JUL-1979:   LOGDATE
 API .       490251078600:   API NUMBER
~CURVE INFORMATION
#MNEM.UNIT       API CODE    CURVE DESCRIPTION
#----------   ------------   ------------------------------
 DEPT.F                  :   
 CALD.IN     45 280 60 00:   CALIPER FROM DENSITY LOG
 GRD .GAPI   45 310 01 00:   GAMMA RAY FROM DENSITY LOG
 RHOB.G/C3   45 350 01 00:   BULK DENSITY
 CORR.G/C3   45 356 01 00:   DENSITY CORRECTION
 DPHI.DEC    45 890 12 00:   DENSITY POROSITY SANDSTONE
 GR  .GAPI   81 310 01 00:   GAMMA RAY
~PARAMETER INFORMATION
#MNEM.UNIT          VALUE    DESCRIPTION
#----------   ------------   ------------------------------
 PD  .                 GL:   PERMANENT DATUM
 EPD .F              5165:   ELEVATION PERMANENT DATUM
 LMF .                 KB:   LOG MEASURED FROM
 DAPD.F                10:   FEET ABOVE PERMANENT DATUM
 DMF .                 KB:   DRILLING MEASURED FROM
 EKB .F              5175:   KELLING BUSHING
 EGL .F              5165:   GROUND LEVEL
 DATE.            7-31-79:   RUN DATE
 RUN .                  1:   RUN NUMBER
 DD  .F              1564:   DEPTH DRILLER
 DL  .F              1560:   DEPTH LOGGER
 BLI .F              1560:   BOTTOM LOG INTERVAL
 TLI .F               700:   TOP LOG INTERVAL
 CS  .IN            9.625:   CASING SIZE
 CBD .F               691:   CASING BOTTOM DRILLER
 CBL .F               680:   CASING BOTTOM LOGGER
 BS  .IN            7.875:   BIT SIZE
 BSD .F              1564:   BIT SIZE AT DEPTH
 DFT .                OIL:   DRILLING FLUID TYPE
 BHT .F                92:   BOTTOM HOLE TEMPERATURE
 TCS .HRS               2:   TIME CURCULATED STOPPED
 MRT .F                92:   MAXIMUM RECORDED TEMPERATURE
 LUN .               3029:   LOGGING UNIT NUMBER
 LUL .                CPR:   LOGGING UNIT LOCATION
 ENGI.             MILLER:   RECORDING ENGINEER
 WITN.           DINSMORE:   WITNESSED BY
 CLNT.            A2DTECH:   CLIENT CODE
 ORIG.       2", 5" PRINT:   ORIGIN OF DATA
 UWI .       490251078600:   UNIQUE WELL ID
 DICO. A2D Technologies, Inc.:   DIGITIZING COMPANY
~OTHER INFORMATION
~A   DEPT     CALD        GRD       RHOB       CORR       DPHI          GR  
# ...
 1298.0000     8.9807    92.9703     2.5104    -0.0029     0.0162    87.1105
 1298.5000     8.9813    96.0841     2.5275    -0.0014     0.0194    88.5499
 1299.0000     8.9820    94.5804     2.5316     0.0002     0.0137    90.0086
 1299.5000     8.9826    92.2889     2.5175     0.0018     0.0055    92.0717
 1300.0000     8.9833    90.0192     2.5330     0.0033     0.0047    98.2304
 1300.5000     8.9839    88.3709     2.5332     0.0049     0.0063    95.7557
 1301.0000     8.9845    88.8100     2.5274    -0.0001     0.0079    90.5537
 1301.5000     8.9852    90.1944     2.5214    -0.0034     0.0107    91.0050
 1302.0000     8.9858    91.3211     2.5154    -0.0045     0.0164    92.7925
 1302.5000     8.9865    90.2880     2.5094    -0.0055     0.0218    94.4944
 1303.0000     8.9871    89.2676     2.5034    -0.0065     0.0212    95.5316
 1303.5000     8.9877    88.2522     2.5006    -0.0075     0.0198    88.2286
 1304.0000     8.9884    89.4595     2.5005    -0.0085     0.0225    85.1786
 1304.5000     8.9890    94.0044     2.5086    -0.0082     0.0246    85.5725
 1305.0000     8.9897    94.0019     2.5242    -0.0066     0.0224    86.7815
 1305.5000     8.9903    92.2115     2.5399    -0.0050     0.0083    87.9988
 1306.0000     8.9909    92.8221     2.5558    -0.0034    -0.0042    89.2103
 1306.5000     8.9916    95.8717     2.5589    -0.0018    -0.0066    90.3896
 1307.0000     8.9922    99.1279     2.5305    -0.0022     0.0074    93.7138
 1307.5000     8.9929    96.8208     2.5122    -0.0045     0.0206    97.5799
 1308.0000     8.9935    94.8289     2.5174    -0.0068     0.0207   101.4802
 1308.5000     8.9942    96.2588     2.5265    -0.0091     0.0112   104.9663
 1309.0000     8.9948    96.8747     2.5356    -0.0111     0.0046   103.0354
 1309.5000     8.9954    93.2980     2.5448    -0.0109     0.0017    98.9784
 1310.0000     8.9961    90.3197     2.5539    -0.0012    -0.0013    94.6195
 1310.5000     8.9967    90.3581     2.5631     0.0092    -0.0052    90.2308
 1311.0000     8.9974    97.6934     2.5722     0.0197    -0.0158    89.7382
 1311.5000     8.9979   101.1991     2.5814     0.0302    -0.0201    91.4227
 1312.0000     8.9959    97.6172     2.5887     0.0391    -0.0257    93.4976
 1312.5000     8.9938    97.4273     2.5747     0.0311    -0.0167    95.5563
 1313.0000     8.9917    99.7953     2.5551     0.0226    -0.0017    96.2549
 1313.5000     8.9896   101.2982     2.5348     0.0142     0.0042    95.2347
 1314.0000     8.9875    99.0285     2.5229     0.0058     0.0100    94.2335
 1314.5000     8.9854    96.6244     2.5155    -0.0026     0.0150    93.2253
 1315.0000     8.9833    95.1834     2.5237    -0.0114     0.0137    92.2156
 1315.5000     8.9812    96.1754     2.5307    -0.0095     0.0124    91.2057
 1316.0000     8.9791    97.6902     2.5271    -0.0057     0.0118    91.0285
 1316.5000     8.9770    99.2291     2.5207    -0.0018     0.0125    93.6407
 1317.0000     8.9750   100.7821     2.5218     0.0022     0.0138    95.1704
 1317.5000     8.9729   102.0834     2.5251     0.0030     0.0109    93.0962
 1318.0000     8.9708    99.3212     2.5284     0.0015     0.0071    90.3541
 1318.5000     8.9687    96.4724     2.5281    -0.0009     0.0074    87.9925
 1319.0000     8.9666    93.8380     2.5276     0.0012     0.0089    89.0326
 1319.5000     8.9645    93.3996     2.5271     0.0036     0.0104    90.7545
 1320.0000     8.9624    93.1989     2.5264     0.0059     0.0091    92.4676
 1320.5000     8.9604    93.1891     2.5336     0.0082     0.0059    94.1606
 1321.0000     8.9588    93.3131     2.5426     0.0105     0.0027    90.8365
 1321.5000     8.9353    95.6529     2.5518     0.0099    -0.0006    86.5127
 1322.0000     8.9093    97.9734     2.5521     0.0070     0.0013    83.7284
 1322.5000     8.8831   100.3388     2.5437     0.0042     0.0051    86.6756
 1323.0000     8.8570   100.6347     2.5354     0.0013     0.0089    87.4817
 1323.5000     8.8308    99.7511     2.5271    -0.0016     0.0127    87.7802
 1324.0000     8.8186   100.4595     2.5188    -0.0045     0.0154    89.8158
 1324.5000     8.8387    92.7421     2.5215    -0.0051     0.0115    94.9873
 1325.0000     8.8583    92.4151     2.5387    -0.0019     0.0050    95.9416
 1325.5000     8.8778    93.2390     2.5550     0.0010    -0.0016    94.1514
 1326.0000     8.8973    93.8880     2.5543     0.0039    -0.0054    91.9221
 1326.5000     8.9169    92.6013     2.5396     0.0067     0.0039    90.5050
 1327.0000     8.9364    91.3110     2.5275     0.0096     0.0132    93.8142
 1327.5000     8.9600    90.0187     2.5153     0.0125     0.0169    97.6383
 1328.0000     8.9902    91.5540     2.5040     0.0120     0.0176   101.4669
 1328.5000     9.0207    94.1611     2.5076     0.0096     0.0161    98.4126
 1329.0000     9.0512    96.3434     2.5182     0.0072     0.0146    92.2055
 1329.5000     9.0818    95.2325     2.5250     0.0048     0.0132    92.2311
 1330.0000     9.1122    96.3320     2.4868     0.0026     0.0163    93.2453
 1330.5000     9.1397    98.4024     2.4685     0.0148     0.0223    95.8059
 1331.0000     9.1445   100.4850     2.4803     0.0484     0.0450    92.5657
 1331.5000     9.1498   101.0434     2.4542     0.0827     0.0703    89.6979
 1332.0000     9.1552    97.3718     2.4179     0.1576     0.0703    89.2820
 1332.5000     9.1606    90.2612     2.4832     0.2891     0.0453    88.8445
 1333.0000     9.1660    83.8222     2.5403     0.3237    -0.0022    88.4500
 1333.5000     9.1714    84.0041     2.5232     0.2209     0.0158    86.6871
 1334.0000     9.1768    85.3356     2.5079     0.0966     0.0282    84.4954
 1334.5000     9.1822    87.3468     2.5045     0.0016     0.0214    83.0880
 1335.0000     9.1875    89.3577     2.5200     0.0033     0.0150    85.6619
 1335.5000     9.1926    91.3717     2.5177     0.0036     0.0161    87.3253
 1336.0000     9.1999    93.3809     2.5130     0.0227     0.0170    86.3787
 1336.5000     9.2608    95.4130     2.5185     0.0419     0.0118    85.5365
 1337.0000     9.3247    96.2389     2.5292     0.0611     0.0068    85.1413
 1337.5000     9.3883    94.6671     2.5403     0.0754     0.0031    86.4764
 1338.0000     9.4488    92.7301     2.5424     0.0604     0.0181    93.7795
 1338.5000     9.4959    90.7833     2.4988     0.0460     0.0302    93.5725
 1339.0000     9.5427    88.8412     2.4585     0.0778     0.0424    91.3257
 1339.5000     9.5870    86.8998     2.4276     0.1248     0.0778    89.2122
 1340.0000     9.7634    84.9583     2.3456     0.1983     0.1254    87.7261
 1340.5000     9.9644    83.0169     2.0904     0.2561     0.1851    86.2217
 1341.0000    10.1673    81.0755     1.9728     0.2594     0.2590    84.7143
 1341.5000    10.3705    79.1324     1.9445     0.3306     0.2986    84.7973
 1342.0000    10.4928    77.1888     1.9445     0.3999     0.2982    86.5246
 1342.5000     9.8554    75.2416     2.3389     0.4165     0.1976    87.7320
 1343.0000    10.0476    74.5003     2.4026     0.4264     0.1034    83.3853
 1343.5000    10.1276    77.6211     2.4594     0.3424     0.0414    79.6292
 1344.0000     9.8104    80.7698     2.5096     0.2557     0.0151    75.8648
 1344.5000     9.5559    83.9101     2.5335     0.2403     0.0066    74.2621
 1345.0000     9.3002    87.0454     2.5260     0.1908     0.0158    76.6070
 1345.5000     9.0436    90.1321     2.5010     0.1362     0.0262    79.8607
 1346.0000     8.8085    92.6810     2.4949     0.0812     0.0286    83.1512
 1346.5000     8.7976    95.0708     2.4915     0.0505     0.0312    86.4527
 1347.0000     8.8052    96.8481     2.4884     0.0439     0.0330    89.4951
 1347.5000     8.8119    96.8118     2.4939     0.0366     0.0283    89.6512
 1348.0000     8.8182    94.0919     2.5016     0.0291     0.0243    82.8027
 1348.5000     8.8244    90.4863     2.5054     0.0313     0.0231    82.2050
 1349.0000     8.8307    86.8260     2.5035     0.0371     0.0219    82.6682
 1349.5000     8.8369    85.1455     2.5048     0.0340     0.0207    86.0194
