~VERSION INFORMATION
 VERS.                2.0:   CWLS LOG ASCII STANDARD - VERSION 2.0
 WRAP.                 NO:   ONE LINE PER DEPTH STEP
~WELL INFORMATION
#MNEM.UNIT      DATA TYPE    INFORMATION
#----------   ------------   ------------------------------
 STRT.F            0.0000:   START DEPTH
 STOP.F          743.0000:   STOP DEPTH
 STEP.F            0.5000:   STEP LENGTH
 NULL.          -999.2500:   NO VALUE
 COMP. LAWRENCE/ALLISON INC:   COMPANY
 WELL.   NPR 3 #33-16SX11:   WELL
 FLD .                NPR:   FIELD
 LOC .      S11 T38N R78W:   LOCATION
 CNTY.            NATRONA:   COUNTY
 STAT.            WYOMING:   STATE
 CTRY. UNITED STATES OF AMERICA:   COUNTRY
 SRVC.           Gearhart:   SERVICE COMPANY
 DATE.        05-JUN-1986:   LOGDATE
 API .       490251107500:   API NUMBER
~CURVE INFORMATION
#MNEM.UNIT       API CODE    CURVE DESCRIPTION
#----------   ------------   ------------------------------
 DEPT.F                  :   
 GRR .GAPI   07 310 01 00:   GAMMA RAY
 RILD.OHMM   07 120 46 00:   INDUCTION LOG DEEP RESISTIVITY
 RILM.OHMM   07 120 44 00:   INDUCTION LOG MEDIUM RESISTIVITY
 RLL .OHMM   07 220 00 00:   LATEROLOG RESISTIVITY
 SPR .MV     07 010 01 00:   SPONTANEOUS POTENTIAL
~PARAMETER INFORMATION
#MNEM.UNIT          VALUE    DESCRIPTION
#----------   ------------   ------------------------------
 PD  .                 GL:   PERMANENT DATUM
 EPD .F              5175:   ELEVATION PERMANENT DATUM
 LMF .                 KB:   LOG MEASURED FROM
 DMF .                 KB:   DRILLING MEASURED FROM
 EKB .F              5175:   KELLING BUSHING
 EGL .F              5175:   GROUND LEVEL
 DATE.        05-JUN-1986:   RUN DATE
 RUN .                  1:   RUN NUMBER
 DD  .F               736:   DEPTH DRILLER
 DL  .F               744:   DEPTH LOGGER
 BLI .F               743:   BOTTOM LOG INTERVAL
 TLI .F                42:   TOP LOG INTERVAL
 CS  .IN            8.625:   CASING SIZE
 CBD .F                42:   CASING BOTTOM DRILLER
 CBL .F                42:   CASING BOTTOM LOGGER
 BS  .IN            7.875:   BIT SIZE
 BSD .F               736:   BIT SIZE AT DEPTH
 DFT .           KCL- GEL:   DRILLING FLUID TYPE
 DFD .                9.2:   DRILLING FLUID DENSITY
 DFV .                 42:   DRILLING FLUID VISCOSITY
 DFPH.                 11:   DRILLING FLUID PH
 MSS .           FLOWLINE:   MUD SAMPLE SOURCE
 RMS .OHMM            .51:   RESISTIVITY MUD SAMPLE
 MST .F                81:   MUD SAMPLE TEMPERATURE
 RMF .OHMM            .48:   RESISTIVITY MUD FILTRATE SAMPLE
 MFST.F                65:   MUD FILTRATE SAMPLE TEMPERATURE
 RMC .OHMM            .81:   RESISTIVITY MUD CAKE
 MCST.F                66:   MUD CAKE SAMPLE TEMPERATURE
 MFSS.               MEAS:   MUD FILTRATE SAMPLE SOURCE
 MCSS.               MEAS:   MUD CAKE SAMPLE SOURCE
 RMB .OHMM            .47:   RESISTIVITY MUD AT BHT
 BHT .F                90:   BOTTOM HOLE TEMPERATURE
 TCS .HRS            1930:   TIME CURCULATED STOPPED
 TLAB.HRS            2114:   TIME LOGGER AT BOTTOM
 LUN .               7609:   LOGGING UNIT NUMBER
 LUL .           GILLETTE:   LOGGING UNIT LOCATION
 ENGI. WEATHERMON/ JOHNSTON:   RECORDING ENGINEER
 WITN.           LENNINGS:   WITNESSED BY
 CLNT.            A2DTECH:   CLIENT CODE
 ORIG.           5" PRINT:   ORIGIN OF DATA
 UWI .       490251107500:   UNIQUE WELL ID
 DICO. A2D Technologies, Inc.:   DIGITIZING COMPANY
~OTHER INFORMATION
~A    DEPT     GRR       RILD       RILM        RLL        SPR   
# ...
  488.0000    98.9378     5.8639     5.8121     8.9758   -41.6936
  488.5000    98.9378     5.7845     5.6922     8.5475   -40.6329
  489.0000   100.7587     5.6670     5.5751     8.4301   -39.7239
  489.5000   104.0971     5.5903     5.4984     8.1400   -39.8771
  490.0000   107.1320     5.5146     5.4228     7.9733   -40.6474
  490.5000   108.0749     5.4022     5.3484     8.2586   -41.2706
  491.0000   106.2215     5.2903     5.2751     8.4942   -41.8546
  491.5000   106.8529     5.1792     5.1664     8.9846   -41.2491
  492.0000   108.3460     5.0083     5.0248     8.8609   -40.0366
  492.5000   106.8285     4.8721     4.8814     8.1483   -40.1898
  493.0000   105.6146     4.7727     4.6873     7.7056   -41.2535
  493.5000   105.3111     4.6749     4.5589     7.2870   -42.4690
  494.0000   107.1320     4.6117     4.4961     6.9877   -42.9499
  494.5000   110.7739     4.6136     4.4969     6.6030   -42.0167
  495.0000   109.8634     4.7459     4.6249     7.1889   -41.4061
  495.5000   108.0425     4.9163     4.7898     7.9858   -41.2610
  496.0000   106.8285     5.0927     4.9607     8.4468   -41.4146
  496.5000   106.5210     5.2768     5.1377     8.8721   -41.4160
  497.0000   103.9028     5.4316     5.3234     9.2539   -41.1140
  497.5000    97.7238     5.6219     5.5559     9.6521   -40.8116
  498.0000    96.5099     5.7831     5.7878     9.6534   -40.6614
  498.5000    99.5448     5.9076     5.8700     9.3225   -40.9667
  499.0000   100.4552     5.7871     5.7091     9.1230   -41.1199
  499.5000   100.7587     5.6296     5.4756     8.7562   -40.9697
  500.0000   101.8310     5.3753     5.2889     8.3873   -40.0607
  500.5000   106.2184     5.0370     5.0380     7.8308   -39.9102
  501.0000   109.8574     4.9684     4.9698     7.5622   -40.0637
  501.5000   111.4162     4.9346     4.8680     7.8329   -40.0653
  502.0000   111.3682     4.9358     4.7359     7.5645   -40.0670
  502.5000   110.1514     4.9368     4.6393     7.5700   -40.3720
  503.0000   108.9345     4.9727     4.6086     8.0026   -41.2839
  503.5000   107.7176     5.0436     4.7411     8.2887   -40.8301
  504.0000   106.1972     5.2605     4.9803     8.2320   -39.6176
  504.5000   106.5301     5.4867     5.2682     8.2909   -39.1639
  505.0000   108.6186     5.7226     5.6118     8.5874   -40.5314
  505.5000   109.8304     5.9703     5.8988     8.8944   -41.1395
  506.0000   107.0953     6.2256     6.1928     9.0295   -39.4721
  506.5000   102.5400     6.4481     6.4149     9.1497   -40.3840
  507.0000    99.1987     6.6321     6.5529     9.2799   -40.9925
  507.5000    99.5195     6.7267     6.6473     9.6117   -41.2974
  508.0000   100.4068     6.8227     6.7431    10.0956   -41.4689
  508.5000    97.9753     6.9200     6.7926     9.6143   -40.8455
  509.0000    95.5444     6.9699     6.8910     9.4819   -40.8469
  509.5000    94.6310     7.0205     6.9416     9.0935   -41.0002
  510.0000    93.7177     7.0711     6.9926     8.8434   -40.6981
  510.5000    91.2625     7.0726     6.9950     8.9695   -41.6101
  511.0000    87.6413     7.0740     6.9973     9.1611   -42.6737
  511.5000    86.4244     7.0754     6.9997     9.4886   -40.7029
  512.0000    91.2773     7.0276     7.0026     9.8279   -39.4904
  512.5000    95.5233     7.0291     7.0050     9.9678   -40.2506
  513.0000    95.2169     7.0308     6.9580     9.4928   -41.3142
  513.5000    94.0000     7.0322     6.9609     9.2320   -41.6192
  514.0000    93.6936     7.0829     6.9148     9.3634   -40.7102
  514.5000    97.9388     7.1840     6.9171     9.6981   -40.8634
  515.0000   101.2743     7.2358     6.9195    10.0449   -40.7131
  515.5000   102.4860     7.2880     6.9223    10.3314   -41.1702
  516.0000   100.9649     7.2391     6.9247    10.7210   -40.7164
  516.5000    99.4446     7.1901     6.9270    11.3190   -39.8074
  517.0000    97.8916     7.0425     6.8805    11.4801   -40.1123
  517.5000    96.0996     6.7079     6.6938    11.4816   -41.3329
  518.0000    93.6688     6.3447     6.2801    11.4832   -41.7848
  518.5000    91.5414     6.0427     5.8665    10.4859   -41.1793
  519.0000    89.7176     5.7901     5.5497     9.2417   -41.0287
  519.5000    89.6580     5.5990     5.3237     8.4433   -41.7892
  520.0000    94.6895     5.5225     5.1428     7.9846   -41.9424
  520.5000   104.8826     5.5236     5.0379     7.6573   -41.9439
  521.0000   106.0944     5.5634     5.0045     7.9311   -41.9292
  521.5000    95.1651     5.6428     5.1126     8.9344   -41.6433
  522.0000    90.6098     5.8104     5.3331     9.8554   -41.4930
  522.5000    86.6615     6.1818     5.6022    10.2855   -42.1018
  523.0000    83.0167     6.6302     6.0093    10.6474   -42.7103
  523.5000    85.4410     7.1610     6.5258    10.7989   -43.0152
  524.0000    88.7765     7.6270     7.7324    10.5022   -43.0207
  524.5000    92.4154     8.0669     7.8438    10.6517   -43.6255
  525.0000    96.0544     8.4137     8.0126    10.9556   -44.0822
  525.5000    99.0864     8.6632     8.2423    11.2681   -43.7802
  526.0000    99.3950     8.7777     8.4196    11.5896   -43.0229
  526.5000    96.5193     8.7795     8.4814    11.4300   -42.8722
  527.0000    93.0071     8.7812     8.3091    11.3518   -43.1776
  527.5000    91.1832     8.8446     8.2534    11.3538   -42.5720
  528.0000    90.5733     9.0336     8.3147    11.4350   -42.7256
  528.5000    90.2669     9.3010     8.4936    11.5978   -43.0306
  529.0000    90.2640     9.8965     8.8599    12.2910   -43.7908
  529.5000    90.2610    10.4672     9.4592    15.2422   -44.5509
  530.0000    87.2225    11.3052    10.7813    16.4642   -45.3111
  530.5000    77.8114    12.4687    12.0598    17.9091   -45.1578
  531.0000    68.4003    13.7520    13.2102    19.3449   -44.5557
  531.5000    59.2927    14.9570    13.9738    20.0366   -44.1015
  532.0000    54.1304    16.3013    14.4752    19.4861   -43.3447
  532.5000    52.6100    17.4485    14.7936    18.9507   -43.8013
  533.0000    55.0343    18.3263    15.1059    18.8210   -44.4098
  533.5000    59.8873    18.4584    15.2169    18.4331   -44.8665
  534.0000    63.8297    18.3327    15.3287    18.1793   -45.1714
  534.5000    63.5233    18.2097    15.4413    18.0544   -44.8698
  535.0000    61.6994    17.9608    15.4464    17.9314   -43.9608
  535.5000    61.3930    17.8395    15.4517    17.8088   -43.5066
  536.0000    63.5138    17.8440    15.4581    17.9364   -43.3563
  536.5000    64.7256    17.8476    15.5717    18.1922   -42.5994
  537.0000    61.3836    17.9762    15.6860    18.4511   -42.2974
  537.5000    57.4353    18.2327    15.8013    18.7137   -42.7795
  538.0000    53.7905    18.4929    16.1412    19.2476   -43.0594
  538.5000    51.0561    18.9068    16.4884    19.7968   -43.2126
  539.0000    51.4457    19.2929    17.0978    21.3991   -43.0620
  539.5000    54.9949    19.8434    17.8183    24.9477   -43.0638
  540.0000    56.5095    20.1265    18.5869    28.9014   -43.0653
  540.5000    57.1135    20.4137    19.1198    30.1449   -43.3702
  541.0000    57.1106    20.4178    19.6680    29.7289   -43.2203
  541.5000    57.1077    20.4220    19.8198    27.1480   -43.0697
  542.0000    57.4083    20.2849    19.2590    23.1147   -43.2232
  542.5000    61.3500    19.8684    18.4901    20.4890   -43.5282
  543.0000    65.5959    19.5958    17.9869    19.5466   -42.9227
  543.5000    67.1105    19.3280    17.6199    19.5493   -42.6206
  544.0000    66.1971    19.1973    17.5017    19.8275   -43.2534
  544.5000    64.3732    19.0685    17.6317    20.2509   -44.2928
  545.0000    62.5291    18.9397    17.7613    20.8287   -42.1702
  545.5000    61.3318    18.9445    17.8932    20.9778   -42.6268
  546.0000    61.0253    19.0811    18.0246    21.1281   -43.6905
  546.5000    61.0224    19.0849    18.1570    20.9834   -43.5402
  547.0000    61.6265    19.0888    18.0367    20.8399   -42.4554
  547.5000    62.5340    19.0926    18.0428    20.6974   -42.0257
  548.0000    63.4496    19.0965    17.9200    20.8462   -42.3307
  548.5000    64.9554    19.1013    17.8045    20.8661   -40.9668
