~VERSION INFORMATION
 VERS.                2.0:   CWLS LOG ASCII STANDARD - VERSION 2.0
 WRAP.                 NO:   ONE LINE PER DEPTH STEP
~WELL INFORMATION
#MNEM.UNIT      DATA TYPE    INFORMATION
#----------   ------------   ------------------------------
 STRT.F           14.0000:   START DEPTH
 STOP.F          549.0000:   STOP DEPTH
 STEP.F            0.5000:   STEP LENGTH
 NULL.          -999.2500:   NO VALUE
 COMP.   LAWRENCE-ALLISON:   COMPANY
 WELL.    NPR 3 #58-64SX3:   WELL
 FLD .           NPR NO 3:   FIELD
 LOC .       S3 T38N R78W:   LOCATION
 CNTY.            NATRONA:   COUNTY
 STAT.            WYOMING:   STATE
 CTRY. UNITED STATES OF AMERICA:   COUNTRY
 SRVC.      Dresser Atlas:   SERVICE COMPANY
 DATE.        05-DEC-1984:   LOGDATE
 API .       490251099700:   API NUMBER
~CURVE INFORMATION
#MNEM.UNIT       API CODE    CURVE DESCRIPTION
#----------   ------------   ------------------------------
 DEPT.F                  :   
 RFOC.OHMM   07 220 04 00:   RESISTIVITY FOCUSED LOG
 RILD.OHMM   07 120 46 00:   INDUCTION LOG DEEP RESISTIVITY
 RILM.OHMM   07 120 44 00:   INDUCTION LOG MEDIUM RESISTIVITY
 SPR .MV     07 010 01 00:   SPONTANEOUS POTENTIAL
 DT  .US/F   60 520 00 00:   INTERVAL TRANSIT TIME
 CALD.IN     45 280 60 00:   CALIPER FROM DENSITY LOG
 CORR.G/C3   45 356 01 00:   DENSITY CORRECTION
 CNC .DEC    42 890 03 00:   NEUTRON POROSITY SANDSTONE
 DEN .G/C3   45 350 01 00:   COMPENSATED BULK DENSTIY
 GRD .GAPI   45 310 01 00:   GAMMA RAY FROM DENSITY LOG
 PORD.DEC    45 890 12 00:   POROSITY DENSITY SANDSTONE
~PARAMETER INFORMATION
#MNEM.UNIT          VALUE    DESCRIPTION
#----------   ------------   ------------------------------
 PD  .                 GL:   PERMANENT DATUM
 EPD .F              5188:   ELEVATION PERMANENT DATUM
 LMF .                 KB:   LOG MEASURED FROM
 DMF .                 KB:   DRILLING MEASURED FROM
 EGL .F              5188:   GROUND LEVEL
 DATE.        05-DEC-1984:   RUN DATE
 RUN .                  1:   RUN NUMBER
 DD  .F               556:   DEPTH DRILLER
 DL  .F               551:   DEPTH LOGGER
 BLI .F               548:   BOTTOM LOG INTERVAL
 CS  .IN            8.625:   CASING SIZE
 CBD .F                20:   CASING BOTTOM DRILLER
 CBL .F                20:   CASING BOTTOM LOGGER
 BS  .IN            7.875:   BIT SIZE
 BSD .F               556:   BIT SIZE AT DEPTH
 DFT .          KCL WATER:   DRILLING FLUID TYPE
 MSS .           FLOWLINE:   MUD SAMPLE SOURCE
 RMS .OHMM            .36:   RESISTIVITY MUD SAMPLE
 MST .F                70:   MUD SAMPLE TEMPERATURE
 RMF .OHMM            .26:   RESISTIVITY MUD FILTRATE SAMPLE
 MFST.F                70:   MUD FILTRATE SAMPLE TEMPERATURE
 RMC .OHMM            .46:   RESISTIVITY MUD CAKE
 MCST.F                70:   MUD CAKE SAMPLE TEMPERATURE
 MFSS.               CALC:   MUD FILTRATE SAMPLE SOURCE
 MCSS.               CALC:   MUD CAKE SAMPLE SOURCE
 RMB .OHMM            .29:   RESISTIVITY MUD AT BHT
 BHT .F                85:   BOTTOM HOLE TEMPERATURE
 TCS .HRS               3:   TIME CURCULATED STOPPED
 MRT .F               100:   MAXIMUM RECORDED TEMPERATURE
 LUN .               6274:   LOGGING UNIT NUMBER
 LUL .               GLTE:   LOGGING UNIT LOCATION
 ENGI.             PAUTIO:   RECORDING ENGINEER
 WITN.       GROONS/LUERS:   WITNESSED BY
 CLNT.            A2DTECH:   CLIENT CODE
 ORIG.           5" PRINT:   ORIGIN OF DATA
 UWI .       490251099700:   UNIQUE WELL ID
 DICO. A2D Technologies, Inc.:   DIGITIZING COMPANY
~OTHER INFORMATION
~A   DEPT     RFOC       RILD       RILM        SPR         DT       CALD       CORR          CNC      DEN         GRD      PORD   
# ...
  258.0000     8.0442     5.6304     8.0599   -66.0699   108.9779     8.0562     0.0258     0.2691     2.4064   124.6014     0.1710
  258.5000     9.5775     6.4177     9.1844   -65.6220   111.6025     8.0552     0.0311     0.2564     2.4899   115.0090     0.1189
  259.0000    10.1527     8.2235     9.9441   -65.1742   114.1477     8.0700     0.0256     0.2531     2.5201   110.6635     0.0967
  259.5000    10.4284     8.9710    10.2305   -64.7264   115.8993     8.0689     0.0160     0.2553     2.5326   109.0957     0.0881
  260.0000    10.4180     9.5041    10.2212   -64.4289   116.3811     8.0835     0.0271     0.2659     2.5334   109.3799     0.0853
  260.5000    10.2587     9.8503    10.1380   -63.8307   116.8628     8.0825     0.0429     0.2710     2.5350   109.3553     0.0847
  261.0000    10.2505    10.1348    10.2036   -63.5367   117.5033     8.0815     0.0572     0.2717     2.5383   109.6394     0.0828
  261.5000    10.3932    10.2814    10.1947   -63.0888   118.3819     8.0806     0.0682     0.2698     2.5504   109.9236     0.0793
  262.0000    10.4632    10.5046    10.2634   -62.5313   119.1811     8.0797     0.0777     0.2686     2.5588   110.5224     0.0752
  262.5000    10.7630    10.7328    10.4787   -61.7692   120.6946     8.0788     0.0808     0.2673     2.5594   110.4918     0.0695
  263.0000    11.0735    11.1083    10.6237   -61.1299   124.0334     8.0778     0.0664     0.2655     2.5562   109.8500     0.0707
  263.5000    11.6456    11.5975    11.0226   -60.3048   126.4200     8.0769     0.0488     0.2623     2.5514   108.5909     0.0747
  264.0000    12.3371    12.3770    11.7446   -59.4650   126.9090     8.0760     0.0232     0.2606     2.5267   106.4059     0.0849
  264.5000    13.1656    13.3058    12.7161   -58.4018   125.9549     8.0751     0.0184     0.2573     2.5108   100.5171     0.0932
  265.0000    14.2565    14.4093    13.9706   -57.6463   124.0557     8.0742     0.0263     0.2443     2.4964    89.6901     0.1028
  265.5000    16.0126    16.3045    15.5747   -56.8893   119.5374     8.0732     0.0373     0.2072     2.4860    77.9372     0.1118
  266.0000    18.1170    18.5845    17.3630   -56.2810   115.7335     8.0723     0.0468     0.2002     2.4804    71.4312     0.1166
  266.5000    20.4978    19.9792    19.3566   -55.5190   114.5667     8.0714     0.0595     0.2098     2.4796    67.0857     0.1182
  267.0000    22.6886    21.3219    20.9578   -55.0646   118.6811     8.0705     0.0753     0.2215     2.4748    65.2093     0.1182
  267.5000    24.0358    30.4902    22.5263   -54.4840   125.5121     8.0850     0.0800     0.2315     2.4541    63.0243     0.1246
  268.0000    24.9107    30.6957    24.0360   -53.8857   138.0573     8.0841     0.0736     0.2570     2.4207    60.8393     0.1523
  268.5000    24.7096    30.8965    24.3738   -53.5883   153.3010     8.0831     0.0560     0.2643     2.3912    61.4320     0.1731
  269.0000    23.9785    31.0986    24.1702   -52.9900   159.9732     8.0977     0.0457     0.2625     2.3753    63.8847     0.1796
  269.5000    22.9273    31.2969    23.1138   -52.6960   161.4278     8.0968     0.0314     0.2600     2.3609    68.5309     0.1890
  270.0000    21.9296    31.5014    22.2656   -52.3986   157.1272     8.0958     0.0239     0.2653     2.3458    73.1686     0.1958
  270.5000    21.5939    31.4755    21.7642   -51.8004   152.3708     8.0949     0.0302     0.2740     2.3322    74.9142     0.2012
  271.0000    21.5766    31.9140    21.4299   -51.1987   149.7573     8.0940     0.0285     0.2782     2.3219    71.7284     0.2108
  271.5000    21.5558    31.8886    21.2555   -50.5970   146.2708     8.0930     0.0236     0.2843     2.3067    70.8519     0.2197
  272.0000    21.5386    32.0972    21.2371   -49.9953   143.4986     8.0921     0.0188     0.2856     2.3011    71.9672     0.2242
  272.5000    21.3648    32.0711    21.3745   -49.3936   141.5201     8.1067     0.0139     0.2833     2.3162    78.2050     0.2187
  273.0000    21.5044    31.8117    21.3557   -49.0962   141.5376     8.1057     0.0186     0.2796     2.3296    79.7298     0.2109
  273.5000    22.1249    31.7810    21.6628   -48.8022   140.9756     8.1203     0.0233     0.2721     2.3280    76.3041     0.2099
  274.0000    24.3111    31.9953    22.9881   -48.5082   119.5531     8.1193     0.0296     0.2594     2.3216    73.5018     0.2110
  274.5000    24.4749    32.4346    24.4712   -48.2142   115.3889     8.1184     0.0359     0.2515     2.3295    71.6254     0.2078
  275.0000    23.9202    33.1279    23.7163   -48.0769   113.6640     8.1020     0.0390     0.2502     2.3366    68.5144     0.2047
  275.5000    23.5543    33.5961    23.0373   -47.9369   114.2500     8.1011     0.0389     0.2554     2.3446    65.0948     0.2028
  276.0000    23.1940    35.0687    22.6835   -47.9510   116.5968     8.0845     0.0373     0.2646     2.3199    63.2185     0.2108
  276.5000    23.5168    35.0409    22.8349   -47.9647   116.7228     8.0836     0.0388     0.2691     2.2960    64.1199     0.2217
  277.0000    24.0191    34.5044    23.8320   -48.1323   116.0693     8.0827     0.0435     0.2669     2.2936    67.1817     0.2281
  277.5000    25.0761    33.9762    24.8781   -48.3000   113.1626     8.0817     0.0513     0.2635     2.3007    70.2436     0.2284
  278.0000    26.7600    33.2123    26.7400   -48.6215   104.8880     8.0654     0.0624     0.2413     2.3356    72.0771     0.2189
  278.5000    28.9775    32.4655    28.5321   -48.6937    98.0372     8.0799     0.0544     0.2289     2.4023    71.4292     0.1908
  279.0000    30.2526    31.7355    30.0028   -48.8036    95.6064     8.0790     0.0336     0.2242     2.4293    70.4787     0.1671
  279.5000    29.7898    31.4791    28.6915   -48.9734    94.6927     8.0780     0.0240     0.2277     2.4515    70.7689     0.1385
  280.0000    26.8707    30.9972    26.6474   -48.9871   103.4818     8.0771     0.0159     0.2427     2.4046    71.3617     0.1700
  280.5000    25.1356    31.2000    24.7490   -49.1547   109.4587     8.0762     0.0156     0.2593     2.3402    72.5656     0.2099
  281.0000    26.0625    31.4047    25.6473   -49.3222   110.5824     8.0753     0.0221     0.2670     2.3155    73.7818     0.2185
  281.5000    27.2014    32.0758    26.7730   -49.6436   109.2791     8.0744     0.0284     0.2611     2.3057    76.2203     0.2195
  282.0000    26.5690    31.8163    26.5552   -49.6554   107.8571     8.0734     0.0331     0.2574     2.3321    78.3562     0.2077
  282.5000    25.9920    31.5514    25.9571   -49.6710   107.0185     8.0725     0.0299     0.2614     2.3472    80.1835     0.1973
  283.0000    25.5901    30.8491    25.3725   -49.8385   106.7069     8.0716     0.0250     0.2646     2.3591    82.3195     0.1887
  283.5000    25.3835    30.3486    25.3505   -49.8522   106.0603     8.0863     0.0201     0.2627     2.3526    81.0604     0.1945
  284.0000    25.9257    29.6558    26.0795   -50.0198   104.0147     8.0852     0.0201     0.2583     2.3462    79.8013     0.2031
  284.5000    26.6737    29.0208    27.2242   -50.0335   101.1634     8.1000     0.0216     0.2525     2.3463    78.5422     0.2002
  285.0000    28.0517    28.5823    28.4191   -50.0472    98.5476     8.0988     0.0231     0.2438     2.3511    75.4313     0.1946
  285.5000    28.6566    29.4018    28.8123   -50.0600    98.7584     8.0979     0.0214     0.2463     2.3590    74.1722     0.1857
  286.0000    27.8031    29.6000    27.9333   -50.0746   100.3214     8.0815     0.0197     0.2515     2.3644    74.7654     0.1870
  286.5000    26.9805    29.5706    27.1289   -50.0883   101.7556     8.0651     0.0197     0.2550     2.3561    76.2836     0.1905
  287.0000    27.3561    29.3317    27.4993   -50.1020   102.2373     8.0642     0.0259     0.2580     2.3499    78.4196     0.1968
  287.5000    27.9459    28.8827    27.8858   -50.2695   101.6873     8.0633     0.0418     0.2630     2.3457    80.8642     0.2008
  288.0000    27.7148    28.2332    27.0536   -50.7448   100.5024     8.0623     0.0497     0.2656     2.3478    80.8313     0.1932
