~VERSION INFORMATION
 VERS.                2.0:   CWLS LOG ASCII STANDARD - VERSION 2.0
 WRAP.                 NO:   ONE LINE PER DEPTH STEP
~WELL INFORMATION
#MNEM.UNIT      DATA TYPE    INFORMATION
#----------   ------------   ------------------------------
 STRT.F           36.0000:   START DEPTH
 STOP.F          493.0000:   STOP DEPTH
 STEP.F            0.5000:   STEP LENGTH
 NULL.          -999.2500:   NO VALUE
 COMP.    FENIX & SCISSON:   COMPANY
 WELL.       NPR #68-S-10:   WELL
 FLD .             TEAPOT:   FIELD
 LOC .      S10 T38N R78W:   LOCATION
 CNTY.            NATRONA:   COUNTY
 STAT.            WYOMING:   STATE
 CTRY. UNITED STATES OF AMERICA:   COUNTRY
 SRVC.              Welex:   SERVICE COMPANY
 DATE.        18-APR-1977:   LOGDATE
 API .       490251033500:   API NUMBER
~CURVE INFORMATION
#MNEM.UNIT       API CODE    CURVE DESCRIPTION
#----------   ------------   ------------------------------
 DEPT.F                  :   
 SPR .MV     07 010 01 00:   SPONTANEOUS POTENTIAL
 ILD .OHMM   07 120 46 00:   INDUCTION LOG DEEP
 ILM .OHMM   07 120 44 00:   INDUCTION LOG MEDIUM
 SGRD.OHMM   07 221 05 00:   SHALLOW SHORT GUARD RESISTIVITY
 CALD.IN     45 280 60 00:   CALIPER FROM DENSITY LOG
 GRD .GAPI   45 310 01 00:   GAMMA RAY FROM DENSITY LOG
 CORR.G/C3   45 356 01 00:   DENSITY CORRECTION
 RHOB.G/C3   45 350 01 00:   BULK DENSITY
 DPHI.DEC    45 890 12 00:   DENSITY POROSITY SANDSTONE
~PARAMETER INFORMATION
#MNEM.UNIT          VALUE    DESCRIPTION
#----------   ------------   ------------------------------
 PD  .                 GL:   PERMANENT DATUM
 EPD .F              5198:   ELEVATION PERMANENT DATUM
 LMF .                 GL:   LOG MEASURED FROM
 DMF .                 GL:   DRILLING MEASURED FROM
 EGL .F              5198:   GROUND LEVEL
 DATE.        18-APR-1977:   RUN DATE
 RUN .                  1:   RUN NUMBER
 DD  .F               505:   DEPTH DRILLER
 DL  .F               492:   DEPTH LOGGER
 BLI .F               490:   BOTTOM LOG INTERVAL
 TLI .F                32:   TOP LOG INTERVAL
 CS  .IN            8.625:   CASING SIZE
 CBD .F                40:   CASING BOTTOM DRILLER
 CBL .F                42:   CASING BOTTOM LOGGER
 BS  .IN            7.875:   BIT SIZE
 BSD .F               505:   BIT SIZE AT DEPTH
 DFT .            KCL MUD:   DRILLING FLUID TYPE
 DFV .                 36:   DRILLING FLUID VISCOSITY
 MSS .           FLOWLINE:   MUD SAMPLE SOURCE
 RMS .OHMM           2.46:   RESISTIVITY MUD SAMPLE
 MST .F                52:   MUD SAMPLE TEMPERATURE
 RMF .OHMM           2.30:   RESISTIVITY MUD FILTRATE SAMPLE
 MFST.F                52:   MUD FILTRATE SAMPLE TEMPERATURE
 RMC .OHMM           2.66:   RESISTIVITY MUD CAKE
 MCST.F                52:   MUD CAKE SAMPLE TEMPERATURE
 MFSS.               MEAS:   MUD FILTRATE SAMPLE SOURCE
 MCSS.               MEAS:   MUD CAKE SAMPLE SOURCE
 RMB .OHMM           1.97:   RESISTIVITY MUD AT BHT
 BHT .F                65:   BOTTOM HOLE TEMPERATURE
 TCS .HRS            0400:   TIME CURCULATED STOPPED
 MRT .F                65:   MAXIMUM RECORDED TEMPERATURE
 LUN .               8611:   LOGGING UNIT NUMBER
 LUL .             CASPER:   LOGGING UNIT LOCATION
 ENGI.               DOAK:   RECORDING ENGINEER
 WITN.            R. LYON:   WITNESSED BY
 CLNT.            A2DTECH:   CLIENT CODE
 ORIG.           5" PRINT:   ORIGIN OF DATA
 UWI .       490251033500:   UNIQUE WELL ID
 DICO. A2D Technologies, Inc.:   DIGITIZING COMPANY
~OTHER INFORMATION
~A   DEPT      SPR        ILD        ILM       SGRD         CALD       GRD      CORR       RHOB       DPHI   
# ...
  401.0000   -38.5739    19.1461    20.9565    27.8294     7.9354    89.1715     0.0122     2.3741     0.1639
  401.5000   -38.8575    18.4561    20.6819    27.8582     7.9076    88.2967     0.0198     2.3788     0.1597
  402.0000   -38.9890    17.5034    20.4151    28.2752     7.8947    85.6361     0.0245     2.3835     0.1552
  402.5000   -39.1470    17.0419    20.2914    28.5007     7.9264    83.2732     0.0306     2.3932     0.1480
  403.0000   -39.4000    16.7134    20.1685    28.9273     7.9432    81.2079     0.0337     2.4006     0.1441
  403.5000   -39.3831    17.1923    20.0463    28.9573     7.9303    80.0355     0.0398     2.4059     0.1437
  404.0000   -39.3668    17.8039    19.9054    29.1883     7.9322    80.6488     0.0444     2.4052     0.1440
  404.5000   -39.3505    18.1864    19.6679    29.0174     7.9490    84.8335     0.0445     2.4045     0.1443
  405.0000   -39.3344    18.4494    19.8212    28.6488     7.9510    88.5717     0.0431     2.4076     0.1431
  405.5000   -39.3181    18.2067    19.9751    28.0902     7.9529    91.8636     0.0432     2.4159     0.1370
  406.0000   -39.3017    17.5992    20.2774    27.7262     7.9549    89.3519     0.0433     2.4271     0.1313
  406.5000   -39.2853    17.2459    20.7116    27.7622     7.9568    86.6913     0.0434     2.4362     0.1244
  407.0000   -39.2689    17.1369    20.7288    28.3730     7.9588    85.3701     0.0420     2.4325     0.1269
  407.5000   -39.2525    17.1489    20.3204    28.5994     7.9607    84.6441     0.0391     2.4251     0.1303
  408.0000   -39.2361    17.2772    19.9202    28.4319     7.9478    85.2573     0.0317     2.4080     0.1372
  408.5000   -39.2197    17.6484    19.1272    27.4949     7.9497    86.9123     0.0228     2.3744     0.1606
  409.0000   -39.2033    17.6583    18.6213    26.9588     7.9517    83.8053     0.0154     2.3655     0.1674
  409.5000   -39.1869    17.6681    18.5081    26.5469     7.9536    80.2496     0.0125     2.3670     0.1656
  410.0000   -39.1705    17.6780    18.3959    26.7405     7.9556    77.8867     0.0111     2.3753     0.1593
  410.5000   -39.1541    17.6879    18.4118    27.1223     7.9575    76.2679     0.0112     2.3859     0.1545
  411.0000   -39.1377    17.5736    18.2995    27.3201     7.9444    76.5835     0.0113     2.3904     0.1542
  411.5000   -39.2733    17.2257    18.1894    26.9543     7.9612    78.1640     0.0099     2.3775     0.1589
  412.0000   -39.2529    16.8822    18.0792    26.5911     7.9632    80.3376     0.0055     2.3694     0.1658
  412.5000   -39.3885    16.7543    17.9660    25.5216     7.9577    82.2902     0.0041     2.3636     0.1694
  413.0000   -39.3680    16.4388    17.7342    24.8341     7.9596    83.6475     0.0042     2.3623     0.1705
  413.5000   -39.5036    16.2145    17.6268    25.0152     7.9690    84.7072     0.0058     2.3631     0.1705
  414.0000   -39.6352    15.8991    17.6451    25.3724     7.9560    84.7252     0.0091     2.3691     0.1639
  414.5000   -39.6147    15.4750    17.5383    24.8602     7.9578    83.9992     0.0151     2.3969     0.1465
  415.0000   -39.5983    15.2715    17.4320    24.5252     7.9597    83.2732     0.0197     2.4074     0.1432
  415.5000   -39.7339    15.0704    17.3228    24.1968     7.9617    82.2496     0.0213     2.4015     0.1467
  416.0000   -39.7134    14.8724    17.0994    24.2166     7.9636    81.8212     0.0199     2.3971     0.1491
  416.5000   -39.8490    14.7780    16.8823    24.5510     7.9656    83.7738     0.0185     2.3934     0.1520
  417.0000   -40.1285    14.7866    16.8964    24.0553     7.9527    84.0894     0.0156     2.3867     0.1570
  417.5000   -40.2600    14.7949    17.0277    23.2460     7.9397    83.3634     0.0112     2.3778     0.1616
  418.0000   -40.3875    14.8032    17.2791    22.9345     7.9417    82.0422     0.0068     2.3689     0.1673
  418.5000   -40.5231    14.8114    17.4134    22.9428     7.9288    80.5721     0.0054     2.3533     0.1730
  419.0000   -40.6546    14.8197    17.4279    23.2704     7.9159    82.0782     0.0055     2.3653     0.1688
  419.5000   -40.7862    14.9306    17.6852    23.6028     7.9030    82.8403     0.0101     2.3744     0.1633
  420.0000   -40.7693    15.1465    17.9462    23.6110     7.9049    82.1143     0.0117     2.3819     0.1591
  420.5000   -40.7530    15.5790    18.2111    23.9492     7.8920    83.1740     0.0088     2.3790     0.1588
  421.0000   -40.7367    15.9137    18.3527    23.9657     7.9088    83.7873     0.0059     2.3753     0.1609
  421.5000   -40.7204    15.9226    18.6236    23.9823     7.9107    83.5077     0.0060     2.3731     0.1632
  422.0000   -40.5562    15.7110    18.8985    23.9990     7.9276    83.1515     0.0061     2.3724     0.1644
  422.5000   -40.5399    15.5065    19.0454    24.1820     7.9295    82.3510     0.0062     2.3718     0.1629
  423.0000   -40.5235    15.5134    19.1894    24.0323     7.9314    82.1459     0.0109     2.3741     0.1587
  423.5000   -40.5071    15.5220    17.9270    23.8835     7.9483    83.4288     0.0170     2.3846     0.1536
  424.0000   -40.6390    15.5306    17.4529    23.5724     7.9502    84.4884     0.0216     2.3944     0.1499
  424.5000   -40.7701    15.5390    17.2241    23.2647     7.9522    85.6947     0.0247     2.3975     0.1508
  425.0000   -41.0503    15.0205    17.2391    23.1206     7.9541    86.4568     0.0263     2.3923     0.1535
  425.5000   -41.1811    14.8229    17.3730    23.1373     7.9709    85.2844     0.0264     2.3871     0.1544
  426.0000   -41.1647    14.8313    17.5080    23.3138     7.9727    84.7072     0.0265     2.3879     0.1552
  426.5000   -41.3004    14.8395    17.5225    23.3300     7.9746    85.9157     0.0281     2.3933     0.1551
  427.0000   -41.2799    14.5433    17.5370    23.1815     7.9766    87.1242     0.0297     2.3866     0.1468
  427.5000   -41.2635    14.1557    17.5516    23.0380     7.9636    88.0351     0.0313     2.4248     0.1294
  428.0000   -41.2471    13.9695    17.0810    23.0580     7.9655    88.6484     0.0344     2.4436     0.1234
  428.5000   -41.2307    13.7839    16.4066    22.7576     7.9452    89.4105     0.0375     2.4616     0.1171
  429.0000   -41.2143    13.6045    16.0837    22.0007     7.9397    90.1726     0.0391     2.4706     0.1075
  429.5000   -41.3458    13.3332    15.9862    21.5609     7.9414    90.6370     0.0423     2.4737     0.1020
  430.0000   -41.4815    13.3407    16.1106    21.5796     7.9434    91.1015     0.0454     2.4745     0.1011
  430.5000   -41.6130    13.3481    16.2359    22.0466     7.9453    91.4171     0.0470     2.4738     0.1023
  431.0000   -41.5925    13.3556    16.3621    22.8368     7.9473    90.3935     0.0440     2.4709     0.1100
  431.5000   -41.7281    13.4556    16.3757    23.4926     7.9492    88.7747     0.0382     2.4613     0.1145
  432.0000   -41.7077    13.6501    16.5030    23.6677     7.9660    89.9832     0.0353     2.4650     0.1055
  432.5000   -41.5433    13.7523    16.6313    22.8844     7.9531    91.0429     0.0339     2.4779     0.0980
  433.0000   -41.5269    13.7600    16.8768    22.7388     7.9551    91.8050     0.0325     2.4817     0.0968
  433.5000   -41.3626    13.7662    16.8909    22.6020     7.9422    92.1206     0.0311     2.4824     0.0967
  434.0000   -41.3462    13.7738    16.7851    22.6177     7.9590    91.3946     0.0297     2.4825     0.0967
  434.5000   -41.3298    13.6759    16.3446    22.4737     7.9609    90.0711     0.0283     2.4826     0.0973
  435.0000   -41.3134    13.5003    16.0226    22.3385     7.9629    90.9076     0.0254     2.4827     0.0985
  435.5000   -41.4491    13.4210    16.8306    22.1963     7.9648    92.7113     0.0225     2.4775     0.1028
  436.0000   -41.4320    13.3362    16.7287    22.2156     7.9667    94.2919     0.0196     2.4663     0.1102
  436.5000   -41.4157    13.2519    16.0627    22.2311     7.9687    94.5331     0.0182     2.4507     0.1155
  437.0000   -41.7120    13.1679    15.4233    22.2465     7.9706    92.9864     0.0198     2.4575     0.1149
