~VERSION INFORMATION
 VERS.                2.0:   CWLS LOG ASCII STANDARD - VERSION 2.0
 WRAP.                 NO:   ONE LINE PER DEPTH STEP
~WELL INFORMATION
#MNEM.UNIT      DATA TYPE    INFORMATION
#----------   ------------   ------------------------------
 STRT.F           25.0000:   START DEPTH
 STOP.F          528.0000:   STOP DEPTH
 STEP.F            0.5000:   STEP LENGTH
 NULL.          -999.2500:   NO VALUE
 COMP. FENIX & SCISSON INC:   COMPANY
 WELL.       NPR #3 #11-3:   WELL
 FLD .             NPR #3:   FIELD
 LOC .       S3 T38N R78W:   LOCATION
 CNTY.            NATRONA:   COUNTY
 STAT.            WYOMING:   STATE
 CTRY. UNITED STATES OF AMERICA:   COUNTRY
 SRVC.       Schlumberger:   SERVICE COMPANY
 DATE.        01-MAR-1977:   LOGDATE
 API .       490251028300:   API NUMBER
~CURVE INFORMATION
#MNEM.UNIT       API CODE    CURVE DESCRIPTION
#----------   ------------   ------------------------------
 DEPT.F                  :   
 SPR .MV     07 010 01 00:   SPONTANEOUS POTENTIAL
 LL8 .OHMM   07 220 08 00:   LATEROLOG-8 RES.
 ILM .OHMM   07 120 44 00:   INDUCTION LOG MEDIUM
 ILD .OHMM   07 120 46 00:   INDUCTION LOG DEEP
 GRD .GAPI   45 310 01 00:   GAMMA RAY FROM DENSITY LOG
 CALD.IN     45 280 60 00:   CALIPER
 RHOB.G/C3   45 350 01 00:   BULK DENSITY
 CORR.G/C3   45 356 01 00:   DENSITY CORRECTION
 DPHI.DEC    45 890 12 00:   DENSITY POROSITY SANDSTONE
~PARAMETER INFORMATION
#MNEM.UNIT          VALUE    DESCRIPTION
#----------   ------------   ------------------------------
 PD  .                 GL:   PERMANENT DATUM
 EPD .F              5178:   ELEVATION PERMANENT DATUM
 LMF .                 GL:   LOG MEASURED FROM
 DMF .                 GL:   DRILLING MEASURED FROM
 EKB .F              5183:   KELLING BUSHING
 EGL .F              5178:   GROUND LEVEL
 DATE.           3-1-1977:   RUN DATE
 RUN .                  1:   RUN NUMBER
 DD  .F               535:   DEPTH DRILLER
 DL  .F               526:   DEPTH LOGGER
 BLI .F               520:   BOTTOM LOG INTERVAL
 TLI .F                30:   TOP LOG INTERVAL
 CS  .IN            8.625:   CASING SIZE
 CBD .F                40:   CASING BOTTOM DRILLER
 CBL .F                30:   CASING BOTTOM LOGGER
 BS  .IN            7.875:   BIT SIZE
 BSD .F               535:   BIT SIZE AT DEPTH
 DFT .                KCL:   DRILLING FLUID TYPE
 DFD .                8.7:   DRILLING FLUID DENSITY
 DFV .                 37:   DRILLING FLUID VISCOSITY
 DFPH.                  8:   DRILLING FLUID PH
 DFL .                7.2:   DRILLING FLUID LOSS
 MSS .                PIT:   MUD SAMPLE SOURCE
 RMS .OHMM           .495:   RESISTIVITY MUD SAMPLE
 MST .F                62:   MUD SAMPLE TEMPERATURE
 RMF .OHMM           .406:   RESISTIVITY MUD FILTRATE SAMPLE
 MFST.F                65:   MUD FILTRATE SAMPLE TEMPERATURE
 MFSS.                  M:   MUD FILTRATE SAMPLE SOURCE
 RMB .OHMM           .438:   RESISTIVITY MUD AT BHT
 BHT .F                70:   BOTTOM HOLE TEMPERATURE
 TCS .HRS            0800:   TIME CURCULATED STOPPED
 TLAB.HRS            1130:   TIME LOGGER AT BOTTOM
 MRT .F                70:   MAXIMUM RECORDED TEMPERATURE
 LUN .               5642:   LOGGING UNIT NUMBER
 LUL .               CSPR:   LOGGING UNIT LOCATION
 ENGI.             MARTIN:   RECORDING ENGINEER
 CLNT.            A2DTECH:   CLIENT CODE
 ORIG.       2", 5" PRINT:   ORIGIN OF DATA
 UWI .       490251028300:   UNIQUE WELL ID
 DICO. A2D Technologies, Inc.:   DIGITIZING COMPANY
~OTHER INFORMATION
~A   DEPT      SPR        LL8        ILM        ILD         GRD      CALD       RHOB       CORR       DPHI   
# ...
  426.5000   -40.0864    12.8904    15.0617    13.7243    84.2791     7.9384     2.4508     0.0116     0.1253
  427.0000   -39.7833    14.1463    15.8638    14.3502    85.0703     7.9384     2.4558     0.0182     0.1211
  427.5000   -39.6806    15.7476    16.7078    15.0074    85.8619     7.9384     2.4557     0.0136     0.1233
  428.0000   -39.5461    16.8748    17.5971    15.6947    86.6592     7.9384     2.4502     0.0007     0.1280
  428.5000   -39.5086    16.9961    18.6133    16.4135    87.4454     7.9384     2.4462     0.0106     0.1313
  429.0000   -39.3464    17.1152    19.7149    17.1652    87.3012     7.9367     2.4707     0.0303     0.1179
  429.5000   -38.8087    17.1687    20.8812    17.9514    87.0859     7.9254     2.4589     0.0216     0.1249
  430.0000   -38.2734    18.5565    22.1159    18.4881    86.2703     7.9141     2.4378     0.0033     0.1357
  430.5000   -37.7328    20.0940    23.5132    18.8955    84.0672     7.9028     2.4163     0.0041     0.1462
  431.0000   -37.2190    19.7237    23.8413    19.5301    78.3722     7.8915     2.3948     0.0055     0.1567
  431.5000   -37.3254    19.7249    24.2968    20.1860    72.7379     7.8802     2.3734     0.0134     0.1672
  432.0000   -37.4560    20.9442    24.7610    20.8639    70.8162     7.8689     2.3542     0.0272     0.1776
  432.5000   -37.5840    23.0823    25.1183    21.5646    70.9931     7.8576     2.3430     0.0121     0.1881
  433.0000   -37.7103    22.6262    25.2234    22.2889    72.7880     7.8463     2.3241     0.0206     0.2023
  433.5000   -37.8375    21.8476    25.3186    23.0823    71.6708     7.8350     2.2788     0.0131     0.2211
  434.0000   -37.9781    21.0958    25.0010    23.2967    70.3367     7.8237     2.2374     0.0044     0.2509
  434.5000   -37.6248    20.3699    24.7154    23.1864    71.0955     7.8124     2.2534     0.0156     0.2437
  435.0000   -37.4902    19.7245    24.4331    22.9579    71.7987     7.8011     2.2733     0.0285     0.2272
  435.5000   -37.7793    19.7245    24.1539    22.7326    72.5704     7.7895     2.2522     0.0255     0.2347
  436.0000   -38.0588    20.4107    23.8780    22.5097    73.3391     7.7807     2.2659     0.0346     0.2405
  436.5000   -38.1591    20.9922    23.6052    22.2892    74.1931     7.8124     2.2926     0.0380     0.2211
  437.0000   -38.0932    20.6489    23.3355    22.0708    75.0800     7.8441     2.3159     0.0276     0.2090
  437.5000   -38.0266    20.2000    23.0690    22.0393    74.7256     7.8746     2.3205     0.0217     0.2024
  438.0000   -37.6667    19.7609    22.8698    22.2130    73.3700     7.8772     2.3269     0.0503     0.1972
  438.5000   -37.0112    19.3312    23.7350    22.9347    72.0183     7.7747     2.3100     0.0399     0.2133
  439.0000   -36.4186    19.0082    24.7995    23.6798    70.9619     7.7357     2.2838     0.0293     0.2244
  439.5000   -36.7718    19.3631    25.9188    24.4491    71.5805     7.7288     2.2954     0.0328     0.2175
  440.0000   -37.5763    22.2535    27.0814    25.2434    72.1807     7.7221     2.3104     0.0364     0.2085
  440.5000   -38.4370    27.2627    28.4399    25.5538    72.7788     7.7156     2.3252     0.0501     0.1995
  441.0000   -39.2915    27.0117    27.9949    24.9292    73.3314     7.7090     2.3398     0.0621     0.1905
  441.5000   -39.9212    26.0182    27.1287    24.1955    72.8494     7.7024     2.3474     0.0593     0.1837
  442.0000   -40.2541    25.2156    26.2870    23.4834    72.3295     7.6958     2.3419     0.0611     0.1876
  442.5000   -40.3045    24.4377    25.4678    22.7922    71.8136     7.6895     2.3366     0.0668     0.1915
  443.0000   -40.1337    23.6838    24.6739    22.1215    71.2947     7.6830     2.3328     0.0431     0.1955
  443.5000   -39.9624    22.9531    23.9049    21.4701    70.7976     7.7260     2.3575     0.0240     0.1792
  444.0000   -39.7912    22.2450    23.1599    20.8367    71.1805     7.8030     2.3859     0.0010     0.1622
  444.5000   -39.6257    21.5588    22.4382    20.2251    71.0271     7.8815     2.4141     0.0155     0.1451
  445.0000   -39.3246    20.8937    21.7389    19.6573    70.4673     7.9052     2.4346     0.0273     0.1315
  445.5000   -38.9983    20.2491    21.1635    19.2447    70.2423     7.9146     2.4081     0.0134     0.1460
  446.0000   -38.6692    19.8164    20.9628    18.8408    72.1297     7.9235     2.3813     0.0092     0.1616
  446.5000   -38.3380    19.5579    20.8498    18.4826    74.2148     7.9324     2.3594     0.0218     0.1771
  447.0000   -37.9716    19.3028    20.7126    18.1618    76.4144     7.9415     2.3320     0.0154     0.2000
  447.5000   -37.4436    19.0510    20.5252    17.8466    77.0992     7.9504     2.3264     0.0038     0.1978
  448.0000   -36.8058    18.8023    20.2732    17.5369    76.3705     7.9561     2.3277    -0.0011     0.1939
  448.5000   -36.1646    18.5567    20.2831    17.1716    75.3210     7.9398     2.3293     0.0053     0.1968
  449.0000   -35.5116    18.3153    20.2791    17.1871    74.2409     7.9233     2.3275     0.0126     0.1940
  449.5000   -34.8356    18.1462    20.2032    17.2025    73.5621     7.9068     2.3225     0.0200     0.1991
  450.0000   -35.2777    18.1435    20.0559    17.2180    72.9841     7.8903     2.3186     0.0275     0.2040
  450.5000   -36.2906    18.3939    19.9096    17.2334    73.3151     7.8738     2.3290     0.0336     0.1946
  451.0000   -36.6537    18.4941    19.7646    17.2489    74.4902     7.8594     2.3391     0.0249     0.1873
  451.5000   -36.3530    18.5958    19.5439    17.2645    75.7698     7.8701     2.3479     0.0163     0.1849
  452.0000   -36.0484    18.6999    19.6271    17.2802    76.8780     7.8809     2.3439     0.0075     0.1876
  452.5000   -36.4767    18.8046    19.8071    17.2959    75.7051     7.8914     2.3544     0.0048     0.1771
  453.0000   -36.8469    18.9099    19.9888    17.3216    74.4820     7.9020     2.3527     0.0043     0.1791
  453.5000   -36.0757    19.0154    20.1727    17.3342    75.5603     7.9124     2.3486     0.0111     0.1832
  454.0000   -35.3234    19.1215    20.3584    17.0117    76.9654     7.9179     2.3546     0.0258     0.1712
  454.5000   -35.5488    19.1860    20.5455    17.2255    78.2770     7.9166     2.3648     0.0258     0.1745
  455.0000   -35.9376    19.1842    20.7345    17.4903    77.6101     7.9154     2.3502     0.0166     0.1822
  455.5000   -36.3391    19.1848    20.8498    17.8168    76.8842     7.9141     2.3379     0.0097     0.1909
  456.0000   -36.1776    19.0857    20.7497    17.5864    76.1669     7.9128     2.3579     0.0279     0.1755
  456.5000   -35.8315    18.9861    20.6660    17.4148    75.4502     7.9115     2.3796     0.0332     0.1651
  457.0000   -36.1010    18.8871    20.5828    17.2448    74.7428     7.9102     2.3717     0.0310     0.1682
  457.5000   -36.3966    18.7885    20.4998    17.0765    74.1844     7.9090     2.3666     0.0289     0.1712
  458.0000   -36.6900    18.6905    20.4172    16.9098    74.4873     7.9077     2.3613     0.0218     0.1743
  458.5000   -36.9829    18.5930    20.3349    16.7447    74.7645     7.9064     2.3560     0.0156     0.1773
  459.0000   -37.2758    18.4881    20.2794    16.7000    74.6077     7.9051     2.3507     0.0201     0.1804
  459.5000   -37.5663    17.8289    20.2794    16.7000    73.6143     7.9038     2.3436     0.0244     0.1846
  460.0000   -37.8585    17.4068    19.9308    16.7000    72.6304     7.9026     2.3280     0.0267     0.1911
  460.5000   -37.7653    16.9925    18.8277    16.4219    72.8219     7.9013     2.3261     0.0168     0.1960
  461.0000   -37.3477    16.5859    17.7763    16.0310    74.0096     7.9000     2.3477     0.0069     0.1818
  461.5000   -36.9296    16.1888    16.7851    15.6494    75.2458     7.8987     2.3660     0.0026     0.1726
  462.0000   -36.5000    15.8012    15.9809    15.2769    75.0919     7.9044     2.3713     0.0127     0.1701
  462.5000   -35.9087    15.4229    15.5708    14.9133    74.4824     7.9108     2.3883     0.0289     0.1609
