~VERSION INFORMATION
 VERS.                2.0:   CWLS LOG ASCII STANDARD - VERSION 2.0
 WRAP.                 NO:   ONE LINE PER DEPTH STEP
~WELL INFORMATION
#MNEM.UNIT      DATA TYPE    INFORMATION
#----------   ------------   ------------------------------
 STRT.F           53.0000:   START DEPTH
 STOP.F         4152.0000:   STOP DEPTH
 STEP.F            0.5000:   STEP LENGTH
 NULL.          -999.2500:   NO VALUE
 COMP. DEPARTMENT OF ENERGY:   COMPANY
 WELL. RES 3 TEAPOT #11-STX-11:   WELL
 FLD . TEAPOT NAVAL RESERVE:   FIELD
 LOC .      S11 T38N R78W:   LOCATION
 CNTY.            NATRONA:   COUNTY
 STAT.            WYOMING:   STATE
 CTRY. UNITED STATES OF AMERICA:   COUNTRY
 SRVC.       Schlumberger:   SERVICE COMPANY
 DATE.        24-JUL-1975:   LOGDATE
 API .       490251025200:   API NUMBER
~CURVE INFORMATION
#MNEM.UNIT       API CODE    CURVE DESCRIPTION
#----------   ------------   ------------------------------
 DEPT.F                  :   
 SPR .MV     07 010 01 00:   SPONTANEOUS POTENTIAL
 ILD .OHMM   07 120 46 00:   INDUCTION LOG DEEP
 ILM .OHMM   07 120 44 00:   INDUCTION LOG MEDIUM
 LL8 .OHMM   07 220 08 00:   LATEROLOG-8 RES.
 DPOR.DEC    45 890 12 00:   DENSITY POROSITY SANDSTONE
 NPOR.DEC    42 890 03 00:   NEUTRON POROSITY SANDSTONE
 RHOB.G/C3   45 350 01 00:   BULK DENSITY
 CORR.G/C3   45 356 01 00:   DENSITY CORRECTION
 GRD .GAPI   45 310 01 00:   GAMMA RAY FROM DENSITY LOG
 CALD.IN     45 280 60 00:   CALIPER FROM DENSITY LOG
~PARAMETER INFORMATION
#MNEM.UNIT          VALUE    DESCRIPTION
#----------   ------------   ------------------------------
 PD  .                 GL:   PERMANENT DATUM
 EPD .F              5165:   ELEVATION PERMANENT DATUM
 LMF .                 KB:   LOG MEASURED FROM
 DAPD.F                13:   FEET ABOVE PERMANENT DATUM
 DMF .                 KB:   DRILLING MEASURED FROM
 EKB .F              5178:   KELLING BUSHING
 EGL .F              5165:   GROUND LEVEL
 DATE.            7-24-75:   RUN DATE
 RUN .                  1:   RUN NUMBER
 DD  .F              4150:   DEPTH DRILLER
 DL  .F              4154:   DEPTH LOGGER
 BLI .F              4152:   BOTTOM LOG INTERVAL
 TLI .F              1800:   TOP LOG INTERVAL
 CS  .IN            8.625:   CASING SIZE
 CBD .F               625:   CASING BOTTOM DRILLER
 CBL .F               627:   CASING BOTTOM LOGGER
 BS  .IN            7.875:   BIT SIZE
 BSD .F              4150:   BIT SIZE AT DEPTH
 DFT .                FGM:   DRILLING FLUID TYPE
 DFD .                9.5:   DRILLING FLUID DENSITY
 DFV .                 85:   DRILLING FLUID VISCOSITY
 MSS .           FLOWLINE:   MUD SAMPLE SOURCE
 RMS .OHMM           1.34:   RESISTIVITY MUD SAMPLE
 MST .F                91:   MUD SAMPLE TEMPERATURE
 RMF .OHMM           1.17:   RESISTIVITY MUD FILTRATE SAMPLE
 MFST.F                91:   MUD FILTRATE SAMPLE TEMPERATURE
 MFSS.                  M:   MUD FILTRATE SAMPLE SOURCE
 RMB .OHMM            .94:   RESISTIVITY MUD AT BHT
 BHT .F               130:   BOTTOM HOLE TEMPERATURE
 TCS .HRS            1230:   TIME CURCULATED STOPPED
 TLAB.HRS            1900:   TIME LOGGER AT BOTTOM
 MRT .F               132:   MAXIMUM RECORDED TEMPERATURE
 LUN .               7680:   LOGGING UNIT NUMBER
 LUL .               CSPR:   LOGGING UNIT LOCATION
 ENGI.             FRENCH:   RECORDING ENGINEER
 WITN.             CARTER:   WITNESSED BY
 CLNT.            A2DTECH:   CLIENT CODE
 ORIG.       2", 5" PRINT:   ORIGIN OF DATA
 UWI .       490251025200:   UNIQUE WELL ID
 DICO. A2D Technologies, Inc.:   DIGITIZING COMPANY
~OTHER INFORMATION
~A   DEPT      SPR          ILD        ILM       LL8      DPOR       NPOR       RHOB       CORR        GRD       CALD   
# ...
 1895.5000  -999.2500  -999.2500  -999.2500  -999.2500     0.0619     0.3366     2.5353     0.0139   192.4441    11.1099
 1896.0000  -999.2500  -999.2500  -999.2500  -999.2500     0.0615     0.3347     2.5456     0.0164   190.6896    11.0972
 1896.5000  -999.2500  -999.2500  -999.2500  -999.2500     0.0611     0.3364     2.5337     0.0142   186.0037    11.0843
 1897.0000  -999.2500  -999.2500  -999.2500  -999.2500     0.0586     0.3395     2.5405     0.0091   184.5867    11.0815
 1897.5000  -999.2500  -999.2500  -999.2500  -999.2500     0.0585     0.3451     2.5323     0.0041   186.4942    11.1021
 1898.0000  -999.2500  -999.2500  -999.2500  -999.2500     0.0673     0.3420     2.5218     0.0047   188.3761    11.1227
 1898.5000  -999.2500  -999.2500  -999.2500  -999.2500     0.0732     0.3370     2.5238     0.0099   189.3494    11.1396
 1899.0000  -999.2500  -999.2500  -999.2500  -999.2500     0.0737     0.3347     2.5288     0.0149   188.6955    11.1182
 1899.5000  -999.2500  -999.2500  -999.2500  -999.2500     0.0725     0.3405     2.5202     0.0127   188.7490    11.0969
 1900.0000  -999.2500  -999.2500  -999.2500  -999.2500     0.0714     0.3487     2.5165     0.0073   193.0846    11.0757
 1900.5000  -999.2500  -999.2500  -999.2500  -999.2500     0.0754     0.3575     2.5246     0.0111   195.1504    11.0549
 1901.0000  -999.2500  -999.2500  -999.2500  -999.2500     0.0777     0.3575     2.5302     0.0074   196.5705    11.0397
 1901.5000  -999.2500  -999.2500  -999.2500  -999.2500     0.0810     0.3452     2.5060     0.0066   197.8340    11.0586
 1902.0000  -999.2500  -999.2500  -999.2500  -999.2500     0.0738     0.3358     2.5152     0.0227   195.7629    11.0794
 1902.5000  -999.2500  -999.2500  -999.2500  -999.2500     0.0728     0.3263     2.5284     0.0316   191.8262    11.0663
 1903.0000  -999.2500  -999.2500  -999.2500  -999.2500     0.0753     0.3199     2.5202     0.0198   189.7667    11.0661
 1903.5000  -999.2500  -999.2500  -999.2500  -999.2500     0.0721     0.3186     2.5153     0.0073   188.1760    11.0832
 1904.0000  -999.2500  -999.2500  -999.2500  -999.2500     0.0742     0.3174     2.5256     0.0101   188.3687    11.1002
 1904.5000  -999.2500  -999.2500  -999.2500  -999.2500     0.0679     0.3162     2.5365     0.0075   188.5213    11.0910
 1905.0000  -999.2500  -999.2500  -999.2500  -999.2500     0.0645     0.3150     2.5198     0.0027   188.8809    11.0783
 1905.5000  -999.2500  -999.2500  -999.2500  -999.2500     0.0717     0.3112     2.5111     0.0059   191.1734    11.0655
 1906.0000  -999.2500  -999.2500  -999.2500  -999.2500     0.0809     0.3073     2.5338     0.0147   197.2743    11.0655
 1906.5000  -999.2500  -999.2500  -999.2500  -999.2500     0.0866     0.3034     2.5424     0.0234   201.5347    11.0786
 1907.0000  -999.2500  -999.2500  -999.2500  -999.2500     0.0810     0.3099     2.5245     0.0234   203.5568    11.0917
 1907.5000  -999.2500  -999.2500  -999.2500  -999.2500     0.0820     0.3200     2.5119     0.0163   203.3130    11.1048
 1908.0000  -999.2500  -999.2500  -999.2500  -999.2500     0.0827     0.3301     2.5080     0.0113   199.7577    11.1178
 1908.5000  -999.2500  -999.2500  -999.2500  -999.2500     0.0817     0.3323     2.5322     0.0258   194.4073    11.1309
 1909.0000  -999.2500  -999.2500  -999.2500  -999.2500     0.0842     0.3315     2.5473     0.0337   190.3665    11.1451
 1909.5000  -999.2500  -999.2500  -999.2500  -999.2500     0.0836     0.3275     2.5266     0.0219   185.8543    11.1644
 1910.0000  -999.2500  -999.2500  -999.2500  -999.2500     0.0809     0.3200     2.5017     0.0143   183.2575    11.1835
 1910.5000  -999.2500  -999.2500  -999.2500  -999.2500     0.0889     0.3134     2.4787     0.0273   184.3063    11.2025
 1911.0000  -999.2500  -999.2500  -999.2500  -999.2500     0.0922     0.3135     2.4911     0.0440   184.9810    11.2215
 1911.5000  -999.2500  -999.2500  -999.2500  -999.2500     0.0978     0.3230     2.4617     0.0082   182.2477    11.2405
 1912.0000  -999.2500  -999.2500  -999.2500  -999.2500     0.1014     0.3320     2.4308     0.0167   179.7373    11.2587
 1912.5000  -999.2500  -999.2500  -999.2500  -999.2500     0.0954     0.3410     2.4433     0.0380   180.2076    11.2872
 1913.0000  -999.2500  -999.2500  -999.2500  -999.2500     0.1200     0.3507     2.4534     0.0742   180.9017    11.3151
 1913.5000  -999.2500  -999.2500  -999.2500  -999.2500     0.1192     0.3676     2.3807     0.0231   180.0550    11.3400
 1914.0000  -999.2500  -999.2500  -999.2500  -999.2500     0.1162     0.3881     2.2843     0.0436   178.4476    11.5148
 1914.5000  -999.2500  -999.2500  -999.2500  -999.2500     0.1679     0.4220     2.2320     0.0563   177.2642    12.3997
 1915.0000  -999.2500  -999.2500  -999.2500  -999.2500     0.2264     0.4559     2.1850    -0.0032   178.4501    13.6585
 1915.5000  -999.2500  -999.2500  -999.2500  -999.2500     0.2395     0.4778     2.2770     0.0067   180.7256    11.8037
 1916.0000  -999.2500  -999.2500  -999.2500  -999.2500     0.2709     0.4520     2.4595     0.0152   183.1874    11.5211
 1916.5000  -999.2500  -999.2500  -999.2500  -999.2500     0.2227     0.3803     2.5105     0.0049   183.1991    11.2889
 1917.0000  -999.2500  -999.2500  -999.2500  -999.2500     0.1507     0.3555     2.5122     0.0129   181.7689    11.2453
 1917.5000  -999.2500  -999.2500  -999.2500  -999.2500     0.1002     0.3431     2.4981     0.0074   180.6558    11.2382
 1918.0000  -999.2500  -999.2500  -999.2500  -999.2500     0.1002     0.3351     2.4878     0.0122   182.4205    11.2359
 1918.5000  -999.2500  -999.2500  -999.2500  -999.2500     0.0854     0.3413     2.4890     0.0245   185.0618    11.2333
 1919.0000  -999.2500  -999.2500  -999.2500  -999.2500     0.0863     0.3463     2.4963     0.0373   187.8387    11.2306
 1919.5000  -999.2500  -999.2500  -999.2500  -999.2500     0.0878     0.3473     2.4826     0.0931   188.3495    11.2278
 1920.0000  -999.2500  -999.2500  -999.2500  -999.2500     0.1033     0.3511     2.5053     0.1209   185.2341    11.2251
 1920.5000  -999.2500  -999.2500  -999.2500  -999.2500     0.0946     0.3570     2.4334     0.0326   184.1326    11.2222
 1921.0000  -999.2500  -999.2500  -999.2500  -999.2500     0.0890     0.3607     2.4727     0.0011   184.3596    11.2288
 1921.5000  -999.2500  -999.2500  -999.2500  -999.2500     0.1176     0.3470     2.5041     0.0052   184.4794    11.2404
 1922.0000  -999.2500  -999.2500  -999.2500  -999.2500     0.1198     0.3359     2.4852    -0.0001   184.1363    11.2521
 1922.5000  -999.2500  -999.2500  -999.2500  -999.2500     0.0973     0.3284     2.4936    -0.0036   184.9258    11.2638
 1923.0000  -999.2500  -999.2500  -999.2500  -999.2500     0.0850     0.3255     2.5073     0.0090   186.8525    11.2761
 1923.5000  -999.2500  -999.2500  -999.2500  -999.2500     0.0898     0.3251     2.5174     0.0202   188.7068    11.3124
 1924.0000  -999.2500  -999.2500  -999.2500  -999.2500     0.0843     0.3246     2.4868     0.0171   188.7701    11.3776
 1924.5000  -999.2500  -999.2500  -999.2500  -999.2500     0.0798     0.3282     2.4623     0.0046   188.5522    11.4181
 1925.0000  -999.2500  -999.2500  -999.2500  -999.2500     0.0876     0.3333     2.4472     0.0151   188.5153    11.3080
 1925.5000  -999.2500  -999.2500  -999.2500  -999.2500     0.0979     0.3379     2.4550     0.0364   185.6536    11.2823
 1926.0000  -999.2500  -999.2500  -999.2500  -999.2500     0.1055     0.3403     2.4599     0.0283   182.4118    11.3393
 1926.5000  -999.2500  -999.2500  -999.2500  -999.2500     0.1102     0.3510     2.4256     0.0201   180.4604    11.4766
 1927.0000  -999.2500  -999.2500  -999.2500  -999.2500     0.1178     0.3649     2.4377     0.0263   181.3218    11.3986
 1927.5000  -999.2500  -999.2500  -999.2500  -999.2500     0.1243     0.3796     2.4098     0.0213   185.7023    11.3623
 1928.0000  -999.2500  -999.2500  -999.2500  -999.2500     0.1278     0.3824     2.3783     0.0637   190.3051    11.4282
 1928.5000  -999.2500  -999.2500  -999.2500  -999.2500     0.1382     0.3744     2.4096     0.0879   192.7001    11.3114
