~VERSION INFORMATION
 VERS.                2.0:   CWLS LOG ASCII STANDARD - VERSION 2.0
 WRAP.                 NO:   ONE LINE PER DEPTH STEP
~WELL INFORMATION
#MNEM.UNIT      DATA TYPE    INFORMATION
#----------   ------------   ------------------------------
 STRT.F          600.0000:   START DEPTH
 STOP.F         2218.0000:   STOP DEPTH
 STEP.F            0.5000:   STEP LENGTH
 NULL.          -999.2500:   NO VALUE
 COMP. US DEPTMNT OF ENRGY:   COMPANY
 WELL.   37 STX 10 #37-10:   WELL
 FLD .             TEAPOT:   FIELD
 LOC .      S10 T38N R78W:   LOCATION
 CNTY.            NATRONA:   COUNTY
 STAT.            WYOMING:   STATE
 CTRY. UNITED STATES OF AMERICA:   COUNTRY
 SRVC.            Unknown:   SERVICE COMPANY
 DATE.        15-MAY-1991:   LOGDATE
 API .       490251094200:   API NUMBER
~CURVE INFORMATION
#MNEM.UNIT       API CODE    CURVE DESCRIPTION
#----------   ------------   ------------------------------
 DEPT.F                  :   
 TGAS.UNITS  91 830 01 00:   TOTAL GAS FROM HOTWIRE
 ROP .MIN/FT 91 810 01 00:   RATE OF DRILLING PENETRATION
~PARAMETER INFORMATION
#MNEM.UNIT          VALUE    DESCRIPTION
#----------   ------------   ------------------------------
 EKB .F              5231:   KELLING BUSHING
 EGL .F              5221:   GROUND LEVEL
 DATE.            5-15-91:   RUN DATE
 DD  .F              2218:   DEPTH DRILLER
 BLI .F              2218:   BOTTOM LOG INTERVAL
 TLI .F               960:   TOP LOG INTERVAL
 ENGI.              TOWER:   RECORDING ENGINEER
 WITN.               HUSK:   WITNESSED BY
 CLNT.            A2DTECH:   CLIENT CODE
 ORIG.           5" PRINT:   ORIGIN OF DATA
 UWI .       490251094200:   UNIQUE WELL ID
 DICO. A2D Technologies, Inc.:   DIGITIZING COMPANY
~OTHER INFORMATION
~A   DEPT     TGAS          ROP 
# ...
 1207.5000    25.1472     1.1099
 1208.0000    25.0931     1.1099
 1208.5000    25.0390     1.1105
 1209.0000    24.9848     1.1219
 1209.5000    24.9307     1.1361
 1210.0000    24.8765     1.1703
 1210.5000    24.8224     1.2045
 1211.0000    24.7683     1.2361
 1211.5000    24.7141     1.2558
 1212.0000    24.6600     1.2637
 1212.5000    24.6058     1.2560
 1213.0000    24.5517     1.2245
 1213.5000    24.4976     1.1789
 1214.0000    24.4434     1.1487
 1214.5000    24.3893     1.1429
 1215.0000    24.3351     1.1548
 1215.5000    24.2810     1.1776
 1216.0000    24.2268     1.1733
 1216.5000    24.1727     1.1505
 1217.0000    24.1186     1.0896
 1217.5000    24.0644     1.0098
 1218.0000    24.0103     0.9553
 1218.5000    23.9561     0.9451
 1219.0000    23.9020     0.9451
 1219.5000    23.8479     0.9560
 1220.0000    23.8024     0.9417
 1220.5000    24.0146     0.9256
 1221.0000    24.1974     0.9089
 1221.5000    24.3801     0.8865
 1222.0000    24.5629     0.8758
 1222.5000    24.7457     0.8731
 1223.0000    24.9284     0.8632
 1223.5000    25.1112     0.8624
 1224.0000    25.2940     0.8647
 1224.5000    25.4768     0.8752
 1225.0000    25.6595     0.8858
 1225.5000    25.8423     0.8963
 1226.0000    26.0251     0.9069
 1226.5000    26.2078     0.9225
 1227.0000    26.3906     0.9390
 1227.5000    26.5734     0.9612
 1228.0000    26.7561     0.9821
 1228.5000    26.9389     0.9860
 1229.0000    27.1217     0.9922
 1229.5000    27.1782     0.9805
 1230.0000    27.1208     0.9414
 1230.5000    27.0635     0.7725
 1231.0000    27.0062     0.6068
 1231.5000    26.9488     0.4424
 1232.0000    26.8915     0.4087
 1232.5000    26.8342     0.4079
 1233.0000    26.7768     0.4181
 1233.5000    26.7195     0.4283
 1234.0000    26.6621     0.4385
 1234.5000    26.6048     0.4376
 1235.0000    26.5475     0.4368
 1235.5000    26.4901     0.4360
 1236.0000    26.4328     0.4352
 1236.5000    26.3755     0.4343
 1237.0000    26.3181     0.4335
 1237.5000    26.2608     0.4327
 1238.0000    26.2035     0.4288
 1238.5000    26.1461     0.4201
 1239.0000    26.0888     0.4192
 1239.5000    26.0314     0.4184
 1240.0000    26.0320     0.4424
 1240.5000    26.2086     0.5034
 1241.0000    26.3852     0.5643
 1241.5000    26.5619     0.6150
 1242.0000    26.7385     0.6394
 1242.5000    26.9151     0.6456
 1243.0000    27.0918     0.6406
 1243.5000    27.2684     0.6335
 1244.0000    27.4450     0.6377
 1244.5000    27.6217     0.6630
 1245.0000    27.7983     0.7019
 1245.5000    27.9749     0.7451
 1246.0000    28.1516     0.8002
 1246.5000    28.3282     0.8553
 1247.0000    28.5048     0.9048
 1247.5000    28.6815     0.9430
 1248.0000    28.8581     0.9758
 1248.5000    29.0347     0.9907
 1249.0000    29.2114     1.0146
 1249.5000    29.3880     1.0712
 1250.0000    29.5646     1.1053
 1250.5000    29.7413     1.1093
 1251.0000    29.9179     1.1021
 1251.5000    30.0945     1.1041
 1252.0000    30.2712     1.1286
 1252.5000    30.4478     1.1685
 1253.0000    30.8200     1.2052
 1253.5000    32.8242     1.2454
 1254.0000    32.7926     1.3692
 1254.5000    32.7642     1.2478
 1255.0000    32.7358     1.1154
 1255.5000    32.7074     0.9390
 1256.0000    32.6790     0.8286
 1256.5000    32.6506     0.7181
 1257.0000    32.6222     0.6733
 1257.5000    32.5939     0.6289
 1258.0000    32.5655     0.6176
 1258.5000    32.5371     0.6170
 1259.0000    32.5087     0.6165
 1259.5000    32.4803     0.6285
 1260.0000    32.4519     0.6491
 1260.5000    32.3707     0.6580
 1261.0000    32.2894     0.6668
 1261.5000    32.2082     0.6756
 1262.0000    32.1270     0.6845
 1262.5000    32.0457     0.6909
 1263.0000    31.9645     0.6873
 1263.5000    31.8832     0.6794
 1264.0000    31.8020     0.6749
 1264.5000    31.7208     0.6679
 1265.0000    31.6395     0.6625
 1265.5000    31.5583     0.6563
 1266.0000    31.4771     0.6560
 1266.5000    31.3958     0.6558
 1267.0000    31.3146     0.6555
 1267.5000    31.2333     0.6552
 1268.0000    31.1521     0.6474
 1268.5000    31.0709     0.6437
 1269.0000    30.9896     0.6434
 1269.5000    30.9084     0.6541
 1270.0000    30.8271     0.7087
 1270.5000    30.7459     0.8294
 1271.0000    30.6647     0.9500
 1271.5000    30.5834     1.1145
 1272.0000    30.5022     1.1472
 1272.5000    30.4209     1.1124
 1273.0000    30.3397     1.0317
 1273.5000    30.2585     0.9423
 1274.0000    30.1772     0.8824
 1274.5000    30.0960     0.8821
 1275.0000    30.0148     0.8819
 1275.5000    29.9335     0.8789
 1276.0000    29.8523     0.8703
 1276.5000    29.7710     0.8701
 1277.0000    29.6898     0.8698
 1277.5000    29.6086     0.8695
 1278.0000    29.5273     0.8692
 1278.5000    29.4461     0.8690
 1279.0000    29.3648     0.8631
 1279.5000    29.2836     0.8634
 1280.0000    30.2885     0.8763
 1280.5000    30.3421     0.8905
 1281.0000    30.3958     0.9046
 1281.5000    30.4494     0.9188
 1282.0000    30.5031     0.9341
 1282.5000    30.5567     0.9341
 1283.0000    30.6104     0.9341
 1283.5000    30.6640     0.9341
 1284.0000    30.7177     0.9341
 1284.5000    30.7713     0.9341
 1285.0000    30.8249     0.9341
 1285.5000    30.8786     0.9350
 1286.0000    30.9322     0.9451
 1286.5000    30.9859     0.9451
 1287.0000    31.0395     0.9434
 1287.5000    31.0932     0.9302
 1288.0000    31.1468     0.9055
 1288.5000    31.2005     0.8669
 1289.0000    31.2541     0.8026
 1289.5000    31.3078     0.7097
 1290.0000    31.3614     0.6374
 1290.5000    31.4151     0.6443
 1291.0000    31.4687     0.6668
 1291.5000    31.5224     0.6972
 1292.0000    31.5760     0.7337
 1292.5000    31.6297     0.7339
 1293.0000    31.6833     0.6907
 1293.5000    31.7370     0.6246
 1294.0000    31.7906     0.5668
 1294.5000    31.8443     0.5495
 1295.0000    31.8979     0.5666
 1295.5000    31.9516     0.5884
 1296.0000    32.0052     0.6121
 1296.5000    32.0589     0.6329
 1297.0000    32.1125     0.6441
 1297.5000    32.1662     0.6414
 1298.0000    32.2198     0.6229
 1298.5000    32.2735     0.5630
 1299.0000    32.3271     0.4843
 1299.5000    32.3808     0.4456
 1300.0000    32.4344     0.4560
 1300.5000    32.4887     0.5040
 1301.0000    32.5433     0.5714
 1301.5000    32.5979     0.6374
 1302.0000    32.6525     0.6703
 1302.5000    32.7070     0.6692
 1303.0000    32.7616     0.6686
 1303.5000    32.8162     0.6684
 1304.0000    32.8708     0.6571
 1304.5000    32.9254     0.6459
 1305.0000    32.9800     0.6346
 1305.5000    33.0346     0.6343
 1306.0000    33.0892     0.6231
 1306.5000    33.1437     0.6338
 1307.0000    33.1983     0.6452
 1307.5000    33.2529     0.6900
 1308.0000    33.3075     0.7355
 1308.5000    33.3621     0.7916
 1309.0000    33.4167     0.8451
 1309.5000    33.4713     0.8739
 1310.0000    33.5259     0.8736
 1310.5000    33.5804     0.8734
 1311.0000    33.6350     0.8731
 1311.5000    33.6896     0.8755
 1312.0000    33.7442     0.8923
 1312.5000    33.7988     0.9226
 1313.0000    33.8534     0.9483
 1313.5000    33.9080     0.9819
 1314.0000    33.9626     1.0154
 1314.5000    34.0172     1.0489
 1315.0000    34.0717     1.0778
 1315.5000    34.1263     1.1001
 1316.0000    34.1809     1.0659
 1316.5000    34.2355     0.9373
 1317.0000    34.2901     0.7963
 1317.5000    34.3447     0.6841
 1318.0000    34.3993     0.6073
 1318.5000    34.4538     0.5637
 1319.0000    34.5084     0.5364
 1319.5000    34.5630     0.5066
 1320.0000    34.6132     0.4725
 1320.5000    34.4965     0.4608
 1321.0000    34.3886     0.4544
 1321.5000    34.2807     0.4481
 1322.0000    34.1728     0.4473
 1322.5000    34.0649     0.4532
 1323.0000    33.9570     0.4782
 1323.5000    33.8491     0.5040
 1324.0000    33.7412     0.5341
 1324.5000    33.6333     0.5590
 1325.0000    33.5254     0.5740
 1325.5000    33.4175     0.5842
 1326.0000    33.3097     0.5834
 1326.5000    33.2017     0.5826
 1327.0000    33.0938     0.5818
 1327.5000    32.9860     0.5810
 1328.0000    32.8781     0.5802
 1328.5000    32.7702     0.5794
