~VERSION INFORMATION
 VERS.                2.0:   CWLS LOG ASCII STANDARD - VERSION 2.0
 WRAP.                 NO:   ONE LINE PER DEPTH STEP
~WELL INFORMATION
#MNEM.UNIT      DATA TYPE    INFORMATION
#----------   ------------   ------------------------------
 STRT.F           50.0000:   START DEPTH
 STOP.F         1020.0000:   STOP DEPTH
 STEP.F            0.5000:   STEP LENGTH
 NULL.          -999.2500:   NO VALUE
 COMP. LAWRENCE/ALLISON INC:   COMPANY
 WELL.      28 STX #14-14:   WELL
 FLD .             TEAPOT:   FIELD
 LOC .      S14 T38N R78W:   LOCATION
 CNTY.            NATRONA:   COUNTY
 STAT.            WYOMING:   STATE
 CTRY. UNITED STATES OF AMERICA:   COUNTRY
 SRVC.            Unknown:   SERVICE COMPANY
 DATE.        22-OCT-1984:   LOGDATE
 API .       490251099000:   API NUMBER
~CURVE INFORMATION
#MNEM.UNIT       API CODE    CURVE DESCRIPTION
#----------   ------------   ------------------------------
 DEPT.F                  :   
 SPR .MV     07 010 01 00:   SPONTANEOUS POTENTIAL
 RILD.OHMM   07 120 46 00:   INDUCTION LOG DEEP RESISTIVITY
 RILM.OHMM   07 120 44 00:   INDUCTION LOG MEDIUM RESISTIVITY
 RFOC.OHMM   07 220 04 00:   RESISTIVITY FOCUSED LOG
 GRD .GAPI   45 310 01 00:   GAMMA RAY FROM DENSITY LOG
 CALD.IN     45 280 60 00:   CALIPER
 DEN .G/C3   45 350 01 00:   COMPENSATED BULK DENSTIY
 CORR.G/C3   45 356 01 00:   DENSITY CORRECTION
 PORD.DEC    45 890 12 00:   POROSITY DENSITY SANDSTONE
 CNC .DEC    42 890 03 00:   NEUTRON POROSITY SANDSTONE
 AC  .US/F   60 520 00 00:   ACOUSTIC SONIC
~PARAMETER INFORMATION
#MNEM.UNIT          VALUE    DESCRIPTION
#----------   ------------   ------------------------------
 PD  .                 GL:   PERMANENT DATUM
 EPD .F              5257:   ELEVATION PERMANENT DATUM
 LMF .                 KB:   LOG MEASURED FROM
 DAPD.F                12:   FEET ABOVE PERMANENT DATUM
 DMF .                 KB:   DRILLING MEASURED FROM
 EKB .F              5269:   KELLING BUSHING
 EGL .F              5257:   GROUND LEVEL
 DATE.           10-22-84:   RUN DATE
 RUN .                  1:   RUN NUMBER
 DD  .F              1020:   DEPTH DRILLER
 DL  .F              1019:   DEPTH LOGGER
 BLI .F              1017:   BOTTOM LOG INTERVAL
 TLI .F                52:   TOP LOG INTERVAL
 CS  .IN               16:   CASING SIZE
 CBD .F                40:   CASING BOTTOM DRILLER
 CBL .F                52:   CASING BOTTOM LOGGER
 BS  .IN            12.25:   BIT SIZE
 BSD .F              1020:   BIT SIZE AT DEPTH
 DFT .          GEL/WATER:   DRILLING FLUID TYPE
 DFD .                9.1:   DRILLING FLUID DENSITY
 DFV .                 35:   DRILLING FLUID VISCOSITY
 MSS .           FLOWLINE:   MUD SAMPLE SOURCE
 RMS .OHMM           2.04:   RESISTIVITY MUD SAMPLE
 MST .F                76:   MUD SAMPLE TEMPERATURE
 RMF .OHMM           1.53:   RESISTIVITY MUD FILTRATE SAMPLE
 MFST.F                76:   MUD FILTRATE SAMPLE TEMPERATURE
 RMC .OHMM           2.55:   RESISTIVITY MUD CAKE
 MCST.F                76:   MUD CAKE SAMPLE TEMPERATURE
 MFSS.               CALC:   MUD FILTRATE SAMPLE SOURCE
 MCSS.               CALC:   MUD CAKE SAMPLE SOURCE
 TCS .HRS               3:   TIME CURCULATED STOPPED
 MRT .F               100:   MAXIMUM RECORDED TEMPERATURE
 LUN .            HL 6307:   LOGGING UNIT NUMBER
 LUL .           GILLETTE:   LOGGING UNIT LOCATION
 ENGI.          CROSSBERG:   RECORDING ENGINEER
 WITN.            JOHNSON:   WITNESSED BY
 CLNT.            A2DTECH:   CLIENT CODE
 ORIG.       2", 5" PRINT:   ORIGIN OF DATA
 UWI .       490251099000:   UNIQUE WELL ID
 DICO. A2D Technologies, Inc.:   DIGITIZING COMPANY
~OTHER INFORMATION
~A   DEPT      SPR       RILD       RILM       RFOC        GRD        CALD       DEN       CORR       PORD          CNC       AC   
# ...
  111.0000   -59.4285     9.0172     6.1832     6.4650    86.5960    12.3533     2.4129     0.0398     0.1573     0.2997   117.3546
  111.5000   -59.5059     9.0375     6.1216     6.3431    84.8143    12.3526     2.4180     0.0465     0.1557     0.2989   116.8425
  112.0000   -59.3519     9.0579     6.0266     6.2523    83.1359    12.3518     2.4179     0.0483     0.1559     0.2990   115.0885
  112.5000   -59.0124     9.0784     6.0311     6.2521    84.8785    12.3510     2.4149     0.0485     0.1581     0.2993   112.2056
  113.0000   -58.6714     9.0989     6.0410     6.3031    87.4679    12.3503     2.4118     0.0391     0.1604     0.2995   112.1058
  113.5000   -58.3282     9.1141     6.0510     6.3520    89.5053    12.3495     2.4087     0.0263     0.1626     0.2998   112.2295
  114.0000   -57.9846     9.0260     6.0610     6.4014    88.2918    12.3487     2.4055     0.0132     0.1629     0.3000   112.1145
  114.5000   -57.6446     8.9567     6.0709     6.4505    85.6360    12.3480     2.4098     0.0002     0.1592     0.3003   111.0648
  115.0000   -57.3307     8.8879     6.0822     6.4865    86.6338    12.3472     2.4150    -0.0016     0.1555     0.3005   110.0137
  115.5000   -57.2474     8.8197     6.0829     6.3183    86.2569    12.3464     2.4203    -0.0010     0.1524     0.3218   110.1500
  116.0000   -57.1545     8.6886     6.0238     6.1898    85.8109    12.3457     2.4252     0.0099     0.1509     0.3274   110.4715
  116.5000   -57.0605     8.4945     5.9067     6.0639    85.8913    12.3449     2.4263     0.0202     0.1512     0.3052   111.4103
  117.0000   -56.9677     8.3049     5.7919     5.9877    86.9438    12.3441     2.4246     0.0196     0.1529     0.3075   112.1546
  117.5000   -56.8736     8.1195     5.6792     5.9326    87.9774    12.3434     2.4226     0.0184     0.1544     0.3097   112.5618
  118.0000   -56.7697     7.9382     5.5687     5.8780    89.0810    12.3426     2.4235     0.0173     0.1517     0.3120   112.9289
  118.5000   -57.0572     7.7609     5.4604     5.8239    91.7692    12.3418     2.4301     0.0188     0.1471     0.3143   113.0604
  119.0000   -57.4358     7.5880     5.3541     5.7703    94.7334    12.3411     2.4367     0.0319     0.1425     0.3170   113.2036
  119.5000   -57.8448     7.4198     5.2499     5.7018    96.0326    12.3403     2.4429     0.0427     0.1398     0.3150   113.4819
  120.0000   -58.3126     7.2429     5.1547     5.6284    96.5239    12.3395     2.4401     0.0366     0.1461     0.3133   113.7756
  120.5000   -58.7883     7.1766     5.1673     5.5560    95.4179    12.3393     2.4317     0.0264     0.1514     0.3119   114.0695
  121.0000   -59.2640     7.2044     5.1905     5.4846    92.0597    12.3393     2.4230     0.0297     0.1547     0.3025   114.3615
  121.5000   -59.7394     7.2338     5.2137     5.3972    88.8258    12.3393     2.4188     0.0388     0.1534     0.2984   114.7363
  122.0000   -60.2149     7.2634     5.2371     5.4323    86.7617    12.3393     2.4230     0.0485     0.1512     0.2932   115.1770
  122.5000   -60.6908     7.2931     5.2606     5.4954    87.6507    12.3393     2.4273     0.0433     0.1495     0.2894   115.0898
  123.0000   -61.1664     7.3229     5.2960     5.5593    87.6211    12.3393     2.4290     0.0340     0.1505     0.2916   114.6884
  123.5000   -61.6395     7.3528     5.2865     5.6510    86.0700    12.3393     2.4259     0.0246     0.1531     0.2998   114.2870
  124.0000   -61.9295     7.3773     5.2540     5.6399    85.7030    12.3393     2.4213     0.0148     0.1545     0.3027   113.8855
  124.5000   -61.6925     7.2171     5.2217     5.6109    85.7464    12.3393     2.4232     0.0159     0.1514     0.3055   113.4841
  125.0000   -61.0849     7.0849     5.1488     5.5822    84.8232    12.3393     2.4271     0.0224     0.1493     0.3083   113.1610
  125.5000   -60.4819     6.9391     5.0167     5.5536    83.9564    12.3393     2.4260     0.0214     0.1536     0.3111   113.0096
  126.0000   -59.8779     6.7358     4.8879     5.4319    84.1303    12.3393     2.4169     0.0155     0.1600     0.3139   113.0176
  126.5000   -59.2737     6.5386     4.7624     5.2897    85.4010    12.3393     2.4080     0.0097     0.1658     0.3352   113.4032
  127.0000   -58.6695     6.3471     4.6401     5.1514    86.6561    12.3393     2.3991     0.0078     0.1692     0.3418   113.9676
  127.5000   -58.0716     6.1612     4.5210     4.9702    87.9118    12.3393     2.3953     0.0139     0.1694     0.3313   114.4862
  128.0000   -57.6285     5.9808     4.4049     4.9759    89.2474    12.3393     2.3965     0.0200     0.1668     0.3268   115.0049
  128.5000   -57.2308     5.8056     4.2919     4.9875    87.3534    12.3393     2.3991     0.0263     0.1645     0.3400   115.5235
  129.0000   -56.8313     5.6356     4.1817     4.9990    84.4828    12.3393     2.4016     0.0271     0.1645     0.3431   115.8833
  129.5000   -56.4308     5.4503     4.0743     5.0146    81.4745    12.3393     2.4042     0.0252     0.1629     0.3326   116.0640
  130.0000   -56.3564     5.4740     4.0590     4.8875    80.7902    12.3393     2.4068     0.0231     0.1612     0.3350   116.5522
  130.5000   -56.7620     5.5057     4.1252     4.7000    82.2174    12.3393     2.4053     0.0287     0.1646     0.3379   117.9107
  131.0000   -57.4025     5.5377     4.2356     4.5323    85.1925    12.3393     2.3975     0.0382     0.1705     0.3328   119.2692
  131.5000   -58.0454     5.5697     4.4090     4.6500    84.6567    12.3393     2.3892     0.0399     0.1764     0.3184   120.3955
  132.0000   -58.6890     5.5993     4.4005     4.9077    83.6606    12.3393     2.3807     0.0357     0.1801     0.3125   120.8215
  132.5000   -59.3299     5.6435     4.3829     5.1547    82.8392    12.3393     2.3805     0.0172     0.1773     0.3229   120.1337
  133.0000   -59.9679     5.6939     4.3653     5.1547    84.7951    12.3393     2.3856    -0.0050     0.1740     0.3324   119.2391
  133.5000   -60.4782     5.7449     4.3478     5.0242    86.8442    12.3393     2.3909    -0.0049     0.1705     0.3383   118.3445
  134.0000   -60.8127     5.7961     4.3287     4.8786    84.9358    12.3393     2.3961     0.0078     0.1695     0.3280   118.2934
  134.5000   -61.1472     5.8479     4.3546     4.8950    82.3537    12.3393     2.3904     0.0185     0.1763     0.3254   118.7476
  135.0000   -61.4789     5.8861     4.3914     4.9273    81.4558    12.3393     2.3797     0.0058     0.1830     0.3221   119.0918
  135.5000   -61.4399     5.9318     4.4284     4.9598    83.2684    12.3393     2.3700    -0.0089     0.1843     0.3083   119.0918
  136.0000   -61.2325     5.9775     4.4658     4.9927    84.4524    12.3393     2.3759    -0.0051     0.1793     0.3014   118.7421
  136.5000   -61.0250     6.0237     4.5003     5.0146    82.5849    12.3393     2.3835     0.0011     0.1739     0.3118   118.3355
  137.0000   -60.8172     6.0703     4.5703     4.9679    80.7924    12.3393     2.3907     0.0072     0.1705     0.3112   118.0098
  137.5000   -60.6064     6.1173     4.6412     4.9687    82.4128    12.3393     2.3922     0.0133     0.1702     0.3030   117.8027
  138.0000   -60.2255     6.1646     4.7455     5.0516    89.5929    12.3393     2.3938     0.0142     0.1704     0.3000   117.5948
  138.5000   -59.7472     6.2122     4.7400     5.1640    96.9313    12.3393     2.3955     0.0096     0.1697     0.3077   118.9973
  139.0000   -59.2702     6.2601     4.7249     5.2790    98.3440    12.3393     2.3977     0.0049     0.1669     0.3114   121.2575
  139.5000   -58.7923     6.3100     4.7099     5.4470    92.8697    12.3393     2.4038     0.0113     0.1626     0.3090   123.7425
  140.0000   -58.2954     6.3297     4.6949     5.3903    87.3223    12.3393     2.4101     0.0191     0.1583     0.3027   125.8782
  140.5000   -58.1194     6.3552     4.6799     5.2428    82.3832    12.3393     2.4164     0.0261     0.1557     0.2952   124.5633
  141.0000   -58.0622     6.3808     4.6590     5.0993    82.8178    12.3393     2.4166     0.0218     0.1586     0.2954   123.1836
