~VERSION INFORMATION
 VERS.                2.0:   CWLS LOG ASCII STANDARD - VERSION 2.0
 WRAP.                 NO:   ONE LINE PER DEPTH STEP
~WELL INFORMATION
#MNEM.UNIT      DATA TYPE    INFORMATION
#----------   ------------   ------------------------------
 STRT.F           30.0000:   START DEPTH
 STOP.F          618.0000:   STOP DEPTH
 STEP.F            0.5000:   STEP LENGTH
 NULL.          -999.2500:   NO VALUE
 COMP. FENNIX & SCISSON, INC.:   COMPANY
 WELL.       NPR #88-S-10:   WELL
 FLD .              NPR-3:   FIELD
 LOC .      S10 T38N R78W:   LOCATION
 CNTY.            NATRONA:   COUNTY
 STAT.            WYOMING:   STATE
 CTRY. UNITED STATES OF AMERICA:   COUNTRY
 SRVC.              Welex:   SERVICE COMPANY
 DATE.        22-APR-1977:   LOGDATE
 API .       490251034200:   API NUMBER
~CURVE INFORMATION
#MNEM.UNIT       API CODE    CURVE DESCRIPTION
#----------   ------------   ------------------------------
 DEPT.F                  :   
 CALD.IN     45 280 60 00:   CALIPER FROM DENSITY LOG
 GRD .GAPI   45 310 01 00:   GAMMA RAY FROM DENSITY LOG
 CORR.G/C3   45 356 01 00:   DENSITY CORRECTION
 RHOB.G/C3   45 350 01 00:   BULK DENSITY
 DPHI.DEC    45 890 12 00:   DENSITY POROSITY SANDSTONE
 ILD .OHMM   07 120 46 00:   INDUCTION LOG DEEP
 ILM .OHMM   07 120 44 00:   INDUCTION LOG MEDIUM
 SGRD.OHMM   07 220 05 00:   SHALLOW GUARD RESISTIVITY
 SPR .MV     07 010 01 00:   SPONTANEOUS POTENTIAL FROM RES.
~PARAMETER INFORMATION
#MNEM.UNIT          VALUE    DESCRIPTION
#----------   ------------   ------------------------------
 PD  .                 GL:   PERMANENT DATUM
 EPD .F              5255:   ELEVATION PERMANENT DATUM
 LMF .                 GL:   LOG MEASURED FROM
 DMF .                 GL:   DRILLING MEASURED FROM
 EGL .F              5255:   GROUND LEVEL
 DATE.        22-APR-1977:   RUN DATE
 RUN .                  1:   RUN NUMBER
 DD  .F               630:   DEPTH DRILLER
 DL  .F               620:   DEPTH LOGGER
 BLI .F               618:   BOTTOM LOG INTERVAL
 TLI .F                38:   TOP LOG INTERVAL
 CS  .IN            8.625:   CASING SIZE
 CBD .F                40:   CASING BOTTOM DRILLER
 BS  .IN            7.875:   BIT SIZE
 BSD .F               630:   BIT SIZE AT DEPTH
 DFT .            KCL GEL:   DRILLING FLUID TYPE
 DFD .                9.0:   DRILLING FLUID DENSITY
 DFV .                 40:   DRILLING FLUID VISCOSITY
 DFPH.                8.0:   DRILLING FLUID PH
 DFL .                6.4:   DRILLING FLUID LOSS
 MSS .            MUD PIT:   MUD SAMPLE SOURCE
 RMS .OHMM            .20:   RESISTIVITY MUD SAMPLE
 MST .F                65:   MUD SAMPLE TEMPERATURE
 RMF .OHMM            .18:   RESISTIVITY MUD FILTRATE SAMPLE
 MFST.F                65:   MUD FILTRATE SAMPLE TEMPERATURE
 RMC .OHMM            .28:   RESISTIVITY MUD CAKE
 MCST.F                65:   MUD CAKE SAMPLE TEMPERATURE
 MFSS.               MEAS:   MUD FILTRATE SAMPLE SOURCE
 MCSS.               MEAS:   MUD CAKE SAMPLE SOURCE
 RMB .OHMM            .18:   RESISTIVITY MUD AT BHT
 BHT .F                71:   BOTTOM HOLE TEMPERATURE
 TCS .HRS            0300:   TIME CURCULATED STOPPED
 MRT .F                71:   MAXIMUM RECORDED TEMPERATURE
 LUN .               8611:   LOGGING UNIT NUMBER
 LUL .             CASPER:   LOGGING UNIT LOCATION
 ENGI.          T. JOYNER:   RECORDING ENGINEER
 WITN.           ROB LYON:   WITNESSED BY
 CLNT.            A2DTECH:   CLIENT CODE
 ORIG.           5" PRINT:   ORIGIN OF DATA
 UWI .       490251034200:   UNIQUE WELL ID
 DICO. A2D Technologies, Inc.:   DIGITIZING COMPANY
~OTHER INFORMATION
~A   DEPT     CALD        GRD       CORR       RHOB       DPHI        ILD        ILM       SGRD        SPR   
# ...
   66.5000     7.8236   144.3114     0.0023     2.4021     0.1493     5.9564     7.7631  1853.9408  -999.2500
   67.0000     7.8386   144.4611     0.0023     2.4021     0.1493     5.9972     7.8715  1853.9408  -999.2500
   67.5000     7.8386   144.4611     0.0023     2.4044     0.1448     5.9968     7.9265  1853.9408  -999.2500
   68.0000     7.8535   147.5450     0.0023     2.4231     0.1386     6.0013     7.9271  1853.9408  -999.2500
   68.5000     7.8685   147.7545     0.0038     2.4231     0.1395     6.0374     8.0378  1853.9408  -999.2500
   69.0000     7.8685   146.7995     0.0038     2.4201     0.1421     6.0370     8.0383  1866.7660  -999.2500
   69.5000     7.8834   145.6393     0.0023     2.4171     0.1419     6.0783     8.1506  1879.6798  -999.2500
   70.0000     7.8984   142.7059     0.0008     2.4163     0.1389     6.1199     8.1512  1879.6798  -999.2500
   70.5000     7.8984   134.5193     0.0038     2.4170     0.1392     6.1618     8.2650  1879.6798  -999.2500
   71.0000     7.9133   133.3832     0.0068     2.4185     0.1380     6.2099     8.2656  1879.6798  -999.2500
   71.5000     7.9133   133.5544     0.0113     2.4238     0.1356     6.2958     8.3810  1879.6798  -999.2500
   72.0000     7.8984   134.6466     0.0128     2.4372     0.1305     6.4270     8.3815  1879.6798  -999.2500
   72.5000     7.8834   136.6165     0.0143     2.4380     0.1317     6.5158     8.4986  1879.6798  -999.2500
   73.0000     7.8685   139.6707     0.0128     2.4290     0.1365     6.6446     8.4992  1866.7660  -999.2500
   73.5000     7.8386   137.2459     0.0098     2.4252     0.1377     6.6973     8.5586  1866.7660  -999.2500
   74.0000     7.8386   136.0779     0.0068     2.4251     0.1350     6.7824     8.6185  1866.7660  -999.2500
   74.5000     7.8236   140.4192     0.0068     2.4282     0.1335     6.8288     8.6787  1853.9408  -999.2500
   75.0000     7.8087   137.7496     0.0068     2.4289     0.1344     6.9231     8.7394  1853.9408  -999.2500
   75.5000     7.8087   132.9567     0.0068     2.4274     0.1392     6.9704     8.8614  1853.9408  -999.2500
   76.0000     7.8087   127.5392     0.0068     2.4229     0.1398     7.0181     8.9234  1853.9408  -999.2500
   76.5000     7.8087   126.4970     0.0068     2.4214     0.1365     6.9132     8.9858  1853.9408  -999.2500
   77.0000     7.8087   128.2246     0.0068     2.4229     0.1335     6.7712     9.1113  1853.9408  -999.2500
   77.5000     7.8087   129.9675     0.0068     2.4312     0.1308     6.6404     9.1119  1853.9408  -999.2500
   78.0000     7.8236   130.6886     0.0068     2.4401     0.1293     6.5491     8.9877  1853.9408  -999.2500
   78.5000     7.8236   130.2756     0.0068     2.4379     0.1284     6.5037     8.8651  1853.9408    -9.8424
   79.0000     7.8386   128.1778     0.0068     2.4319     0.1329     6.4586     8.7441  1853.9408    -8.9525
   79.5000     7.8386   126.9461     0.0053     2.4244     0.1350     6.4582     8.6249  1853.9408    -8.3601
   80.0000     7.8386   128.7425     0.0053     2.4169     0.1395     6.4576     8.4489  1853.9408    -7.9167
   80.5000     7.8386   130.6886     0.0053     2.4132     0.1425     6.4129     8.3336  1853.9408    -7.7708
   81.0000     7.8386   126.3473     0.0053     2.4139     0.1413     6.4568     8.2768  1853.9408    -7.7739
   81.5000     7.8386   118.7126     0.0053     2.4191     0.1383     6.4563     8.2776  1853.9408    -8.3721
   82.0000     7.8386   113.4731     0.0038     2.4184     0.1398     6.6362     8.3931  1853.9408    -9.1191
   82.5000     7.8386   114.5210     0.0023     2.4139     0.1416     6.8213     8.4518  1853.9408   -10.3126
   83.0000     7.8386   116.9162     0.0023     2.4139     0.1425     6.9631     8.5109  1853.9408   -11.6548
   83.5000     7.8386   118.5629     0.0023     2.4161     0.1428     7.0109     8.5115  1853.9408   -13.4435
   84.0000     7.8386   123.5030     0.0023     2.4146     0.1437     7.0589     8.4534  1853.9408   -15.6787
   84.5000     7.8386   123.8024     0.0023     2.4123     0.1443     6.9617     8.2810  1853.9408   -17.6161
   85.0000     7.8386   123.2036     0.0023     2.4168     0.1436     6.6335     7.9457  1841.2037   -19.1072
   85.5000     7.8236   123.3533     0.0023     2.4258     0.1384     6.2774     7.5196  1841.2037   -20.4495
   86.0000     7.8236   119.7605     0.0023     2.4318     0.1336     5.9404     6.5962  1828.5542   -21.1965
   86.5000     7.8236   115.2695     0.0038     2.4348     0.1306     5.8587     5.8666  1815.9916   -21.4971
   87.0000     7.8386   117.3653     0.0038     2.4318     0.1315     5.9396     5.4009  1791.1246   -21.2024
   87.5000     7.8386   119.7605     0.0053     2.4347     0.1308     6.0216     5.1466  1671.8053   -20.9078
   88.0000     7.8386   120.5090     0.0053     2.4437     0.1264     6.1048     6.1159  1251.5182   -20.7619
   88.5000     7.8386   121.7066     0.0053     2.4542     0.1227     6.1465     7.9496   594.4070   -20.6161
   89.0000     7.8386   124.4012     0.0053     2.4504     0.1210     6.1886     8.4013   486.6957   -20.4702
   89.5000     7.8386   128.4431     0.0068     2.4564     0.1210     6.2310     8.4600   623.7951   -20.3244
   90.0000     7.8386   129.9401     0.0098     2.4639     0.1193     6.2736     8.4023   714.0679   -20.3274
   90.5000     7.8386   127.5449     0.0219     2.4691     0.1132     6.3165     8.3452   803.7611   -20.3304
   91.0000     7.8386   125.0000     0.0249     2.4646     0.1143     6.3160     8.3458   891.0810   -20.4822
   91.5000     7.8386   123.8024     0.0264     2.4616     0.1173     6.3593     8.4042   979.9247   -20.7828
   92.0000     7.8386   125.2994     0.0264     2.4571     0.1223     6.3151     8.4629  1070.3815   -21.2322
   92.5000     7.8386   125.8982     0.0264     2.4549     0.1215     6.2713     8.7003  1129.7373   -21.3840
   93.0000     7.8386   126.3473     0.0294     2.4563     0.1174     6.1851     8.7612  1153.2657   -21.5357
   93.5000     7.8535   126.3473     0.0309     2.4623     0.1159     6.1000     8.5233  1160.1204   -21.5387
   94.0000     7.8685   125.7485     0.0339     2.4653     0.1154     6.0162     8.1782  1127.6357   -21.5417
   94.5000     7.8685   122.7545     0.0339     2.4601     0.1163     5.9744     7.9015  1082.0181   -21.5447
   95.0000     7.8535   119.4611     0.0339     2.4541     0.1184     5.9330     7.7400  1038.2465   -21.5476
   95.5000     7.8236   117.9641     0.0339     2.4443     0.1221     5.9326     7.7407   981.9995   -21.6994
   96.0000     7.7937   122.9042     0.0324     2.4316     0.1275     5.8510     7.9578   923.0488   -21.8512
   96.5000     7.7788   125.4491     0.0294     2.4211     0.1376     5.8105     8.4100   873.6390   -22.0030
   97.0000     7.7788   123.9521     0.0234     2.4107     0.1436     5.7702     8.8267   838.6975   -22.0060
   97.5000     7.7788   119.0120     0.0173     2.4024     0.1486     5.7302     9.1371   810.6146   -22.1578
   98.0000     7.7937   118.1138     0.0113     2.3994     0.1473     5.7695     9.3289   799.5146   -22.1607
   98.5000     7.8087   122.7545     0.0083     2.4166     0.1399     5.7690     9.4591   793.8583   -22.4613
   99.0000     7.8087   123.0539     0.0083     2.4136     0.1393     5.8487     8.5888   542.4542   -22.7619
   99.5000     7.8087   121.7066     0.0068     2.4159     0.1402     5.9295     8.1845   406.5318   -23.2113
  100.0000     7.8087   118.8620     0.0068     2.4263     0.1384     5.9700     7.9622   272.7473   -23.3631
  100.5000     7.8235   116.9148     0.0053     2.4226     0.1390     5.9428     7.7442    32.1775   -23.5154
  101.0000     7.8233   119.6075     0.0037     2.4271     0.1351     5.8851     7.5323    24.5882   -23.6667
  101.5000     7.8381   120.2048     0.0037     2.4413     0.1289     5.8430     7.2759    22.6328   -23.6696
  102.0000     7.8380   119.3051     0.0052     2.4451     0.1235     5.8013     7.0283    21.8629   -23.6726
  102.5000     7.8378   117.5072     0.0082     2.4498     0.1214     5.8398     6.7890    21.5606   -23.6756
