~VERSION INFORMATION
 VERS.                2.0:   CWLS LOG ASCII STANDARD - VERSION 2.0
 WRAP.                 NO:   ONE LINE PER DEPTH STEP
~WELL INFORMATION
#MNEM.UNIT      DATA TYPE    INFORMATION
#----------   ------------   ------------------------------
 STRT.F           80.0000:   START DEPTH
 STOP.F          744.0000:   STOP DEPTH
 STEP.F            0.5000:   STEP LENGTH
 NULL.          -999.2500:   NO VALUE
 COMP.               NAVY:   COMPANY
 WELL. RES 3 TEAPOT DOM #44-S-11:   WELL
 FLD .             TEAPOT:   FIELD
 LOC .      S11 T38N R78W:   LOCATION
 CNTY.            NATRONA:   COUNTY
 STAT.            WYOMING:   STATE
 CTRY. UNITED STATES OF AMERICA:   COUNTRY
 SRVC.       Schlumberger:   SERVICE COMPANY
 DATE.        09-JUL-1962:   LOGDATE
 API .       490250634600:   API NUMBER
~CURVE INFORMATION
#MNEM.UNIT       API CODE    CURVE DESCRIPTION
#----------   ------------   ------------------------------
 DEPT.F                  :   
 SPR .MV     05 010 01 00:   SPONTANEOUS POTENTIAL FROM RES.
 ASN .OHMM   05 041 16 00:   AMPLIFIED SHORT NORMAL 16"
 ILD .OHMM   05 120 46 00:   INDUCTION LOG DEEP
 CILD.MMHO   05 110 46 00:   CONDUCTIVITY INDUCTION LOG DEEP
 GR  .GAPI   30 310 01 00:   GAMMA RAY
~PARAMETER INFORMATION
#MNEM.UNIT          VALUE    DESCRIPTION
#----------   ------------   ------------------------------
 PD  .                 KB:   PERMANENT DATUM
 EPD .F              5182:   ELEVATION PERMANENT DATUM
 EKB .F              5182:   KELLING BUSHING
 EGL .F              5177:   GROUND LEVEL
 DATE.        09-JUL-1962:   RUN DATE
 RUN .                  1:   RUN NUMBER
 DD  .F               745:   DEPTH DRILLER
 DL  .F               745:   DEPTH LOGGER
 BLI .F               744:   BOTTOM LOG INTERVAL
 TLI .F                90:   TOP LOG INTERVAL
 BS  .IN             6.75:   BIT SIZE
 BSD .F               745:   BIT SIZE AT DEPTH
 DFT .           OIL EMUL:   DRILLING FLUID TYPE
 DFD .               10.3:   DRILLING FLUID DENSITY
 DFV .                 50:   DRILLING FLUID VISCOSITY
 DFL .                3.4:   DRILLING FLUID LOSS
 RMS .OHMM            7.0:   RESISTIVITY MUD SAMPLE
 MST .F                73:   MUD SAMPLE TEMPERATURE
 RMF .OHMM            4.5:   RESISTIVITY MUD FILTRATE SAMPLE
 MFST.F                73:   MUD FILTRATE SAMPLE TEMPERATURE
 RMC .OHMM           13.5:   RESISTIVITY MUD CAKE
 MCST.F                73:   MUD CAKE SAMPLE TEMPERATURE
 MFSS.               MEAS:   MUD FILTRATE SAMPLE SOURCE
 MCSS.               MEAS:   MUD CAKE SAMPLE SOURCE
 TCS .HRS            0030:   TIME CURCULATED STOPPED
 LUN .               2503:   LOGGING UNIT NUMBER
 LUL .               CSPR:   LOGGING UNIT LOCATION
 ENGI.           ELLERMAN:   RECORDING ENGINEER
 WITN.          JORGENSON:   WITNESSED BY
 CLNT.            A2DTECH:   CLIENT CODE
 ORIG.           5" PRINT:   ORIGIN OF DATA
 UWI .       490250634600:   UNIQUE WELL ID
 DICO. A2D Technologies, Inc.:   DIGITIZING COMPANY
~OTHER INFORMATION
~A   DEPT      SPR        ASN        ILD       CILD         GR   
# ...
  629.0000   -52.7935    17.1545    14.8468    54.3890    12.6159
  629.5000   -54.0191    16.3161    14.9197    54.4263     9.8513
  630.0000   -56.3117    15.3260    15.0677    53.7065     0.5766
  630.5000   -56.7750    17.6743    15.4441    52.9880     1.9216
  631.0000   -55.7140    18.5812    15.7445    52.2688     5.6864
  631.5000   -54.9563    18.4255    15.8182    52.3072    22.0091
  632.0000   -56.4882    18.2700    15.8911    52.2134    15.0913
  632.5000   -55.4271    18.0386    15.9639    51.6241    16.2418
  633.0000   -54.9532    17.4279    16.0368    51.6707    11.9088
  633.5000   -56.2014    16.2832    16.1856    50.1951    15.6237
  634.0000   -58.0366    16.4542    16.4094    49.4667     4.1433
  634.5000   -59.4166    18.0446    16.7858    47.9911    10.2089
  635.0000   -58.3234    18.6268    16.9353    48.0376     9.5762
  635.5000   -56.1891    18.0655    16.9316    48.0749    25.9390
  636.0000   -55.6217    17.4044    16.8527    48.1122    13.4638
  636.5000   -57.1536    17.5533    16.6979    48.1494     6.4578
  637.0000   -57.1596    17.5487    16.5432    48.9431     7.6461
  637.5000   -57.0132    17.3932    16.3885    49.7368    14.9041
  638.0000   -56.7143    17.0859    16.2296    50.5305    11.8435
  638.5000   -56.4155    16.7787    16.0708    51.3242     7.5754
  639.0000   -56.1166    16.4714    15.7602    51.3616    15.7375
  639.5000   -55.9687    16.0883    15.3894    52.1558    22.0851
  640.0000   -55.6698    15.7810    15.0829    52.9500    28.7427
  640.5000   -55.5234    15.4738    14.7764    54.5083    31.4420
  641.0000   -55.3770    15.1666    14.4699    56.0584    33.3954
  641.5000   -55.0781    15.0869    14.3152    57.6085    25.9278
  642.0000   -54.7805    15.0832    14.3122    58.4022    34.5515
  642.5000   -54.7868    15.1562    14.3092    59.1959    38.3259
  643.0000   -54.6403    15.1515    14.3062    59.2332    28.4304
  643.5000   -54.6464    15.2233    14.3798    59.2704    22.9418
  644.0000   -54.9573    15.2199    14.4527    59.3077    21.8539
  644.5000   -55.1280    15.2161    14.4490    58.5792    15.6067
  645.0000   -55.5997    15.2886    14.4460    57.8694     6.6280
  645.5000   -56.1280    15.3607    14.5190    57.1502    14.0443
  646.0000   -57.1155    15.4325    14.5918    56.4296    10.9837
  646.5000   -56.9691    15.5046    14.6646    55.7111    15.0487
  647.0000   -56.5193    15.5008    14.7385    54.9927    20.9411
  647.5000   -54.8485    15.6488    14.9671    54.2735    19.8532
  648.0000   -54.8545    15.7210    15.1867    53.5543    13.3024
  648.5000   -54.8605    15.7931    15.2726    52.8352    12.8215
  649.0000   -54.8665    15.8652    15.3325    52.8818     8.8505
  649.5000   -54.7186    15.8605    15.3287    52.1533     4.7276
  650.0000   -54.7261    15.8567    15.3258    52.2619    12.1389
  650.5000   -54.7321    15.8530    15.3104    53.1323    15.3165
  651.0000   -54.5842    15.7667    15.1623    54.0026    17.1284
  651.5000   -54.5917    15.8374    15.0804    54.8730    20.7613
  652.0000   -54.2929    15.6013    14.9984    55.7433    22.2697
  652.5000   -54.1464    15.2151    14.8406    56.6137    25.2956
  653.0000   -54.0000    14.8289    14.6827    57.4841    19.7818
  653.5000   -54.0701    14.5944    14.5249    58.3544    21.0287
  654.0000   -54.3781    14.3600    14.2912    59.0318    22.2337
  654.5000   -54.3918    14.0496    13.9816    60.6430    22.8316
  655.0000   -53.7651    13.8911    13.7479    60.7413    13.9704
  655.5000   -53.1993    13.7325    13.5901    61.5961    20.2761
  656.0000   -53.3658    13.7257    13.3564    63.9637    23.1081
  656.5000   -53.3795    13.7188    13.1985    67.0877    19.1456
  657.0000   -53.4147    13.7120    12.9648    69.4554    15.3510
  657.5000   -53.5594    13.7051    12.8070    68.7973    19.8921
  658.0000   -53.5731    13.8501    12.9526    68.1392    18.2139
  658.5000   -53.4339    13.8432    12.9465    66.7247    18.2049
  659.0000   -53.4482    13.9898    13.0937    66.0666    20.7756
  659.5000   -53.6143    13.9813    13.1635    65.4085    19.7043
  660.0000   -53.9357    13.9745    13.2333    64.7504    16.5087
  660.5000   -54.7115    13.9676    13.3031    64.8487    13.6165
  661.0000   -55.0301    13.8091    13.2955    64.1906    12.5453
  661.5000   -55.1962    13.7263    13.2135    63.5325    12.3845
  662.0000   -55.2099    13.5678    13.0557    63.6309    12.6790
  662.5000   -55.2236    13.4851    12.8978    64.4856    16.7693
  663.0000   -55.2373    13.3265    12.7400    65.3404    16.4568
  663.5000   -55.0951    13.1679    12.5822    66.1952    23.1223
  664.0000   -54.9598    13.0093    12.4243    67.0499    30.2453
  664.5000   -53.7540    12.8507    12.2665    68.6611    33.2712
  665.0000   -53.4593    12.6922    12.1086    70.2723    36.9041
  665.5000   -53.4764    12.5336    11.9508    71.1271    38.7160
  666.0000   -53.1853    12.3750    11.8688    71.9818    36.8861
  666.5000   -53.5038    12.2923    11.7869    72.8366    30.0485
  667.0000   -54.1273    12.2096    11.7049    72.9349    24.4917
  667.5000   -54.4458    12.1269    11.6230    73.7897    19.4083
  668.0000   -54.7644    12.1201    11.5410    73.8881    10.1488
  668.5000   -54.3208    12.1908    11.4590    73.9864     8.7682
  669.0000   -53.1149    12.1823    11.4529    74.8411    13.7667
  669.5000   -52.6679    12.1754    11.5243    75.6959     8.5961
  670.0000   -52.6850    12.1686    11.5166    76.5507     4.6417
  670.5000   -52.6987    12.1632    11.5864    76.6490     7.3641
  671.0000   -52.4075    12.2325    11.5803    77.5038    17.2186
  671.5000   -51.5065    12.2254    11.5742    76.8457    17.6670
  672.0000   -51.2119    12.2185    11.4923    76.9440    16.7475
  672.5000   -51.9912    12.2117    11.4862    77.0424    28.8759
  673.0000   -51.3951    12.2049    11.4042    77.8971    30.0831
  673.5000   -51.1005    12.1222    11.3981    77.9955    32.1962
  674.0000   -51.2701    12.1153    11.3920    78.0938    34.9209
  674.5000   -51.2838    12.0326    11.3860    78.1921    28.9916
  675.0000   -51.2974    12.0258    11.2281    78.2905    36.5698
  675.5000   -51.3111    11.9431    11.2220    78.3888    40.6602
  676.0000   -51.6297    11.7845    11.1401    78.4871    35.3378
  676.5000   -51.9483    11.7018    11.0581    80.8548    22.5822
  677.0000   -51.6571    11.6075    10.9761    82.4660    21.9662
  677.5000   -51.3659    11.4491    10.8942    84.0772    11.0316
  678.0000   -51.0713    11.2908    10.8122    85.6883    13.2987
  678.5000   -48.9542    11.1434    10.7303    86.5431    22.8497
  679.0000   -48.9679    11.1259    10.5724    87.3979    33.0076
  679.5000   -49.4389    11.0435    10.4905    87.4962    34.9712
  680.0000   -49.6050    10.9712    10.4856    87.5946    25.8473
  680.5000   -49.6187    10.9644    10.5557    87.6929    25.6965
  681.0000   -49.3241    10.9575    10.5493    87.7912    25.8395
  681.5000   -48.8839    10.9507    10.5433    87.8896    27.2501
  682.0000   -48.4403    10.9439    10.6133    87.9879    33.8639
  682.5000   -48.1456    10.9370    10.6070    88.0862    24.7480
  683.0000   -48.3118    11.0063    10.6009    88.1846    33.2367
  683.5000   -47.5667    11.0753    10.6709    87.5265    43.6981
  684.0000   -47.5804    11.0685    10.6647    87.6248    37.9227
  684.5000   -48.8136    11.1375    10.6586    87.7232    37.6102
  685.0000   -49.1321    11.2065    10.6525    87.0651    33.5041
  685.5000   -49.2994    11.1995    10.6464    87.1634    32.5846
  686.0000   -49.3119    11.2687    10.6403    86.5053    28.1773
  686.5000   -49.3256    11.2617    10.5585    86.6036    32.5666
  687.0000   -49.3393    11.1724    10.4765    85.9455    33.7738
  687.5000   -49.2006    11.0205    10.4704    86.8003    26.7823
  688.0000   -48.9094    10.8619    10.3884    87.6551    29.6564
  688.5000   -48.6182    10.7792    10.3824    89.2663    36.6277
  689.0000   -48.3236    10.6965    10.3004    90.1210    38.2901
  689.5000   -47.8833    10.6138    10.2943    90.9758    35.8509
