~VERSION INFORMATION
 VERS.                2.0:   CWLS LOG ASCII STANDARD - VERSION 2.0
 WRAP.                 NO:   ONE LINE PER DEPTH STEP
~WELL INFORMATION
#MNEM.UNIT      DATA TYPE    INFORMATION
#----------   ------------   ------------------------------
 STRT.F           75.0000:   START DEPTH
 STOP.F          859.0000:   STOP DEPTH
 STEP.F            0.5000:   STEP LENGTH
 NULL.          -999.2500:   NO VALUE
 COMP. U S NAVY/INTEX OIL CO:   COMPANY
 WELL.     NPR ##3 14S-35:   WELL
 FLD .             TEAPOT:   FIELD
 LOC .      S35 T39N R78W:   LOCATION
 CNTY.            NATRONA:   COUNTY
 STAT.            WYOMING:   STATE
 CTRY. UNITED STATES OF AMERICA:   COUNTRY
 SRVC. Schlumberger Well Surveying Corp:   SERVICE COMPANY
 DATE.        27-FEB-1961:   LOGDATE
 API .       490251023000:   API NUMBER
~CURVE INFORMATION
#MNEM.UNIT       API CODE    CURVE DESCRIPTION
#----------   ------------   ------------------------------
 DEPT.F                  :   
 GRN .CPS    35 310 30 00:   GAMMA RAY
 SPR .MV     05 010 01 00:   SPONTANEOUS POTENTIAL FROM RES.
 ILD .OHMM   05 120 46 00:   INDUCTION LOG DEEP
 ASN .OHMM   05 041 16 00:   AMPLIFIED SHORT NORMAL 16"
 CILD.MMHO   05 110 46 00:   CONDUCTIVITY INDUCTION LOG DEEP
~PARAMETER INFORMATION
#MNEM.UNIT          VALUE    DESCRIPTION
#----------   ------------   ------------------------------
 PD  .                 GL:   PERMANENT DATUM
 EPD .F              5110:   ELEVATION PERMANENT DATUM
 LMF .                 KB:   LOG MEASURED FROM
 DAPD.F                 4:   FEET ABOVE PERMANENT DATUM
 DMF .                 KB:   DRILLING MEASURED FROM
 EKB .F              5114:   KELLING BUSHING
 EGL .F              5110:   GROUND LEVEL
 DATE.            2-27-61:   RUN DATE
 RUN .                  1:   RUN NUMBER
 DD  .F               862:   DEPTH DRILLER
 DL  .F               860:   DEPTH LOGGER
 BLI .F               859:   BOTTOM LOG INTERVAL
 TLI .F                84:   TOP LOG INTERVAL
 CBD .F                12:   CASING BOTTOM DRILLER
 BS  .IN            7.875:   BIT SIZE
 BSD .F               862:   BIT SIZE AT DEPTH
 DFT .       GEL-OIL EMUL:   DRILLING FLUID TYPE
 DFD .                9.4:   DRILLING FLUID DENSITY
 DFV .                 33:   DRILLING FLUID VISCOSITY
 DFPH.                  8:   DRILLING FLUID PH
 DFL .               19.4:   DRILLING FLUID LOSS
 MSS .          FLOW LINE:   MUD SAMPLE SOURCE
 RMS .OHMM            .76:   RESISTIVITY MUD SAMPLE
 MST .F                73:   MUD SAMPLE TEMPERATURE
 RMF .OHMM            .52:   RESISTIVITY MUD FILTRATE SAMPLE
 MFST.F                73:   MUD FILTRATE SAMPLE TEMPERATURE
 RMC .OHMM            1.7:   RESISTIVITY MUD CAKE
 MCST.F                73:   MUD CAKE SAMPLE TEMPERATURE
 MFSS.                  M:   MUD FILTRATE SAMPLE SOURCE
 MCSS.                  M:   MUD CAKE SAMPLE SOURCE
 RMB .OHMM            .73:   RESISTIVITY MUD AT BHT
 BHT .F                77:   BOTTOM HOLE TEMPERATURE
 TCS .HRS               1:   TIME CURCULATED STOPPED
 MRT .F                77:   MAXIMUM RECORDED TEMPERATURE
 LUN .               2523:   LOGGING UNIT NUMBER
 LUL .               CSPR:   LOGGING UNIT LOCATION
 ENGI.             KNOBEL:   RECORDING ENGINEER
 WITN.          JORGENSEN:   WITNESSED BY
 CLNT.            A2DTECH:   CLIENT CODE
 ORIG.       2", 5" PRINT:   ORIGIN OF DATA
 UWI .       490251023000:   UNIQUE WELL ID
 DICO. A2D Technologies, Inc.:   DIGITIZING COMPANY
~OTHER INFORMATION
~A   DEPT      GRN        SPR        ILD        ASN       CILD   
   75.0000  -999.2500   -36.5000  -999.2500  -999.2500  -999.2500
   75.5000  -999.2500   -36.5000  -999.2500  -999.2500  -999.2500
   76.0000  -999.2500   -36.5002  -999.2500  -999.2500  -999.2500
   76.5000  -999.2500   -36.5001  -999.2500  -999.2500  -999.2500
   77.0000  -999.2500   -36.5006  -999.2500  -999.2500  -999.2500
   77.5000  -999.2500   -36.5000  -999.2500  -999.2500  -999.2500
   78.0000  -999.2500   -36.5014  -999.2500  -999.2500  -999.2500
   78.5000  -999.2500   -36.4990  -999.2500  -999.2500  -999.2500
   79.0000  -999.2500   -36.5046  -999.2500  -999.2500  -999.2500
   79.5000  -999.2500   -36.4621  -999.2500  -999.2500  -999.2500
   80.0000  -999.2500   -36.3574  -999.2500  -999.2500  -999.2500
   80.5000  -999.2500   -36.2589  -999.2500  -999.2500  -999.2500
   81.0000  -999.2500   -36.1562  -999.2500  -999.2500  -999.2500
   81.5000  -999.2500   -36.0566  -999.2500  -999.2500  -999.2500
   82.0000  -999.2500   -35.9540  -999.2500  -999.2500  -999.2500
   82.5000  -999.2500   -35.8554     2.2867  -999.2500  -999.2500
   83.0000  -999.2500   -35.7493     3.1670  -999.2500   204.9098
   83.5000  -999.2500   -35.6783     4.0474     5.3206   203.7356
   84.0000  -999.2500   -35.6451     4.9599     5.8157   202.4518
   84.5000  -999.2500   -35.6048     5.0918     6.3429   201.1680
   85.0000  -999.2500   -35.5681     5.2288     6.8637   199.8998
   85.5000  -999.2500   -35.5294     5.3657     6.9509   196.8938
   86.0000  -999.2500   -35.4918     5.4340     7.0369   191.2158
   86.5000  -999.2500   -35.4537     5.5764     7.0923   188.5369
   87.0000  -999.2500   -35.4157     5.7092     7.1653   183.0334
   87.5000  -999.2500   -35.3777     5.8470     7.2550   179.2626
   88.0000  -999.2500   -35.3396     5.9837     7.3395   176.6068
   88.5000  -999.2500   -35.3016     6.1194     7.4248   173.9592
   89.0000  -999.2500   -35.2635     6.2591     7.5132   171.3209
   89.5000  -999.2500   -35.2255     6.3931     7.5938   168.6893
   90.0000  -999.2500   -35.1874     6.5269     7.6941   166.0610
   90.5000  -999.2500   -35.1494     6.4475     7.7497   162.8531
   91.0000  -999.2500   -35.1113     6.2699     7.7503   162.8677
   91.5000  -999.2500   -35.0733     6.1080     7.6827   163.5299
   92.0000  -999.2500   -35.0352     5.9384     7.5459   166.6483
   92.5000  -999.2500   -34.9972     5.7734     7.4067   172.3007
   93.0000  -999.2500   -34.9590     5.6044     7.2616   178.8168
   93.5000  -999.2500   -34.9208     5.4405     7.1192   185.3257
   94.0000  -999.2500   -34.8826     5.2684     6.9754   190.6688
   94.5000  -999.2500   -34.8445     5.1112     6.8325   194.4611
   95.0000  -999.2500   -34.8059     4.9256     6.6891   198.3411
   95.5000  -999.2500   -34.7689     4.9114     6.5460   202.2211
   96.0000  -999.2500   -34.7271     5.0633     6.4032   205.9118
   96.5000  -999.2500   -34.7124     5.1861     6.3247   205.9118
   97.0000  -999.2500   -34.8209     5.3234     6.4373   203.4353
   97.5000  -999.2500   -34.9212     5.4528     6.6269   199.2045
   98.0000  -999.2500   -35.0249     5.5868     6.8083   194.9738
   98.5000  -999.2500   -35.1256     5.7182     6.9755   190.7430
   99.0000  -999.2500   -35.2294     5.8518     7.1678   186.5123
   99.5000  -999.2500   -35.3292     5.9819     7.3817   182.2815
  100.0000  -999.2500   -35.4354     6.1179     7.5772   178.0508
  100.5000  -999.2500   -35.5299     6.2421     7.7769   173.8200
  101.0000  -999.2500   -35.6497     6.3928     7.9940   169.5893
  101.5000  -999.2500   -35.6585     6.4420     7.9489   164.8297
  102.0000  -999.2500   -35.5075     6.3471     7.8649   164.2370
  102.5000  -999.2500   -35.3748     6.2676     7.7907   164.4617
  103.0000  -999.2500   -35.2317     6.1849     7.7125   165.9089
  103.5000  -999.2500   -35.0936     6.0936     7.6358   167.3582
  104.0000  -999.2500   -34.9550     6.0958     7.5697   168.8084
  104.5000  -999.2500   -34.8104     6.1849     7.6312   170.2578
  105.0000  -999.2500   -34.7125     6.2571     7.7309   170.7948
  105.5000  -999.2500   -34.7918     6.3375     7.8106   168.4014
  106.0000  -999.2500   -34.8700     6.4138     7.9117   166.8337
  106.5000  -999.2500   -34.9513     6.4922     8.0248   164.0928
  107.0000  -999.2500   -35.0300     6.5696     8.1268   161.8483
  107.5000  -999.2500   -35.1106     6.6475     8.2318   159.6038
  108.0000  -999.2500   -35.1900     6.7250     8.3369   157.3593
  108.5000  -999.2500   -35.2703     6.8026     8.4394   155.1149
  109.0000  -999.2500   -35.3496     6.8801     8.5429   152.8056
  109.5000  -999.2500   -35.4302     6.9577     8.5140   151.6150
  110.0000  -999.2500   -35.4992     7.0352     8.4347   150.3890
  110.5000  -999.2500   -35.4885     7.1129     8.3666   149.1630
  111.0000  -999.2500   -35.3629     7.1908     8.4134   147.9371
  111.5000  -999.2500   -35.2416     7.2683     8.5116   146.7111
  112.0000  -999.2500   -35.1190     7.3467     8.5973   145.4851
  112.5000  -999.2500   -34.9978     7.4236     8.6878   144.2591
  113.0000  -999.2500   -34.8753     7.5026     8.7772   142.7856
  113.5000  -999.2500   -34.7538     7.5798     8.8653   140.5678
  114.0000  -999.2500   -34.6313     7.6515     8.9598   137.7889
  114.5000  -999.2500   -34.5102     7.5305     9.0310   134.7695
  115.0000  -999.2500   -34.3868     7.3647     9.0269   136.5732
  115.5000  -999.2500   -34.2671     7.2056     9.0196   140.7415
  116.0000  -999.2500   -34.1431     7.0441     8.8848   144.9098
  116.5000  -999.2500   -34.0922     6.8829     8.6482   149.0782
  117.0000  -999.2500   -34.1044     6.7252     8.3608   152.0240
  117.5000  -999.2500   -34.0875     6.6058     8.0592   154.1370
  118.0000  -999.2500   -34.1438     6.5183     7.9575   156.2517
  118.5000  -999.2500   -34.3487     6.4181     7.9618   158.3765
  119.0000  -999.2500   -34.4415     6.3588     8.0151   160.5013
  119.5000  -999.2500   -34.5659     6.5071     8.1985   161.9954
  120.0000  -999.2500   -34.6738     6.7006     8.3987   159.8968
  120.5000  -999.2500   -34.7913     6.8917     8.5328   152.9546
  121.0000  -999.2500   -34.9034     7.0831     8.5569   150.3502
  121.5000  -999.2500   -35.0185     7.2734     8.6079   147.4301
  122.0000  -999.2500   -35.1314     7.4723     8.6437   144.5173
  122.5000  -999.2500   -35.2462     7.7490     8.7988   141.7647
  123.0000  -999.2500   -35.3588     8.0350     9.0248   136.7988
  123.5000  -999.2500   -35.4714     8.3146     9.2565   132.0876
  124.0000  -999.2500   -35.5038     8.6049     9.4665   127.3861
  124.5000  -999.2500   -35.4995     8.8747     9.6840   122.6739
  125.0000  -999.2500   -35.5012     9.1950    10.0441   116.7922
  125.5000  -999.2500   -35.5002     9.3893    10.5394   115.1503
  126.0000  -999.2500   -35.5006     9.3634    10.5598   113.0661
  126.5000  -999.2500   -35.5002     9.3765    10.5845   111.8717
  127.0000  -999.2500   -35.5003     9.3702    10.5531   112.2886
  127.5000  -999.2500   -35.5001     9.3571    10.4047   112.7254
  128.0000  -999.2500   -35.5004     9.1410    10.2712   115.4309
  128.5000  -999.2500   -35.4998     8.8952    10.0272   118.2729
  129.0000  -999.2500   -35.5013     8.6504     9.8859   121.1069
  129.5000  -999.2500   -35.4900     8.4093     9.8144   123.9483
  130.0000  -999.2500   -35.4513     8.1591     9.7379   126.7978
  130.5000  -999.2500   -35.4126     7.9683     9.6626   128.7544
  131.0000  -999.2500   -35.3731     7.9234     9.5914   130.2583
  131.5000  -999.2500   -35.3342     7.8884     9.5375   131.7596
  132.0000  -999.2500   -35.2949     7.8534     9.4866   132.8073
  132.5000  -999.2500   -35.2559     7.8208     9.4432   132.8006
  133.0000  -999.2500   -35.2167     7.7804     9.3925   132.7655
  133.5000  -999.2500   -35.1776     7.7845     9.3634   132.7655
  134.0000  -999.2500   -35.1383     7.8454     9.3405   132.4740
  134.5000  -999.2500   -35.0993     7.8987     9.3031   132.1613
  135.0000  -999.2500   -35.0599     7.9558     9.2770   131.8487
  135.5000  -999.2500   -35.0210     8.0113     9.2341   131.5361
