~VERSION INFORMATION
 VERS.                2.0:   CWLS LOG ASCII STANDARD - VERSION 2.0
 WRAP.                 NO:   ONE LINE PER DEPTH STEP
~WELL INFORMATION
#MNEM.UNIT      DATA TYPE    INFORMATION
#----------   ------------   ------------------------------
 STRT.F           80.0000:   START DEPTH
 STOP.F          679.5000:   STOP DEPTH
 STEP.F            0.5000:   STEP LENGTH
 NULL.          -999.2500:   NO VALUE
 COMP. U S NAVY/INTEX OIL CO:   COMPANY
 WELL.      NPR 3 #23-S-2:   WELL
 FLD .        TEAPOT DOME:   FIELD
 LOC .       S2 T38N R78W:   LOCATION
 CNTY.            NATRONA:   COUNTY
 STAT.            WYOMING:   STATE
 CTRY. UNITED STATES OF AMERICA:   COUNTRY
 SRVC.       Schlumberger:   SERVICE COMPANY
 DATE.        16-JUL-1962:   LOGDATE
 API .       490250645000:   API NUMBER
~CURVE INFORMATION
#MNEM.UNIT       API CODE    CURVE DESCRIPTION
#----------   ------------   ------------------------------
 DEPT.F                  :   
 GR  .GAPI   30 310 01 00:   GAMMA RAY
 SPR .MV     05 010 01 00:   SPONTANEOUS POTENTIAL FROM RES.
 ILD .OHMM   05 120 46 00:   INDUCTION LOG DEEP
 CILD.MMHO   05 110 46 00:   CONDUCTIVITY INDUCTION LOG DEEP
 ASN .OHMM   05 041 16 00:   AMPLIFIED SHORT NORMAL 16"
~PARAMETER INFORMATION
#MNEM.UNIT          VALUE    DESCRIPTION
#----------   ------------   ------------------------------
 PD  .                 GL:   PERMANENT DATUM
 EPD .F              5126:   ELEVATION PERMANENT DATUM
 LMF .                 KB:   LOG MEASURED FROM
 DAPD.F                 5:   FEET ABOVE PERMANENT DATUM
 DMF .                 KB:   DRILLING MEASURED FROM
 EKB .F              5131:   KELLING BUSHING
 EGL .F              5126:   GROUND LEVEL
 DATE.            7-17-62:   RUN DATE
 RUN .                  1:   RUN NUMBER
 DD  .F               680:   DEPTH DRILLER
 DL  .F               680:   DEPTH LOGGER
 BLI .F               679:   BOTTOM LOG INTERVAL
 TLI .F                87:   TOP LOG INTERVAL
 BS  .IN             6.75:   BIT SIZE
 BSD .F               680:   BIT SIZE AT DEPTH
 DFT .       OIL EMULSION:   DRILLING FLUID TYPE
 DFD .                 10:   DRILLING FLUID DENSITY
 DFV .                 41:   DRILLING FLUID VISCOSITY
 DFL .                2.9:   DRILLING FLUID LOSS
 RMS .OHMM           5.86:   RESISTIVITY MUD SAMPLE
 MST .F                73:   MUD SAMPLE TEMPERATURE
 RMF .OHMM           4.19:   RESISTIVITY MUD FILTRATE SAMPLE
 MFST.F                73:   MUD FILTRATE SAMPLE TEMPERATURE
 RMC .OHMM           5.66:   RESISTIVITY MUD CAKE
 MCST.F                73:   MUD CAKE SAMPLE TEMPERATURE
 TCS .HRS               1:   TIME CURCULATED STOPPED
 LUN .               2503:   LOGGING UNIT NUMBER
 LUL .               CSPR:   LOGGING UNIT LOCATION
 ENGI.             DANNER:   RECORDING ENGINEER
 WITN.          JORGENSON:   WITNESSED BY
 CLNT.            A2DTECH:   CLIENT CODE
 ORIG.       2", 5" PRINT:   ORIGIN OF DATA
 UWI .       490250645000:   UNIQUE WELL ID
 DICO. A2D Technologies, Inc.:   DIGITIZING COMPANY
~OTHER INFORMATION
~A   DEPT       GR        SPR          ILD      CILD         ASN 
# ...
  141.0000  -999.2500   -42.3968    16.3934    48.5000    16.7812
  141.5000  -999.2500   -42.8158    16.6150    48.5000    16.9719
  142.0000  -999.2500   -42.9379    16.6502    48.5000    17.0445
  142.5000  -999.2500   -42.4928    16.6506    48.5000    17.1219
  143.0000  -999.2500   -42.0852    16.6500    48.5000    17.1155
  143.5000  -999.2500   -41.6775    16.6511    48.7040    17.0563
  144.0000  -999.2500   -41.3954    16.5469    49.6960    17.1994
  144.5000  -999.2500   -41.5739    16.3771    50.6880    17.3293
  145.0000  -999.2500   -41.8732    16.2067    51.6800    17.1819
  145.5000  -999.2500   -42.1494    16.0361    52.6720    17.0383
  146.0000  -999.2500   -41.9646    15.8655    53.5482    16.8028
  146.5000  -999.2500   -41.7799    15.6950    53.8400    16.3949
  147.0000  -999.2500   -42.0927    15.5308    54.1318    16.0491
  147.5000  -999.2500   -42.5246    15.4027    54.4235    16.0499
  148.0000  -999.2500   -42.2527    15.2748    55.0229    16.0473
  148.5000  -999.2500   -41.9906    15.1468    55.7314    15.8604
  149.0000  -999.2500   -42.1692    15.0187    56.4400    15.6561
  149.5000  -999.2500   -42.3500    14.8894    57.1486    15.4518
  150.0000  -999.2500   -41.9548    14.7559    57.5000    15.3127
  150.5000  -999.2500   -41.4926    14.7486    57.5000    15.2375
  151.0000  -999.2500   -41.2423    14.7518    57.5000    15.1612
  151.5000  -999.2500   -41.0583    14.6950    57.5000    15.0860
  152.0000  -999.2500   -40.7425    13.8798    59.5000    14.9302
  152.5000  -999.2500   -40.2772    12.8093    67.7316    14.1705
  153.0000  -999.2500   -40.6819    11.7319    76.7147    13.2313
  153.5000  -999.2500   -41.3646    10.6539    85.6979    12.2880
  154.0000  -999.2500   -41.9849     9.5817    95.0086    11.2432
  154.5000  -999.2500   -41.1047     8.6419   106.4829    10.2621
  155.0000  -999.2500   -39.8274     8.0999   117.9571     9.5458
  155.5000  -999.2500   -38.4300     7.5146   129.4314     8.7333
  156.0000  -999.2500   -37.6422     7.0046   141.5000     8.0384
  156.5000  -999.2500   -36.8590     6.5498   148.3000     7.4616
  157.0000  -999.2500   -36.0803     6.4366   152.7356     7.2536
  157.5000  -999.2500   -35.4254     6.3509   154.9667     7.0759
  158.0000  -999.2500   -35.6627     6.3869   154.4086     6.9886
  158.5000  -999.2500   -35.8769     6.4201   152.9743     7.0039
  159.0000  -999.2500   -35.9651     6.4523   151.5400     7.0224
  159.5000  -999.2500   -35.8296     6.4848   150.1057     7.0438
  160.0000  -999.2500   -35.6989     6.5174   149.5633     7.0663
  160.5000  -999.2500   -35.7547     6.5487   149.7307     7.0503
  161.0000  -999.2500   -36.1408     6.5349   149.8980     7.0252
  161.5000  -999.2500   -36.0867     6.5189   150.0653     6.9744
  162.0000  -999.2500   -35.9390     6.5032   150.2327     6.8809
  162.5000  -999.2500   -35.8676     6.4875   150.4000     6.7876
  163.0000  -999.2500   -36.1693     6.4718   150.1327     6.7390
  163.5000  -999.2500   -36.3517     6.4556   149.2200     6.7421
  164.0000  -999.2500   -36.0109     6.4809   148.3073     6.7615
  164.5000  -999.2500   -35.6422     6.5308   147.3945     6.8272
  165.0000  -999.2500   -35.7353     6.5810   146.4818     6.9201
  165.5000  -999.2500   -36.5078     6.6312   145.5691     7.0081
  166.0000  -999.2500   -37.2873     6.6813   144.6564     7.0176
  166.5000  -999.2500   -37.0160     6.7331   144.5000     7.0308
  167.0000  -999.2500   -36.5671     6.6824   145.1056     7.0108
  167.5000  -999.2500   -36.2411     6.5775   146.5000     6.9813
  168.0000  -999.2500   -36.3893     6.4715   147.8944     6.9174
  168.5000  -999.2500   -35.9534     6.3652   149.2889     6.8359
  169.0000  -999.2500   -35.6060     6.3629   150.6844     6.7831
  169.5000  -999.2500   -35.6148     6.3778   152.0814     6.7505
  170.0000  -999.2500   -35.6150     6.3932   153.4778     6.7185
  170.5000  -999.2500   -35.6202     6.4085   154.5049     6.6872
  171.0000  -999.2500   -35.3132     6.4236   153.7411     6.6743
  171.5000  -999.2500   -34.8653     6.4392   152.1130     6.6921
  172.0000  -999.2500   -34.6929     6.4645   150.4849     6.7149
  172.5000  -999.2500   -34.8338     6.5231   148.8568     6.8525
  173.0000  -999.2500   -34.9746     6.5806   147.2287     6.9920
  173.5000  -999.2500   -35.2489     6.6379   145.6005     7.0526
  174.0000  -999.2500   -35.5816     6.6952   143.9724     7.1190
  174.5000  -999.2500   -35.8030     6.7525   142.5000     7.1954
  175.0000  -999.2500   -35.4157     6.8103   139.5049     7.1790
  175.5000  -999.2500   -35.0375     6.8731   138.3786     7.1472
  176.0000  -999.2500   -35.2099     6.9565   137.1190     7.1493
  176.5000  -999.2500   -35.4261     7.0382   135.8608     7.2223
  177.0000  -999.2500   -35.5782     7.1199   134.6050     7.2993
  177.5000  -999.2500   -35.2837     7.2016   133.2300     7.4021
  178.0000  -999.2500   -35.0198     7.2834   130.9710     7.5026
  178.5000  -999.2500   -35.0168     7.3650   128.7120     7.6025
  179.0000  -999.2500   -34.7956     7.4468   126.4530     7.6783
  179.5000  -999.2500   -34.3829     7.5317   124.4382     7.7007
  180.0000  -999.2500   -34.0293     7.5074   123.9818     7.7217
  180.5000  -999.2500   -34.0298     7.4513   123.5000     7.8376
  181.0000  -999.2500   -34.3786     7.3940   125.2380     7.8568
  181.5000  -999.2500   -35.0003     7.3368   127.0787     7.8386
  182.0000  -999.2500   -35.0231     7.2798   128.9193     7.7239
  182.5000  -999.2500   -34.9407     7.2227   130.7600     7.5809
  183.0000  -999.2500   -34.8555     7.1656   132.5944     7.5222
  183.5000  -999.2500   -34.5916     7.1082   134.4915     7.4400
  184.0000  -999.2500   -34.1977     7.0517   134.2730     7.3604
  184.5000  -999.2500   -33.7989     7.0496   134.0497     7.3055
  185.0000  -999.2500   -33.7444     7.0499   133.8251     7.3211
  185.5000  -999.2500   -33.9303     7.0500   133.5977     7.4067
  186.0000  -999.2500   -34.1191     7.0500   133.8687     7.4842
  186.5000  -999.2500   -34.3116     7.0500   134.5000     7.3697
  187.0000  -999.2500   -34.6932     7.0449   133.9758     7.2711
  187.5000  -999.2500   -35.3876     7.0316   133.4474     7.4530
  188.0000  -999.2500   -36.0808     7.0184   132.9189     7.5224
  188.5000  -999.2500   -36.2828     7.0052   132.7222     7.4040
  189.0000  -999.2500   -36.3721     6.9919   133.8421     7.2938
  189.5000  -999.2500   -36.7700     6.9788   134.9621     7.3212
  190.0000  -999.2500   -37.3438     6.9655   136.0795     7.3538
  190.5000  -999.2500   -37.7710     6.9517   136.2615     7.3853
  191.0000  -999.2500   -37.5541     6.9639   135.8748     7.4045
  191.5000  -999.2500   -37.2978     6.9804   135.4886     7.3731
  192.0000  -999.2500   -36.8355     6.9972   135.1022     7.3428
  192.5000  -999.2500   -36.3750     7.0141   134.7154     7.3127
  193.0000  -999.2500   -35.9144     7.0307   134.0144     7.2898
  193.5000  -999.2500   -35.4521     7.0448   132.9162     7.3033
  194.0000  -999.2500   -35.0335     7.1213   131.8181     7.3569
  194.5000  -999.2500   -35.2077     7.2043   130.7200     7.4618
  195.0000  -999.2500   -35.3894     7.2886   129.6219     7.5661
  195.5000  -999.2500   -35.1243     7.3733   128.5237     7.6708
  196.0000  -999.2500   -34.8548     7.4450   127.5000     7.7797
  196.5000  -999.2500   -35.5618     7.3415   129.2867     7.7927
  197.0000  -999.2500   -36.1953     7.2372   130.9600     7.7197
  197.5000  -999.2500   -36.0362     7.1341   132.6333     7.5139
  198.0000  -999.2500   -35.8162     7.0311   135.0284     7.3134
  198.5000  -999.2500   -35.6218     6.9281   138.1989     7.1268
  199.0000  -999.2500   -35.7227     6.8251   141.3695     7.0094
  199.5000  -999.2500   -35.8058     6.7224   144.5400     6.9620
  200.0000  -999.2500   -35.6735     6.6399   146.1206     6.9181
  200.5000  -999.2500   -35.6522     6.6095   147.0108     6.8748
  201.0000  -999.2500   -36.4475     6.5784   147.9010     6.8727
  201.5000  -999.2500   -36.9162     6.5473   148.7912     6.8782
