~VERSION INFORMATION
 VERS.                2.0:   CWLS LOG ASCII STANDARD - VERSION 2.0
 WRAP.                 NO:   ONE LINE PER DEPTH STEP
~WELL INFORMATION
#MNEM.UNIT      DATA TYPE    INFORMATION
#----------   ------------   ------------------------------
 STRT.F           15.0000:   START DEPTH
 STOP.F         5640.0000:   STOP DEPTH
 STEP.F            0.5000:   STEP LENGTH
 NULL.          -999.2500:   NO VALUE
 COMP.       F D SERV INC:   COMPANY
 WELL. NAVAL PETROLEUM RESERVE 3 SX-1 #43-10:   WELL
 FLD .         N.P.R. #.3:   FIELD
 LOC .      S10 T38N R78W:   LOCATION
 CNTY.            NATRONA:   COUNTY
 STAT.            WYOMING:   STATE
 CTRY. UNITED STATES OF AMERICA:   COUNTRY
 SRVC.      Dresser Atlas:   SERVICE COMPANY
 DATE.        05-JUL-1986:   LOGDATE
 API .       490251101800:   API NUMBER
~CURVE INFORMATION
#MNEM.UNIT       API CODE    CURVE DESCRIPTION
#----------   ------------   ------------------------------
 DEPT.F                  :   
 GRR .GAPI   07 310 01 00:   GAMMA RAY
 ILD .OHMM   07 120 46 00:   INDUCTION LOG DEEP
 ILM .OHMM   07 120 44 00:   INDUCTION LOG MEDIUM
 CALS.IN     60 280 50 00:   CALIPER FROM SONIC LOG
 GRS .GAPI   60 310 01 00:   GAMMA RAY FROM SONIC LOG
 AC  .US/F   60 520 00 00:   ACCOUSTIC
~PARAMETER INFORMATION
#MNEM.UNIT          VALUE    DESCRIPTION
#----------   ------------   ------------------------------
 PD  .                 GL:   PERMANENT DATUM
 EPD .F              5205:   ELEVATION PERMANENT DATUM
 LMF .                 KB:   LOG MEASURED FROM
 DAPD.F                 5:   FEET ABOVE PERMANENT DATUM
 DMF .                 KB:   DRILLING MEASURED FROM
 EKB .F              5210:   KELLING BUSHING
 EGL .F              5205:   GROUND LEVEL
 DATE.        05-JUL-1986:   RUN DATE
 RUN .                  1:   RUN NUMBER
 DD  .F               560:   DEPTH DRILLER
 DL  .F               560:   DEPTH LOGGER
 BLI .F               550:   BOTTOM LOG INTERVAL
 TLI .F                15:   TOP LOG INTERVAL
 CS  .IN            8.625:   CASING SIZE
 CBD .F                47:   CASING BOTTOM DRILLER
 CBL .F                47:   CASING BOTTOM LOGGER
 BS  .IN            7.875:   BIT SIZE
 BSD .F               560:   BIT SIZE AT DEPTH
 DFT .                AIR:   DRILLING FLUID TYPE
 BHT .F                83:   BOTTOM HOLE TEMPERATURE
 TCS .HRS            2100:   TIME CURCULATED STOPPED
 TLAB.HRS            2230:   TIME LOGGER AT BOTTOM
 MRT .F                83:   MAXIMUM RECORDED TEMPERATURE
 LUN .               7609:   LOGGING UNIT NUMBER
 LUL .           GILLETTE:   LOGGING UNIT LOCATION
 ENGI.              BAURT:   RECORDING ENGINEER
 CLNT.            A2DTECH:   CLIENT CODE
 ORIG. 1" 2" 2.5", 5" PRINT:   ORIGIN OF DATA
 UWI .       490251101800:   UNIQUE WELL ID
 DICO. A2D Technologies, Inc.:   DIGITIZING COMPANY
 R2  . HEADER NOT CLEARLY VISIBLE:   REMARKS 2
~OTHER INFORMATION
~A   DEPT       GRR       ILD        ILM       CALS        GRS         AC   
# ...
 4591.0000  -999.2500  -999.2500  -999.2500    10.6749    80.4656    65.6276
 4591.5000  -999.2500  -999.2500  -999.2500    10.7047    81.9719    65.7037
 4592.0000  -999.2500  -999.2500  -999.2500    10.7194    84.9934    65.7044
 4592.5000  -999.2500  -999.2500  -999.2500    10.7492    85.5909    65.4035
 4593.0000  -999.2500  -999.2500  -999.2500    10.7639    82.8545    65.1026
 4593.5000  -999.2500  -999.2500  -999.2500    10.7787    79.7516    64.8002
 4594.0000  -999.2500  -999.2500  -999.2500    10.7781    77.9862    64.5007
 4594.5000  -999.2500  -999.2500  -999.2500    10.8080    77.9773    64.4260
 4595.0000  -999.2500  -999.2500  -999.2500    10.8076    78.5746    64.4270
 4595.5000  -999.2500  -999.2500  -999.2500    10.8234    79.1718    64.4277
 4596.0000  -999.2500  -999.2500  -999.2500    10.8672    79.1630    64.3530
 4596.5000  -999.2500  -999.2500  -999.2500    10.8972    79.1542    64.2029
 4597.0000  -999.2500  -999.2500  -999.2500    10.9269    79.1453    64.1282
 4597.5000  -999.2500  -999.2500  -999.2500    10.9417    83.4961    63.9027
 4598.0000  -999.2500  -999.2500  -999.2500    10.9716    86.7034    63.8280
 4598.5000  -999.2500  -999.2500  -999.2500    10.9711    86.0863    63.9798
 4599.0000  -999.2500  -999.2500  -999.2500    10.9706    85.7745    64.4330
 4599.5000  -999.2500  -999.2500  -999.2500    10.9701    85.7657    64.8862
 4600.0000  -999.2500  -999.2500  -999.2500    10.9740    88.1457    65.3012
 4600.5000  -999.2500  -999.2500  -999.2500    10.9994    91.5051    66.4322
 4601.0000  -999.2500  -999.2500  -999.2500    10.9987    96.0419    66.5837
 4601.5000  -999.2500  -999.2500  -999.2500    10.9981   102.0938    66.1334
 4602.0000  -999.2500  -999.2500  -999.2500    10.9975   105.1155    65.3062
 4602.5000  -999.2500  -999.2500  -999.2500    10.9970   104.1956    64.1782
 4603.0000  -999.2500  -999.2500  -999.2500    10.9964    98.7324    63.7276
 4603.5000  -999.2500  -999.2500  -999.2500    10.9957    88.7238    63.5026
 4604.0000  -999.2500  -999.2500  -999.2500    10.9951    89.9272    64.1064
 4604.5000  -999.2500  -999.2500  -999.2500    10.9945    89.9164    65.2833
 4605.0000  -999.2500  -999.2500  -999.2500    10.9939    89.9078    66.5188
 4605.5000  -999.2500  -999.2500  -999.2500    11.0085    91.7173    66.7458
 4606.0000  -999.2500  -999.2500  -999.2500    11.0078    98.6784    66.5211
 4606.5000  -999.2500  -999.2500  -999.2500    11.0375   103.5182    65.2786
 4607.0000  -999.2500  -999.2500  -999.2500    11.0674    99.5680    63.5117
 4607.5000  -999.2500  -999.2500  -999.2500    11.0818    94.7109    62.6093
 4608.0000  -999.2500  -999.2500  -999.2500    11.1115    88.9447    62.0081
 4608.5000  -999.2500  -999.2500  -999.2500    11.1261    84.9966    61.9340
 4609.0000  -999.2500  -999.2500  -999.2500    11.1407    81.3191    62.8391
 4609.5000  -999.2500  -999.2500  -999.2500    11.1702    78.6135    64.1204
 4610.0000  -999.2500  -999.2500  -999.2500    11.2000    78.3019    67.0583
 4610.5000  -999.2500  -999.2500  -999.2500    11.2448    84.9599    71.0653
 4611.0000  -999.2500  -999.2500  -999.2500    11.2744    92.8300    75.8712
 4611.5000  -999.2500  -999.2500  -999.2500    11.2738   111.5006    77.3784
 4612.0000  -999.2500  -999.2500  -999.2500    11.2430   126.4470    77.0784
 4612.5000  -999.2500  -999.2500  -999.2500    11.1969   126.1353    76.1760
 4613.0000  -999.2500  -999.2500  -999.2500    11.1661   120.0660    74.9726
 4613.5000  -999.2500  -999.2500  -999.2500    11.1333   113.0877    74.3711
 4614.0000  -999.2500  -999.2500  -999.2500    11.1193   113.1511    74.2970
 4614.5000  -999.2500  -999.2500  -999.2500    11.1187   116.4016    74.6750
 4615.0000  -999.2500  -999.2500  -999.2500    11.1181   118.8172    75.1283
 4615.5000  -999.2500  -999.2500  -999.2500    11.1176   121.2328    75.3553
 4616.0000  -999.2500  -999.2500  -999.2500    11.1018   123.3453    75.8083
 4616.5000  -999.2500  -999.2500  -999.2500    11.0708   123.6397    76.4119
 4617.0000  -999.2500  -999.2500  -999.2500    11.0551   121.2047    76.2532
 4617.5000  -999.2500  -999.2500  -999.2500    11.0545   118.7718    76.0381
 4618.0000  -999.2500  -999.2500  -999.2500    11.0539   118.4601    76.4911
 4618.5000  -999.2500  -999.2500  -999.2500    11.0529   120.2697    77.6218
 4619.0000  -999.2500  -999.2500  -999.2500    11.0375   122.9861    77.5993
 4619.5000  -999.2500  -999.2500  -999.2500    11.0369   126.6138    75.6666
 4620.0000  -999.2500  -999.2500  -999.2500    11.0363   128.4255    73.5594
 4620.5000  -999.2500  -999.2500  -999.2500    11.0206   127.5056    69.6449
 4621.0000  -999.2500  -999.2500  -999.2500    10.9897   123.8456    67.0684
 4621.5000  -999.2500  -999.2500  -999.2500    10.9738   111.1226    65.9575
 4622.0000  -999.2500  -999.2500  -999.2500    10.9581    94.7503    66.5614
 4622.5000  -999.2500  -999.2500  -999.2500    10.9272    79.2871    66.7132
 4623.0000  -999.2500  -999.2500  -999.2500    10.8963    79.8845    66.4885
 4623.5000  -999.2500  -999.2500  -999.2500    10.8654    86.0461    65.5863
 4624.0000  -999.2500  -999.2500  -999.2500    10.8479    95.9257    64.9851
 4624.5000  -999.2500  -999.2500  -999.2500    10.7884    94.7049    64.2333
 4625.0000  -999.2500  -999.2500  -999.2500    10.7575    82.2720    64.0839
 4625.5000  -999.2500  -999.2500  -999.2500    10.7418    73.7785    63.8591
 4626.0000  -999.2500  -999.2500  -999.2500    10.7412    70.9679    63.5594
 4626.5000  -999.2500  -999.2500  -999.2500    10.7255    66.7894    63.5606
 4627.0000  -999.2500  -999.2500  -999.2500    10.7247    63.7504    64.0889
 4627.5000  -999.2500  -999.2500  -999.2500    10.7242    60.1054    64.4772
 4628.0000  -999.2500  -999.2500  -999.2500    10.7236    59.1877    64.6187
 4628.5000  -999.2500  -999.2500  -999.2500    10.6776    59.5862    64.3939
 4629.0000  -999.2500  -999.2500  -999.2500    10.6315    64.6228    63.8680
 4629.5000  -999.2500  -999.2500  -999.2500    10.6611    68.2505    63.5680
 4630.0000  -999.2500  -999.2500  -999.2500    10.6758    71.2721    63.6501
 4630.5000  -999.2500  -999.2500  -999.2500    10.7054    71.2812    63.6508
 4631.0000  -999.2500  -999.2500  -999.2500    10.7353    70.0424    64.8518
 4631.5000  -999.2500  -999.2500  -999.2500    10.7497    70.9410    67.4986
 4632.0000  -999.2500  -999.2500  -999.2500    10.7794    76.3869    69.2339
 4632.5000  -999.2500  -999.2500  -999.2500    10.7787    85.1662    70.8183
 4633.0000  -999.2500  -999.2500  -999.2500    10.7781   106.0666    71.1207
 4633.5000  -999.2500  -999.2500  -999.2500    10.7928   117.5710    71.4280
 4634.0000  -999.2500  -999.2500  -999.2500    10.7770   112.7138    72.9323
 4634.5000  -999.2500  -999.2500  -999.2500    10.7461   103.9173    73.8380
 4635.0000  -999.2500  -999.2500  -999.2500    10.7151   101.1835    73.3108
 4635.5000  -999.2500  -999.2500  -999.2500    10.6993   111.4981    70.9736
 4636.0000  -999.2500  -999.2500  -999.2500    10.6836   114.8005    68.0984
 4636.5000  -999.2500  -999.2500  -999.2500    10.6679   103.5775    64.1879
 4637.0000  -999.2500  -999.2500  -999.2500    10.6673    90.5386    63.2837
 4637.5000  -999.2500  -999.2500  -999.2500    10.6666    81.1360    63.2088
 4638.0000  -999.2500  -999.2500  -999.2500    10.6660    76.2540    63.6622
 4638.5000  -999.2500  -999.2500  -999.2500    10.6807    75.3590    64.4925
 4639.0000  -999.2500  -999.2500  -999.2500    10.6800    75.0473    65.1080
 4639.5000  -999.2500  -999.2500  -999.2500    10.6794    73.5235    65.3991
 4640.0000  -999.2500  -999.2500  -999.2500    10.6787    69.2724    65.3998
 4640.5000  -999.2500  -999.2500  -999.2500    10.6781    65.3018    65.4005
 4641.0000  -999.2500  -999.2500  -999.2500    10.6775    62.8894    65.3258
 4641.5000  -999.2500  -999.2500  -999.2500    10.6922    60.7595    65.0923
 4642.0000  -999.2500  -999.2500  -999.2500    10.6915    62.8721    64.7995
 4642.5000  -999.2500  -999.2500  -999.2500    10.6909    63.4697    64.4986
