~VERSION INFORMATION
 VERS.                2.0:   CWLS LOG ASCII STANDARD - VERSION 2.0
 WRAP.                 NO:   ONE LINE PER DEPTH STEP
~WELL INFORMATION
#MNEM.UNIT      DATA TYPE    INFORMATION
#----------   ------------   ------------------------------
 STRT.F            0.0000:   START DEPTH
 STOP.F         1110.0000:   STOP DEPTH
 STEP.F            0.5000:   STEP LENGTH
 NULL.          -999.2500:   NO VALUE
 COMP. FENIX & SCISSON INC:   COMPANY
 WELL. NAVAL PETROLEUM RESERVE 3 SX-1 #63-14:   WELL
 FLD .       TEA POT DOME:   FIELD
 LOC .      S14 T38N R78W:   LOCATION
 CNTY.            NATRONA:   COUNTY
 STAT.            WYOMING:   STATE
 CTRY. UNITED STATES OF AMERICA:   COUNTRY
 SRVC.            Unknown:   SERVICE COMPANY
 DATE.        15-APR-1978:   LOGDATE
 API .       490251061500:   API NUMBER
~CURVE INFORMATION
#MNEM.UNIT       API CODE    CURVE DESCRIPTION
#----------   ------------   ------------------------------
 DEPT.F                  :   
 NPHI.DEC    42 890 03 00:   NEUTRON POROSITY SANDSTONE
 GRD .GAPI   45 310 01 00:   GAMMA RAY FROM DENSITY LOG
 CALD.IN     45 280 60 00:   CALIPER FROM DENSITY LOG
 RHOB.G/C3   45 350 01 00:   BULK DENSITY
 DPHI.DEC    45 890 12 00:   DENSITY POROSITY SANDSTONE
 CORR.G/C3   45 356 01 00:   DENSITY CORRECTION
 SPR .MV     05 010 01 00:   SPONTANEOUS POTENTIAL FROM RES.
 SN  .OHMM   05 040 16 00:   SHORT NORMAL 16"
 ILD .OHMM   05 120 46 00:   INDUCTION LOG DEEP
~PARAMETER INFORMATION
#MNEM.UNIT          VALUE    DESCRIPTION
#----------   ------------   ------------------------------
 PD  .                 GL:   PERMANENT DATUM
 EPD .F              5253:   ELEVATION PERMANENT DATUM
 LMF .                 KB:   LOG MEASURED FROM
 DAPD.F                 4:   FEET ABOVE PERMANENT DATUM
 DMF .                 KB:   DRILLING MEASURED FROM
 EKB .F              5257:   KELLING BUSHING
 EGL .F              5253:   GROUND LEVEL
 DATE.          4-15-1978:   RUN DATE
 RUN .                  1:   RUN NUMBER
 DD  .F              1095:   DEPTH DRILLER
 DL  .F              1102:   DEPTH LOGGER
 BLI .F              1100:   BOTTOM LOG INTERVAL
 TLI .F               850:   TOP LOG INTERVAL
 CS  .IN            9.625:   CASING SIZE
 CBD .F                40:   CASING BOTTOM DRILLER
 CBL .F                40:   CASING BOTTOM LOGGER
 BS  .IN            7.875:   BIT SIZE
 BSD .F              1095:   BIT SIZE AT DEPTH
 DFT .                KCL:   DRILLING FLUID TYPE
 DFD .                8.6:   DRILLING FLUID DENSITY
 DFV .                 30:   DRILLING FLUID VISCOSITY
 DFPH.                 10:   DRILLING FLUID PH
 DFL .                  8:   DRILLING FLUID LOSS
 MSS .           FLOWLINE:   MUD SAMPLE SOURCE
 RMS .OHMM            .46:   RESISTIVITY MUD SAMPLE
 MST .F                58:   MUD SAMPLE TEMPERATURE
 RMF .OHMM             .5:   RESISTIVITY MUD FILTRATE SAMPLE
 MFST.F                60:   MUD FILTRATE SAMPLE TEMPERATURE
 RMC .OHMM             .5:   RESISTIVITY MUD CAKE
 MCST.F                60:   MUD CAKE SAMPLE TEMPERATURE
 MFSS.           MEASURED:   MUD FILTRATE SAMPLE SOURCE
 RMB .OHMM            .33:   RESISTIVITY MUD AT BHT
 BHT .F                80:   BOTTOM HOLE TEMPERATURE
 TCS .HRS               6:   TIME CURCULATED STOPPED
 MRT .F                80:   MAXIMUM RECORDED TEMPERATURE
 LUN .               2958:   LOGGING UNIT NUMBER
 LUL .               CASP:   LOGGING UNIT LOCATION
 ENGI.             MILLER:   RECORDING ENGINEER
 WITN.           MCGINLEY:   WITNESSED BY
 CLNT.            A2DTECH:   CLIENT CODE
 ORIG.      2" & 5" PRINT:   ORIGIN OF DATA
 UWI .       490251061500:   UNIQUE WELL ID
 DICO. A2D Technologies, Inc.:   DIGITIZING COMPANY
~OTHER INFORMATION
~A    DEPT    NPHI         GRD      CALD       RHOB       DPHI       CORR        SPR         SN        ILD   
# ...
  985.5000     0.1736    73.6724     7.5891     2.3020     0.1981     0.0525   -42.0160    11.3977    13.0709
  986.0000     0.1741    71.9615     7.6441     2.3078     0.1943     0.0525   -42.0159    11.3135    12.9781
  986.5000     0.1725    73.3013     7.6987     2.3172     0.1894     0.0526   -42.0157    11.2300    12.8859
  987.0000     0.1705    75.3122     7.7535     2.3212     0.1845     0.0508   -42.0156    11.1470    12.7944
  987.5000     0.1684    76.6390     7.8085     2.3225     0.1840     0.0487   -42.0317    11.0647    12.7035
  988.0000     0.1663    77.5398     7.8579     2.3272     0.1831     0.0467   -42.1367    10.9830    12.6133
  988.5000     0.1642    78.4391     7.9220     2.3327     0.1804     0.0499   -42.3894    10.9018    12.5208
  989.0000     0.1625    79.2417     7.9879     2.3363     0.1774     0.0533   -43.2816    10.8213    12.3400
  989.5000     0.1625    78.1123     7.9665     2.3389     0.1742     0.0565   -43.4058    10.7414    12.1624
  990.0000     0.1625    76.9064     7.9277     2.3414     0.1711     0.0562   -43.3953    10.6620    11.9869
  990.5000     0.1637    77.5859     7.8886     2.3421     0.1692     0.0559   -43.3826    10.5833    11.8141
  991.0000     0.1655    79.2282     7.8575     2.3424     0.1687     0.0556   -43.3715    10.5051    11.6437
  991.5000     0.1676    79.9137     7.8606     2.3427     0.1681     0.0552   -43.3606    10.4275    11.4758
  992.0000     0.1687    79.9018     7.9155     2.3430     0.1741     0.0549   -43.3498    10.3504    11.3103
  992.5000     0.1685    80.0392     7.9592     2.3433     0.1712     0.0546   -43.3389    10.2740    11.1472
  993.0000     0.1669    80.2493     7.9578     2.3436     0.1688     0.0545   -43.3280    10.1981    10.9864
  993.5000     0.1637    80.4574     7.9316     2.3438     0.1677     0.0546   -43.3172    10.0273    10.8280
  994.0000     0.1612    80.9109     7.8715     2.3419     0.1748     0.0545   -43.3063     9.9027    10.6718
  994.5000     0.1601    82.1552     7.8427     2.3399     0.1756     0.0531   -43.2955     9.7797    10.5179
  995.0000     0.1601    83.7536     7.8522     2.3467     0.1735     0.0518   -43.2846     9.6581    10.3663
  995.5000     0.1601    84.6667     7.8553     2.3547     0.1715     0.0505   -43.2738     9.5381    10.2168
  996.0000     0.1589    84.5593     7.8026     2.3628     0.1638     0.0514   -43.2629     9.4196    10.0700
  996.5000     0.1574    84.4012     7.8603     2.3709     0.1553     0.0525   -43.2520     9.3026    10.0317
  997.0000     0.1559    87.2715     7.9194     2.3720     0.1524     0.0508   -43.2413     9.1870     9.9937
  997.5000     0.1560    88.3158     7.9783     2.3692     0.1544     0.0488   -43.2304     9.0981     9.9558
  998.0000     0.1578    88.4417     8.0357     2.3670     0.1599     0.0468   -43.2184     9.0913     9.9180
  998.5000     0.1597    88.4234     8.0501     2.3680     0.1611     0.0473   -43.1476     9.0844     9.8805
  999.0000     0.1610    88.3607     7.9307     2.3691     0.1605     0.0483   -43.0030     9.0776     9.8430
  999.5000     0.1614    88.3056     7.9306     2.3701     0.1584     0.0492   -42.8553     9.0708     9.8057
 1000.0000     0.1611    88.6322     7.9484     2.3708     0.1565     0.0501   -42.9097     9.0639     9.7685
 1000.5000     0.1590    89.3552     7.9666     2.3704     0.1552     0.0499   -43.0424     9.0571     9.7315
 1001.0000     0.1580    89.8762     7.9847     2.3699     0.1589     0.0476   -43.1825     9.0503     9.6946
 1001.5000     0.1574    89.8916     8.0026     2.3708     0.1564     0.0451   -43.2209     9.0435     9.6579
 1002.0000     0.1568    89.9178     8.0149     2.3719     0.1545     0.0472   -43.2314     9.0366     9.6213
 1002.5000     0.1565    89.9419     7.9884     2.3695     0.1581     0.0509   -43.2411     9.0299     9.5848
 1003.0000     0.1565    89.9665     7.9622     2.3670     0.1616     0.0525   -43.2511     9.0232     9.5484
 1003.5000     0.1565    89.9909     7.9361     2.3688     0.1614     0.0525   -43.2611     9.0163     9.5122
 1004.0000     0.1565    90.0145     7.9101     2.3715     0.1578     0.0538   -43.2712     8.9919     9.4762
 1004.5000     0.1565    90.0396     7.8849     2.3761     0.1541     0.0595   -43.2812     8.9677     9.4403
 1005.0000     0.1565    90.1353     7.8088     2.3759     0.1505     0.0651   -43.2912     8.9436     9.4045
 1005.5000     0.1565    90.5663     7.7347     2.3748     0.1532     0.0664   -43.3013     8.9196     9.3688
 1006.0000     0.1565    91.0101     7.7211     2.3736     0.1553     0.0677   -43.3113     8.8956     9.3333
 1006.5000     0.1565    90.1727     7.7259     2.3726     0.1564     0.0690   -43.3214     8.8717     9.2979
 1007.0000     0.1565    88.8131     7.7348     2.3722     0.1575     0.0703   -43.3314     8.8479     9.2627
 1007.5000     0.1565    87.4734     7.7669     2.3725     0.1573     0.0734   -43.3414     8.8242     9.2276
 1008.0000     0.1565    86.4417     7.8302     2.3772     0.1542     0.0768   -43.3515     8.8005     9.1926
 1008.5000     0.1562    86.2318     7.8928     2.3822     0.1511     0.0837   -43.3615     8.7768     9.1578
 1009.0000     0.1558    86.0024     7.9386     2.3861     0.1485     0.0905   -43.3716     8.7533     9.1231
 1009.5000     0.1553    85.7736     7.9220     2.3903     0.1470     0.0967   -43.3816     8.7298     9.0885
 1010.0000     0.1549    85.5208     7.8585     2.3962     0.1456     0.0989   -43.3915     8.7063     9.0540
 1010.5000     0.1544    86.2340     7.7986     2.4019     0.1435     0.1010   -43.3999     8.6829     9.0197
 1011.0000     0.1553    87.2933     7.8130     2.4077     0.1406     0.1032   -43.3984     8.6596     8.9855
 1011.5000     0.1574    88.3731     7.8265     2.4079     0.1383     0.1046   -43.8847     8.6364     8.9515
 1012.0000     0.1609    88.0671     7.8396     2.4021     0.1410     0.1046   -44.4430     8.6109     8.9337
 1012.5000     0.1644    86.6035     7.8527     2.3959     0.1436     0.1005   -44.6831     8.6163     8.9439
 1013.0000     0.1679    85.1210     7.8668     2.3896     0.1462     0.0931   -44.7900     8.6228     8.9519
 1013.5000     0.1685    84.2537     7.8817     2.3869     0.1488     0.0856   -44.8950     8.6293     8.9598
 1014.0000     0.1660    83.4132     7.8966     2.3883     0.1505     0.0780   -45.0004     8.6358     8.9678
 1014.5000     0.1643    82.9734     7.9117     2.3979     0.1445     0.0778   -45.1060     8.6423     8.9758
 1015.0000     0.1638    84.8422     7.9265     2.4115     0.1384     0.0793   -45.2117     8.6489     8.9838
 1015.5000     0.1633    87.0224     7.9335     2.4246     0.1324     0.0813   -45.3173     8.6554     8.9918
 1016.0000     0.1618    88.5623     7.9052     2.4248     0.1263     0.0850   -45.4231     8.6619     8.9998
 1016.5000     0.1603    88.6567     7.8777     2.4242     0.1257     0.0885   -45.5285     8.6685     9.0079
 1017.0000     0.1589    89.2068     7.8500     2.4225     0.1271     0.0884   -45.6156     8.6750     9.0159
 1017.5000     0.1573    90.0325     7.8217     2.4193     0.1297     0.0833   -45.6382     8.6816     9.0239
 1018.0000     0.1546    90.6387     7.8503     2.4160     0.1323     0.0755   -45.6616     8.6881     9.0320
 1018.5000     0.1520    90.4743     7.8875     2.4155     0.1335     0.0641   -45.6852     8.6947     9.0400
 1019.0000     0.1496    90.6549     7.9250     2.4162     0.1333     0.0593   -45.7088     8.7012     9.0481
 1019.5000     0.1479    90.9417     7.9621     2.4171     0.1331     0.0574   -45.7323     8.7078     9.0562
 1020.0000     0.1467    91.2282     7.9995     2.4179     0.1329     0.0556   -45.7559     8.7144     9.0642
 1020.5000     0.1458    90.7540     8.0038     2.4186     0.1321     0.0537   -45.7794     8.7210     9.0723
 1021.0000     0.1464    90.4185     7.9768     2.4225     0.1299     0.0518   -45.8019     8.7275     9.0804
 1021.5000     0.1488    90.9096     7.9439     2.4276     0.1277     0.0505   -45.8815     8.7341     9.0891
