~VERSION INFORMATION
 VERS.                2.0:   CWLS LOG ASCII STANDARD - VERSION 2.0
 WRAP.                 NO:   ONE LINE PER DEPTH STEP
~WELL INFORMATION
#MNEM.UNIT      DATA TYPE    INFORMATION
#----------   ------------   ------------------------------
 STRT.F            4.0000:   START DEPTH
 STOP.F         1997.5000:   STOP DEPTH
 STEP.F            0.5000:   STEP LENGTH
 NULL.          -999.2500:   NO VALUE
 COMP. LAWRENCE/ALLISON INC:   COMPANY
 WELL. NPR 3 66 SX #32-11:   WELL
 FLD .             TEAPOT:   FIELD
 LOC .      S11 T38N R78W:   LOCATION
 CNTY.            NATRONA:   COUNTY
 STAT.            WYOMING:   STATE
 CTRY. UNITED STATES OF AMERICA:   COUNTRY
 SRVC.      NL McCullough:   SERVICE COMPANY
 DATE.        16-SEP-1988:   LOGDATE
 API .       490251108600:   API NUMBER
~CURVE INFORMATION
#MNEM.UNIT       API CODE    CURVE DESCRIPTION
#----------   ------------   ------------------------------
 DEPT.F                  :   
 ROP .MIN/FT 91 810 01 00:   RATE OF DRILLING PENETRATION
 GR  .GAPI   81 310 01 00:   GAMMA RAY FROM CEMENT BOND LOG
 TGAS.UNITS  91 830 01 00:   TOTAL GAS FROM HOTWIRE
~PARAMETER INFORMATION
#MNEM.UNIT          VALUE    DESCRIPTION
#----------   ------------   ------------------------------
 PD  .                 GL:   PERMANENT DATUM
 EPD .F              5170:   ELEVATION PERMANENT DATUM
 LMF .                 KB:   LOG MEASURED FROM
 DMF .                 KB:   DRILLING MEASURED FROM
 EKB .F              5170:   KELLING BUSHING
 EGL .F              5170:   GROUND LEVEL
 DATE.        16-SEP-1988:   RUN DATE
 RUN .                  1:   RUN NUMBER
 DD  .F               837:   DEPTH DRILLER
 DL  .F               737:   DEPTH LOGGER
 BLI .F               733:   BOTTOM LOG INTERVAL
 CS  .IN              5.5:   CASING SIZE
 CBD .F               836:   CASING BOTTOM DRILLER
 BSD .F               837:   BIT SIZE AT DEPTH
 DFT .              WATER:   DRILLING FLUID TYPE
 TCS .HRS             1.5:   TIME CURCULATED STOPPED
 ENGI.          BANGERTER:   RECORDING ENGINEER
 WITN.               LOWE:   WITNESSED BY
 CLNT.            A2DTECH:   CLIENT CODE
 ORIG.           5" PRINT:   ORIGIN OF DATA
 UWI .       490251108600:   UNIQUE WELL ID
 DICO. A2D Technologies, Inc.:   DIGITIZING COMPANY
~OTHER INFORMATION
~A    DEPT     ROP          GR      TGAS   
# ...
 1369.0000     0.2795  -999.2500    12.9082
 1369.5000     0.2794  -999.2500    12.7883
 1370.0000     0.2793  -999.2500    12.6684
 1370.5000     0.2792  -999.2500    12.5486
 1371.0000     0.2791  -999.2500    12.4287
 1371.5000     0.2790  -999.2500    12.3088
 1372.0000     0.2789  -999.2500    12.1889
 1372.5000     0.2788  -999.2500    12.0690
 1373.0000     0.2787  -999.2500    11.9491
 1373.5000     0.2786  -999.2500    11.8292
 1374.0000     0.2785  -999.2500    11.7093
 1374.5000     0.2784  -999.2500    11.5894
 1375.0000     0.2783  -999.2500    11.4695
 1375.5000     0.2782  -999.2500    12.9050
 1376.0000     0.2781  -999.2500    17.1703
 1376.5000     0.2780  -999.2500    20.9864
 1377.0000     0.2779  -999.2500    23.2120
 1377.5000     0.2778  -999.2500    21.6705
 1378.0000     0.2777  -999.2500    16.8112
 1378.5000     0.2776  -999.2500    13.1960
 1379.0000     0.2775  -999.2500    11.6545
 1379.5000     0.2774  -999.2500    11.2189
 1380.0000     0.2773  -999.2500    11.2410
 1380.5000     0.2772  -999.2500    11.2867
 1381.0000     0.2771  -999.2500    11.3324
 1381.5000     0.2770  -999.2500    11.3782
 1382.0000     0.2769  -999.2500    11.4239
 1382.5000     0.2768  -999.2500    11.4696
 1383.0000     0.2767  -999.2500    11.5153
 1383.5000     0.2766  -999.2500    11.5610
 1384.0000     0.2765  -999.2500    11.6067
 1384.5000     0.2764  -999.2500    11.6524
 1385.0000     0.2762  -999.2500    11.6981
 1385.5000     0.2761  -999.2500    11.7438
 1386.0000     0.2760  -999.2500    11.7895
 1386.5000     0.2759  -999.2500    11.8352
 1387.0000     0.2758  -999.2500    11.8809
 1387.5000     0.2757  -999.2500    11.9266
 1388.0000     0.2756  -999.2500    11.9723
 1388.5000     0.2755  -999.2500    12.0181
 1389.0000     0.2754  -999.2500    12.0638
 1389.5000     0.2753  -999.2500    12.1095
 1390.0000     0.2752  -999.2500    12.1552
 1390.5000     0.2751  -999.2500    12.2009
 1391.0000     0.2750  -999.2500    12.2466
 1391.5000     0.2749  -999.2500    12.2923
 1392.0000     0.2748  -999.2500    12.3380
 1392.5000     0.2747  -999.2500    12.3837
 1393.0000     0.2746  -999.2500    12.4294
 1393.5000     0.2745  -999.2500    12.4751
 1394.0000     0.2744  -999.2500    12.5208
 1394.5000     0.2743  -999.2500    12.5665
 1395.0000     0.2742  -999.2500    12.6123
 1395.5000     0.2741  -999.2500    13.5620
 1396.0000     0.2740  -999.2500    16.1855
 1396.5000     0.2739  -999.2500    18.8433
 1397.0000     0.2738  -999.2500    22.1058
 1397.5000     0.2737  -999.2500    23.3467
 1398.0000     0.2736  -999.2500    20.3365
 1398.5000     0.2735  -999.2500    16.0306
 1399.0000     0.2734  -999.2500    14.5576
 1399.5000     0.2733  -999.2500    14.5369
 1400.0000     0.2732  -999.2500    14.5144
 1400.5000     0.2733  -999.2500    15.5412
 1401.0000     0.2734  -999.2500    18.6416
 1401.5000     0.2735  -999.2500    23.8158
 1402.0000     0.2736  -999.2500    25.8794
 1402.5000     0.2737  -999.2500    27.9430
 1403.0000     0.2738  -999.2500    27.9329
 1403.5000     0.2739  -999.2500    28.9596
 1404.0000     0.2740  -999.2500    31.0232
 1404.5000     0.2741  -999.2500    31.0127
 1405.0000     0.2742  -999.2500    31.0715
 1405.5000     0.2743  -999.2500    32.0297
 1406.0000     0.2744  -999.2500    31.9008
 1406.5000     0.2745  -999.2500    30.6878
 1407.0000     0.2746  -999.2500    28.5555
 1407.5000     0.2747  -999.2500    26.8049
 1408.0000     0.2748  -999.2500    31.3685
 1408.5000     0.2749  -999.2500    33.0035
 1409.0000     0.2750  -999.2500    32.9931
 1409.5000     0.2751  -999.2500    32.6959
 1410.0000     0.2752  -999.2500    31.9355
 1410.5000     0.2753  -999.2500    31.5897
 1411.0000     0.2754  -999.2500    31.2374
 1411.5000     0.2755  -999.2500    31.9044
 1412.0000     0.2756  -999.2500    32.3018
 1412.5000     0.2757  -999.2500    32.4885
 1413.0000     0.2758  -999.2500    31.4171
 1413.5000     0.2759  -999.2500    30.3457
 1414.0000     0.2760  -999.2500    29.2742
 1414.5000     0.2761  -999.2500    29.2602
 1415.0000     0.2762  -999.2500    30.3111
 1415.5000     0.2763  -999.2500    31.3619
 1416.0000     0.2764  -999.2500    32.4125
 1416.5000     0.2765  -999.2500    32.8376
 1417.0000     0.2766  -999.2500    32.1774
 1417.5000     0.2767  -999.2500    31.7800
 1418.0000     0.2768  -999.2500    30.3735
 1418.5000     0.2769  -999.2500    29.6855
 1419.0000     0.2770  -999.2500    29.6751
 1419.5000     0.2771  -999.2500    29.6647
 1420.0000     0.2773  -999.2500    28.8593
 1420.5000     0.2774  -999.2500    28.6071
 1421.0000     0.2775  -999.2500    28.5949
 1421.5000     0.2776  -999.2500    30.6585
 1422.0000     0.2777  -999.2500    30.6484
 1422.5000     0.2778  -999.2500    30.6382
 1423.0000     0.2779  -999.2500    29.5912
 1423.5000     0.2780  -999.2500    29.5811
 1424.0000     0.2781  -999.2500    28.5341
 1424.5000     0.2782  -999.2500    27.4871
 1425.0000     0.2783  -999.2500    26.4401
 1425.5000     0.2784  -999.2500    26.4297
 1426.0000     0.2785  -999.2500    26.4678
 1426.5000     0.2786  -999.2500    27.4466
 1427.0000     0.2787  -999.2500    27.4355
 1427.5000     0.2788  -999.2500    27.5461
 1428.0000     0.2789  -999.2500    28.4530
 1428.5000     0.2790  -999.2500    28.4412
 1429.0000     0.2791  -999.2500    28.4309
 1429.5000     0.2792  -999.2500    28.6381
 1430.0000     0.2793  -999.2500    29.2051
 1430.5000     0.2794  -999.2500    27.8676
 1431.0000     0.2795  -999.2500    25.7349
 1431.5000     0.2796  -999.2500    23.9170
 1432.0000     0.2797  -999.2500    23.1843
 1432.5000     0.2798  -999.2500    23.1740
 1433.0000     0.2799  -999.2500    22.7765
 1433.5000     0.2800  -999.2500    22.1164
 1434.0000     0.2801  -999.2500    22.1060
 1434.5000     0.2802  -999.2500    21.6360
 1435.0000     0.2803  -999.2500    21.0484
 1435.5000     0.2804  -999.2500    21.0380
 1436.0000     0.2805  -999.2500    20.4955
 1436.5000     0.2806  -999.2500    19.9804
 1437.0000     0.2807  -999.2500    19.9700
 1437.5000     0.2808  -999.2500    19.9597
 1438.0000     0.2809  -999.2500    23.7237
 1438.5000     0.2810  -999.2500    24.8536
 1439.0000     0.2811  -999.2500    21.3667
 1439.5000     0.2812  -999.2500    17.1118
 1440.0000     0.2814  -999.2500    14.3088
 1440.5000     0.2815  -999.2500    13.6763
 1441.0000     0.2816  -999.2500    13.5851
 1441.5000     0.2817  -999.2500    13.4640
 1442.0000     0.2818  -999.2500    13.3430
 1442.5000     0.2819  -999.2500    13.2219
 1443.0000     0.2820  -999.2500    13.1008
 1443.5000     0.2821  -999.2500    12.9797
 1444.0000     0.2822  -999.2500    12.8586
 1444.5000     0.2823  -999.2500    12.7375
 1445.0000     0.2824  -999.2500    12.6164
 1445.5000     0.2825  -999.2500    12.4953
 1446.0000     0.2826  -999.2500    12.3742
 1446.5000     0.2827  -999.2500    12.2532
 1447.0000     0.2828  -999.2500    12.1321
 1447.5000     0.2829  -999.2500    12.0110
 1448.0000     0.2830  -999.2500    11.8899
 1448.5000     0.2831  -999.2500    11.7688
 1449.0000     0.2832  -999.2500    11.6477
 1449.5000     0.2833  -999.2500    11.5266
 1450.0000     0.2834  -999.2500    11.4055
 1450.5000     0.2835  -999.2500    11.3952
 1451.0000     0.2836  -999.2500    11.3848
 1451.5000     0.2837  -999.2500    11.3744
 1452.0000     0.2838  -999.2500    11.3641
 1452.5000     0.2839  -999.2500    11.3537
 1453.0000     0.2840  -999.2500    11.3433
 1453.5000     0.2841  -999.2500    11.3329
 1454.0000     0.2842  -999.2500    11.3226
 1454.5000     0.2843  -999.2500    11.3122
 1455.0000     0.2844  -999.2500    11.3018
 1455.5000     0.2845  -999.2500    11.2915
 1456.0000     0.2846  -999.2500    11.2811
 1456.5000     0.2847  -999.2500    11.2707
 1457.0000     0.2848  -999.2500    11.2604
 1457.5000     0.2849  -999.2500    11.2500
 1458.0000     0.2850  -999.2500    11.7787
 1458.5000     0.2851  -999.2500    14.3419
 1459.0000     0.2852  -999.2500    12.8017
 1459.5000     0.2853  -999.2500    10.9304
