~VERSION INFORMATION
 VERS.                2.0:   CWLS LOG ASCII STANDARD - VERSION 2.0
 WRAP.                 NO:   ONE LINE PER DEPTH STEP
~WELL INFORMATION
#MNEM.UNIT      DATA TYPE    INFORMATION
#----------   ------------   ------------------------------
 STRT.F          376.0000:   START DEPTH
 STOP.F         2400.0000:   STOP DEPTH
 STEP.F            0.5000:   STEP LENGTH
 NULL.          -999.2500:   NO VALUE
 COMP. LAWRENCE/ALLISON INC:   COMPANY
 WELL.        55 X #15-15:   WELL
 FLD .            WILDCAT:   FIELD
 LOC .      S15 T38N R78W:   LOCATION
 CNTY.            NATRONA:   COUNTY
 STAT.            WYOMING:   STATE
 CTRY. UNITED STATES OF AMERICA:   COUNTRY
 SRVC.            Unknown:   SERVICE COMPANY
 DATE.        12-APR-1988:   LOGDATE
 API .       490251119800:   API NUMBER
~CURVE INFORMATION
#MNEM.UNIT       API CODE    CURVE DESCRIPTION
#----------   ------------   ------------------------------
 DEPT.F                  :   
 GR  .GAPI   30 310 01 00:   GAMMA RAY
 TGAS.UNITS  91 830 01 00:   TOTAL GAS UNIT
 ROP .FT/HR  91 810 01 00:   RATE OF DRILLING PENETRATION
~PARAMETER INFORMATION
#MNEM.UNIT          VALUE    DESCRIPTION
#----------   ------------   ------------------------------
 PD  .                 GL:   PERMANENT DATUM
 EPD .F              5293:   ELEVATION PERMANENT DATUM
 LMF .                 GL:   LOG MEASURED FROM
 DMF .                 KB:   DRILLING MEASURED FROM
 EKB .F              5304:   KELLING BUSHING
 EGL .F              5293:   GROUND LEVEL
 DATE.        12-APR-1988:   RUN DATE
 RUN .                  1:   RUN NUMBER
 DD  .F              2400:   DEPTH DRILLER
 DL  .F               851:   DEPTH LOGGER
 BLI .F               846:   BOTTOM LOG INTERVAL
 TLI .F               372:   TOP LOG INTERVAL
 CS  .IN                7:   CASING SIZE
 CBL .F               890:   CASING BOTTOM LOGGER
 BSD .F              2400:   BIT SIZE AT DEPTH
 DFT .              WATER:   DRILLING FLUID TYPE
 TCS .HRS               1:   TIME CURCULATED STOPPED
 ENGI.          BANGERTER:   RECORDING ENGINEER
 WITN.             NORHAN:   WITNESSED BY
 CLNT.            A2DTECH:   CLIENT CODE
 ORIG.           5" PRINT:   ORIGIN OF DATA
 UWI .       490251119800:   UNIQUE WELL ID
 DICO. A2D Technologies, Inc.:   DIGITIZING COMPANY
~OTHER INFORMATION
~A   DEPT        GR      TGAS        ROP   
# ...
 1377.0000  -999.2500     3.8501     0.4050
 1377.5000  -999.2500     3.8653     0.4056
 1378.0000  -999.2500     3.8804     0.4063
 1378.5000  -999.2500     3.8985     0.4069
 1379.0000  -999.2500     3.9135     0.4075
 1379.5000  -999.2500     3.9284     0.4081
 1380.0000  -999.2500     3.9433     0.4087
 1380.5000  -999.2500     3.9582     0.3811
 1381.0000  -999.2500     3.9731     0.3723
 1381.5000  -999.2500     3.9880     0.3729
 1382.0000  -999.2500     4.0030     0.3735
 1382.5000  -999.2500     4.0179     0.3645
 1383.0000  -999.2500     4.0328     0.3653
 1383.5000  -999.2500     4.0477     0.3659
 1384.0000  -999.2500     4.0626     0.3665
 1384.5000  -999.2500     4.4565     0.3671
 1385.0000  -999.2500     4.4716     0.3677
 1385.5000  -999.2500     4.8657     0.3683
 1386.0000  -999.2500     5.2598     0.3689
 1386.5000  -999.2500     5.6567     0.3695
 1387.0000  -999.2500     6.0506     0.3702
 1387.5000  -999.2500     6.4444     0.3708
 1388.0000  -999.2500     6.4594     0.3715
 1388.5000  -999.2500     6.4743     0.3720
 1389.0000  -999.2500     6.4892     0.3727
 1389.5000  -999.2500     6.1252     0.3733
 1390.0000  -999.2500     6.1401     0.3738
 1390.5000  -999.2500     6.1550     0.3744
 1391.0000  -999.2500     6.1699     0.3751
 1391.5000  -999.2500     6.1848     0.3757
 1392.0000  -999.2500     6.1997     0.3763
 1392.5000  -999.2500     6.2147     0.3769
 1393.0000  -999.2500     5.8506     0.3775
 1393.5000  -999.2500     5.8661     0.3781
 1394.0000  -999.2500     5.8842     0.3788
 1394.5000  -999.2500     5.8991     0.3794
 1395.0000  -999.2500     5.9140     0.3799
 1395.5000  -999.2500     5.9289     0.3806
 1396.0000  -999.2500     5.9438     0.3812
 1396.5000  -999.2500     5.9587     0.3818
 1397.0000  -999.2500     5.9722     0.3824
 1397.5000  -999.2500     5.9886     0.3830
 1398.0000  -999.2500     6.0035     0.3836
 1398.5000  -999.2500     6.0184     0.3843
 1399.0000  -999.2500     6.0333     0.3754
 1399.5000  -999.2500     6.0482     0.3761
 1400.0000  -999.2500     6.0632     0.3955
 1400.5000  -999.2500     5.3221     0.3954
 1401.0000  -999.2500     5.3394     0.3954
 1401.5000  -999.2500     5.3564     0.3953
 1402.0000  -999.2500     5.3767     0.3953
 1402.5000  -999.2500     5.3935     0.3952
 1403.0000  -999.2500     5.4103     0.3954
 1403.5000  -999.2500     5.0439     0.4140
 1404.0000  -999.2500     4.6818     0.4340
 1404.5000  -999.2500     4.3196     0.4798
 1405.0000  -999.2500     4.3406     0.5174
 1405.5000  -999.2500     4.3574     0.5362
 1406.0000  -999.2500     4.3742     0.5456
 1406.5000  -999.2500     4.3910     0.5549
 1407.0000  -999.2500     4.4078     0.5549
 1407.5000  -999.2500     4.4246     0.5643
 1408.0000  -999.2500     4.4414     0.5548
 1408.5000  -999.2500     4.4583     0.5548
 1409.0000  -999.2500     4.4754     0.5547
 1409.5000  -999.2500     4.4924     0.5452
 1410.0000  -999.2500     4.5128     0.5358
 1410.5000  -999.2500     4.5265     0.5075
 1411.0000  -999.2500     4.5436     0.4698
 1411.5000  -999.2500     4.5632     0.4415
 1412.0000  -999.2500     4.5800     0.4414
 1412.5000  -999.2500     4.5968     0.4414
 1413.0000  -999.2500     4.6136     0.4413
 1413.5000  -999.2500     5.0094     0.4413
 1414.0000  -999.2500     5.0262     0.4412
 1414.5000  -999.2500     5.0430     0.4412
 1415.0000  -999.2500     5.0598     0.4317
 1415.5000  -999.2500     4.6976     0.4128
 1416.0000  -999.2500     4.7144     0.3846
 1416.5000  -999.2500     4.7312     0.3468
 1417.0000  -999.2500     4.7482     0.3374
 1417.5000  -999.2500     4.7653     0.3279
 1418.0000  -999.2500     4.7823     0.3467
 1418.5000  -999.2500     4.8026     0.3749
 1419.0000  -999.2500     4.8194     0.4031
 1419.5000  -999.2500     4.8362     0.4125
 1420.0000  -999.2500     4.8530     0.4124
 1420.5000  -999.2500     4.8698     0.4124
 1421.0000  -999.2500     4.8866     0.4123
 1421.5000  -999.2500     4.9017     0.4123
 1422.0000  -999.2500     4.9187     0.4122
 1422.5000  -999.2500     4.9371     0.4122
 1423.0000  -999.2500     4.9539     0.4027
 1423.5000  -999.2500     4.9706     0.4027
 1424.0000  -999.2500     4.9875     0.4026
 1424.5000  -999.2500     5.0043     0.4026
 1425.0000  -999.2500     5.0211     0.4025
 1425.5000  -999.2500     5.0381     0.4025
 1426.0000  -999.2500     5.0552     0.4024
 1426.5000  -999.2500     5.0722     0.4024
 1427.0000  -999.2500     5.0925     0.4024
 1427.5000  -999.2500     4.7261     0.3929
 1428.0000  -999.2500     3.9892     0.3928
 1428.5000  -999.2500     3.6229     0.4022
 1429.0000  -999.2500     3.6439     0.4022
 1429.5000  -999.2500     3.6607     0.4115
 1430.0000  -999.2500     3.6775     0.4209
 1430.5000  -999.2500     3.6943     0.4208
 1431.0000  -999.2500     3.7111     0.4208
 1431.5000  -999.2500     4.1068     0.4113
 1432.0000  -999.2500     4.1236     0.4019
 1432.5000  -999.2500     4.1404     0.4018
 1433.0000  -999.2500     4.1572     0.4112
 1433.5000  -999.2500     4.1741     0.4112
 1434.0000  -999.2500     4.9501     0.4111
 1434.5000  -999.2500     4.9669     0.4111
 1435.0000  -999.2500     4.9837     0.4110
 1435.5000  -999.2500     5.0002     0.4110
 1436.0000  -999.2500     5.0173     0.4122
 1436.5000  -999.2500     5.0343     0.4109
 1437.0000  -999.2500     5.0514     0.4108
 1437.5000  -999.2500     4.6888     0.4108
 1438.0000  -999.2500     4.3266     0.4013
 1438.5000  -999.2500     4.3476     0.3919
 1439.0000  -999.2500     4.3644     0.3918
 1439.5000  -999.2500     3.9981     0.3918
 1440.0000  -999.2500     4.0191     0.3917
 1440.5000  -999.2500     4.0359     0.3917
 1441.0000  -999.2500     4.0527     0.4010
 1441.5000  -999.2500     4.0695     0.4010
 1442.0000  -999.2500     4.0851     0.4009
 1442.5000  -999.2500     4.1031     0.4009
 1443.0000  -999.2500     4.1199     0.4008
 1443.5000  -999.2500     4.1362     0.3914
 1444.0000  -999.2500     4.1535     0.3913
 1444.5000  -999.2500     4.1703     0.3913
 1445.0000  -999.2500     4.1874     0.3912
 1445.5000  -999.2500     3.8249     0.3912
 1446.0000  -999.2500     3.7715     0.3911
 1446.5000  -999.2500     3.1048     0.3911
 1447.0000  -999.2500     3.1216     0.3911
 1447.5000  -999.2500     3.1384     0.4004
 1448.0000  -999.2500     3.1552     0.4004
 1448.5000  -999.2500     3.1721     0.4097
 1449.0000  -999.2500     3.1889     0.4097
 1449.5000  -999.2500     3.5846     0.4096
 1450.0000  -999.2500     3.6014     0.4096
 1450.5000  -999.2500     3.6182     0.4001
 1451.0000  -999.2500     3.6350     0.3907
 1451.5000  -999.2500     3.6518     0.3718
 1452.0000  -999.2500     4.0475     0.3717
 1452.5000  -999.2500     4.0643     0.3811
 1453.0000  -999.2500     3.7022     0.3717
 1453.5000  -999.2500     3.7194     0.3716
 1454.0000  -999.2500     3.3569     0.3716
 1454.5000  -999.2500     3.3779     0.3715
 1455.0000  -999.2500     3.3947     0.3715
 1455.5000  -999.2500     3.4115     0.3714
 1456.0000  -999.2500     3.4283     0.3808
 1456.5000  -999.2500     3.4451     0.3807
 1457.0000  -999.2500     3.4619     0.3807
 1457.5000  -999.2500     3.4787     0.3806
 1458.0000  -999.2500     3.4955     0.3712
 1458.5000  -999.2500     3.5123     0.3711
 1459.0000  -999.2500     3.5291     0.3711
 1459.5000  -999.2500     3.5459     0.3616
 1460.0000  -999.2500     3.5627     0.3710
 1460.5000  -999.2500     3.5795     0.3709
 1461.0000  -999.2500     3.5963     0.3709
 1461.5000  -999.2500     3.6133     0.3709
 1462.0000  -999.2500     3.6303     0.3708
 1462.5000  -999.2500     3.6474     0.3802
 1463.0000  -999.2500     3.6677     0.3803
 1463.5000  -999.2500     3.6845     0.3895
 1464.0000  -999.2500     3.7013     0.3895
 1464.5000  -999.2500     3.7181     0.3894
 1465.0000  -999.2500     3.7349     0.3894
 1465.5000  -999.2500     4.1306     0.3799
 1466.0000  -999.2500     4.1474     0.3798
 1466.5000  -999.2500     4.1642     0.3892
 1467.0000  -999.2500     4.1810     0.3892
 1467.5000  -999.2500     4.5768     0.3985
