~VERSION INFORMATION
 VERS.                2.0:   CWLS LOG ASCII STANDARD - VERSION 2.0
 WRAP.                 NO:   ONE LINE PER DEPTH STEP
~WELL INFORMATION
#MNEM.UNIT      DATA TYPE    INFORMATION
#----------   ------------   ------------------------------
 STRT.F           38.0000:   START DEPTH
 STOP.F         1202.0000:   STOP DEPTH
 STEP.F            0.5000:   STEP LENGTH
 NULL.          -999.2500:   NO VALUE
 COMP.       INTEX OIL CO:   COMPANY
 WELL.     72 S 14 #72-14:   WELL
 FLD .            WILDCAT:   FIELD
 LOC .      S14 T38N R78W:   LOCATION
 CNTY.            NATRONA:   COUNTY
 STAT.            WYOMING:   STATE
 CTRY. UNITED STATES OF AMERICA:   COUNTRY
 SRVC.       Schlumberger:   SERVICE COMPANY
 DATE.        26-AUG-1966:   LOGDATE
 API .       490250970800:   API NUMBER
~CURVE INFORMATION
#MNEM.UNIT       API CODE    CURVE DESCRIPTION
#----------   ------------   ------------------------------
 DEPT.F                  :   
 SPR .MV     05 010 01 00:   SPONTANEOUS POTENTIAL FROM RES.
 ASN .OHMM   05 041 16 00:   AMPLIFIED SHORT NORMAL 16"
 ILD .OHMM   05 120 46 00:   INDUCTION LOG DEEP
 CILD.MMHO   05 110 46 00:   CONDUCTIVITY INDUCTION LOG DEEP
 CORR.G/C3   45 356 01 00:   DENSITY CORRECTION
 GRD .GAPI   45 310 01 00:   GAMMA RAY FROM DENSITY LOG
 CALD.IN     45 280 60 00:   CALIPER FROM DENSITY LOG
 DPHI.DEC    45 890 12 00:   DENSITY POROSITY SANDSTONE
 RHOB.G/C3   45 350 01 00:   BULK DENSITY
~PARAMETER INFORMATION
#MNEM.UNIT          VALUE    DESCRIPTION
#----------   ------------   ------------------------------
 PD  .                 GL:   PERMANENT DATUM
 EPD .F              5265:   ELEVATION PERMANENT DATUM
 LMF .                 KB:   LOG MEASURED FROM
 DAPD.F                 5:   FEET ABOVE PERMANENT DATUM
 DMF .                 KB:   DRILLING MEASURED FROM
 EKB .F              5270:   KELLING BUSHING
 DATE.        26-AUG-1966:   RUN DATE
 RUN .                  1:   RUN NUMBER
 DD  .F              1201:   DEPTH DRILLER
 DL  .F              1203:   DEPTH LOGGER
 BLI .F              1202:   BOTTOM LOG INTERVAL
 TLI .F                46:   TOP LOG INTERVAL
 CS  .IN            8.625:   CASING SIZE
 BS  .IN             6.75:   BIT SIZE
 BSD .F              1201:   BIT SIZE AT DEPTH
 DFT .     CHEM- GEL- OIL:   DRILLING FLUID TYPE
 DFD .                9.4:   DRILLING FLUID DENSITY
 MRT .F                94:   MAXIMUM RECORDED TEMPERATURE
 LUN .               3527:   LOGGING UNIT NUMBER
 LUL .             CASPER:   LOGGING UNIT LOCATION
 ENGI.             KNOBEL:   RECORDING ENGINEER
 WITN.                MAY:   WITNESSED BY
 CLNT.            A2DTECH:   CLIENT CODE
 ORIG.       2", 5" PRINT:   ORIGIN OF DATA
 UWI .       490250970800:   UNIQUE WELL ID
 DICO. A2D Technologies, Inc.:   DIGITIZING COMPANY
~OTHER INFORMATION
~A   DEPT      SPR        ASN        ILD       CILD       CORR        GRD       CALD       DPHI       RHOB   
# ...
 1023.5000   -23.0784    14.0532    11.0405    91.9882     0.0380    89.9335     7.0187     0.0821     2.5115
 1024.0000   -24.8549    15.9883    12.3847    83.7226     0.0388    74.7477     7.0194     0.0927     2.4913
 1024.5000   -28.1652    17.4162    13.3621    76.9586     0.0339    65.3740     7.0202     0.1037     2.4659
 1025.0000   -31.3249    18.4686    14.3395    70.9453     0.0268    60.4714     6.9762     0.1172     2.4525
 1025.5000   -34.6353    19.2208    15.2419    64.9321     0.0234    64.2870     6.9173     0.1202     2.4593
 1026.0000   -35.8372    19.8229    15.8439    61.1711     0.0231    66.9849     6.7988     0.1148     2.4578
 1026.5000   -35.8479    20.3499    16.0706    58.1607     0.0291    67.0003     6.8151     0.1193     2.4346
 1027.0000   -35.0783    20.7343    15.6777    56.6502     0.0421    67.2392     6.8467     0.1327     2.4115
 1027.5000   -35.6771    21.0288    14.7976    55.8940     0.0546    67.0310     6.8607     0.1450     2.3981
 1028.0000   -37.1802    20.1293    14.4987    60.3894     0.0659    66.3757     6.8466     0.1605     2.3809
 1028.5000   -38.5327    19.1548    14.3500    64.1359     0.0635    68.6596     6.8027     0.1683     2.3817
 1029.0000   -39.1330    18.7805    14.2009    65.6301     0.0478    72.3205     6.7883     0.1599     2.3947
 1029.5000   -37.4727    18.8574    13.9775    67.1246     0.0435    74.9204     6.7741     0.1479     2.4153
 1030.0000   -36.4156    18.4835    13.8238    68.6186     0.0433    78.7360     6.7900     0.1401     2.4408
 1030.5000   -36.5638    17.9482    13.4552    70.1129     0.0556    76.0688     6.8056     0.1353     2.4072
 1031.0000   -37.0121    17.3606    12.9312    72.3560     0.0507    73.3978     6.8063     0.1403     2.4342
 1031.5000   -37.1598    16.9867    12.6323    73.8503     0.0591    74.3112     6.8220     0.1293     2.4237
 1032.0000   -36.4032    16.7625    12.5583    75.3445     0.0766    74.5462     6.8376     0.1443     2.4081
 1032.5000   -35.1955    16.9896    12.7853    76.0898     0.0621    71.6593     6.8532     0.1529     2.4021
 1033.0000   -34.1383    17.2913    13.0120    74.5792     0.0263    69.6628     6.8540     0.1526     2.4141
 1033.5000   -33.3824    17.5255    13.1637    73.8212     0.0330    70.1252     6.8696     0.1457     2.4179
 1034.0000   -33.6807    17.8201    13.3156    73.0631     0.0321    73.9434     6.8703     0.1394     2.4059
 1034.5000   -33.8284    18.0468    13.4672    71.5526     0.0241    70.8291     6.8860     0.1493     2.4217
 1035.0000   -32.7705    17.9732    13.6188    70.7946     0.0201    68.6090     6.9018     0.1415     2.4194
 1035.5000   -33.0688    17.5242    13.7703    70.0366     0.0198    72.4246     6.9174     0.1433     2.4172
 1036.0000   -34.1201    18.2013    13.9219    68.5278     0.0249    74.4519     6.9181     0.1400     2.4347
 1036.5000   -34.8710    19.2538    13.9985    68.5205     0.0321    75.3615     6.9189     0.1205     2.4568
 1037.0000   -32.1565    19.7132    14.0753    67.7625     0.0350    76.0475     6.9196     0.1127     2.4752
 1037.5000   -30.9487    19.9323    14.1519    67.0045     0.0343    76.0628     6.9352     0.1043     2.4914
 1038.0000   -30.6446    19.4837    14.1533    66.2463     0.0307    75.4075     6.9360     0.1076     2.4623
 1038.5000   -32.1470    19.1098    13.9295    66.9900     0.0282    68.0458     6.9367     0.1230     2.4384
 1039.0000   -32.7472    18.8109    13.4054    68.4824     0.0269    67.3905     6.9225     0.1339     2.4474
 1039.5000   -32.4424    18.4370    13.0282    69.9766     0.0331    66.0522     6.9233     0.1195     2.4743
 1040.0000   -31.2346    17.9129    12.7330    71.4727     0.0359    75.3204     6.9240     0.1094     2.4586
 1040.5000   -31.3823    17.3026    12.5843    73.7159     0.0347    79.7355     6.9247     0.1180     2.4662
 1041.0000   -32.4336    16.5648    12.3605    75.2101     0.0337    78.1860     6.9255     0.1138     2.4632
 1041.5000   -33.3358    15.8906    12.1368    77.4551     0.0404    74.8482     6.9262     0.1219     2.4505
 1042.0000   -33.9338    15.2914    11.9130    78.9493     0.0475    80.4522     6.9420     0.1578     2.3967
 1042.5000   -34.0815    14.8424    11.6141    80.4435     0.0403    83.3698     6.9428     0.1566     2.4124
 1043.0000   -33.7767    14.5436    11.4549    82.6867     0.0292    82.4949     6.9584     0.1395     2.4349
 1043.5000   -33.3220    14.3161    11.2420    84.9317     0.0277    83.6279     6.9740     0.1311     2.4424
 1044.0000   -33.0178    14.0960    11.1680    86.4278     0.0344    89.0084     6.9897     0.1314     2.4477
 1044.5000   -32.7137    13.9473    11.0944    87.9202     0.0371    88.0893     7.0051     0.1305     2.4469
 1045.0000   -32.2590    13.8737    11.0207    87.9129     0.0383    89.4862     6.9909     0.1278     2.4417
 1045.5000   -31.8042    13.7254    10.9475    88.6564     0.0397    89.7304     6.9919     0.1314     2.4395
 1046.0000   -31.4994    13.6514    10.9489    88.6473     0.0422    87.9283     6.9926     0.1222     2.4777
 1046.5000   -31.0447    13.5781    10.8753    89.3926     0.0457    89.1148     6.9933     0.1062     2.4792
 1047.0000   -30.7406    13.5045    10.8017    89.3835     0.0561    89.9947     6.9941     0.1047     2.4927
 1047.5000   -30.5871    13.5063    10.8035    90.1288     0.0600    85.9901     6.9948     0.1026     2.4868
 1048.0000   -30.2830    13.4323    10.8049    90.8723     0.0450    87.1232     6.9955     0.1128     2.4567
 1048.5000   -30.1295    13.4341    10.8814    90.8632     0.0334    86.2443     6.9963     0.1232     2.4487
 1049.0000   -29.8253    13.5106    10.9580    90.1051     0.0322    84.2478     6.9972     0.1277     2.4472
 1049.5000   -29.6711    13.5121    11.1099    89.3454     0.0418    82.6983     6.9828     0.1193     2.4577
 1050.0000   -29.8195    13.5886    11.1384    87.8366     0.0490    82.2627     6.9985     0.1157     2.4630
 1050.5000   -29.9708    13.5869    11.3472    87.1017     0.0510    82.9502     6.9996     0.1148     2.4600
 1051.0000   -29.5111    13.5839    11.2598    85.8732     0.0486    83.6334     7.0008     0.1193     2.4391
 1051.5000   -29.3719    13.5818    11.3341    84.8569     0.0435    82.9740     6.9866     0.1384     2.4242
 1052.0000   -29.9761    13.5796    11.4085    84.1150     0.0368    82.0869     6.9728     0.1438     2.4175
 1052.5000   -30.4293    13.5769    11.5579    84.1222     0.0318    80.7675     6.9890     0.1471     2.4242
 1053.0000   -30.5814    13.5748    11.6323    84.1293     0.0278    83.0393     6.9751     0.1336     2.4362
 1053.5000   -30.5828    13.5726    11.7064    83.3857     0.0242    88.4369     6.9762     0.1411     2.4213
 1054.0000   -30.5846    13.5705    11.7057    83.3947     0.0240    93.7912     6.9772     0.1447     2.4206
 1054.5000   -30.5860    13.5683    11.7048    83.4018     0.0314    93.7738     6.9782     0.1372     2.4311
 1055.0000   -30.5875    13.5656    11.6290    83.4089     0.0362    92.4442     6.9942     0.1387     2.4304
 1055.5000   -30.5889    13.5635    11.5532    83.4161     0.0360    91.7769     6.9952     0.1414     2.4237
 1056.0000   -30.5903    13.4863    11.4774    84.1742     0.0256    88.6766     6.9811     0.1393     2.4244
 1056.5000   -30.5921    13.4841    11.4017    84.9337     0.0240    88.4656     6.9973     0.1366     2.4320
 1057.0000   -30.2924    13.4820    11.3257    85.6916     0.0250    87.5945     6.9983     0.1399     2.4245
 1057.5000   -30.1428    13.3947    11.2499    85.6987     0.0293    86.7137     6.9994     0.1387     2.4395
 1058.0000   -29.9940    13.2519    11.1741    87.2074     0.0360    90.1405     7.0153     0.1294     2.4485
 1058.5000   -29.6843    13.1747    11.0983    87.9654     0.0395    92.3420     7.0164     0.1443     2.4179
 1059.0000   -29.3945    13.0224    10.9474    88.7249     0.0277    93.0134     7.0174     0.1450     2.4156
 1059.5000   -29.0951    12.9451    10.8651    90.2336     0.0308    92.7193     7.0033     0.1332     2.4366
