~VERSION INFORMATION
 VERS.                2.0:   CWLS LOG ASCII STANDARD - VERSION 2.0
 WRAP.                 NO:   ONE LINE PER DEPTH STEP
~WELL INFORMATION
#MNEM.UNIT      DATA TYPE    INFORMATION
#----------   ------------   ------------------------------
 STRT.F           34.5000:   START DEPTH
 STOP.F          665.5000:   STOP DEPTH
 STEP.F            0.5000:   STEP LENGTH
 NULL.          -999.2500:   NO VALUE
 COMP. FENIX & SCISSON INC:   COMPANY
 WELL.    NPR-3 SX #14-14:   WELL
 FLD .        TEAPOT DOME:   FIELD
 LOC .      S14 T38N R78W:   LOCATION
 CNTY.            NATRONA:   COUNTY
 STAT.            WYOMING:   STATE
 CTRY. UNITED STATES OF AMERICA:   COUNTRY
 SRVC.            Unknown:   SERVICE COMPANY
 DATE.        01-JUN-1978:   LOGDATE
 API .       490251063100:   API NUMBER
~CURVE INFORMATION
#MNEM.UNIT       API CODE    CURVE DESCRIPTION
#----------   ------------   ------------------------------
 DEPT.F                  :   
 SPR .MV     05 010 01 00:   SPONTANEOUS POTENTIAL FROM RES.
 SN  .OHMM   05 040 16 00:   SHORT NORMAL 16"
 IL  .OHMM   05 120 00 00:   INDUCTION LOG
 GRD .GAPI   45 310 01 00:   GAMMA RAY FROM DENSITY LOG
 RHOB.G/C3   45 350 01 00:   BULK DENSITY
 DPHI.DEC    45 890 12 00:   DENSITY POROSITY SANDSTONE
 CORR.G/C3   45 356 01 00:   DENSITY CORRECTION
 CALD.IN     45 280 60 00:   CALIPER FROM DENSITY LOG
~PARAMETER INFORMATION
#MNEM.UNIT          VALUE    DESCRIPTION
#----------   ------------   ------------------------------
 PD  .                 GL:   PERMANENT DATUM
 EPD .F              5212:   ELEVATION PERMANENT DATUM
 LMF .                 KB:   LOG MEASURED FROM
 DAPD.F                 4:   FEET ABOVE PERMANENT DATUM
 DMF .                 KB:   DRILLING MEASURED FROM
 EKB .F              5216:   KELLING BUSHING
 EGL .F              5212:   GROUND LEVEL
 DATE.           6-1-1978:   RUN DATE
 RUN .                  1:   RUN NUMBER
 DD  .F               670:   DEPTH DRILLER
 DL  .F               670:   DEPTH LOGGER
 BLI .F               664:   BOTTOM LOG INTERVAL
 TLI .F                40:   TOP LOG INTERVAL
 CS  .IN            8.625:   CASING SIZE
 CBD .F                40:   CASING BOTTOM DRILLER
 BS  .IN            7.875:   BIT SIZE
 BSD .F               670:   BIT SIZE AT DEPTH
 DFT .                KCL:   DRILLING FLUID TYPE
 DFD .                8.7:   DRILLING FLUID DENSITY
 DFV .                 32:   DRILLING FLUID VISCOSITY
 DFPH.                 10:   DRILLING FLUID PH
 RMS .OHMM            .30:   RESISTIVITY MUD SAMPLE
 MST .F                66:   MUD SAMPLE TEMPERATURE
 BHT .F                75:   BOTTOM HOLE TEMPERATURE
 TCS .HRS               2:   TIME CURCULATED STOPPED
 MRT .F                75:   MAXIMUM RECORDED TEMPERATURE
 LUN .               2958:   LOGGING UNIT NUMBER
 LUL .              CSPR.:   LOGGING UNIT LOCATION
 ENGI.             MILLER:   RECORDING ENGINEER
 WITN.           MCGINLEY:   WITNESSED BY
 CLNT.            A2DTECH:   CLIENT CODE
 ORIG.      2" , 5" PRINT:   ORIGIN OF DATA
 UWI .       490251063100:   UNIQUE WELL ID
 DICO. A2D Technologies, Inc.:   DIGITIZING COMPANY
~OTHER INFORMATION
~A   DEPT      SPR         SN         IL         GRD      RHOB       DPHI       CORR       CALD   
# ...
  318.0000   -28.6740     8.5570     8.9279    85.6222     2.4909     0.1117     0.0185     7.7166
  318.5000   -28.6623     8.5653     8.9318    87.4215     2.4941     0.1132     0.0176     7.7134
  319.0000   -28.6507     8.5735     8.9357    87.9659     2.4891     0.1153     0.0166     7.7101
  319.5000   -28.6390     8.5818     8.9396    83.9999     2.4843     0.1177     0.0155     7.7069
  320.0000   -28.6273     8.5901     8.9436    81.6666     2.4795     0.1190     0.0146     7.7037
  320.5000   -28.6157     8.5984     8.9475    84.7462     2.4768     0.1191     0.0168     7.7004
  321.0000   -28.6040     8.6067     8.9514    86.2211     2.4764     0.1191     0.0193     7.6972
  321.5000   -28.5924     8.6150     8.9553    86.3307     2.4760     0.1192     0.0219     7.6940
  322.0000   -28.5807     8.6233     8.9594    85.7939     2.4755     0.1193     0.0245     7.6906
  322.5000   -28.5691     8.6321     8.9632    83.9667     2.4751     0.1186     0.0249     7.6816
  323.0000   -28.5574     8.6400     8.9651    82.1627     2.4760     0.1170     0.0253     7.6593
  323.5000   -28.5458     8.7231     9.0815    80.3623     2.4798     0.1146     0.0257     7.6373
  324.0000   -28.5341     8.8483     9.2181    78.5480     2.4848     0.1120     0.0260     7.6153
  324.5000   -28.5224     9.0199     9.3574    77.8125     2.4899     0.1094     0.0264     7.5933
  325.0000   -28.5108     9.1925     9.4987    78.0292     2.4949     0.1069     0.0267     7.5713
  325.5000   -28.4991     9.3696     9.6422    78.6388     2.4993     0.1043     0.0233     7.5497
  326.0000   -28.4875     9.5501     9.7878    79.2440     2.5005     0.1034     0.0192     7.5363
  326.5000   -28.4758     9.7436     9.9356    79.8448     2.5036     0.1034     0.0150     7.5232
  327.0000   -28.4642     9.8853    10.0856    80.1072     2.5059     0.1050     0.0109     7.5101
  327.5000   -28.4525    10.0369    10.2379    79.7572     2.5005     0.1129     0.0068     7.4965
  328.0000   -28.4409    10.1909    10.3925    79.4218     2.4887     0.1204     0.0047     7.4661
  328.5000   -28.4292    10.3472    10.5494    79.4534     2.4772     0.1232     0.0047     7.4156
  329.0000   -28.4176    10.5059    10.7087    79.5368     2.4690     0.1186     0.0062     7.3656
  329.5000   -28.4059    10.6670    10.8704    79.5891     2.4762     0.1129     0.0092     7.3151
  330.0000   -28.3943    10.8306    11.0346    78.5521     2.4899     0.1072     0.0122     7.2920
  330.5000   -28.3826    10.9842    11.1887    75.9378     2.5035     0.1015     0.0153     7.2912
  331.0000   -28.3709    10.9754    11.1755    73.3248     2.5172     0.0958     0.0151     7.2964
  331.5000   -28.3593    10.9653    11.1632    72.0981     2.5238     0.0919     0.0124     7.3099
  332.0000   -28.3476    10.9552    11.1510    71.8248     2.5220     0.0947     0.0097     7.3523
  332.5000   -28.3360    10.9452    11.1387    72.1373     2.5167     0.1021     0.0087     7.4039
  333.0000   -28.3243    10.9351    11.1265    74.3127     2.5056     0.1094     0.0086     7.4558
  333.5000   -28.3127    10.9251    11.1143    76.6235     2.4944     0.1167     0.0087     7.5077
  334.0000   -28.3010    10.9151    11.1021    78.3801     2.4832     0.1240     0.0087     7.5596
  334.5000   -28.2894    10.9051    11.0899    77.1839     2.4721     0.1261     0.0087     7.6112
  335.0000   -28.2777    10.8948    11.0778    75.2709     2.4640     0.1253     0.0087     7.6508
  335.5000   -28.2660    10.8857    11.0656    73.3927     2.4665     0.1246     0.0087     7.6553
  336.0000   -28.2543    10.8145    11.0535    71.9606     2.4689     0.1245     0.0087     7.6603
  336.5000   -28.2437    10.7334    11.0413    72.3583     2.4688     0.1245     0.0086     7.6652
  337.0000   -28.2435    10.6526    11.0292    73.0804     2.4683     0.1245     0.0097     7.6694
  337.5000   -28.2435    10.5723    11.0171    72.6709     2.4680     0.1225     0.0117     7.6716
  338.0000   -28.2435    10.4930    11.0050    72.1412     2.4700     0.1186     0.0137     7.6738
  338.5000   -28.2435    10.4138    10.9930    72.9013     2.4735     0.1176     0.0158     7.6760
  339.0000   -28.2435    10.3649    10.9809    73.6465     2.4769     0.1209     0.0159     7.6782
  339.5000   -28.2435    10.3266    10.9689    74.3851     2.4752     0.1243     0.0148     7.6804
  340.0000   -28.2435    10.2885    10.9568    74.8260     2.4722     0.1221     0.0148     7.6826
  340.5000   -28.2435    10.2505    10.9448    74.7190     2.4703     0.1175     0.0187     7.6848
  341.0000   -28.2435    10.2127    10.9328    74.2033     2.4785     0.1150     0.0228     7.6870
  341.5000   -28.2435    10.1750    10.9208    73.7078     2.4869     0.1186     0.0265     7.6892
  342.0000   -28.2435    10.1375    10.9088    73.2585     2.4845     0.1138     0.0264     7.6914
  342.5000   -28.2435    10.0920    10.8968    72.8276     2.4932     0.1092     0.0262     7.6936
  343.0000   -28.2435    10.0235    10.8849    72.3952     2.5011     0.1089     0.0261     7.6958
  343.5000   -28.2432     9.9554    10.7335    71.9436     2.4956     0.1125     0.0259     7.6980
  344.0000   -28.2440     9.8878    10.5172    71.8555     2.4896     0.1170     0.0258     7.7002
  344.5000   -28.3128     9.8207    10.3052    72.5949     2.4837     0.1226     0.0256     7.7024
  345.0000   -28.3895     9.7540    10.0974    73.4071     2.4778     0.1198     0.0254     7.7046
  345.5000   -28.4662     9.6878     9.9156    73.7816     2.4748     0.1177     0.0253     7.7068
  346.0000   -28.5427     9.6220     9.8550    74.1375     2.4773     0.1185     0.0251     7.7090
  346.5000   -28.6192     9.5567     9.7948    74.4964     2.4797     0.1158     0.0249     7.7112
  347.0000   -28.6957     9.4918     9.7350    74.8586     2.4818     0.1131     0.0248     7.7134
  347.5000   -28.7723     9.4274     9.6756    75.2140     2.4833     0.1104     0.0246     7.7156
  348.0000   -28.8489     9.3739     9.6165    75.3971     2.4869     0.1078     0.0237     7.7178
  348.5000   -28.9254     9.3346     9.5578    73.2872     2.4943     0.1152     0.0227     7.7200
  349.0000   -29.0017     9.2954     9.4994    70.3909     2.4865     0.1210     0.0217     7.7222
  349.5000   -29.0361     9.2565     9.4414    68.2205     2.4746     0.1253     0.0207     7.7245
  350.0000   -29.0233     9.2177     9.3838    68.8939     2.4675     0.1294     0.0221     7.7266
  350.5000   -29.0108     9.1790     9.3265    69.7720     2.4619     0.1234     0.0243     7.7278
  351.0000   -28.9981     9.1405     9.2695    70.6638     2.4678     0.1158     0.0265     7.7266
  351.5000   -28.9855     9.1022     9.2129    71.5508     2.4742     0.1141     0.0287     7.7254
  352.0000   -28.9729     9.0640     9.1567    72.4440     2.4806     0.1148     0.0303     7.7242
  352.5000   -28.9603     9.0260     9.1210    72.7816     2.4861     0.1155     0.0284     7.7230
  353.0000   -28.9477     8.9882     9.0987    72.7007     2.4854     0.1184     0.0264     7.7217
  353.5000   -28.9350     8.9499     9.0764    72.6120     2.4782     0.1231     0.0245     7.7205
  354.0000   -28.9224     8.9110     9.0542    72.5225     2.4681     0.1278     0.0227     7.7193
  354.5000   -28.9098     8.8722     9.0320    72.4341     2.4590     0.1305     0.0249     7.7181
  355.0000   -28.8972     8.8336     9.0099    72.3470     2.4639     0.1214     0.0272     7.7169
  355.5000   -28.8846     8.7952     8.9878    72.2672     2.4700     0.1249     0.0284     7.7157
  356.0000   -28.8719     8.7570     8.9658    71.6828     2.4671     0.1240     0.0274     7.7145
  356.5000   -28.8596     8.7189     8.9439    71.0649     2.4665     0.1227     0.0264     7.7133
  357.0000   -28.8455     8.6810     8.9220    73.0360     2.4683     0.1268     0.0255     7.7121
  357.5000   -28.9258     8.6433     8.9001    76.4329     2.4638     0.1325     0.0247     7.7109
  358.0000   -29.0521     8.6057     8.8783    79.7891     2.4555     0.1282     0.0263     7.7096
