~VERSION INFORMATION
 VERS.                2.0:   CWLS LOG ASCII STANDARD - VERSION 2.0
 WRAP.                 NO:   ONE LINE PER DEPTH STEP
~WELL INFORMATION
#MNEM.UNIT      DATA TYPE    INFORMATION
#----------   ------------   ------------------------------
 STRT.F           14.0000:   START DEPTH
 STOP.F          549.0000:   STOP DEPTH
 STEP.F            0.5000:   STEP LENGTH
 NULL.          -999.2500:   NO VALUE
 COMP.   LAWRENCE-ALLISON:   COMPANY
 WELL.    NPR 3 #58-64SX3:   WELL
 FLD .           NPR NO 3:   FIELD
 LOC .       S3 T38N R78W:   LOCATION
 CNTY.            NATRONA:   COUNTY
 STAT.            WYOMING:   STATE
 CTRY. UNITED STATES OF AMERICA:   COUNTRY
 SRVC.      Dresser Atlas:   SERVICE COMPANY
 DATE.        05-DEC-1984:   LOGDATE
 API .       490251099700:   API NUMBER
~CURVE INFORMATION
#MNEM.UNIT       API CODE    CURVE DESCRIPTION
#----------   ------------   ------------------------------
 DEPT.F                  :   
 RFOC.OHMM   07 220 04 00:   RESISTIVITY FOCUSED LOG
 RILD.OHMM   07 120 46 00:   INDUCTION LOG DEEP RESISTIVITY
 RILM.OHMM   07 120 44 00:   INDUCTION LOG MEDIUM RESISTIVITY
 SPR .MV     07 010 01 00:   SPONTANEOUS POTENTIAL
 DT  .US/F   60 520 00 00:   INTERVAL TRANSIT TIME
 CALD.IN     45 280 60 00:   CALIPER FROM DENSITY LOG
 CORR.G/C3   45 356 01 00:   DENSITY CORRECTION
 CNC .DEC    42 890 03 00:   NEUTRON POROSITY SANDSTONE
 DEN .G/C3   45 350 01 00:   COMPENSATED BULK DENSTIY
 GRD .GAPI   45 310 01 00:   GAMMA RAY FROM DENSITY LOG
 PORD.DEC    45 890 12 00:   POROSITY DENSITY SANDSTONE
~PARAMETER INFORMATION
#MNEM.UNIT          VALUE    DESCRIPTION
#----------   ------------   ------------------------------
 PD  .                 GL:   PERMANENT DATUM
 EPD .F              5188:   ELEVATION PERMANENT DATUM
 LMF .                 KB:   LOG MEASURED FROM
 DMF .                 KB:   DRILLING MEASURED FROM
 EGL .F              5188:   GROUND LEVEL
 DATE.        05-DEC-1984:   RUN DATE
 RUN .                  1:   RUN NUMBER
 DD  .F               556:   DEPTH DRILLER
 DL  .F               551:   DEPTH LOGGER
 BLI .F               548:   BOTTOM LOG INTERVAL
 CS  .IN            8.625:   CASING SIZE
 CBD .F                20:   CASING BOTTOM DRILLER
 CBL .F                20:   CASING BOTTOM LOGGER
 BS  .IN            7.875:   BIT SIZE
 BSD .F               556:   BIT SIZE AT DEPTH
 DFT .          KCL WATER:   DRILLING FLUID TYPE
 MSS .           FLOWLINE:   MUD SAMPLE SOURCE
 RMS .OHMM            .36:   RESISTIVITY MUD SAMPLE
 MST .F                70:   MUD SAMPLE TEMPERATURE
 RMF .OHMM            .26:   RESISTIVITY MUD FILTRATE SAMPLE
 MFST.F                70:   MUD FILTRATE SAMPLE TEMPERATURE
 RMC .OHMM            .46:   RESISTIVITY MUD CAKE
 MCST.F                70:   MUD CAKE SAMPLE TEMPERATURE
 MFSS.               CALC:   MUD FILTRATE SAMPLE SOURCE
 MCSS.               CALC:   MUD CAKE SAMPLE SOURCE
 RMB .OHMM            .29:   RESISTIVITY MUD AT BHT
 BHT .F                85:   BOTTOM HOLE TEMPERATURE
 TCS .HRS               3:   TIME CURCULATED STOPPED
 MRT .F               100:   MAXIMUM RECORDED TEMPERATURE
 LUN .               6274:   LOGGING UNIT NUMBER
 LUL .               GLTE:   LOGGING UNIT LOCATION
 ENGI.             PAUTIO:   RECORDING ENGINEER
 WITN.       GROONS/LUERS:   WITNESSED BY
 CLNT.            A2DTECH:   CLIENT CODE
 ORIG.           5" PRINT:   ORIGIN OF DATA
 UWI .       490251099700:   UNIQUE WELL ID
 DICO. A2D Technologies, Inc.:   DIGITIZING COMPANY
~OTHER INFORMATION
~A   DEPT     RFOC       RILD       RILM        SPR         DT       CALD       CORR          CNC      DEN         GRD      PORD   
   14.0000  -999.2500  -999.2500  -999.2500  -999.2500  -999.2500  -999.2500  -999.2500     0.2526  -999.2500    94.0720  -999.2500
   14.5000  -999.2500  -999.2500  -999.2500  -999.2500  -999.2500  -999.2500  -999.2500     0.2609  -999.2500    91.5823  -999.2500
   15.0000  -999.2500  -999.2500  -999.2500  -999.2500  -999.2500  -999.2500  -999.2500     0.2673  -999.2500    90.3272  -999.2500
   15.5000  -999.2500  -999.2500  -999.2500  -999.2500  -999.2500  -999.2500  -999.2500     0.2783  -999.2500    90.9240  -999.2500
   16.0000  -999.2500  -999.2500  -999.2500  -999.2500  -999.2500  -999.2500  -999.2500     0.2858  -999.2500    92.1431  -999.2500
   16.5000  -999.2500  -999.2500  -999.2500  -999.2500  -999.2500  -999.2500  -999.2500     0.2944  -999.2500    90.2656  -999.2500
   17.0000  -999.2500  -999.2500  -999.2500  -999.2500  -999.2500  -999.2500  -999.2500     0.2935  -999.2500    89.3191  -999.2500
   17.5000  -999.2500  -999.2500  -999.2500  -999.2500  -999.2500  -999.2500  -999.2500     0.2909  -999.2500    88.9899  -999.2500
   18.0000  -999.2500  -999.2500  -999.2500  -999.2500  -999.2500  -999.2500  -999.2500     0.2919  -999.2500    90.5126  -999.2500
   18.5000  -999.2500  -999.2500  -999.2500  -999.2500  -999.2500  -999.2500  -999.2500     0.2967  -999.2500    97.8994  -999.2500
   19.0000  -999.2500  -999.2500  -999.2500  -999.2500  -999.2500  -999.2500  -999.2500     0.3031  -999.2500   106.2122  -999.2500
   19.5000  -999.2500  -999.2500  -999.2500  -999.2500  -999.2500  -999.2500  -999.2500     0.3114  -999.2500   110.5127  -999.2500
   20.0000  -999.2500     4.3827  -999.2500   -46.5746  -999.2500  -999.2500     0.0347     0.3140     2.4451   112.6526     0.1200
   20.5000     3.0630     5.1442     8.8168   -49.2450  -999.2500     8.1784     0.0874     0.3083     2.4797   112.9458     0.1198
   21.0000     3.7862     6.7878     9.9008   -50.6355  -999.2500     8.1617     0.0791     0.3042     2.4820   112.9202     0.1189
   21.5000     4.7987    41.3203    10.0397   -51.8726  -999.2500     8.1452     0.0694     0.3020     2.4819   111.3564     0.1176
   22.0000     6.8082 10042.4639    10.0283   -53.2631  -999.2500     8.1287     0.0597     0.3005     2.4803   109.4840     0.1186
   22.5000     8.1674  9674.7021     9.8739   -56.1874  -999.2500     8.1277     0.0480     0.2963     2.4794   110.3945     0.1183
   23.0000     9.3775  2828.5483     9.9373   -58.3447  -999.2500     8.1112     0.0340     0.2884     2.4802   110.0602     0.1165
   23.5000    10.3404   179.2765    10.5257   -59.5819  -999.2500     8.1101     0.0243     0.2808     2.4833   107.8791     0.1127
   24.0000    10.9996    14.2535    11.5636   -60.5123   239.7937     8.0937     0.0274     0.2850     2.4943   107.2465     0.1092
   24.5000    10.0668    11.4364    11.3856   -61.4426   180.1152     8.0926     0.0383     0.2869     2.5014   110.9245     0.1055
   25.0000     9.4881     9.8726    11.5427   -62.3730   180.1985     8.0916     0.0478     0.2844     2.5046   113.0644     0.1052
   25.5000     9.0744     9.1026    11.8768   -63.1500   180.1230     8.0906     0.0348     0.2813     2.5037   114.5922     0.1075
   26.0000     8.6788     8.7053    10.8678   -63.9271   170.7620     8.1050     0.0331     0.2788     2.5005   110.8628     0.1091
   26.5000     8.4241     8.5101    10.1671   -64.0906   151.8770     8.1039     0.0361     0.2775     2.4972   109.9215     0.1094
   27.0000     9.5302     8.5039     9.1038   -63.7940   115.0563     8.1186     0.0407     0.2798     2.4956   112.6736     0.1091
   27.5000    10.6269     8.4977     8.9557   -62.5771   111.0126     8.1173     0.0470     0.2830     2.4955   118.8259     0.1079
   28.0000     9.3783     8.4915     9.2886   -59.5198   108.5562     8.1163     0.0595     0.2926     2.4979   120.9710     0.1057
   28.5000    10.0823     8.4853     9.9107   -57.6894   106.6554     8.1153     0.0769     0.2901     2.5036   119.4021     0.1023
   29.0000    10.3739     8.6041    10.3453   -57.2393   105.8648     8.1142     0.0784     0.2856     2.5180   118.1469     0.0972
   29.5000    10.5191     8.7246    10.4881   -56.7895   106.9015     8.1132     0.0591     0.2789     2.5239   117.5091     0.0931
   30.0000    10.5886     8.8467    10.5553   -56.6462   108.4927     8.1122     0.0350     0.2739     2.5222   116.2540     0.0941
   30.5000    10.4273     9.1027    10.4690   -56.6564   110.3221     8.1111     0.0444     0.2752     2.5198   114.6902     0.0951
   31.0000    10.4121     9.1629    10.4594   -56.6769   111.2784     8.1258     0.0506     0.2791     2.5197   111.5833     0.0955
   31.5000    10.3250     8.7625    10.4485   -56.8303   111.2030     8.1245     0.0568     0.2848     2.5189   108.4763     0.0955
   32.0000    10.4036     8.5660    10.3630   -56.8609   110.7308     8.1235     0.0583     0.3024     2.5172   110.9249     0.0968
   32.5000    10.2452     8.4354    10.3536   -57.1575   110.0998     8.1225     0.0470     0.3132     2.5140   114.2994     0.0984
   33.0000    10.2378     8.3678    10.3442   -57.3231   109.3895     8.1060     0.0373     0.3110     2.5100   119.8344     0.0994
   33.5000    10.1559     8.4246    10.3349   -57.3332   108.8369     8.1049     0.0307     0.2961     2.5028   123.5176     0.1043
   34.0000    10.1486     8.5426    10.2503   -57.3434   108.9212     8.1039     0.0210     0.2818     2.4955   120.1020     0.1103
   34.5000    10.2157     8.5348    10.2410   -57.3535   108.9252     8.1029     0.0272     0.2876     2.4907   114.8345     0.1126
   35.0000    10.2083     8.4047    10.1573   -57.3637   108.9291     8.1018     0.0382     0.2914     2.4890   113.2202     0.1136
   35.5000    10.2009     8.3373    10.1481   -57.3738   109.0125     8.1008     0.0477     0.2934     2.4880   115.4107     0.1152
   36.0000    10.2685     8.3312    10.2155   -57.2280   108.9371     8.0998     0.0620     0.2953     2.4818   118.4774     0.1175
   36.5000    10.2609     8.3878    10.2787   -57.2407   109.1791     8.0987     0.0760     0.2972     2.4785   118.1474     0.1185
   37.0000    10.1788     8.4432    10.2694   -56.9441   109.1831     8.0977     0.0606     0.2979     2.4777   118.7449     0.1168
   37.5000    10.1714     8.4990    10.1854   -56.9542   109.1870     8.0967     0.0433     0.2843     2.4800   116.8717     0.1118
   38.0000    10.1639     8.4294    10.1762   -57.5779   109.2704     8.0956     0.0229     0.2795     2.4879   114.0734     0.1072
   38.5000    10.1565     8.3618    10.1670   -58.8150   109.5918     8.0946     0.0212     0.2808     2.4998   110.9664     0.1034
   39.0000    10.0004     8.3557    10.2345   -58.8251   109.5957     8.0936     0.0258     0.2809     2.5061   110.9459     0.1011
   39.5000     9.9932     8.3261    10.2229   -58.8353   109.1235     8.0925     0.0352     0.2808     2.5028   112.4685     0.1057
   40.0000     9.9132     8.4048    10.2137   -58.8454   109.5243     8.0917     0.0509     0.2847     2.4909   114.2998     0.1124
   40.5000     9.9061     8.3987    10.1301   -58.8556   110.2425     8.1062     0.0635     0.2918     2.4836   115.2383     0.1156
   41.0000     9.9716     8.4544    10.0473   -59.0191   110.5640     8.1051     0.0506     0.2934     2.4836   113.0242     0.1144
   41.5000     9.9644     8.4480     9.9651   -59.3360   109.9330     8.1070     0.0409     0.2874     2.4860   110.8431     0.1135
   42.0000    10.0320     8.4418     9.8836   -60.4197   109.4608     8.1185     0.0296     0.2845     2.4866   111.7485     0.1151
   42.5000    10.0983     8.3742     9.8718   -61.5035   109.1473     8.1175     0.0167     0.2894     2.4866   116.9749     0.1161
   43.0000    10.0892     8.3071     9.9381   -61.9738   109.3100     8.1164     0.0118     0.2938     2.4857   118.8306     0.1168
   43.5000    10.1559     8.3010    10.0751   -62.2906   109.7108     8.1154     0.0180     0.2974     2.4841   118.7856     0.1161
   44.0000    10.1486     8.3560    10.1398   -62.4542   110.0322     8.1144     0.0242     0.2987     2.4840   119.3827     0.1146
