~VERSION INFORMATION
 VERS.                2.0:   CWLS LOG ASCII STANDARD - VERSION 2.0
 WRAP.                 NO:   ONE LINE PER DEPTH STEP
~WELL INFORMATION
#MNEM.UNIT      DATA TYPE    INFORMATION
#----------   ------------   ------------------------------
 STRT.F          142.0000:   START DEPTH
 STOP.F          940.5000:   STOP DEPTH
 STEP.F            0.5000:   STEP LENGTH
 NULL.          -999.2500:   NO VALUE
 COMP. U S NAVY-INTEX OIL:   COMPANY
 WELL.     RESERVE #44S-2:   WELL
 FLD .             TEAPOT:   FIELD
 LOC .       S2 T38N R78W:   LOCATION
 CNTY.            NATRONA:   COUNTY
 STAT.            WYOMING:   STATE
 CTRY. UNITED STATES OF AMERICA:   COUNTRY
 SRVC. Schlumberger Well Surveying Corp:   SERVICE COMPANY
 DATE.        06-AUG-1959:   LOGDATE
 API .       490250644200:   API NUMBER
~CURVE INFORMATION
#MNEM.UNIT       API CODE    CURVE DESCRIPTION
#----------   ------------   ------------------------------
 DEPT.F                  :   
 ASN .OHMM   05 041 16 00:   AMPLIFIER SHORT NORMAL 16"
 CILD.MMHO   05 110 46 00:   CONDUCTIVITY INDUCTION LOG DEEP
 ILD .OHMM   05 110 46 00:   INDUCTION LOG DEEP
 SPR .MV     05 010 01 00:   SPONTANEOUS POTENTIAL FROM RES.
~PARAMETER INFORMATION
#MNEM.UNIT          VALUE    DESCRIPTION
#----------   ------------   ------------------------------
 LMF .                 KB:   LOG MEASURED FROM
 DMF .                 KB:   DRILLING MEASURED FROM
 EDF .F              5146:   DRILLING FLOOR
 EGL .F              5142:   GROUND LEVEL
 DATE.        06-AUG-1959:   RUN DATE
 RUN .                  1:   RUN NUMBER
 DD  .F               948:   DEPTH DRILLER
 DL  .F               946:   DEPTH LOGGER
 BLI .F               940:   BOTTOM LOG INTERVAL
 TLI .F               143:   TOP LOG INTERVAL
 CBD .F                17:   CASING BOTTOM DRILLER
 BS  .IN             6.75:   BIT SIZE
 BSD .F               948:   BIT SIZE AT DEPTH
 DFT .                GEL:   DRILLING FLUID TYPE
 RMS .OHMM             75:   RESISTIVITY MUD SAMPLE
 MST .F                75:   MUD SAMPLE TEMPERATURE
 TCS .HRS               1:   TIME CURCULATED STOPPED
 LUN .               2754:   LOGGING UNIT NUMBER
 LUL .                 NC:   LOGGING UNIT LOCATION
 ENGI.             QUINBY:   RECORDING ENGINEER
 WITN.             MARTIN:   WITNESSED BY
 CLNT.            A2DTECH:   CLIENT CODE
 ORIG.        2" 5" PRINT:   ORIGIN OF DATA
 UWI .       490250644200:   UNIQUE WELL ID
 DICO. A2D Technologies, Inc.:   DIGITIZING COMPANY
~OTHER INFORMATION
~A   DEPT      ASN       CILD        ILD        SPR   
# ...
  215.0000     5.2012   255.2830     4.9999   -72.1543
  215.5000     5.2616   243.0078     5.1796   -72.2900
  216.0000     5.4856   225.7465     5.4735   -72.5035
  216.5000     5.7137   209.8389     5.6925   -72.5918
  217.0000     6.0286   189.2554     5.9328   -72.6970
  217.5000     6.3391   173.4445     6.1499   -72.8325
  218.0000     6.5173   163.7160     6.3225   -72.9681
  218.5000     6.6367   159.4151     6.5012   -72.9711
  219.0000     6.7860   155.9616     6.6227   -73.0328
  219.5000     6.8965   150.8510     6.6552   -73.1090
  220.0000     7.0235   148.6878     6.7662   -73.1121
  220.5000     7.1923   146.0894     6.8243   -73.1144
  221.0000     7.2512   144.7734     6.8915   -72.9840
  221.5000     7.3413   145.4604     6.8908   -72.9867
  222.0000     7.3601   146.1495     6.8221   -72.9486
  222.5000     7.2841   147.9355     6.7973   -72.7261
  223.0000     7.1785   151.8033     6.6850   -72.4628
  223.5000     7.0965   157.0402     6.5287   -72.3321
  224.0000     6.9922   161.2489     6.3048   -72.3353
  224.5000     6.8259   165.2998     6.0726   -72.3378
  225.0000     6.6475   172.6820     5.8571   -72.3404
  225.5000     6.4401   177.3473     5.6487   -72.3434
  226.0000     6.1889   183.4525     5.4599   -72.3457
  226.5000     6.0412   191.7175     5.2533   -72.4814
  227.0000     5.8229   197.6041     5.0294   -72.4845
  227.5000     5.5967   210.0622     4.7794   -72.4867
  228.0000     5.3917   229.0788     4.6495   -72.4893
  228.5000     5.1452   236.3518     4.4323   -72.3590
  229.0000     4.8206   245.3870     4.3025   -72.3617
  229.5000     4.4165   251.3291     4.3019   -72.3644
  230.0000     4.1423   254.2291     4.3713   -72.3670
  230.5000     4.1913   248.1329     4.4362   -72.3697
  231.0000     4.7764   239.3327     4.5932   -72.3725
  231.5000     5.1545   227.5462     4.7062   -72.3750
  232.0000     5.2833   213.5485     4.8150   -72.3777
  232.5000     5.3614   204.8473     4.9085   -72.3806
  233.0000     5.4234   197.6991     4.9755   -72.3830
  233.5000     5.4319   194.5750     5.0121   -72.3856
  234.0000     5.4290   192.9457     5.0552   -72.3887
  234.5000     5.4289   191.8786     5.1092   -72.3910
  235.0000     5.4273   192.5697     5.1085   -72.3936
  235.5000     5.4152   193.4898     5.0992   -72.2633
  236.0000     5.3911   194.6245     5.0393   -72.2660
  236.5000     5.3465   195.4898     4.9141   -72.2687
  237.0000     5.2799   200.3869     4.6859   -72.1906
  237.5000     5.1570   212.3026     4.3588   -72.1406
  238.0000     4.9813   225.0994     4.1067   -72.0108
  238.5000     4.8450   242.6692     3.8148   -72.0133
  239.0000     4.6158   287.6729     3.5911   -72.0160
  239.5000     4.1816   307.1888     3.4351   -72.0189
  240.0000     3.7480   326.8780     3.2700   -72.0213
  240.5000     3.4849   346.0749     3.1623   -71.8908
  241.0000     3.3955   358.0431     3.1178   -71.8940
  241.5000     3.5306   369.3949     3.1322   -71.8963
  242.0000     3.6122   386.1512     3.4048   -71.8989
  242.5000     3.5899   386.8043     3.6273   -71.7691
  243.0000     3.5714   379.3824     3.8764   -71.7713
  243.5000     3.7339   353.0370     4.0045   -71.7740
  244.0000     4.1295   283.9188     4.1592   -71.6436
  244.5000     4.5640   247.7392     4.3493   -71.6122
  245.0000     4.6958   224.1518     4.4426   -71.5160
  245.5000     4.7351   209.4650     4.4856   -71.6516
  246.0000     4.7658   208.4027     4.5509   -71.8121
  246.5000     4.8040   211.4604     4.5502   -72.0561
  247.0000     4.8039   215.4005     4.5495   -72.1215
  247.5000     4.8174   217.9369     4.5488   -72.2097
  248.0000     4.8258   218.6244     4.5482   -72.3302
  248.5000     4.8444   218.6346     4.4796   -72.3325
  249.0000     4.8037   220.6828     4.4421   -72.3351
  249.5000     4.7062   228.3473     4.2492   -72.3383
  250.0000     4.5596   240.3846     3.9348   -72.2075
  250.5000     4.4376   254.7997     3.6658   -72.2101
  251.0000     4.3224   275.7126     3.4502   -72.0798
  251.5000     4.1597   300.1441     3.3222   -71.9145
  252.0000     3.9767   312.0001     3.2537   -71.6863
  252.5000     3.8537   327.0417     3.2531   -71.5559
  253.0000     3.6378   341.5778     3.2523   -71.4252
  253.5000     3.3358   357.2296     3.2753   -71.2955
  254.0000     3.2718   369.3438     3.3867   -71.2979
  254.5000     3.4614   376.2242     3.6516   -71.3005
  255.0000     3.6109   377.3869     3.8987   -71.4365
  255.5000     3.6551   370.8680     4.1987   -71.6263
  256.0000     3.6780   353.1782     4.4116   -71.8404
  256.5000     3.7643   336.0996     4.6193   -71.9766
  257.0000     4.6944   310.1671     4.8073   -72.0239
  257.5000     5.0328   234.8726     4.9090   -72.1144
  258.0000     5.1365   196.3939     5.0199   -72.2500
  258.5000     5.1818   189.6531     5.0767   -72.3856
  259.0000     5.2466   186.8393     5.0760   -72.3884
  259.5000     5.3370   184.0916     5.0633   -72.3910
  260.0000     5.3577   184.2542     4.8031   -72.3936
  260.5000     5.3509   192.4623     4.6156   -72.2635
  261.0000     5.2806   201.6043     4.3917   -72.1330
  261.5000     5.1678   212.1133     4.1678   -72.1184
  262.0000     5.0369   219.8599     3.9439   -71.8727
  262.5000     4.8453   233.7954     3.7822   -71.6866
  263.0000     4.2326   265.7641     3.7137   -71.6116
  263.5000     4.0717   281.8586     3.6452   -71.4819
  264.0000     3.9344   292.3439     3.6445   -71.4379
  264.5000     3.8351   303.9536     3.6803   -71.3537
  265.0000     3.7852   321.1199     3.8591   -71.3564
  265.5000     3.7852   329.6146     3.9816   -71.4920
  266.0000     3.8115   324.8010     4.1131   -71.4948
  266.5000     4.2335   307.4063     4.2677   -71.6303
  267.0000     4.3947   278.7406     4.5223   -71.6605
  267.5000     4.4648   255.3341     4.6450   -71.7689
  268.0000     4.5173   227.0946     4.7960   -71.9043
  268.5000     4.5794   219.7218     4.9273   -71.9069
  269.0000     4.7639   216.1064     4.9267   -71.9099
  269.5000     4.9499   213.6318     4.9260   -72.0452
  270.0000     5.0601   214.3229     4.8394   -72.0390
  270.5000     5.0853   215.5216     4.6156   -71.9176
  271.0000     4.9768   219.1608     4.3812   -71.8732
  271.5000     4.9042   224.2975     4.2064   -71.6569
  272.0000     4.7397   233.2033     4.1085   -71.5745
  272.5000     4.4753   242.8793     4.0400   -71.4916
  273.0000     4.3904   254.6587     3.9715   -71.2661
  273.5000     4.2442   264.2253     3.9608   -71.1356
  274.0000     4.1555   274.8107     3.8344   -71.1099
  274.5000     4.0630   279.6345     3.8040   -71.0080
  275.0000     3.9736   282.7487     3.7596   -71.0106
  275.5000     3.8969   287.0589     3.6966   -71.0133
  276.0000     3.8143   291.6291     3.6282   -71.0163
  276.5000     3.7159   298.5941     3.5597   -71.0758
  277.0000     3.6505   308.1306     3.5590   -71.1543
  277.5000     3.5655   310.9558     3.4905   -71.1574
  278.0000     3.5630   312.9003     3.4220   -71.2926
  278.5000     3.5900   311.3224     3.3807   -71.4282
  279.0000     3.6207   310.2039     3.2519   -71.4308
  279.5000     3.5472   309.5376     3.0807   -71.4335
  280.0000     3.4092   317.9638     2.9760   -71.5693
  280.5000     3.2411   347.0937     2.8638   -71.4388
  281.0000     3.1098   393.7315     2.7394   -71.4122
  281.5000     3.0149   404.0848     2.7388   -71.1784
  282.0000     2.9157   410.0407     2.8137   -71.1808
  282.5000     2.9005   410.0520     3.0087   -71.0503
  283.0000     2.9896   406.7217     3.1986   -70.9205
  283.5000     3.1323   402.8632     3.4178   -70.9229
  284.0000     3.1687   388.3636     3.6172   -70.9149
  284.5000     3.2135   371.9200     3.7304   -70.7952
  285.0000     3.2771   345.2127     3.8410   -70.7979
  285.5000     3.7862   294.0506     3.9545   -70.9335
  286.0000     4.0805   272.1229     4.0896   -70.9362
  286.5000     4.1005   247.2366     4.0040   -70.9783
  287.0000     4.0897   247.8031     3.8168   -71.0746
  287.5000     4.0396   251.4990     3.7116   -71.2101
