~VERSION INFORMATION
 VERS.                2.0:   CWLS LOG ASCII STANDARD - VERSION 2.0
 WRAP.                 NO:   ONE LINE PER DEPTH STEP
~WELL INFORMATION
#MNEM.UNIT      DATA TYPE    INFORMATION
#----------   ------------   ------------------------------
 STRT.F            0.5000:   START DEPTH
 STOP.F         2271.5000:   STOP DEPTH
 STEP.F            0.5000:   STEP LENGTH
 NULL.          -999.2500:   NO VALUE
 COMP. BROWN JOHN E&C INC:   COMPANY
 WELL. NPR 3 STX-11 #27-11:   WELL
 FLD .             TEAPOT:   FIELD
 LOC .      S11 T38N R78W:   LOCATION
 CNTY.            NATRONA:   COUNTY
 STAT.            WYOMING:   STATE
 CTRY. UNITED STATES OF AMERICA:   COUNTRY
 SRVC.      Dresser Atlas:   SERVICE COMPANY
 DATE.        20-JAN-1993:   LOGDATE
 API .       490251108500:   API NUMBER
~CURVE INFORMATION
#MNEM.UNIT       API CODE    CURVE DESCRIPTION
#----------   ------------   ------------------------------
 DEPT.F                  :   
 ILD .OHMM   07 120 46 00:   INDUCTION LOG DEEP
 ILM .OHMM   07 120 44 00:   INDUCTION LOG MEDIUM
 GRR .GAPI   07 310 01 00:   GAMMA RAY FROM RES. LOG.
~PARAMETER INFORMATION
#MNEM.UNIT          VALUE    DESCRIPTION
#----------   ------------   ------------------------------
 PD  .                 GL:   PERMANENT DATUM
 EPD .F              5187:   ELEVATION PERMANENT DATUM
 LMF .                 KB:   LOG MEASURED FROM
 DAPD.F                12:   FEET ABOVE PERMANENT DATUM
 DMF .                 KB:   DRILLING MEASURED FROM
 EKB .F            5198.8:   KELLING BUSHING
 EDF .F            5197.8:   DRILLING FLOOR
 EGL .F              5187:   GROUND LEVEL
 DATE.            1-20-93:   RUN DATE
 RUN .                  1:   RUN NUMBER
 DD  .F              2279:   DEPTH DRILLER
 DL  .F              2279:   DEPTH LOGGER
 BLI .F              2271:   BOTTOM LOG INTERVAL
 TLI .F               692:   TOP LOG INTERVAL
 CS  .IN            8.625:   CASING SIZE
 CBD .F               689:   CASING BOTTOM DRILLER
 CBL .F               692:   CASING BOTTOM LOGGER
 BS  .IN            7.875:   BIT SIZE
 BSD .F              2279:   BIT SIZE AT DEPTH
 DFT .                OIL:   DRILLING FLUID TYPE
 BHT .F                92:   BOTTOM HOLE TEMPERATURE
 TCS .HRS               2:   TIME CURCULATED STOPPED
 MRT .F                92:   MAXIMUM RECORDED TEMPERATURE
 LUN .            HL-6274:   LOGGING UNIT NUMBER
 LUL .             CASPER:   LOGGING UNIT LOCATION
 ENGI.             RAUTIO:   RECORDING ENGINEER
 WITN.             STRONG:   WITNESSED BY
 CLNT.            A2DTECH:   CLIENT CODE
 ORIG.  2", 5", 20" PRINT:   ORIGIN OF DATA
 UWI .       490251108500:   UNIQUE WELL ID
 DICO. A2D Technologies, Inc.:   DIGITIZING COMPANY
~OTHER INFORMATION
~A    DEPT     ILD        ILM         GRR  
# ...
 1911.5000     7.1431     6.8976   128.7638
 1912.0000     7.2197     6.9908   130.4185
 1912.5000     7.2972     7.0852   133.7479
 1913.0000     7.3486     7.1472   134.3372
 1913.5000     7.3142     7.1050   134.4616
 1914.0000     7.2845     7.0686   135.0709
 1914.5000     7.2553     7.0165   135.3648
 1915.0000     7.2135     7.0816   131.1172
 1915.5000     7.3355     7.0807   126.7278
 1916.0000     7.5583     7.3664   126.7812
 1916.5000     7.7878     7.6201   128.3031
 1917.0000     7.9842     7.8382   129.5613
 1917.5000     8.1330     7.8030   128.3050
 1918.0000     7.9842     7.7730   126.4389
 1918.5000     7.9842     7.7431   124.5153
 1919.0000     7.8272     7.7133   123.7529
 1919.5000     7.6838     7.4847   129.2574
 1920.0000     7.5430     7.3165   135.5599
 1920.5000     7.4048     7.1505   141.9221
 1921.0000     7.2687     7.0083   143.5008
 1921.5000     7.1362     6.9706   137.8372
 1922.0000     7.0765     6.9320   133.3101
 1922.5000     7.0700     6.8936   127.3786
 1923.0000     7.0627     6.8555   121.6479
 1923.5000     7.0555     6.8249   118.8808
 1924.0000     7.0483     6.8249   126.0372
 1924.5000     7.0410     6.8249   131.6364
 1925.0000     7.0338     6.8248   134.7975
 1925.5000     7.0266     6.8244   135.9582
 1926.0000     7.0170     6.8249   136.4909
 1926.5000     7.0252     6.9046   135.5171
 1927.0000     7.0392     6.9848   134.5297
 1927.5000     7.0533     7.0660   135.0083
 1928.0000     7.0675     7.1482   137.3588
 1928.5000     7.0813     7.2313   139.7174
 1929.0000     7.0815     7.2804   142.0862
 1929.5000     7.0815     7.2198   142.3393
 1930.0000     7.0816     7.1773   140.8450
 1930.5000     7.0816     7.1351   139.4987
 1931.0000     7.0816     7.0931   140.5826
 1931.5000     7.0816     7.0513   141.7071
 1932.0000     7.0816     7.0098   136.7528
 1932.5000     7.0816     6.9686   133.5454
 1933.0000     7.0831     6.9276   134.4297
 1933.5000     7.0844     6.8882   135.6111
 1934.0000     6.8222     6.8894   137.9635
 1934.5000     6.5258     6.7407   142.4337
 1935.0000     6.2409     6.4845   146.8271
 1935.5000     5.9688     6.1557   148.7860
 1936.0000     5.7085     5.8460   144.5563
 1936.5000     5.5188     5.6213   140.0336
 1937.0000     5.5206     5.6229   135.6790
 1937.5000     5.4196     5.5561   135.5098
 1938.0000     5.2663     5.4535   135.8402
 1938.5000     5.1266     5.3537   136.3318
 1939.0000     5.1262     5.2556   136.8454
 1939.5000     5.1737     5.2223   139.4043
 1940.0000     5.2460     5.4012   141.9085
 1940.5000     5.3193     5.5276   141.5800
 1941.0000     5.3935     5.6225   138.6531
 1941.5000     5.4688     5.6225   135.7538
 1942.0000     5.5460     5.6457   134.8622
 1942.5000     5.6402     5.7452   137.6683
 1943.0000     5.6935     5.7885   142.5515
 1943.5000     5.7218     5.8007   147.2576
 1944.0000     5.7502     5.8128   151.1558
 1944.5000     5.7787     5.8251   154.2915
 1945.0000     5.8074     5.8339   156.6478
 1945.5000     5.8339     5.7685   158.8210
 1946.0000     5.7781     5.7180   158.8785
 1946.5000     5.7269     5.6678   157.1362
 1947.0000     5.6762     5.6225   151.8768
 1947.5000     5.6260     5.4960   144.9080
 1948.0000     5.5762     5.3813   140.2557
 1948.5000     5.4196     5.2697   135.9975
 1949.0000     5.2551     5.1582   134.3908
 1949.5000     5.0955     4.9961   133.9612
 1950.0000     4.8956     4.8142   134.6397
 1950.5000     4.9410     4.5894   135.6280
 1951.0000     4.9038     4.6305   140.0859
 1951.5000     4.9756     4.7120   141.8089
 1952.0000     5.0485     4.7949   142.7416
 1952.5000     5.1224     4.8793   143.6501
 1953.0000     5.1974     4.9651   144.6275
 1953.5000     5.2735     5.0526   143.1573
 1954.0000     5.3689     5.1414   138.5157
 1954.5000     5.3477     5.2707   133.5818
 1955.0000     5.3196     5.2356   131.7533
 1955.5000     4.8428     5.1743   132.9303
 1956.0000     4.3453     4.6958   132.3237
 1956.5000     3.6070     4.1146   131.9456
 1957.0000     3.0913     3.6159   131.9649
 1957.5000     2.7735     2.9756   130.7508
 1958.0000     2.6604     2.3833   121.6606
 1958.5000     2.6624     2.4771   112.2709
 1959.0000     2.6624     2.5659   103.5696
 1959.5000     2.6748     2.8105   103.8457
 1960.0000     2.7489     3.1302   117.4164
 1960.5000     2.8965     3.4862   127.7956
 1961.0000     3.2159     3.8512   134.5524
 1961.5000     3.7156     4.5894   137.8427
 1962.0000     4.3219     4.6319   136.7613
 1962.5000     4.8925     5.0331   135.8486
 1963.0000     5.2214     5.2707   135.1200
 1963.5000     5.3692     5.5902   134.3530
 1964.0000     5.5315     5.6912   132.7475
 1964.5000     5.7001     5.8068   131.7830
 1965.0000     5.8820     6.0129   132.6920
 1965.5000     6.0767     6.2264   134.0088
 1966.0000     6.2778     6.4474   137.2461
 1966.5000     6.5775     6.6385   140.4872
 1967.0000     6.4573     6.2267   143.3711
 1967.5000     6.2074     5.8544   144.1104
 1968.0000     5.7290     5.3842   148.1296
 1968.5000     5.2875     4.9518   154.0318
 1969.0000     4.8801     4.5541   164.9572
 1969.5000     4.5040     4.1883   177.8481
 1970.0000     4.0331     3.9150   193.7635
 1970.5000     4.0683     3.8788   200.5421
 1971.0000     4.1255     3.8512   215.1310
 1971.5000     4.2969     4.3792   226.8964
 1972.0000     4.5435     4.8597   221.0284
 1972.5000     4.8043     5.3878   219.9176
 1973.0000     5.3555     5.9549   219.1257
 1973.5000     6.1330     7.3000   213.3665
 1974.0000     7.0231     8.2121   207.7171
 1974.5000     8.0400     9.0778   207.1319
 1975.0000     9.0854     9.6471   213.2359
 1975.5000     9.7136    10.2521   210.0055
 1976.0000    10.3228    10.4689   203.5855
 1976.5000    10.7093    10.5177   195.4278
 1977.0000    10.8661    10.5667   188.7886
 1977.5000    11.0252    10.6160   191.0961
 1978.0000    11.1307    10.6434   198.3055
 1978.5000    11.0675    10.6632   203.4397
 1979.0000    11.0208    10.6831   208.2163
 1979.5000    10.9743    10.7030   209.2013
 1980.0000    10.9273    10.7229   210.0269
 1980.5000    10.9446    10.7419   211.7120
 1981.0000    10.9630    10.7670   214.2564
 1981.5000    10.9813    10.7919   215.8830
 1982.0000    10.9994    10.8170   213.1666
 1982.5000    11.0170    11.1409   209.9361
 1983.0000    11.0908    11.3794   207.3063
 1983.5000    11.2339    11.5641   209.9883
 1984.0000    11.6472    11.7518   213.9358
 1984.5000    12.0606    11.9425   216.4278
 1985.0000    12.2689    12.1364   207.4211
 1985.5000    12.3644    12.3200   201.0455
 1986.0000    12.4334    12.0732   193.0120
 1986.5000    12.2209    11.8466   181.5564
 1987.0000    12.0565    11.6242   171.7248
 1987.5000    11.8940    11.4060   165.8907
 1988.0000    11.7338    11.1944   160.7044
 1988.5000    11.6208    11.0295   163.6138
 1989.0000    11.5517    11.0933   168.3550
 1989.5000    11.4830    11.1307   172.9218
 1990.0000    11.4147    11.0305   175.2789
 1990.5000    11.3469    10.9242   177.3604
 1991.0000    11.2794    10.8188   174.9453
 1991.5000    11.2123    10.7145   164.5074
 1992.0000    11.1307    10.6287   154.0668
 1992.5000    11.1729    10.9715   143.6071
 1993.0000    11.2277    11.2748   133.4853
 1993.5000    11.2836    11.4129   134.5673
 1994.0000    11.3376    11.5109   137.2474
 1994.5000    11.2191    11.6563   133.2255
 1995.0000    11.1006    11.6563   126.8651
 1995.5000    10.9839    11.4513   120.7966
 1996.0000    10.8674    11.0291   123.0286
 1996.5000    10.7048    10.6208   126.7342
 1997.0000    10.5139    10.2288   130.5445
 1997.5000    10.3385     9.8723   137.3900
 1998.0000    10.0103     9.5751   144.2324
 1998.5000     9.7101     9.3029   145.9282
 1999.0000     9.4190     9.0384   144.1787
 1999.5000     9.1365     8.7815   146.1529
 2000.0000     8.8626     8.5318   153.5023
 2000.5000     8.5960     8.3613   160.5037
 2001.0000     8.5170     8.3742   159.6827
 2001.5000     8.5267     8.3885   155.6193
 2002.0000     8.5354     8.4028   152.0355
