~VERSION INFORMATION
 VERS.                2.0:   CWLS LOG ASCII STANDARD - VERSION 2.0
 WRAP.                 NO:   ONE LINE PER DEPTH STEP
~WELL INFORMATION
#MNEM.UNIT      DATA TYPE    INFORMATION
#----------   ------------   ------------------------------
 STRT.F          664.0000:   START DEPTH
 STOP.F         1880.0000:   STOP DEPTH
 STEP.F            0.5000:   STEP LENGTH
 NULL.          -999.2500:   NO VALUE
 COMP. LAWRENCE/ALLISON INC:   COMPANY
 WELL.     NPR 3 TX #42-3:   WELL
 FLD .             TEAPOT:   FIELD
 LOC .       S3 T38N R78W:   LOCATION
 CNTY.            NATRONA:   COUNTY
 STAT.            WYOMING:   STATE
 CTRY. UNITED STATES OF AMERICA:   COUNTRY
 SRVC.            Unknown:   SERVICE COMPANY
 DATE.        23-JUN-1984:   LOGDATE
 API .       490251096800:   API NUMBER
~CURVE INFORMATION
#MNEM.UNIT       API CODE    CURVE DESCRIPTION
#----------   ------------   ------------------------------
 DEPT.F                  :   
 ROP .MIN/FT 91 810 01 00:   RAT OF DRILLING PENETRATION
 TGAS.UNITS  91 830 01 00:   TOTAL GAS FROM HOTWIRE
~PARAMETER INFORMATION
#MNEM.UNIT          VALUE    DESCRIPTION
#----------   ------------   ------------------------------
 EKB .F              5142:   KELLING BUSHING
 EGL .F              5132:   GROUND LEVEL
 DATE.            6-23-84:   RUN DATE
 BLI .F              1180:   BOTTOM LOG INTERVAL
 TLI .F               660:   TOP LOG INTERVAL
 CS  .IN            8.625:   CASING SIZE
 CBD .F               653:   CASING BOTTOM DRILLER
 LUN .               T-63:   LOGGING UNIT NUMBER
 ENGI.            JOHNSON:   RECORDING ENGINEER
 WITN.           SCHERGER:   WITNESSED BY
 CLNT.            A2DTECH:   CLIENT CODE
 ORIG.           5" PRINT:   ORIGIN OF DATA
 UWI .       490251096800:   UNIQUE WELL ID
 DICO. A2D Technologies, Inc.:   DIGITIZING COMPANY
~OTHER INFORMATION
~A   DEPT        ROP       TGAS 
# ...
 1757.5000     2.7292   142.1477
 1758.0000     2.4167   121.2706
 1758.5000     2.1458   108.7852
 1759.0000     1.8125   102.5934
 1759.5000     1.4792   100.5944
 1760.0000     1.1667    98.6036
 1760.5000     1.2812    97.5741
 1761.0000     1.5986    95.5086
 1761.5000     1.9650    93.4301
 1762.0000     2.0504    93.4626
 1762.5000     2.0102    92.4388
 1763.0000     1.8878    91.4161
 1763.5000     1.8065    90.3933
 1764.0000     1.6836    90.4196
 1764.5000     1.5606    89.3966
 1765.0000     1.4377    89.5100
 1765.5000     1.3147    89.4485
 1766.0000     1.2538    89.4755
 1766.5000     1.2772    89.5069
 1767.0000     1.3625    89.5328
 1767.5000     1.4479    89.5588
 1768.0000     1.4916    89.5847
 1768.5000     1.3868    89.6107
 1769.0000     1.3296    89.6366
 1769.5000     1.2483    89.6626
 1770.0000     1.2082    89.6885
 1770.5000     1.2107    89.7145
 1771.0000     1.1914    89.7404
 1771.5000     1.2357    89.7664
 1772.0000     1.3627    89.7924
 1772.5000     1.5731    89.8183
 1773.0000     2.0126    89.8443
 1773.5000     2.2855    89.8702
 1774.0000     2.2042    89.8962
 1774.5000     2.0605    89.9221
 1775.0000     1.7917    89.9481
 1775.5000     1.6229    89.9740
 1776.0000     1.6319    90.0000
 1776.5000     1.7775    90.0262
 1777.0000     1.9879    89.0030
 1777.5000     2.3024    89.0297
 1778.0000     2.2420    90.1049
 1778.5000     2.1399    90.1363
 1779.0000     1.9961    94.3580
 1779.5000     1.9148    97.5308
 1780.0000     1.7708    96.4692
 1780.5000     1.6875    96.7266
 1781.0000     1.6042    96.9325
 1781.5000     1.5417    98.1874
 1782.0000     1.5000    99.4423
 1782.5000     1.4583   103.8900
 1783.0000     1.4792   108.4960
 1783.5000     1.4760   175.6360
 1784.0000     1.4583   427.5902
 1784.5000     1.4792   444.5793
 1785.0000     1.4792   444.7853
 1785.5000     1.4792   444.9912
 1786.0000     1.4792   444.0967
 1786.5000     1.4792   422.3262
 1787.0000     1.4792   371.1335
 1787.5000     1.4792   323.0876
 1788.0000     1.4792   288.6782
 1788.5000     1.4792   260.5624
 1789.0000     1.4792   243.8796
 1789.5000     1.5000   217.3959
 1790.0000     1.5000   200.8731
 1790.5000     1.4375   177.5216
 1791.0000     1.3750   161.9932
 1791.5000     1.3333   156.9544
 1792.0000     1.3361   149.8177
 1792.5000     1.4375   137.4362
 1793.0000     1.5208   129.2505
 1793.5000     1.5625   124.2116
 1794.0000     1.5208   121.2192
 1794.5000     1.3958   119.3706
 1795.0000     1.2500   118.5314
 1795.5000     1.1042   118.7589
 1796.0000     1.0403   118.9648
 1796.5000     1.0000   119.1707
 1797.0000     1.0208   119.3766
 1797.5000     1.0208   119.5826
 1798.0000     1.0625   119.7902
 1798.5000     1.1458   120.0000
 1799.0000     1.2083   120.2098
 1799.5000     1.2708   120.4578
 1800.0000     1.2935   116.9916
 1800.5000     1.3116   117.0680
 1801.0000     1.3103   117.1443
 1801.5000     1.3302   116.1668
 1802.0000     1.3292   116.2431
 1802.5000     1.3279   116.3203
 1803.0000     1.3478   116.4149
 1803.5000     1.3468   116.4912
 1804.0000     1.3458   116.5676
 1804.5000     1.3215   116.6439
 1805.0000     1.1769   116.7202
 1805.5000     1.0926   116.7965
 1806.0000     1.0499   116.8735
 1806.5000     1.0072   116.9683
 1807.0000     1.0063   117.0446
 1807.5000     1.0261   117.1210
 1808.0000     1.0249   117.1973
 1808.5000     1.0238   118.3275
 1809.0000     1.0019   118.4039
 1809.5000     1.0010   119.5345
 1810.0000     1.0000   119.6136
 1810.5000     1.0198   120.7597
 1811.0000     1.0396   121.8899
 1811.5000     1.0595   123.0201
 1812.0000     1.0582   125.2041
 1812.5000     1.0364   127.3882
 1813.0000     1.0146   127.4830
 1813.5000     1.0344   128.7651
 1814.0000     1.0543   132.9056
 1814.5000     1.0530   138.2513
 1815.0000     1.0731   145.7047
 1815.5000     1.1760   167.9121
 1816.0000     1.2375   232.2742
 1816.5000     1.2155   450.0000
 1817.0000     1.2145   450.0000
 1817.5000     1.2346   450.0000
 1818.0000     1.3166   450.0000
 1818.5000     1.4880   445.5555
 1819.0000     1.8144   396.1003
 1819.5000     1.9801   325.5677
 1820.0000     2.0332   269.8064
 1820.5000     1.8768   231.9706
 1821.0000     1.7741   199.4040
 1821.5000     1.7132   173.1606
 1822.0000     1.6105   160.6175
 1822.5000     1.5286   144.9128
 1823.0000     1.4261   136.5851
 1823.5000     1.3436   126.1497
 1824.0000     1.3014   122.0375
 1824.5000     1.1810   122.1429
 1825.0000     1.0992   122.2482
 1825.5000     1.0170   122.3730
 1826.0000     0.9560   122.4762
 1826.5000     1.0205   122.5794
 1827.0000     1.1053   122.6827
 1827.5000     1.1277   122.7859
 1828.0000     1.1917   122.8892
 1828.5000     1.2766   122.9924
 1829.0000     1.3642   123.0956
 1829.5000     1.4675   123.1989
 1830.0000     1.5523   123.3021
 1830.5000     1.6164   123.4075
 1831.0000     1.6804   123.5129
 1831.5000     1.7236   123.6376
 1832.0000     1.7876   123.7408
 1832.5000     1.8725   123.8441
 1833.0000     1.9573   123.9473
 1833.5000     2.0429   124.0505
 1834.0000     2.0465   124.1538
 1834.5000     2.0664   124.2506
 1835.0000     2.0680   124.3559
 1835.5000     2.0695   124.4807
 1836.0000     2.0710   124.5839
 1836.5000     2.0725   124.6872
 1837.0000     2.0532   124.7904
 1837.5000     1.9922   124.8936
 1838.0000     1.8896   124.9969
 1838.5000     1.8286   125.1001
 1839.0000     1.8302   125.2034
 1839.5000     1.8108   125.3066
 1840.0000     1.8125   119.0866
 1840.5000     1.8333   119.0866
 1841.0000     1.8542   119.0866
 1841.5000     1.9583   119.0866
 1842.0000     2.0833   119.0866
 1842.5000     2.2292   119.0866
 1843.0000     2.4167   119.0866
 1843.5000     2.6687   119.0866
 1844.0000     2.8542   119.0866
 1844.5000     2.7500   122.2482
 1845.0000     2.6042   141.2178
 1845.5000     2.4375   413.1147
 1846.0000     2.2500   450.0000
 1846.5000     2.1667   448.9461
 1847.0000     2.1042   448.9461
 1847.5000     2.0833   448.9461
 1848.0000     2.0625   442.6230
 1848.5000     2.0417   366.7447
 1849.0000     2.0625   295.0820
 1849.5000     2.0625   226.5808
 1850.0000     2.0833   188.6417
 1850.5000     2.1458   162.6118
 1851.0000     2.2292   140.1639
 1851.5000     2.2500   127.5176
 1852.0000     2.1875   118.0328
 1852.5000     2.0625   115.9250
 1853.0000     1.8750   114.8712
 1853.5000     1.7493   113.8173
 1854.0000     1.6014   113.8173
 1854.5000     1.5208   112.7635
 1855.0000     1.5000   111.7096
 1855.5000     1.5625   111.7096
 1856.0000     1.6667   109.6019
 1856.5000     1.8125   108.5480
 1857.0000     2.0417   107.4941
 1857.5000     2.2500   106.4403
 1858.0000     2.3125   106.4403
 1858.5000     2.3125   107.4941
 1859.0000     2.2889   107.4941
 1859.5000     2.1875   106.4403
 1860.0000     2.1458   105.3864
 1860.5000     2.1667   105.3864
 1861.0000     2.4167   106.4403
 1861.5000     2.6763   111.7096
 1862.0000     2.8542   115.9250
 1862.5000     2.8750   124.3560
 1863.0000     2.8958   131.7330
 1863.5000     2.8542   145.4333
 1864.0000     2.7917   162.2951
 1864.5000     2.6015   175.1533
 1865.0000     2.3542   221.3115
 1865.5000     2.2500   259.2506
 1866.0000     2.0833  -999.2500
 1866.5000     2.6667  -999.2500
 1867.0000     3.6042  -999.2500
 1867.5000     4.8333  -999.2500
 1868.0000     4.7708  -999.2500
 1868.5000     4.6667  -999.2500
 1869.0000     4.5000  -999.2500
 1869.5000     4.3958  -999.2500
 1870.0000     4.2917  -999.2500
 1870.5000     4.1858  -999.2500
 1871.0000     3.9375  -999.2500
 1871.5000     3.5625  -999.2500
 1872.0000     3.6667  -999.2500
 1872.5000     4.0625  -999.2500
 1873.0000     4.4583  -999.2500
 1873.5000     5.1250  -999.2500
 1874.0000     4.7500  -999.2500
 1874.5000     4.2708  -999.2500
 1875.0000     3.5208  -999.2500
 1875.5000     2.7677  -999.2500
 1876.0000     2.5208  -999.2500
 1876.5000     2.4167  -999.2500
 1877.0000     2.3125  -999.2500
 1877.5000     2.1250  -999.2500
 1878.0000     2.0000  -999.2500
 1878.5000     1.9375  -999.2500
