~VERSION INFORMATION
 VERS.                2.0:   CWLS LOG ASCII STANDARD - VERSION 2.0
 WRAP.                 NO:   ONE LINE PER DEPTH STEP
~WELL INFORMATION
#MNEM.UNIT      DATA TYPE    INFORMATION
#----------   ------------   ------------------------------
 STRT.F            1.0000:   START DEPTH
 STOP.F          528.0000:   STOP DEPTH
 STEP.F            0.5000:   STEP LENGTH
 NULL.          -999.2500:   NO VALUE
 COMP. LAWRENCE/ALLISON INC:   COMPANY
 WELL.     78-31 STX #3-3:   WELL
 FLD .             TEAPOT:   FIELD
 LOC .       S3 T38N R78W:   LOCATION
 CNTY.            NATRONA:   COUNTY
 STAT.            WYOMING:   STATE
 CTRY. UNITED STATES OF AMERICA:   COUNTRY
 SRVC.           Gearhart:   SERVICE COMPANY
 DATE.        26-JUN-1988:   LOGDATE
 API .       490251123100:   API NUMBER
~CURVE INFORMATION
#MNEM.UNIT       API CODE    CURVE DESCRIPTION
#----------   ------------   ------------------------------
 DEPT.F                  :   
 GRR .GAPI   07 310 01 00:   GAMMA RAY
 RILD.OHMM   07 120 46 00:   INDUCTION LOG DEEP RESISTIVITY
 RILM.OHMM   07 120 44 00:   INDUCTION LOG MEDIUM RESISTIVITY
~PARAMETER INFORMATION
#MNEM.UNIT          VALUE    DESCRIPTION
#----------   ------------   ------------------------------
 PD  .                 GL:   PERMANENT DATUM
 EPD .F              5154:   ELEVATION PERMANENT DATUM
 LMF .                 KB:   LOG MEASURED FROM
 DAPD.F                10:   FEET ABOVE PERMANENT DATUM
 DMF .                 KB:   DRILLING MEASURED FROM
 EKB .F              5164:   KELLING BUSHING
 EGL .F              5154:   GROUND LEVEL
 DATE.        26-JUN-1988:   RUN DATE
 RUN .                  1:   RUN NUMBER
 DD  .F               520:   DEPTH DRILLER
 DL  .F               536:   DEPTH LOGGER
 BLI .F             527.5:   BOTTOM LOG INTERVAL
 TLI .F                51:   TOP LOG INTERVAL
 CS  .IN            9.625:   CASING SIZE
 CBD .F                51:   CASING BOTTOM DRILLER
 CBL .F                51:   CASING BOTTOM LOGGER
 BS  .IN             8.75:   BIT SIZE
 BSD .F               520:   BIT SIZE AT DEPTH
 DFT .                AIR:   DRILLING FLUID TYPE
 TLAB.HRS            1920:   TIME LOGGER AT BOTTOM
 MRT .F                70:   MAXIMUM RECORDED TEMPERATURE
 LUN .               7597:   LOGGING UNIT NUMBER
 LUL .           GILLETTE:   LOGGING UNIT LOCATION
 ENGI.          HUCKFELDT:   RECORDING ENGINEER
 WITN.              FIVAS:   WITNESSED BY
 CLNT.            A2DTECH:   CLIENT CODE
 ORIG.           5" PRINT:   ORIGIN OF DATA
 UWI .       490251123100:   UNIQUE WELL ID
 DICO. A2D Technologies, Inc.:   DIGITIZING COMPANY
~OTHER INFORMATION
~A    DEPT       GRR     RILD       RILM   
# ...
  365.0000    92.0000    19.9304    17.5133
  365.5000    89.5515    22.1277    19.1788
  366.0000    81.4943    25.9765    22.2445
  366.5000    77.5728    29.4499    26.3501
  367.0000    75.7725    33.8567    29.0596
  367.5000    74.5737    37.0688    35.4725
  368.0000    73.0809    41.4436    41.3675
  368.5000    70.0685    44.7471    45.6193
  369.0000    67.3591    45.6929    49.9577
  369.5000    67.0695    46.3346    52.4622
  370.0000    68.0009    46.6587    51.7341
  370.5000    70.4430    46.3346    48.9212
  371.0000    72.5821    45.3755    46.5857
  371.5000    75.0301    44.7471    45.3016
  372.0000    76.8606    44.4362    44.3618
  372.5000    77.1819    43.8209    44.6728
  373.0000    77.2035    43.2141    45.3016
  373.5000    76.6153    42.0255    45.6193
  374.0000    74.5119    40.2925    45.3016
  374.5000    73.0102    39.1671    43.9276
  375.0000    73.6386    38.3394    40.4156
  375.5000    74.5656    37.8523    38.3068
  376.0000    74.8865    37.0688    36.9914
  376.5000    75.5104    35.0578    34.9802
  377.0000    76.1343    33.8567    34.2545
  377.5000    76.7582    33.1559    34.0159
  378.0000    77.3822    32.9255    33.3102
  378.5000    77.4000    32.6968    33.0783
  379.0000    75.5635    32.6968    32.1665
  379.5000    76.0001    32.6968    31.0620
  380.0000    79.8824    32.6968    31.2798
  380.5000    81.1124    32.9255    31.4991
  381.0000    81.4333    32.9255    31.4991
  381.5000    80.8451    32.9255    31.4991
  382.0000    79.6508    32.9255    31.7200
  382.5000    78.7596    32.9255    31.9686
  383.0000    78.7775    32.9255    32.1665
  383.5000    79.0984    32.4696    31.9425
  384.0000    80.9344    32.0199    31.4991
  384.5000    81.2553    31.7975    31.2798
  385.0000    81.2732    31.3571    30.8456
  385.5000    81.5941    30.4947    30.2057
  386.0000    82.5454    29.6560    29.7865
  386.5000    83.4485    29.4499    29.3731
  387.0000    83.1091    29.4499    28.9654
  387.5000    82.5746    29.4499    28.9654
  388.0000    81.9909    29.4499    28.7637
  388.5000    81.0997    28.8403    28.1670
  389.0000    79.9054    28.2434    27.9708
  389.5000    79.6158    28.0465    27.3905
  390.0000    79.9412    27.2757    26.8098
  390.5000    80.5651    26.6870    26.2420
  391.0000    81.4921    25.2620    25.1873
  391.5000    83.3281    25.6168    24.6648
  392.0000    85.1642    25.7960    24.4930
  392.5000    89.7275    24.2270    24.3224
  393.0000    91.2605    24.2270    24.1531
  393.5000    90.0396    24.2270    23.8178
  394.0000    89.7811    24.2270    23.6520
  394.5000    90.4095    23.7255    23.3237
  395.0000    89.8213    23.0730    23.1613
  395.5000    88.3240    22.4384    22.6808
  396.0000    87.7314    21.8213    21.9020
  396.5000    87.1476    20.7818    21.2983
  397.0000    85.3473    20.7818    20.8564
  397.5000    81.7288    21.0737    20.7112
  398.0000    79.0194    20.9272    20.8681
  398.5000    76.9161    20.6374    21.4691
  399.0000    74.2067    20.0698    21.9020
  399.5000    71.4973    19.6544    21.5980
  400.0000    70.3030    19.1138    20.1403
  400.5000    71.8356    18.8492    19.1788
  401.0000    75.1838    18.4590    18.9126
  401.5000    78.2290    18.2034    18.6501
  402.0000    81.5772    17.8266    18.3912
  402.5000    84.0164    17.3363    18.0097
  403.0000    85.8495    16.9774    17.5128
  403.5000    85.5576    16.5105    17.0234
  404.0000    84.3641    16.2818    16.6636
  404.5000    84.6821    16.2818    16.4259
  405.0000    85.3030    16.2818    15.9924
  405.5000    86.5506    16.2818    15.6606
  406.0000    87.7576    16.3958    15.5515
  406.5000    87.1696    16.2641    15.5515
  407.0000    86.8778    16.0564    15.5515
  407.5000    86.8964    15.9448    15.4432
  408.0000    86.9113    15.9448    15.5515
  408.5000    86.9262    15.9448    15.5515
  409.0000    86.9411    15.9448    15.5515
  409.5000    86.9560    15.9448    15.6606
  410.0000    86.9709    15.9448    15.5515
  410.5000    86.9858    15.7240    15.4432
  411.0000    89.4250    15.6148    15.3357
  411.5000    91.8641    15.2916    15.2289
  412.0000    94.0002    14.9750    15.2272
  412.5000    94.0151    14.6651    15.1152
  413.0000    92.4747    14.5632    14.8996
  413.5000    90.5909    14.5676    14.8091
  414.0000    87.9993    14.6651    14.7060
  414.5000    88.3209    14.2617    14.5019
  415.0000    89.2449    14.3615    14.4009
  415.5000    90.4719    14.1626    14.0039
  416.0000    91.6990    13.8695    13.9064
  416.5000    92.6230    13.7731    13.8096
  417.0000    92.9372    13.5803    13.8096
  417.5000    92.0430    13.4832    13.7134
  418.0000    92.0616    13.2937    13.6179
  418.5000    93.2886    13.1987    13.5231
  419.0000    95.7278    13.1042    13.4289
  419.5000    96.6518    13.1015    13.5231
  420.0000    95.7576    13.0987    13.4289
  420.5000    96.3990    13.0960    13.4289
  421.0000    97.0000    13.0928    13.4289
  421.5000    97.0181    12.9991    13.3354
  422.0000    96.1239    12.9964    13.3354
  422.5000    96.7449    12.9937    13.3354
  423.0000    97.0628    12.9911    13.2425
  423.5000    97.6838    12.9884    13.1503
  424.0000    98.0017    12.8955    13.1503
  424.5000    97.4106    12.8928    13.0587
  425.0000    96.8194    12.8902    12.9678
  425.5000    95.9215    12.9676    12.8775
  426.0000    94.7243    12.7833    12.6988
  426.5000    94.4394    12.6007    12.5225
  427.0000    94.4548    12.4217    12.4353
  427.5000    94.4697    12.2452    12.3487
  428.0000    95.7172    11.9872    12.1773
  428.5000    96.9242    11.8169    12.0925
  429.0000    98.4575    11.6490    11.9247
  429.5000    98.1694    11.5640    11.7592
  430.0000    97.2715    11.3997    11.6739
  430.5000    97.2901    11.3165    11.4272
  431.0000    97.9111    11.1557    11.1858
  431.5000    98.2290    10.9972    10.8891
  432.0000    99.7591    10.7655    10.6632
  432.5000   102.1982    10.6126    10.5152
  433.0000   104.9404    10.1688    10.2971
  433.5000   107.9856     9.8029    10.0132
  434.0000   108.3035     9.0279     9.6021
  434.5000   105.5912     7.9035     8.9540
  435.0000   104.3939     7.0656     8.1764
  435.5000   104.7728     6.4954     7.3115
  436.0000   109.0909     6.2704     6.1825
  436.5000   115.3515     6.2682     5.5673
  437.0000   124.4573     6.3100     5.1554
  437.5000   129.0176     6.4414     5.3015
  438.0000   127.8204     6.6215     6.0121
  438.5000   116.0171     6.8068     6.8658
  439.0000   108.4563     7.1954     7.7437
  439.5000   101.5015     7.6594     8.3626
  440.0000   101.2096     8.3260     9.0811
  440.5000   101.8343     8.9919    10.0132
  441.0000   102.4553     9.5275    10.3693
  441.5000   103.0763    10.2549    10.5890
  442.0000   102.1821    10.6165    10.8891
  442.5000   102.1970    10.9135    11.0424
  443.0000   103.1415    11.2188    11.1978
  443.5000   104.0859    11.5326    11.2763
  444.0000   105.8818    11.8552    11.4350
  444.5000   107.1088    12.1010    11.6773
  445.0000   106.8788    12.1826    12.0083
  445.5000   106.5847    12.4352    12.2627
  446.0000   105.9475    12.6057    12.5225
  446.5000   105.0897    12.7787    12.7878
  447.0000   103.5835    12.9539    12.9678
  447.5000   102.0773    13.2236    13.2425
  448.0000   100.8718    13.3116    13.4352
  448.5000   102.7012    13.5066    13.6179
  449.0000   105.4374    13.5841    13.8096
  449.5000   107.5676    13.5783    13.9064
  450.0000   106.6674    13.6699    14.0039
  450.5000   100.9188    13.6640    14.1021
  451.0000    99.1095    13.6594    14.1021
  451.5000    99.4215    13.7641    14.2010
  452.0000   100.9456    13.8575    14.3006
  452.5000   101.5606    13.8547    14.3006
  453.0000   100.9434    14.0463    14.4009
  453.5000    99.7202    14.2406    14.4009
  454.0000    98.2541    14.2377    14.4009
  454.5000    98.2653    14.1358    14.4009
  455.0000    99.4863    14.0347    14.1021
  455.5000   100.4044    13.9343    13.9064
