~VERSION INFORMATION
 VERS.                2.0:   CWLS LOG ASCII STANDARD - VERSION 2.0
 WRAP.                 NO:   ONE LINE PER DEPTH STEP
~WELL INFORMATION
#MNEM.UNIT      DATA TYPE    INFORMATION
#----------   ------------   ------------------------------
 STRT.F           11.0000:   START DEPTH
 STOP.F          685.0000:   STOP DEPTH
 STEP.F            0.5000:   STEP LENGTH
 NULL.          -999.2500:   NO VALUE
 COMP. BROWN JOHN E&C INC:   COMPANY
 WELL. 78-1 STX-34 #78-34:   WELL
 FLD .             TEAPOT:   FIELD
 LOC .      S34 T39N R78W:   LOCATION
 CNTY.            NATRONA:   COUNTY
 STAT.            WYOMING:   STATE
 CTRY. UNITED STATES OF AMERICA:   COUNTRY
 SRVC.     Atlas Wireline:   SERVICE COMPANY
 DATE.        28-JAN-1992:   LOGDATE
 API .       490252250300:   API NUMBER
~CURVE INFORMATION
#MNEM.UNIT       API CODE    CURVE DESCRIPTION
#----------   ------------   ------------------------------
 DEPT.F                  :   
 GRR .GAPI   07 310 01 00:   GAMMA RAY
 RILD.OHMM   07 120 46 00:   INDUCTION LOG DEEP RESISTIVITY
 RILM.OHMM   07 120 44 00:   INDUCTION LOG MEDIUM RESISTIVITY
~PARAMETER INFORMATION
#MNEM.UNIT          VALUE    DESCRIPTION
#----------   ------------   ------------------------------
 PD  .                 GL:   PERMANENT DATUM
 EPD .F              5077:   ELEVATION PERMANENT DATUM
 LMF .                 KB:   LOG MEASURED FROM
 DAPD.F                10:   FEET ABOVE PERMANENT DATUM
 DMF .                 KB:   DRILLING MEASURED FROM
 EKB .F              5087:   KELLING BUSHING
 EDF .F              5086:   DRILLING FLOOR
 EGL .F              5077:   GROUND LEVEL
 DATE.        28-JAN-1992:   RUN DATE
 RUN .                  1:   RUN NUMBER
 DD  .F               693:   DEPTH DRILLER
 DL  .F               693:   DEPTH LOGGER
 BLI .F               691:   BOTTOM LOG INTERVAL
 CS  .IN            9.625:   CASING SIZE
 CBD .F                50:   CASING BOTTOM DRILLER
 CBL .F                60:   CASING BOTTOM LOGGER
 BS  .IN             8.75:   BIT SIZE
 BSD .F               693:   BIT SIZE AT DEPTH
 DFT .                AIR:   DRILLING FLUID TYPE
 MRT .F                90:   MAXIMUM RECORDED TEMPERATURE
 LUN .           HL- 6274:   LOGGING UNIT NUMBER
 LUL .             CASPER:   LOGGING UNIT LOCATION
 ENGI.             RAUTIO:   RECORDING ENGINEER
 WITN.        GARY STRONG:   WITNESSED BY
 CLNT.            A2DTECH:   CLIENT CODE
 ORIG.           5" PRINT:   ORIGIN OF DATA
 UWI .       490252250300:   UNIQUE WELL ID
 DICO. A2D Technologies, Inc.:   DIGITIZING COMPANY
~OTHER INFORMATION
~A   DEPT       GRR      RILD       RILM   
# ...
  102.0000   100.1508    15.4394    15.4334
  102.5000    99.5475    15.4341    15.4281
  103.0000    99.2458    15.4288    15.4228
  103.5000    99.8492    15.3167    15.4176
  104.0000   100.4525    15.0999    15.3053
  104.5000   101.3575    14.9876    15.0827
  105.0000   102.2624    14.5635    14.6550
  105.5000   103.4691    14.1688    14.1604
  106.0000   103.7828    13.8704    13.9597
  106.5000   101.0438    13.8657    13.9550
  107.0000   102.0332    13.8610    13.9502
  107.5000   106.1840    13.8562    13.9454
  108.0000   108.8989    13.6601    13.8439
  108.5000   109.5023    13.3734    13.8391
  109.0000   111.0106    12.9119    13.3608
  109.5000   114.0272    11.7914    12.1150
  110.0000   115.5354    11.0720    11.0622
  110.5000   116.7421    10.0411     9.8198
  111.0000   121.5686     9.1661     8.8397
  111.5000   126.6968     8.3463     8.2752
  112.0000   134.8416     7.4107     7.3231
  112.5000   140.2715     6.8867     6.8279
  113.0000   140.2474     6.5571     6.5007
  113.5000   137.0136     6.3750     6.4534
  114.0000   130.3167     6.3729     6.4064
  114.5000   132.1267     6.4157     6.4042
  115.0000   133.0317     6.5034     6.4924
  115.5000   132.7300     6.6377     6.6272
  116.0000   132.7300     6.6823     6.6708
  116.5000   135.1433     6.4511     6.4852
  117.0000   137.2549     6.4042     6.4379
  117.5000   136.6516     6.4020     6.4807
  118.0000   135.4449     6.4445     6.4780
  118.5000   134.5400     6.4422     6.5216
  119.0000   133.3212     6.4851     6.5644
  119.5000   131.7888     6.5276     6.6542
  120.0000   135.1433     6.6173     6.6520
  120.5000   135.7466     6.6612     6.5582
  121.0000   135.7466     6.7055     6.7407
  121.5000   135.4449     6.7965     6.8335
  122.0000   135.4449     6.7942     6.8306
  122.5000   132.1267     6.7448     6.7809
  123.0000   127.9035     6.6957     6.7315
  123.5000   126.6968     6.6470     6.7291
  124.0000   126.9985     6.5987     6.6337
  124.5000   127.9035     6.5053     6.4938
  125.0000   130.0151     6.4058     6.4018
  125.5000   134.5883     6.2781     6.3110
  126.0000   134.2021     6.2760     6.3089
  126.5000   126.6968     6.3617     6.3514
  127.0000   121.5686     6.4045     6.4377
  127.5000   125.1885     6.4915     6.5258
  128.0000   131.2217     6.5807     6.6151
  128.5000   132.7300     6.6244     6.6129
  129.0000   130.3167     6.6684     6.7034
  129.5000   126.3952     6.7590     6.7504
  130.0000   123.9819     6.8513     6.8466
  130.5000   127.0347     6.9454     6.9818
  131.0000   126.3952     7.0398     7.0773
  131.5000   125.4781     7.1858     7.2243
  132.0000   127.0709     7.3342     7.3744
  132.5000   129.1101     7.4344     7.4760
  133.0000   129.1101     7.5892     7.5783
  133.5000   128.2051     7.6929     7.7891
  134.0000   125.7919     7.7440     7.8416
  134.5000   122.4736     7.7954     7.8931
  135.0000   121.5686     7.7921     7.8903
  135.5000   121.6486     7.7894     7.8876
  136.0000   121.8703     7.7868     7.8301
  136.5000   118.8537     7.7841     7.8274
  137.0000   117.3454     7.7814     7.7698
  137.5000   118.2504     7.7743     7.7133
  138.0000   119.4570     7.6601     7.6039
  138.5000   120.9653     7.4034     7.4962
  139.0000   121.8703     7.2480     7.3386
  139.5000   121.8703     7.1454     7.1844
  140.0000   127.0590     7.0443     7.0825
  140.5000   130.4496     6.9446     7.0309
  141.0000   130.6184     6.9422     6.9798
  141.5000   129.1101     6.8918     6.9774
  142.0000   131.5234     6.8894     6.9266
  142.5000   131.2217     6.8871     6.9726
  143.0000   129.7134     6.9328     7.0674
  143.5000   128.5068     7.0277     7.1641
  144.0000   129.7134     7.1235     7.2628
  144.5000   131.8250     7.2209     7.3111
  145.0000   131.8250     7.2688     7.4105
  145.5000   130.3167     7.3170     7.4080
  146.0000   124.8626     7.3139     7.3540
  146.5000   125.5869     7.3114     7.3515
  147.0000   127.9035     7.3089     7.3490
  147.5000   128.8084     7.3064     7.3979
  148.0000   126.6968     7.4063     7.3953
  148.5000   127.6018     7.4554     7.4965
  149.0000   127.9035     7.5050     7.5554
  149.5000   127.9035     7.6074     7.6496
  150.0000   125.5498     7.6579     7.5936
  150.5000   122.7649     7.5510     7.5920
  151.0000   120.9461     7.4976     7.5905
  151.5000   121.8422     7.4966     7.5889
  152.0000   126.6598     7.4436     7.5874
  152.5000   129.9692     7.3867     7.4809
  153.0000   131.1692     7.2879     7.3243
  153.5000   131.1975     7.0867     7.1215
  154.0000   130.5459     6.8913     6.9244
  154.5000   128.7199     6.7013     6.7798
  155.0000   126.8777     6.5620     6.6382
  155.5000   126.5973     6.4704     6.5907
  156.0000   126.5866     6.4247     6.5436
  156.5000   127.4827     6.4687     6.5423
  157.0000   130.4904     6.4678     6.5410
  157.5000   135.0064     6.4221     6.4491
  158.0000   137.4130     6.4212     6.4030
  158.5000   135.5920     6.3721     6.3954
  159.0000   134.9798     6.3307     6.3557
  159.5000   135.2725     6.3741     6.3544
  160.0000   135.5656     6.4623     6.3975
  160.5000   133.7465     6.5067     6.3962
  161.0000   130.7148     6.5970     6.4399
  161.5000   131.3737     6.6421     6.4836
  162.0000   134.4276     6.7343     6.5732
  162.5000   136.7253     6.8277     6.6638
  163.0000   137.6214     6.9222     6.8507
  163.5000   138.2181     7.0672     7.0431
  164.0000   138.5109     7.1652     7.2451
  164.5000   136.6898     7.2646     7.3918
  165.0000   133.6643     7.3739     7.4940
  165.5000   131.2422     7.4676     7.5448
  166.0000   127.3117     7.5187     7.5960
  166.5000   124.5879     7.5174     7.5414
  167.0000   123.9757     7.5691     7.4875
  167.5000   125.7866     7.5153     7.4859
  168.0000   127.2762     7.4622     7.4324
  168.5000   127.2669     7.4095     7.3793
  169.0000   127.5579     7.3571     7.2757
  169.5000   128.4562     7.2545     7.1713
  170.0000   130.5567     7.1037     7.0728
  170.5000   132.9611     7.0005     6.9732
  171.0000   137.1755     6.8590     6.7802
  171.5000   139.5799     6.6696     6.5925
  172.0000   138.0627     6.6225     6.5457
  172.5000   136.8472     6.6678     6.7290
  173.0000   137.1403     6.8550     6.8697
  173.5000   137.1311     7.0475     7.0624
  174.0000   134.6931     7.2453     7.2605
  174.5000   124.5827     7.4488     7.4641
  175.0000   121.3676     7.6049     7.5673
  175.5000   121.1076     7.7641     7.7796
  176.0000   125.6214     7.8718     7.9423
  176.5000   127.4225     8.0414     8.1079
  177.0000   128.0191     8.2051     8.2200
  177.5000   128.0081     8.2037     8.1613
  178.0000   127.9992     8.0893     7.9908
  178.5000   127.3870     7.9764     7.9337
  179.0000   126.1715     7.8106     7.7681
  179.5000   124.9559     7.5426     7.5530
  180.0000   124.3437     7.2332     7.3439
  180.5000   125.2457     7.0338     7.1406
  181.0000   128.0240     6.8876     6.9411
  181.5000   130.4484     6.7915     6.7507
  182.0000   132.4508     6.6967     6.7022
  182.5000   133.3491     6.7426     6.7008
  183.0000   132.1314     6.8361     6.7466
  183.5000   130.9159     6.9791     6.9355
  184.0000   132.7169     7.0271     7.0314
  184.5000   135.4230     7.1743     7.2286
  185.0000   134.8108     7.3243     7.3798
  185.5000   132.6903     7.4262     7.5341
  186.0000   129.3632     7.5815     7.6383
  186.5000   128.7300     7.6867     7.6901
  187.0000   129.6471     7.6856     7.7423
  187.5000   129.3363     7.7382     7.7406
  188.0000   128.9292     7.7372     7.7932
  188.5000   125.6966     7.7901     7.7912
  189.0000   126.5927     7.7891     7.7896
  189.5000   127.7927     7.7877     7.7880
  190.0000   127.4800     7.8413     7.7324
  190.5000   127.4711     7.8400     7.7852
  191.0000   129.2722     7.8389     7.8377
  191.5000   128.9616     7.8378     7.7817
  192.0000   126.2378     7.8368     7.7801
  192.5000   126.2289     7.7814     7.7245
