~VERSION INFORMATION
 VERS.                2.0:   CWLS LOG ASCII STANDARD - VERSION 2.0
 WRAP.                 NO:   ONE LINE PER DEPTH STEP
~WELL INFORMATION
#MNEM.UNIT      DATA TYPE    INFORMATION
#----------   ------------   ------------------------------
 STRT.F           80.0000:   START DEPTH
 STOP.F          820.0000:   STOP DEPTH
 STEP.F            0.5000:   STEP LENGTH
 NULL.          -999.2500:   NO VALUE
 COMP. U S NAVY/INTEX OIL CO:   COMPANY
 WELL.      GOVT #15-S-35:   WELL
 FLD .        EAST TEAPOT:   FIELD
 LOC .      S35 T39N R78W:   LOCATION
 CNTY.            NATRONA:   COUNTY
 STAT.            WYOMING:   STATE
 CTRY. UNITED STATES OF AMERICA:   COUNTRY
 SRVC.       Schlumberger:   SERVICE COMPANY
 DATE.        12-FEB-1961:   LOGDATE
 API .       490250654500:   API NUMBER
~CURVE INFORMATION
#MNEM.UNIT       API CODE    CURVE DESCRIPTION
#----------   ------------   ------------------------------
 DEPT.F                  :   
 SPR .MV     05 010 01 00:   SPONTANEOUS POTENTIAL FROM RES.
 ASN .OHMM   05 041 16 00:   AMPLIFIED SHORT NORMAL 16"
 ILD .OHMM   05 120 46 00:   INDUCTION LOG DEEP
 CILD.MMHO   05 110 46 00:   CONDUCTIVITY INDUCTION LOG DEEP
 GR  .GAPI   30 310 01 00:   GAMMA RAY
~PARAMETER INFORMATION
#MNEM.UNIT          VALUE    DESCRIPTION
#----------   ------------   ------------------------------
 PD  .                 GL:   PERMANENT DATUM
 EPD .F              5069:   ELEVATION PERMANENT DATUM
 LMF .                 KB:   LOG MEASURED FROM
 DAPD.F                 4:   FEET ABOVE PERMANENT DATUM
 DMF .                 KB:   DRILLING MEASURED FROM
 EKB .F              5073:   KELLING BUSHING
 EGL .F              5069:   GROUND LEVEL
 DATE.            2-12-61:   RUN DATE
 RUN .                  1:   RUN NUMBER
 DD  .F               820:   DEPTH DRILLER
 DL  .F               820:   DEPTH LOGGER
 BLI .F               819:   BOTTOM LOG INTERVAL
 TLI .F                90:   TOP LOG INTERVAL
 CBD .F                12:   CASING BOTTOM DRILLER
 BS  .IN            7.875:   BIT SIZE
 BSD .F               820:   BIT SIZE AT DEPTH
 DFT .   GEL OIL EMULSION:   DRILLING FLUID TYPE
 DFD .                9.5:   DRILLING FLUID DENSITY
 DFV .                 50:   DRILLING FLUID VISCOSITY
 DFPH.                  8:   DRILLING FLUID PH
 DFL .                  9:   DRILLING FLUID LOSS
 MSS .          FLOW LINE:   MUD SAMPLE SOURCE
 RMS .OHMM           1.04:   RESISTIVITY MUD SAMPLE
 MST .F                56:   MUD SAMPLE TEMPERATURE
 MFSS.                  C:   MUD FILTRATE SAMPLE SOURCE
 MCSS.                  C:   MUD CAKE SAMPLE SOURCE
 RMB .OHMM           2.78:   RESISTIVITY MUD AT BHT
 BHT .F                77:   BOTTOM HOLE TEMPERATURE
 TCS .HRS               1:   TIME CURCULATED STOPPED
 MRT .F                77:   MAXIMUM RECORDED TEMPERATURE
 LUN .               2523:   LOGGING UNIT NUMBER
 LUL .               CSPR:   LOGGING UNIT LOCATION
 ENGI.             KNOBEL:   RECORDING ENGINEER
 WITN.          JORGENSEN:   WITNESSED BY
 CLNT.            A2DTECH:   CLIENT CODE
 ORIG.       2", 5" PRINT:   ORIGIN OF DATA
 UWI .       490250654500:   UNIQUE WELL ID
 DICO. A2D Technologies, Inc.:   DIGITIZING COMPANY
~OTHER INFORMATION
~A   DEPT      SPR          ASN        ILD      CILD        GR   
# ...
  324.0000   -25.1621    14.2808    12.0426    71.9096  -999.2500
  324.5000   -25.2951    13.6098    11.4144    80.2115  -999.2500
  325.0000   -25.4282    12.9428    10.7870    88.5155  -999.2500
  325.5000   -25.5613    12.2751    10.1594    96.8204  -999.2500
  326.0000   -25.6943    11.6083     9.5318   105.1261  -999.2500
  326.5000   -25.8274    10.9062     8.9043   113.4302  -999.2500
  327.0000   -25.9605    10.4116     8.2761   121.7344  -999.2500
  327.5000   -26.0935    10.1148     7.6466   130.0385  -999.2500
  328.0000   -26.2271     9.7912     7.0233   138.3426  -999.2500
  328.5000   -26.3637     9.4500     6.4694   146.6467  -999.2500
  329.0000   -26.3010     9.1078     6.3891   154.0690  -999.2500
  329.5000   -26.2023     8.7649     6.3197   157.5708  -999.2500
  330.0000   -26.1020     8.4704     6.2462   160.0412  -999.2500
  330.5000   -26.0020     8.4469     6.1735   158.3481  -999.2500
  331.0000   -25.9022     8.5420     6.1007   156.6550  -999.2500
  331.5000   -25.8024     8.6341     6.0261   154.9618  -999.2500
  332.0000   -25.7026     8.7264     6.0141   153.2660  -999.2500
  332.5000   -25.6027     8.8177     6.0418   151.5680  -999.2500
  333.0000   -25.5018     8.8870     6.0698   149.8706  -999.2500
  333.5000   -25.3995     8.8735     6.0977   149.5797  -999.2500
  334.0000   -25.4118     8.7837     6.1255   149.7716  -999.2500
  334.5000   -25.4315     8.6731     6.1533   149.9535  -999.2500
  335.0000   -25.4508     8.5617     6.1810   150.1354  -999.2500
  335.5000   -25.4698     8.4508     6.2088   150.3173  -999.2500
  336.0000   -25.4888     8.3665     6.2366   150.2549  -999.2500
  336.5000   -25.5078     8.4581     6.2644   149.5879  -999.2500
  337.0000   -25.5269     8.5666     6.2922   148.9209  -999.2500
  337.5000   -25.5459     8.6760     6.3200   148.2539  -999.2500
  338.0000   -25.5646     8.7854     6.3478   147.5864  -999.2500
  338.5000   -25.5834     8.8940     6.3756   146.9171  -999.2500
  339.0000   -25.5423     8.9728     6.4034   146.2445  -999.2500
  339.5000   -25.4478     8.9879     6.4313   145.5859  -999.2500
  340.0000   -25.3530     8.9126     6.4590   146.5367  -999.2500
  340.5000   -25.2579     8.8252     6.4864   147.7874  -999.2500
  341.0000   -25.1628     8.7368     6.4846   149.0380  -999.2500
  341.5000   -25.0678     8.6486     6.4265   150.2886  -999.2500
  342.0000   -24.9727     8.5605     6.3694   151.5392  -999.2500
  342.5000   -24.8775     8.4727     6.3122   152.7899  -999.2500
  343.0000   -24.7821     8.3854     6.2549   154.0405  -999.2500
  343.5000   -24.6872     8.3327     6.1980   155.4121  -999.2500
  344.0000   -24.6204     8.4143     6.1419   153.7143  -999.2500
  344.5000   -24.7391     8.5055     6.1512   151.8346  -999.2500
  345.0000   -24.8596     8.5972     6.2585   149.9549  -999.2500
  345.5000   -24.9794     8.6887     6.3648   148.0751  -999.2500
  346.0000   -25.0992     8.7803     6.4716   146.1954  -999.2500
  346.5000   -25.2190     8.8723     6.5784   144.3157  -999.2500
  347.0000   -25.3387     8.9647     6.6851   142.4360  -999.2500
  347.5000   -25.4587     8.9982     6.7918   140.5563  -999.2500
  348.0000   -25.5789     9.0291     6.8985   138.6765  -999.2500
  348.5000   -25.6974     9.0486     7.0052   136.7968  -999.2500
  349.0000   -25.7766     9.1438     7.1119   134.9171  -999.2500
  349.5000   -25.6927     9.2444     7.2187   133.0374  -999.2500
  350.0000   -25.6126     9.3446     7.3255   131.1577  -999.2500
  350.5000   -25.5329     9.4446     7.4323   129.2779  -999.2500
  351.0000   -25.4530     9.5447     7.5385   127.3982  -999.2500
  351.5000   -25.3731     9.6450     7.6450   125.5185  -999.2500
  352.0000   -25.2933     9.7457     7.6494   125.7422  -999.2500
  352.5000   -25.2134     9.8382     7.5631   127.8609  -999.2500
  353.0000   -25.1336     9.8138     7.4766   129.9796  -999.2500
  353.5000   -25.0537     9.7347     7.3894   132.0976  -999.2500
  354.0000   -24.9739     9.6153     7.3024   134.2169  -999.2500
  354.5000   -24.8936     9.4956     7.2154   136.3367  -999.2500
  355.0000   -24.8138     9.3754     7.1284   138.4543  -999.2500
  355.5000   -24.8532     9.2550     7.0414   140.5730  -999.2500
  356.0000   -24.9129     9.1347     6.9542   142.5025  -999.2500
  356.5000   -24.9730     9.0276     6.8669   141.5094  -999.2500
  357.0000   -25.0330     9.0002     6.7798   139.5143  -999.2500
  357.5000   -25.0929     9.0885     6.7208   137.6952  -999.2500
  358.0000   -25.1528     9.2541     6.8690   135.8761  -999.2500
  358.5000   -25.2127     9.4199     7.0203   134.0571  -999.2500
  359.0000   -25.2727     9.5686     7.1702   132.2380  -999.2500
  359.5000   -25.3334     9.5808     7.2932   131.7749  -999.2500
  360.0000   -25.3921     9.4210     7.2515   133.1602  -999.2500
  360.5000   -25.3291     9.2602     7.2088   134.5455  -999.2500
  361.0000   -25.2581     9.0939     7.1666   135.9308  -999.2500
  361.5000   -25.1874     9.0300     7.1244   137.3161  -999.2500
  362.0000   -25.1169     9.0233     7.0823   138.7014  -999.2500
  362.5000   -25.0464     9.1292     7.0402   140.0867  -999.2500
  363.0000   -24.9759     9.2369     6.9981   140.5164  -999.2500
  363.5000   -24.9060     9.2523     6.9559   139.8520  -999.2500
  364.0000   -24.8357     9.1874     6.9115   138.8991  -999.2500
  364.5000   -24.8676     9.1218     6.9460   137.9463  -999.2500
  365.0000   -24.9865     9.0570     7.0068   136.9934  -999.2500
  365.5000   -25.1057     9.0099     7.0686   136.0406  -999.2500
  366.0000   -25.2256     9.0544     7.1302   135.0877  -999.2500
  366.5000   -25.3454     9.1810     7.1912   134.1349  -999.2500
  367.0000   -25.4652     9.3054     7.2542   133.1792  -999.2500
  367.5000   -25.5850     9.4303     7.3545   132.2179  -999.2500
  368.0000   -25.7048     9.5578     7.2972   131.2524  -999.2500
  368.5000   -25.8244     9.5612     7.1684   131.4533  -999.2500
  369.0000   -25.9454     9.5017     7.0368   134.7331  -999.2500
  369.5000   -25.9877     9.3347     6.9057   137.9847  -999.2500
  370.0000   -25.9882     9.1719     6.7749   141.2363  -999.2500
  370.5000   -25.9883     9.0095     6.6441   144.4880  -999.2500
  371.0000   -25.9881     8.8469     6.5132   147.7396  -999.2500
  371.5000   -25.9882     8.6841     6.3824   150.9912  -999.2500
  372.0000   -25.9907     8.5216     6.2516   154.2428  -999.2500
  372.5000   -25.8769     8.3597     6.1207   156.6630  -999.2500
  373.0000   -25.7181     8.2485     5.9898   157.4326  -999.2500
  373.5000   -25.5583     8.2976     5.8584   158.2022  -999.2500
  374.0000   -25.3984     8.3506     5.7280   158.9718  -999.2500
  374.5000   -25.2385     8.4041     5.7117   159.7414  -999.2500
  375.0000   -25.0785     8.4570     5.7100   160.5110  -999.2500
  375.5000   -24.9201     8.4597     5.8195   161.2807  -999.2500
  376.0000   -24.8120     8.3740     5.8097   160.9285  -999.2500
  376.5000   -24.8697     8.2895     5.8095   160.4283  -999.2500
  377.0000   -24.9231     8.2041     5.9147   157.8610  -999.2500
  377.5000   -24.9762     8.1163     6.0325   155.0596  -999.2500
  378.0000   -25.0296     8.1120     6.1504   152.2582  -999.2500
  378.5000   -25.0827     8.1528     6.2682   149.4568  -999.2500
  379.0000   -25.1362     8.3158     6.3859   146.6554  -999.2500
  379.5000   -25.1918     8.4922     6.5037   143.8540  -999.2500
  380.0000   -25.1344     8.6686     6.6211   141.0526  -999.2500
  380.5000   -25.0602     8.8456     6.7385   138.2529  -999.2500
  381.0000   -24.9850     9.0238     6.8007   135.4584  -999.2500
  381.5000   -24.9101     9.1244     6.7410   132.5855  -999.2500
  382.0000   -24.8353     9.1512     6.6775   132.5839  -999.2500
  382.5000   -24.7604     9.1757     6.6137   133.5700  -999.2500
  383.0000   -24.6851     9.2013     6.5499   135.5417  -999.2500
  383.5000   -24.6070     9.2225     6.4863   137.5419  -999.2500
  384.0000   -24.5375     9.1346     6.4226   139.5429  -999.2500
  384.5000   -24.4653     9.0424     6.3589   141.5442  -999.2500
