~VERSION INFORMATION
 VERS.                2.0:   CWLS LOG ASCII STANDARD - VERSION 2.0
 WRAP.                 NO:   ONE LINE PER DEPTH STEP
~WELL INFORMATION
#MNEM.UNIT      DATA TYPE    INFORMATION
#----------   ------------   ------------------------------
 STRT.F            6.0000:   START DEPTH
 STOP.F         1351.5000:   STOP DEPTH
 STEP.F            0.5000:   STEP LENGTH
 NULL.          -999.2500:   NO VALUE
 COMP. BROWN JOHN E&C INC:   COMPANY
 WELL. NAVAL PETROLEUM RESERVE 3 STX- #71-10:   WELL
 FLD .             TEAPOT:   FIELD
 LOC .      S10 T38N R78W:   LOCATION
 CNTY.            NATRONA:   COUNTY
 STAT.            WYOMING:   STATE
 CTRY. UNITED STATES OF AMERICA:   COUNTRY
 SRVC.           BIRDWELL:   SERVICE COMPANY
 DATE.        02-MAR-1978:   LOGDATE
 API .       490251058900:   API NUMBER
~CURVE INFORMATION
#MNEM.UNIT       API CODE    CURVE DESCRIPTION
#----------   ------------   ------------------------------
 DEPT.F                  :   
 GRD .GAPI   45 310 01 00:   GAMMA RAY FROM DENSITY LOG
 CALD.IN     45 280 60 00:   CALIPER
 RHOB.G/C3   45 350 01 00:   BULK DENSITY
 DPOR.DEC    45 890 12 00:   DENSITY POROSITY SANDSTONE
 CORR.G/C3   45 356 01 00:   DENSITY CORRECTION
~PARAMETER INFORMATION
#MNEM.UNIT          VALUE    DESCRIPTION
#----------   ------------   ------------------------------
 PD  .                 GL:   PERMANENT DATUM
 EPD .F              5162:   ELEVATION PERMANENT DATUM
 LMF .                 KB:   LOG MEASURED FROM
 DAPD.F                10:   FEET ABOVE PERMANENT DATUM
 DMF .                 KB:   DRILLING MEASURED FROM
 EKB .F              5172:   KELLING BUSHING
 EGL .F              5162:   GROUND LEVEL
 DATE.           3-2-1978:   RUN DATE
 RUN .                  1:   RUN NUMBER
 DD  .F              1357:   DEPTH DRILLER
 DL  .F              1352:   DEPTH LOGGER
 BLI .F              1350:   BOTTOM LOG INTERVAL
 TLI .F                20:   TOP LOG INTERVAL
 CS  .IN                7:   CASING SIZE
 CBD .F              1140:   CASING BOTTOM DRILLER
 CBL .F              1140:   CASING BOTTOM LOGGER
 BS  .IN             6.25:   BIT SIZE
 BSD .F              1357:   BIT SIZE AT DEPTH
 DFT .           AIR MIST:   DRILLING FLUID TYPE
 TCS .HRS              12:   TIME CURCULATED STOPPED
 MRT .F                75:   MAXIMUM RECORDED TEMPERATURE
 LUN .               2958:   LOGGING UNIT NUMBER
 LUL .               CASP:   LOGGING UNIT LOCATION
 ENGI.             MILLER:   RECORDING ENGINEER
 WITN.           MCGINLEY:   WITNESSED BY
 CLNT.            A2DTECH:   CLIENT CODE
 ORIG.       2", 5" PRINT:   ORIGIN OF DATA
 UWI .       490251058900:   UNIQUE WELL ID
 DICO. A2D Technologies, Inc.:   DIGITIZING COMPANY
~OTHER INFORMATION
~A    DEPT      GRD      CALD       RHOB       DPOR       CORR   
# ...
 1287.0000   107.9707     6.2726     2.5141     0.0784     0.0351
 1287.5000   106.7879     6.2718     2.5155     0.0738     0.0321
 1288.0000   104.9465     6.2710     2.5168     0.0773     0.0292
 1288.5000   105.5236     6.2702     2.5136     0.0809     0.0284
 1289.0000   106.2596     6.2695     2.5127     0.0777     0.0308
 1289.5000   105.9185     6.2687     2.5170     0.0750     0.0332
 1290.0000   105.8149     6.2679     2.5213     0.0738     0.0353
 1290.5000   105.6843     6.2671     2.5166     0.0788     0.0330
 1291.0000   105.5420     6.2663     2.5112     0.0756     0.0314
 1291.5000   106.0660     6.2656     2.5141     0.0859     0.0355
 1292.0000   106.8824     6.2648     2.5004     0.0884     0.0418
 1292.5000   106.5744     6.2640     2.4986     0.0740     0.0452
 1293.0000   106.5974     6.2632     2.5140     0.0774     0.0444
 1293.5000   110.0768     6.2625     2.5145     0.0792     0.0437
 1294.0000   111.0887     6.2617     2.5087     0.0824     0.0463
 1294.5000   110.9751     6.2609     2.5080     0.0668     0.0485
 1295.0000   110.9005     6.2601     2.5185     0.0734     0.0439
 1295.5000   113.3476     6.2594     2.5303     0.0828     0.0431
 1296.0000   115.1603     6.2586     2.5200     0.0789     0.0468
 1296.5000   111.2030     6.2578     2.5052     0.0828     0.0494
 1297.0000   107.3710     6.2570     2.5068     0.0700     0.0433
 1297.5000   104.3025     6.2563     2.5253     0.0840     0.0316
 1298.0000   102.0367     6.2555     2.5108     0.0864     0.0345
 1298.5000   104.5619     6.2547     2.5028     0.0752     0.0409
 1299.0000   106.7436     6.2539     2.5124     0.0729     0.0463
 1299.5000   108.0209     6.2532     2.5229     0.0736     0.0495
 1300.0000   107.5353     6.2524     2.5241     0.0726     0.0527
 1300.5000   102.9707     6.2516     2.5249     0.0710     0.0555
 1301.0000   105.0202     6.2508     2.5239     0.0727     0.0555
 1301.5000   109.3354     6.2500     2.5229     0.0714     0.0554
 1302.0000   110.2067     6.2500     2.5219     0.0725     0.0505
 1302.5000   104.4842     6.2500     2.5202     0.0812     0.0448
 1303.0000   102.8954     6.2500     2.5142     0.0808     0.0420
 1303.5000   104.7265     6.2500     2.5112     0.0736     0.0399
 1304.0000   108.0815     6.2500     2.5160     0.0804     0.0400
 1304.5000   109.2085     6.2500     2.5162     0.0798     0.0408
 1305.0000   105.9979     6.2500     2.5051     0.0782     0.0416
 1305.5000   106.3854     6.2500     2.5102     0.0786     0.0423
 1306.0000   106.8113     6.2500     2.5115     0.0868     0.0431
 1306.5000   106.0387     6.2500     2.4966     0.0801     0.0417
 1307.0000   105.3236     6.2500     2.5016     0.0811     0.0386
 1307.5000   105.5267     6.2500     2.5096     0.0820     0.0356
 1308.0000   106.1427     6.2500     2.5087     0.0880     0.0371
 1308.5000   107.5871     6.2500     2.4997     0.0900     0.0389
 1309.0000   106.4815     6.2500     2.4961     0.0825     0.0407
 1309.5000   104.9162     6.2500     2.4991     0.0778     0.0431
 1310.0000   105.2289     6.2500     2.5098     0.0752     0.0379
 1310.5000   105.5224     6.2500     2.5143     0.0788     0.0334
 1311.0000   105.6283     6.2500     2.5110     0.0839     0.0341
 1311.5000   105.7114     6.2500     2.5029     0.0884     0.0379
 1312.0000   105.6638     6.2500     2.4952     0.0837     0.0417
 1312.5000   104.5724     6.2500     2.5011     0.0778     0.0453
 1313.0000   102.1487     6.2500     2.5106     0.0720     0.0448
 1313.5000   103.8538     6.2500     2.5148     0.0697     0.0440
 1314.0000   105.7974     6.2500     2.5272     0.0700     0.0426
 1314.5000   105.7074     6.2500     2.5270     0.0719     0.0384
 1315.0000   105.5807     6.2500     2.5238     0.0743     0.0341
 1315.5000   106.2192     6.2500     2.5190     0.0812     0.0299
 1316.0000   105.9983     6.2500     2.5177     0.0768     0.0280
 1316.5000   105.0813     6.2500     2.5045     0.0700     0.0306
 1317.0000   105.9734     6.2500     2.5152     0.0830     0.0309
 1317.5000   107.4591     6.2500     2.5213     0.0904     0.0301
 1318.0000   106.9498     6.2500     2.5096     0.0896     0.0306
 1318.5000   107.6270     6.2500     2.5001     0.0846     0.0361
 1319.0000   112.2163     6.2500     2.5003     0.0796     0.0415
 1319.5000   113.1889     6.2500     2.5083     0.0780     0.0456
 1320.0000   109.6148     6.2500     2.5178     0.0731     0.0460
 1320.5000   108.2564     6.2500     2.5249     0.0690     0.0465
 1321.0000   111.1961     6.2500     2.5275     0.0712     0.0470
 1321.5000   114.9108     6.2500     2.5252     0.0720     0.0475
 1322.0000   115.5214     6.2500     2.5247     0.0688     0.0452
 1322.5000   114.8858     6.2500     2.5261     0.0731     0.0426
 1323.0000   114.9277     6.2500     2.5241     0.0780     0.0399
 1323.5000   113.3284     6.2500     2.5180     0.0748     0.0373
 1324.0000   111.0463     6.2500     2.5149     0.0778     0.0354
 1324.5000   108.7750     6.2500     2.5112     0.0848     0.0354
 1325.0000   107.7010     6.2500     2.5042     0.0802     0.0358
 1325.5000   108.1338     6.2500     2.5054     0.0754     0.0420
 1326.0000   110.1011     6.2500     2.5123     0.0704     0.0481
 1326.5000   112.6020     6.2500     2.5163     0.0664     0.0542
 1327.0000   114.2585     6.2500     2.5207     0.0618     0.0586
 1327.5000   110.1302     6.2500     2.5321     0.0560     0.0502
 1328.0000   106.1917     6.2500     2.5501     0.0545     0.0416
 1328.5000   107.0689     6.2500     2.5395     0.0710     0.0376
 1329.0000   107.4929     6.2500     2.5234     0.0757     0.0382
 1329.5000   107.9364     6.2500     2.5163     0.0785     0.0389
 1330.0000   112.6604     6.2500     2.5128     0.0757     0.0394
 1330.5000   116.4306     6.2500     2.5125     0.0776     0.0357
 1331.0000   118.1717     6.2500     2.5120     0.0784     0.0317
 1331.5000   115.2726     6.2500     2.5099     0.0855     0.0340
 1332.0000   111.7647     6.2500     2.5012     0.0892     0.0367
 1332.5000   111.2837     6.2500     2.4979     0.0789     0.0393
 1333.0000   117.0061     6.2500     2.5065     0.0768     0.0376
 1333.5000   118.3590     6.2500     2.5124     0.0748     0.0355
 1334.0000   113.3544     6.2500     2.5139     0.0744     0.0335
 1334.5000   109.1754     6.2500     2.5182     0.0738     0.0330
 1335.0000   107.2019     6.2500     2.5187     0.0725     0.0325
 1335.5000   109.4070     6.2500     2.5201     0.0710     0.0319
 1336.0000   107.2626     6.2500     2.5218     0.0703     0.0314
 1336.5000   106.1516     6.2500     2.5212     0.0737     0.0309
 1337.0000   107.1995     6.2500     2.5166     0.0771     0.0304
 1337.5000   107.4430     6.2500     2.5121     0.0803     0.0299
 1338.0000   107.3697     6.2500     2.5100     0.0838     0.0300
 1338.5000   107.8266     6.2500     2.5078     0.0837     0.0337
 1339.0000   113.6231     6.2500     2.5008     0.0800     0.0437
 1339.5000   114.1384     6.2500     2.4997     0.0763     0.0440
 1340.0000   112.3325     6.2500     2.5086     0.0772     0.0421
 1340.5000   107.4852     6.2500     2.5166     0.0810     0.0450
 1341.0000   109.3027     6.2500     2.5126     0.0772     0.0506
 1341.5000   111.7759     6.2500     2.5119     0.0729     0.0492
 1342.0000   111.9419     6.2500     2.5162     0.0749     0.0466
 1342.5000   110.4091     6.2500     2.5176     0.0734     0.0438
 1343.0000   109.8689     6.2500     2.5193     0.0668     0.0463
 1343.5000   109.7431     6.2500     2.5243     0.0712     0.0492
 1344.0000   110.1911     6.2500     2.5148     0.0781     0.0463
 1344.5000   110.9942     6.2500     2.5105     0.0849     0.0431
 1345.0000   111.0559     6.2500     2.5051     0.0918     0.0415
 1345.5000   109.8056     6.2500     2.4925     0.0976     0.0415
 1346.0000   109.0645     6.2500     2.4823     0.1004     0.0436
 1346.5000   110.2142     6.2500     2.4752     0.0980     0.0479
 1347.0000   109.5793     6.2500     2.4794     0.0964     0.0621
 1347.5000   107.5141     6.2499     2.4854     0.0967     0.0752
