~VERSION INFORMATION
 VERS.                2.0:   CWLS LOG ASCII STANDARD - VERSION 2.0
 WRAP.                 NO:   ONE LINE PER DEPTH STEP
~WELL INFORMATION
#MNEM.UNIT      DATA TYPE    INFORMATION
#----------   ------------   ------------------------------
 STRT.F           24.0000:   START DEPTH
 STOP.F          570.0000:   STOP DEPTH
 STEP.F            0.5000:   STEP LENGTH
 NULL.          -999.2500:   NO VALUE
 COMP. FENIX & SCISSON INC:   COMPANY
 WELL.   NPR-3 #32SX10-10:   WELL
 FLD .  TEAPOT COME NPR-3:   FIELD
 LOC .      S10 T38N R78W:   LOCATION
 CNTY.            NATRONA:   COUNTY
 STAT.            WYOMING:   STATE
 CTRY. UNITED STATES OF AMERICA:   COUNTRY
 SRVC.            Unknown:   SERVICE COMPANY
 DATE.        27-JUN-1978:   LOGDATE
 API .       490251065300:   API NUMBER
~CURVE INFORMATION
#MNEM.UNIT       API CODE    CURVE DESCRIPTION
#----------   ------------   ------------------------------
 DEPT.F                  :   
 CALD.IN     45 280 60 00:   CALIPER FROM DENSITY LOG
 GRD .GAPI   45 310 01 00:   GAMMA RAY FROM DENSITY LOG
 CORR.G/C3   45 356 01 00:   DENSITY CORRECTION
 DPHI.DEC    45 890 12 00:   DENSITY POROSITY SANDSTONE
 RHOB.G/C3   45 350 01 00:   BULK DENSITY
 SPR .MV     05 010 01 00:   SPONTANEOUS POTENTIAL FROM RES.
 SN  .OHMM   05 040 16 00:   SHORT NORMAL 16"
 ILD .OHMM   05 120 46 00:   INDUCTION LOG DEEP
~PARAMETER INFORMATION
#MNEM.UNIT          VALUE    DESCRIPTION
#----------   ------------   ------------------------------
 PD  .                 GL:   PERMANENT DATUM
 EPD .F              5239:   ELEVATION PERMANENT DATUM
 LMF .                 GL:   LOG MEASURED FROM
 DAPD.F                 4:   FEET ABOVE PERMANENT DATUM
 DMF .                 GL:   DRILLING MEASURED FROM
 EKB .F              5243:   KELLING BUSHING
 EGL .F              5239:   GROUND LEVEL
 DATE.        27-JUN-1978:   RUN DATE
 RUN .                  1:   RUN NUMBER
 DD  .F               565:   DEPTH DRILLER
 DL  .F               574:   DEPTH LOGGER
 BLI .F               572:   BOTTOM LOG INTERVAL
 TLI .F                30:   TOP LOG INTERVAL
 CS  .IN            8.625:   CASING SIZE
 CBD .F                40:   CASING BOTTOM DRILLER
 CBL .F                40:   CASING BOTTOM LOGGER
 BS  .IN            7.875:   BIT SIZE
 BSD .F               565:   BIT SIZE AT DEPTH
 DFT .                KCL:   DRILLING FLUID TYPE
 DFD .                8.7:   DRILLING FLUID DENSITY
 DFV .                 35:   DRILLING FLUID VISCOSITY
 DFPH.                 10:   DRILLING FLUID PH
 DFL .                 14:   DRILLING FLUID LOSS
 MSS .           FLOWLINE:   MUD SAMPLE SOURCE
 RMS .OHMM            .36:   RESISTIVITY MUD SAMPLE
 MST .F                78:   MUD SAMPLE TEMPERATURE
 RMF .OHMM             .3:   RESISTIVITY MUD FILTRATE SAMPLE
 MFST.F                86:   MUD FILTRATE SAMPLE TEMPERATURE
 RMC .OHMM            .36:   RESISTIVITY MUD CAKE
 MCST.F                87:   MUD CAKE SAMPLE TEMPERATURE
 MFSS.               MEAS:   MUD FILTRATE SAMPLE SOURCE
 MCSS.               MEAS:   MUD CAKE SAMPLE SOURCE
 RMB .OHMM            3.9:   RESISTIVITY MUD AT BHT
 BHT .F                72:   BOTTOM HOLE TEMPERATURE
 TCS .HRS            0300:   TIME CURCULATED STOPPED
 MRT .F                72:   MAXIMUM RECORDED TEMPERATURE
 LUN .               2938:   LOGGING UNIT NUMBER
 LUL .               CASP:   LOGGING UNIT LOCATION
 ENGI.            POINTER:   RECORDING ENGINEER
 WITN.         ZARGARNIAN:   WITNESSED BY
 CLNT.            A2DTECH:   CLIENT CODE
 ORIG.     2.5", 5" PRINT:   ORIGIN OF DATA
 UWI .       490251065300:   UNIQUE WELL ID
 DICO. A2D Technologies, Inc.:   DIGITIZING COMPANY
~OTHER INFORMATION
~A   DEPT     CALD         GRD      CORR       DPHI       RHOB        SPR         SN        ILD   
# ...
  105.0000     7.1072   141.5764     0.0368     0.1183     2.4868   -24.9497     8.2002     8.8468
  105.5000     7.1094   141.7485     0.0324     0.1186     2.4847   -25.2387     8.1996     8.9675
  106.0000     7.1119   140.4347     0.0295     0.1200     2.4811   -25.7417     8.1991     8.9663
  106.5000     7.0985   133.3260     0.0282     0.1215     2.4805   -26.2806     8.0869     9.0886
  107.0000     7.0713   120.1252     0.0268     0.1208     2.4806   -26.8194     7.9763     9.2127
  107.5000     7.0883   120.1487     0.0255     0.1204     2.4785   -27.3273     7.9757     9.2113
  108.0000     7.1797   120.3249     0.0257     0.1273     2.4759   -27.3273     7.8666     9.2101
  108.5000     7.1967   124.0989     0.0243     0.1296     2.4713   -27.3273     7.8661     9.0837
  109.0000     7.2286   131.3977     0.0245     0.1269     2.4715   -27.5164     7.6529     8.9590
  109.5000     7.2753   132.5998     0.0246     0.1220     2.4776   -27.5194     7.4455     8.8360
  110.0000     7.3519   133.0508     0.0248     0.1211     2.4860   -27.5230     7.3436     8.8348
  110.5000     7.4434   133.0743     0.0264     0.1201     2.4862   -27.5259     7.1445     8.7135
  111.0000     7.5051   132.5034     0.0295     0.1170     2.4870   -27.5289     7.0468     8.7123
  111.5000     7.5220   130.8925     0.0327     0.1107     2.4954   -27.5319     7.0463     8.5927
  112.0000     7.4943   129.8759     0.0358     0.1076     2.5031   -27.5348     6.9499     8.3596
  112.5000     7.4814   129.4478     0.0360     0.1043     2.5047   -27.5378     7.0454     8.2448
  113.0000     7.3941   129.3227     0.0346     0.1039     2.5056   -27.5408     7.0449     8.2437
  113.5000     7.2769   129.5007     0.0348     0.1060     2.5035   -27.5437     7.0444     8.2426
  114.0000     7.2343   130.8615     0.0334     0.1104     2.5014   -27.5467     7.1411     8.2415
  114.5000     7.3121   135.6399     0.0321     0.1121     2.4985   -27.5497     7.2392     8.2403
  115.0000     7.5544   137.0007     0.0307     0.1127     2.4949   -27.5526     7.4399     8.3528
  115.5000     7.6893   136.2812     0.0294     0.1138     2.4913   -27.5556     7.6461     8.4667
  116.0000     7.7045   129.4376     0.0357     0.1174     2.4885   -27.5586     7.8581     8.7005
  116.5000     7.6475   122.2143     0.0592     0.1191     2.4878   -27.5615     7.8575     8.8191
  117.0000     7.6192   117.6316     0.0861     0.1101     2.4902   -27.5645     7.8563     8.8179
  117.5000     7.5920   117.5007     0.1019     0.1035     2.4953   -27.5675     7.7495     8.8167
  118.0000     7.5494   120.9476     0.0946     0.0932     2.5203   -27.8689     7.7462     8.8155
  118.5000     7.4620   128.1034     0.0798     0.0883     2.5351   -27.8719     7.6430     8.9358
  119.0000     7.3598   133.3295     0.0455     0.0882     2.5343   -27.8749     7.5384     8.9346
  119.5000     7.2128   133.9473     0.0366     0.1044     2.5194   -27.8778     7.4353     9.0565
  120.0000     7.1254   133.5251     0.0368     0.1280     2.4724   -27.8808     7.4348     9.0552
  120.5000     7.1121   132.0627     0.0399     0.1282     2.4695   -27.8836     7.4343     9.0540
  121.0000     7.0992   124.3596     0.0416     0.1282     2.4704   -27.8867     7.4338     9.0528
  121.5000     7.0715   119.7769     0.0432     0.1272     2.4713   -27.8897     7.4432     9.0515
  122.0000     6.9995   119.3488     0.0433     0.1266     2.4722   -27.5941     7.5353     9.0544
  122.5000     6.9271   123.3901     0.0405     0.1249     2.4738   -27.5971     7.5469     9.1790
  123.0000     6.8099   126.9797     0.0391     0.1164     2.4845   -27.6001     7.6383     9.3053
  123.5000     6.7077   127.3004     0.0348     0.1128     2.4943   -27.6030     7.6378     9.5556
  124.0000     6.6650   127.1695     0.0290     0.1116     2.4975   -27.6060     7.6526     9.5543
  124.5000     6.7267   127.3474     0.0246     0.1113     2.4968   -27.3105     7.7421     9.5530
  125.0000     6.9374   133.9088     0.0232     0.1109     2.4978   -27.3134     7.7415     9.5408
  125.5000     7.1651   136.4584     0.0219     0.1115     2.4972   -27.3164     7.7599     9.2925
  126.0000     7.3821   136.0361     0.0220     0.1171     2.4868   -27.3194     7.8474     9.1649
  126.5000     7.5994   134.2766     0.0252     0.1192     2.4839   -27.3224     7.8468     9.1637
  127.0000     7.6192   133.8543     0.0298     0.1191     2.4848   -27.3095     7.8462     9.0236
  127.5000     7.6338   133.8782     0.0375     0.1190     2.4865   -27.0298     7.8457     8.8987
  128.0000     7.6358   134.2268     0.0556     0.1085     2.4879   -27.0328     7.8451     8.7914
  128.5000     7.6230   135.7900     0.0543     0.1009     2.5053   -27.0358     7.8446     8.6708
  129.0000     7.6251   137.5691     0.0409     0.0991     2.5169   -27.0388     7.8441     8.6696
  129.5000     7.6117   139.1784     0.0216     0.1008     2.5223   -27.0418     7.8435     8.6684
  130.0000     7.5547   140.0935     0.0172     0.1050     2.5119   -27.0448     7.8430     8.6672
  130.5000     7.4971   140.8599     0.0174     0.1166     2.4874   -27.0477     7.8424     8.6660
  131.0000     7.4098   142.6665     0.0175     0.1181     2.4845   -27.0507     7.8419     8.6649
  131.5000     7.3522   143.4330     0.0177     0.1186     2.4846   -27.0538     7.8414     8.6637
  132.0000     7.2798   144.3480     0.0178     0.1188     2.4840   -27.0567     7.8408     8.7820
  132.5000     7.2222   145.8574     0.0180     0.1191     2.4842   -27.0597     7.8403     8.7807
  133.0000     7.1498   144.3951     0.0182     0.1197     2.4835   -27.0627     7.8049     8.9005
  133.5000     7.1071   139.6637     0.0198     0.1202     2.4837   -27.0656     7.7325     9.0498
  134.0000     7.0645   138.7957     0.0200     0.1201     2.4831   -27.0687     7.7320     9.1743
  134.5000     7.0367   138.9678     0.0216     0.1204     2.4825   -27.0717     7.6262     9.2698
  135.0000     7.0239   139.2885     0.0218     0.1209     2.4811   -27.0746     7.6257     9.2684
  135.5000     7.0110   139.3121     0.0234     0.1214     2.4805   -27.0776     7.6252     9.1411
  136.0000     7.0131   139.4842     0.0236     0.1238     2.4799   -27.0806     7.6247     9.1068
  136.5000     7.0152   142.1823     0.0237     0.1231     2.4771   -27.0836     7.6241     8.9807
  137.0000     6.9874   144.5832     0.0239     0.1267     2.4720   -27.0866     7.6236     8.8907
  137.5000     6.9597   144.0124     0.0240     0.1272     2.4728   -27.0896     7.6231     8.7686
  138.0000     6.9324   134.0844     0.0242     0.1269     2.4730   -27.0925     7.6226     8.7317
  138.5000     6.9345   129.0559     0.0228     0.1259     2.4732   -27.3940     7.6221     8.6471
  139.0000     6.9515   130.7139     0.0199     0.1225     2.4830   -27.3970     7.5178     8.6459
  139.5000     6.9833   131.7775     0.0171     0.1183     2.4884   -27.5154     7.5173     8.6447
  140.0000     7.1046   131.5039     0.0128     0.1161     2.4871   -27.7015     7.6205     8.6044
  140.5000     7.5091   133.9048     0.0099     0.1173     2.4850   -27.7045     7.6200     8.5249
  141.0000     7.6602   137.1973     0.0116     0.1175     2.4851   -27.7074     7.6195     8.5237
  141.5000     7.7069   137.6607     0.0132     0.1178     2.4852   -27.4120     7.6189     8.5226
  142.0000     7.7239   136.3528     0.0163     0.1180     2.4846   -27.4149     7.6184     8.5214
  142.5000     7.7409   136.5249     0.0210     0.1188     2.4855   -27.4179     7.6722     8.5202
  143.0000     7.7429   139.2230     0.0211     0.1170     2.4887   -27.4209     7.7224     8.5191
  143.5000     7.7450   138.9493     0.0198     0.1100     2.4970   -27.4238     7.8285     8.5179
  144.0000     7.7471   136.2983     0.0154     0.1136     2.4994   -27.1284     7.8279     8.5167
  144.5000     7.7491   139.1450     0.0096     0.1144     2.4891   -27.1314     7.8274     8.5156
  145.0000     7.7362   144.0758     0.0097     0.1213     2.4840   -27.1343     7.8269     8.5633
