~VERSION INFORMATION
 VERS.                2.0:   CWLS LOG ASCII STANDARD - VERSION 2.0
 WRAP.                 NO:   ONE LINE PER DEPTH STEP
~WELL INFORMATION
#MNEM.UNIT      DATA TYPE    INFORMATION
#----------   ------------   ------------------------------
 STRT.F            4.0000:   START DEPTH
 STOP.F          564.0000:   STOP DEPTH
 STEP.F            0.1000:   STEP LENGTH
 NULL.          -999.2500:   NO VALUE
 COMP.       F D SERV INC:   COMPANY
 WELL. NAVAL PETROLEUM RESERVE 3 SX-3 #88-4-3:   WELL
 FLD .             TEAPOT:   FIELD
 LOC .       S3 T38N R78W:   LOCATION
 CNTY.            NATRONA:   COUNTY
 STAT.            WYOMING:   STATE
 CTRY. UNITED STATES OF AMERICA:   COUNTRY
 SRVC.      Western Atlas:   SERVICE COMPANY
 DATE.        15-OCT-1992:   LOGDATE
 API .       490252255000:   API NUMBER
~CURVE INFORMATION
#MNEM.UNIT       API CODE    CURVE DESCRIPTION
#----------   ------------   ------------------------------
 DEPT.F                  :   
 GRR .GAPI   07 310 01 00:   GAMMA RAY
 RILD.OHMM   07 120 46 00:   INDUCTION LOG DEEP RESISTIVITY
 RILM.OHMM   07 120 44 00:   INDUCTION LOG MEDIUM RESISTIVITY
~PARAMETER INFORMATION
#MNEM.UNIT          VALUE    DESCRIPTION
#----------   ------------   ------------------------------
 PD  .                 GL:   PERMANENT DATUM
 EPD .F              5129:   ELEVATION PERMANENT DATUM
 LMF .                 KB:   LOG MEASURED FROM
 DAPD.F                10:   FEET ABOVE PERMANENT DATUM
 DMF .                 KB:   DRILLING MEASURED FROM
 EKB .F              5139:   KELLING BUSHING
 EGL .F              5129:   GROUND LEVEL
 DATE.        15-OCT-1992:   RUN DATE
 RUN .                  1:   RUN NUMBER
 DD  .F               570:   DEPTH DRILLER
 DL  .F               570:   DEPTH LOGGER
 BLI .F               564:   BOTTOM LOG INTERVAL
 TLI .F               564:   TOP LOG INTERVAL
 CS  .IN            8.625:   CASING SIZE
 CBL .F                94:   CASING BOTTOM LOGGER
 BS  .IN            7.875:   BIT SIZE
 BSD .F               570:   BIT SIZE AT DEPTH
 DFT .           AIR FOAM:   DRILLING FLUID TYPE
 TCS .HRS               4:   TIME CURCULATED STOPPED
 MRT .F                72:   MAXIMUM RECORDED TEMPERATURE
 LUN .            HL-6345:   LOGGING UNIT NUMBER
 LUL .          FT.MORGAN:   LOGGING UNIT LOCATION
 ENGI.             BURLEY:   RECORDING ENGINEER
 WITN.        DARY STRONG:   WITNESSED BY
 CLNT.            A2DTECH:   CLIENT CODE
 ORIG.           5" PRINT:   ORIGIN OF DATA
 UWI .       490252255000:   UNIQUE WELL ID
 DICO. A2D Technologies, Inc.:   DIGITIZING COMPANY
~OTHER INFORMATION
~A    DEPT      GRR      RILD       RILM   
# ...
  495.4000   108.1879    10.2181     9.9587
  495.5000   108.4040    10.2106     9.9074
  495.6000   108.4920    10.1468     9.9068
  495.7000   108.4938    10.0918     9.9062
  495.8000   108.5622    10.0761     9.9057
  495.9000   108.8328    10.0762     9.8743
  496.0000   109.4017    10.0566     9.8353
  496.1000   109.6226    10.0059     9.8269
  496.2000   109.8759    10.0061     9.7655
  496.3000   110.1291    10.0062     9.7114
  496.4000   110.3823    10.0064     9.6961
  496.5000   110.6356    10.0065     9.6649
  496.6000   110.9163    10.0066     9.6273
  496.7000   111.0772    10.0068     9.6267
  496.8000   111.2577    10.0069     9.6262
  496.9000   111.4383     9.9516     9.5724
  497.0000   111.5883     9.9372     9.5578
  497.1000   111.5854     9.9373     9.5573
  497.2000   111.8246     9.9582     9.5568
  497.3000   111.8836    10.0076     9.5562
  497.4000   111.8812    10.0078     9.5557
  497.5000   111.8788    10.0079     9.5552
  497.6000   111.8764    10.0081     9.5546
  497.7000   111.8738    10.0082     9.5541
  497.8000   111.8715    10.0083     9.5535
  497.9000   111.8691    10.0085     9.5530
  498.0000   111.8667    10.0086     9.5525
  498.1000   111.8642    10.0088     9.6063
  498.2000   111.8618    10.0089     9.6186
  498.3000   111.8591    10.0090     9.6181
  498.4000   111.8570    10.0092     9.6176
  498.5000   111.8545    10.0093     9.6170
  498.6000   111.8521    10.0095     9.6165
  498.7000   111.8497    10.0096     9.6159
  498.8000   111.8473    10.0097     9.6154
  498.9000   111.8445    10.0099     9.6477
  499.0000   111.8424    10.0100     9.6820
  499.1000   111.8400    10.0102     9.6815
  499.2000   111.8376    10.0103     9.6809
  499.3000   111.8352    10.0104     9.6804
  499.4000   111.8243    10.0106     9.6798
  499.5000   111.5269     9.9762     9.6793
  499.6000   111.5248     9.9408     9.6787
  499.7000   111.3666     9.9409     9.6782
  499.8000   111.1131     9.9411     9.6777
  499.9000   111.0672     9.9412     9.6771
  500.0000   111.8182     9.9413     9.6918
  500.1000   113.0714     9.9281     9.7103
  500.2000   113.9260     9.9059     9.7289
  500.3000   114.8242     9.8837     9.7439
  500.4000   115.7309     9.8615     9.6755
  500.5000   116.4819     9.8393     9.6752
  500.6000   117.2581     9.8171     9.6315
  500.7000   117.7410     9.7949     9.6070
  500.8000   118.0501     9.7727     9.6068
  500.9000   118.1600     9.7505     9.5977
  501.0000   118.0707     9.7367     9.5391
  501.1000   117.8172     9.7272     9.5388
  501.2000   117.5465     9.6691     9.5386
  501.3000   117.0759     9.6694     9.5383
  501.4000   116.7535     9.6697     9.5195
  501.5000   116.5000     9.6699     9.4640
  501.6000   116.3249     9.6296     9.4046
  501.7000   116.3224     9.5267     9.4043
  501.8000   116.3198     9.4691     9.3650
  501.9000   117.2204     9.4693     9.3381
  502.0000   117.7010     9.4696     9.3378
  502.1000   118.1934     9.4395     9.3322
  502.2000   118.8045     9.4038     9.2720
  502.3000   119.0353     9.4041     9.2718
  502.4000   119.0324     9.4044     9.2715
  502.5000   119.2474     9.3018     9.2712
  502.6000   119.4961     9.2337     9.2414
  502.7000   119.6315     9.2090     9.1416
  502.8000   119.6905     9.1914     9.1413
  502.9000   119.9298     9.1450     9.0952
  503.0000   119.9269     9.1453     9.0769
  503.1000   119.9249     9.0962     9.0767
  503.2000   119.7656     9.0435     9.0764
  503.3000   119.6170     8.9911     9.0739
  503.4000   119.5616     8.9556     9.0124
  503.5000   119.3091     8.9498     9.0122
  503.6000   119.3067     8.8934     8.9790
  503.7000   119.1040     8.8936     8.9267
  503.8000   118.9988     8.8939     8.8746
  503.9000   118.9964     8.8679     8.8235
  504.0000   118.9939     8.8164     8.8232
  504.1000   118.9914     8.7705     8.8230
  504.2000   118.9891     8.7708     8.8228
  504.3000   119.1784     8.7251     8.8023
  504.4000   119.5669     8.7099     8.7606
  504.5000   119.9788     8.7101     8.7604
  504.6000   120.1919     8.7103     8.7102
  504.7000   120.1889     8.7062     8.6594
  504.8000   120.6570     8.6499     8.6376
  504.9000   120.9735     8.6501     8.6190
  505.0000   121.2222     8.6160     8.5767
  505.1000   121.3915     8.5661     8.5765
  505.2000   121.3891     8.5301     8.5763
  505.3000   121.3864     8.5304     8.5388
  505.4000   121.3842     8.5306     8.5158
  505.5000   121.3818     8.4876     8.4824
  505.6000   121.2566     8.4714     8.3967
  505.7000   121.0739     8.4716     8.3965
  505.8000   121.0715     8.4718     8.3512
  505.9000   121.0688     8.4692     8.3373
  506.0000   121.0667     8.4130     8.3122
  506.1000   120.8980     8.4132     8.2786
  506.2000   120.6445     8.4135     8.2734
  506.3000   120.3909     8.3698     8.2202
  506.4000   120.1479     8.2965     8.1773
  506.5000   120.1451     8.2946     8.1296
  506.6000   119.7235     8.2390     8.1051
  506.7000   119.2189     8.2392     8.0917
  506.8000   118.8202     8.2394     8.0479
  506.9000   118.5127     8.2187     8.0477
  507.0000   118.0101     8.1711     7.9668
  507.1000   117.7062     8.1237     7.9352
  507.2000   117.7042     8.0685     7.9139
  507.3000   117.7018     8.0299     7.8792
  507.4000   117.7968     8.0124     7.8790
  507.5000   118.0454     7.9930     7.8788
  507.6000   118.3005     7.9467     7.8403
  507.7000   118.5428     7.8999     7.8233
  507.8000   118.7915     7.7913     7.7844
  507.9000   118.8994     7.7915     7.7139
  508.0000   119.0748     7.7641     7.7129
  508.1000   119.5746     7.7101     7.6595
  508.2000   120.1041     7.6432     7.6233
  508.3000   120.3380     7.5764     7.5789
  508.4000   120.9552     7.5325     7.5174
  508.5000   121.8384     7.4889     7.4384
  508.6000   122.5992     7.4198     7.3945
  508.7000   122.8479     7.3673     7.3520
  508.8000   123.1198     7.3594     7.2761
  508.9000   123.1176     7.3162     7.2399
  509.0000   122.7636     7.2327     7.2242
  509.1000   122.3828     7.1816     7.1889
  509.2000   121.9855     7.1642     7.1887
  509.3000   121.2498     7.1644     7.1089
  509.4000   120.6809     7.1573     7.0572
  509.5000   120.2404     7.1146     7.0384
  509.6000   119.5684     7.1148     7.0243
  509.7000   118.9280     7.1150     6.9888
  509.8000   118.1695     7.1152     6.9886
  509.9000   116.6721     7.1154     6.9884
  510.0000   115.2117     7.1156     6.9882
  510.1000   113.9456     7.1158     6.9880
  510.2000   112.2777     7.1160     6.9878
  510.3000   110.7311     7.1162     6.9876
  510.4000   109.5830     7.1164     6.9874
  510.5000   108.8241     7.1166     6.9872
  510.6000   107.6213     7.1168     6.9870
  510.7000   106.8105     7.1170     6.9868
  510.8000   105.5032     7.1566     6.9924
  510.9000   103.9942     7.1676     7.0126
  511.0000   102.3921     7.1678     7.0354
  511.1000   100.3369     7.1680     7.0352
  511.2000    98.6148     7.1682     7.0350
  511.3000    98.0171     7.1684     7.0348
  511.4000    97.9054     7.1686     7.0451
  511.5000    97.9929     7.1688     7.0880
  511.6000    98.3556     7.1690     7.1838
  511.7000    99.4132     7.1826     7.2190
  511.8000   101.3081     7.2249     7.2340
  511.9000   103.3147     7.2711     7.2703
  512.0000   104.7880     7.3102     7.3552
  512.1000   105.8715     7.3533     7.4401
  512.2000   107.1837     7.3746     7.4913
  512.3000   109.0955     7.3880     7.5626
  512.4000   111.6083     7.4360     7.6237
  512.5000   113.8381     7.5323     7.6861
  512.6000   115.5950     7.5722     7.7758
  512.7000   117.0994     7.6168     7.8673
  512.8000   118.5617     7.6839     7.9126
  512.9000   119.6870     7.7610     7.9951
  513.0000   120.3455     7.8149     8.0611
  513.1000   120.7599     7.9691     8.1435
  513.2000   120.8921     8.0107     8.2702
  513.3000   120.8897     8.0902     8.3200
  513.4000   120.8873     8.1855     8.4135
  513.5000   120.8845     8.2953     8.5118
