~VERSION INFORMATION
 VERS.                2.0:   CWLS LOG ASCII STANDARD - VERSION 2.0
 WRAP.                 NO:   ONE LINE PER DEPTH STEP
~WELL INFORMATION
#MNEM.UNIT      DATA TYPE    INFORMATION
#----------   ------------   ------------------------------
 STRT.F           89.0000:   START DEPTH
 STOP.F         1360.0000:   STOP DEPTH
 STEP.F            0.5000:   STEP LENGTH
 NULL.          -999.2500:   NO VALUE
 COMP.           U S NAVY:   COMPANY
 WELL.     NPR 3 #85 S-11:   WELL
 FLD .             TEAPOT:   FIELD
 LOC .      S11 T38N R78W:   LOCATION
 CNTY.            NATRONA:   COUNTY
 STAT.            WYOMING:   STATE
 CTRY. UNITED STATES OF AMERICA:   COUNTRY
 SRVC.       Schlumberger:   SERVICE COMPANY
 DATE.        15-AUG-1966:   LOGDATE
 API .       490250959000:   API NUMBER
~CURVE INFORMATION
#MNEM.UNIT       API CODE    CURVE DESCRIPTION
#----------   ------------   ------------------------------
 DEPT.F                  :   
 SPR .MV     05 010 01 00:   SPONTANEOUS POTENTIAL FROM RES.
 CILD.MMHO   05 110 46 00:   CONDUCTIVITY INDUCTION LOG DEEP
 ASN .OHMM   05 041 16 00:   AMPLIFIED SHORT NORMAL 16"
 ILD .OHMM   05 120 46 00:   INDUCTION LOG DEEP
 GR  .GAPI   30 310 01 00:   GAMMA RAY
~PARAMETER INFORMATION
#MNEM.UNIT          VALUE    DESCRIPTION
#----------   ------------   ------------------------------
 PD  .                 GL:   PERMANENT DATUM
 EPD .F              5288:   ELEVATION PERMANENT DATUM
 LMF .                 KB:   LOG MEASURED FROM
 DAPD.F                 5:   FEET ABOVE PERMANENT DATUM
 DMF .                 KB:   DRILLING MEASURED FROM
 EKB .F            5286.9:   KELLING BUSHING
 EGL .F            5281.9:   GROUND LEVEL
 DATE.        15-AUG-1966:   RUN DATE
 RUN .                  1:   RUN NUMBER
 DD  .F              1360:   DEPTH DRILLER
 DL  .F              1361:   DEPTH LOGGER
 BLI .F              1360:   BOTTOM LOG INTERVAL
 TLI .F                88:   TOP LOG INTERVAL
 CS  .IN            8.625:   CASING SIZE
 CBD .F                12:   CASING BOTTOM DRILLER
 BS  .IN            7.875:   BIT SIZE
 BSD .F              1360:   BIT SIZE AT DEPTH
 DFT .          CHEM- GEL:   DRILLING FLUID TYPE
 DFD .                9.6:   DRILLING FLUID DENSITY
 DFV .                 60:   DRILLING FLUID VISCOSITY
 DFPH.                7.2:   DRILLING FLUID PH
 DFL .                6.4:   DRILLING FLUID LOSS
 MSS .         CIRCULATED:   MUD SAMPLE SOURCE
 RMS .OHMM           1.41:   RESISTIVITY MUD SAMPLE
 MST .F                72:   MUD SAMPLE TEMPERATURE
 RMF .OHMM           0.75:   RESISTIVITY MUD FILTRATE SAMPLE
 MFST.F                73:   MUD FILTRATE SAMPLE TEMPERATURE
 MFSS.               MEAS:   MUD FILTRATE SAMPLE SOURCE
 TCS .HRS             2.5:   TIME CURCULATED STOPPED
 LUN .               3527:   LOGGING UNIT NUMBER
 LUL .              CSPR.:   LOGGING UNIT LOCATION
 ENGI.               HAUG:   RECORDING ENGINEER
 WITN.             TUTTLE:   WITNESSED BY
 CLNT.            A2DTECH:   CLIENT CODE
 ORIG.       2", 5" PRINT:   ORIGIN OF DATA
 UWI .       490250959000:   UNIQUE WELL ID
 DICO. A2D Technologies, Inc.:   DIGITIZING COMPANY
~OTHER INFORMATION
~A   DEPT      SPR       CILD          ASN        ILD       GR   
# ...
 1004.0000   -33.4458   115.2171    12.3910     7.9400    84.5779
 1004.5000   -33.7568   113.7614    12.3891     8.0088    81.4187
 1005.0000   -34.0678   113.0597    12.2243     8.0803    80.3992
 1005.5000   -34.2270   115.3369    11.7835     7.9985    84.5404
 1006.0000   -34.0828   118.3588    11.4057     7.9180    81.5385
 1006.5000   -34.0903   121.3808    11.1031     7.7622    76.1624
 1007.0000   -34.0978   125.1740    10.8757     7.4558    75.5097
 1007.5000   -34.2570   126.6791    10.7235     7.4506    73.4662
 1008.0000   -34.1109   127.4627    10.6465     7.3701    73.1493
 1008.5000   -34.1203   128.3828    10.6446     7.3650    75.9201
 1009.0000   -34.1278   129.7832    10.5676     7.3598    82.2501
 1009.5000   -34.2118   131.3126    10.6409     7.3546    80.4188
 1010.0000   -34.2227   132.0957    10.5639     7.2741    74.1978
 1010.5000   -34.0803   132.1325    10.5621     7.2688    71.9857
 1011.0000   -34.0892   131.4231    10.5726     7.2635    79.5223
 1011.5000   -34.2494   129.9675    10.6336     7.2572    79.9849
 1012.0000   -34.1070   129.2488    10.7816     7.2521    77.9239
 1012.5000   -33.9646   127.8023    10.7798     7.2469    78.3865
 1013.0000   -33.9735   127.8392    10.8532     7.2417    79.0002
 1013.5000   -33.8289   128.6223    10.8513     7.3131    80.4038
 1014.0000   -33.8401   128.6592    10.8495     7.3819    84.3278
 1014.5000   -33.8490   129.4423    10.8476     7.3014    82.8962
 1015.0000   -33.8579   130.2254    10.6202     7.2210    75.3315
 1015.5000   -33.7155   132.5011    10.3928     7.1405    74.2207
 1016.0000   -33.5731   132.5379    10.2406     7.0600    77.9812
 1016.5000   -33.5842   134.0673    10.1636     6.9795    74.1926
 1017.0000   -33.4396   135.5970    10.1616     6.8990    74.0228
 1017.5000   -33.2973   137.1892    10.1594     6.8185    72.5942
 1018.0000   -33.0036   138.6567    10.1576     6.7379    69.5954
 1018.5000   -32.8634   139.5772    10.1557     6.7327    78.8627
 1019.0000   -32.8723   141.7235    10.0787     6.7264    77.7520
 1019.5000   -33.0325   141.7603     9.9650     6.5706    81.1978
 1020.0000   -33.1927   142.5434     9.9097     6.5654    87.3245
 1020.5000   -33.2016   142.5803     9.7886     6.4096    81.7441
 1021.0000   -33.0590   143.3634     9.6826     6.4044    78.0145
 1021.5000   -33.0682   144.1465     9.6668     6.3992    85.1739
 1022.0000   -33.0832   144.9297     9.6510     6.3941    80.7334
 1022.5000   -33.2375   146.4591     9.6202     6.3136    80.1797
 1023.0000   -33.0949   147.9885     9.5894     6.3084    79.2201
 1023.5000   -32.9525   149.5179     9.5586     6.3032    72.9141
 1024.0000   -32.6611   151.0472     9.4977     6.2980    71.8034
 1024.5000   -32.6700   152.5766     9.3917     6.2928    75.2492
 1025.0000   -32.6789   152.6135     9.3007     6.2123    79.9599
 1025.5000   -32.6878   152.6503     9.2398     6.2071    77.9020
 1026.0000   -32.5432   151.1940     9.2391     6.2018    83.0785
 1026.5000   -32.5543   150.4851     9.2684     6.1955    85.1114
 1027.0000   -32.4097   148.2833     9.3579     6.1903    88.0914
 1027.5000   -32.4208   147.5126     9.4173     6.1851    84.3028
 1028.0000   -32.4297   146.1182     9.4316     6.1799    86.9619
 1028.5000   -32.4387   145.4088     9.4308     6.1748    87.5819
 1029.0000   -32.4478   147.6936     9.4150     6.1696    78.9127
 1029.5000   -32.4587   151.4618     9.4143     6.2397    77.0122
 1030.0000   -32.4676   155.9763     9.3985     6.0086    78.8877
 1030.5000   -32.4765   160.1674     9.2226     5.9281    84.3820
 1031.0000   -32.4854   164.7382     8.7635     5.6970    82.1699
 1031.5000   -32.4943   169.3091     8.4487     5.3906    85.4615
 1032.0000   -32.5032   175.5298     8.2675     5.3855    82.6138
 1032.5000   -32.3608   178.5517     8.0563     5.3803    80.0839
 1033.0000   -32.0672   178.5885     8.0104     5.3750    82.2772
 1033.5000   -31.9226   177.1329     8.0548     5.3697    78.0135
 1034.0000   -31.9337   174.1846     8.3247     5.3634    85.0812
 1034.5000   -31.9426   169.7439     8.4142     5.4348    83.0233
 1035.0000   -31.9516   166.7864     8.4437     5.5790    84.2695
 1035.5000   -31.9607   163.8474     8.4728     5.6504    82.2116
 1036.0000   -31.8180   162.3825     8.5172     5.7205    78.4230
 1036.5000   -31.6757   160.9268     8.5766     5.7140    79.5118
 1037.0000   -31.9894   160.9729     8.6511     5.7088    82.9608
 1037.5000   -32.1496   161.0098     8.7405     5.7802    92.2312
 1038.0000   -32.0050   161.0466     8.7851     5.7738    86.6659
 1038.5000   -32.0161   161.0835     8.7541     5.7686    83.2379
 1039.0000   -32.0250   161.8666     8.6932     5.7634    85.6359
 1039.5000   -31.8826   164.1423     8.6173     5.7582    87.3037
 1040.0000   -31.8915   164.1791     8.5564     5.7530    84.3018
 1040.5000   -31.7489   164.9627     8.4804     5.7477    87.5357
 1041.0000   -31.7580   164.2528     8.4195     5.7424    86.0760
 1041.5000   -31.6157   164.2910     8.4038     5.7362    85.6803
 1042.0000   -31.6248   163.5802     8.4338     5.7310    89.5981
 1042.5000   -31.6339   162.8708     8.4950     5.7258    93.8337
 1043.0000   -31.4911   162.9169     8.5724     5.7206    89.4158
 1043.5000   -31.5022   162.9538     8.6937     5.7154    83.7391
 1044.0000   -31.5111   161.4888     8.8510     5.7102    87.5058
 1044.5000   -31.3665   161.5349     8.7299     5.7051    85.4448
 1045.0000   -31.5290   161.5718     8.5187     5.7765    85.2750
 1045.5000   -31.8404   161.6086     8.3527     5.7700    84.7936
 1046.0000   -31.8493   161.6455     8.4871     5.8414    91.8581
 1046.5000   -31.5557   161.6823     8.6367     5.8349    99.0832
 1047.0000   -31.5646   161.7192     8.7264     5.8297    94.5079
 1047.5000   -31.2708   161.7560     8.5450     5.8245   100.1595
 1048.0000   -31.4312   160.9798     8.5292     5.8193    96.6856
 1048.5000   -31.4402   161.7903     8.5285     5.8140    89.2782
 1049.0000   -31.2976   161.8417     8.4977     5.8087    83.6016
 1049.5000   -31.1553   163.3857     8.4668     5.8025    81.2290
 1050.0000   -31.0129   164.1834     8.4060     5.7973    76.8336
 1050.5000   -30.7192   164.9811     8.3601     5.7921    74.2833
 1051.0000   -30.6614   166.5250     8.2992     5.7117    80.8758
 1051.5000   -30.5911   168.0690     8.2834     5.7065    82.1252
 1052.0000   -31.2093   170.3592     8.1924     5.5507    83.6829
 1052.5000   -31.2198   172.6495     8.1015     5.3949    83.3589
 1053.0000   -31.0763   177.2487     7.9654     5.2391    83.6611
 1053.5000   -31.0894   184.1943     7.8049     4.9328    79.4005
 1054.0000   -31.0998   192.4668     7.5716     4.7770    85.0490
 1054.5000   -31.1103   201.9725     7.3151     4.6212    83.4632
 1055.0000   -31.1207   210.2329     7.0586     4.5381    82.3493
 1055.5000   -30.9773   214.7619     6.6968     4.4601    80.4488
 1056.0000   -30.8391   215.5596     6.4252     4.4548    71.7828
 1056.5000   -30.8495   216.3573     6.3040     4.4486    68.3089
 1057.0000   -30.7087   214.9162     6.3332     4.5940    73.6459
 1057.5000   -30.7191   213.4622     6.4827     4.7394    71.1160
 1058.0000   -30.7296   209.7952     7.0081     4.8108    72.8342
 1058.5000   -30.7400   203.1302     7.2635     4.9550    76.5978
 1059.0000   -30.7505   197.2114     7.3384     4.9498    73.2812
 1059.5000   -30.7610   189.8002     7.3513     4.9446    72.1470
 1060.0000   -30.7716   184.6277     7.3652     5.0147    82.2245
 1060.5000   -30.7821   181.6941     7.4997     5.0095    82.8571
 1061.0000   -30.6410   181.7463     7.6191     5.1552    85.3463
 1061.5000   -30.6541   181.0507     7.6635     5.2252    84.3579
 1062.0000   -30.3593   181.1045     7.6474     5.2952    82.8772
 1062.5000   -30.2185   180.4072     7.6164     5.2899    80.5092
 1063.0000   -30.2316   178.9661     7.6155     5.2846    75.2236
 1063.5000   -30.2420   178.2713     7.6147     5.2031    76.4699
 1064.0000   -30.2525   181.3206     7.6138     5.0473    82.2789
 1064.5000   -30.2629   184.3571     7.6129     4.9668    83.0531
