~VERSION INFORMATION
 VERS.                2.0:   CWLS LOG ASCII STANDARD - VERSION 2.0
 WRAP.                 NO:   ONE LINE PER DEPTH STEP
~WELL INFORMATION
#MNEM.UNIT      DATA TYPE    INFORMATION
#----------   ------------   ------------------------------
 STRT.F           32.0000:   START DEPTH
 STOP.F          697.0000:   STOP DEPTH
 STEP.F            0.5000:   STEP LENGTH
 NULL.          -999.2500:   NO VALUE
 COMP.    FENIX & SCISSON:   COMPANY
 WELL.      NPR-3 #81S3-3:   WELL
 FLD .        TEAPOT DOME:   FIELD
 LOC .       S3 T38N R78W:   LOCATION
 CNTY.            NATRONA:   COUNTY
 STAT.            WYOMING:   STATE
 CTRY. UNITED STATES OF AMERICA:   COUNTRY
 SRVC.           BIRDWELL:   SERVICE COMPANY
 DATE.        11-JAN-1978:   LOGDATE
 API .       490251055400:   API NUMBER
~CURVE INFORMATION
#MNEM.UNIT       API CODE    CURVE DESCRIPTION
#----------   ------------   ------------------------------
 DEPT.F                  :   
 ILD .OHMM   05 120 46 00:   INDUCTION LOG DEEP
 SN  .OHMM   05 040 16 00:   SHORT NORMAL 16"
 SPR .MV     05 010 01 00:   SPONTANEOUS POTENTIAL FROM RES.
 CALD.IN     45 280 60 00:   CALIPER FROM DENSITY LOG
 DPHI.DEC    45 890 12 00:   DENSITY POROSITY SANDSTONE
 DRHO.G/C3   45 356 01 00:   DENSITY CORRECTION
 GRD .GAPI   45 310 01 00:   GAMMA RAY FROM DENSITY LOG
 RHOB.G/C3   45 350 01 00:   BULK DENSITY
~PARAMETER INFORMATION
#MNEM.UNIT          VALUE    DESCRIPTION
#----------   ------------   ------------------------------
 PD  .                 GL:   PERMANENT DATUM
 EPD .F              5119:   ELEVATION PERMANENT DATUM
 LMF .                 KB:   LOG MEASURED FROM
 DAPD.F                 4:   FEET ABOVE PERMANENT DATUM
 DMF .                 KB:   DRILLING MEASURED FROM
 EKB .F              5123:   KELLING BUSHING
 EGL .F              5119:   GROUND LEVEL
 DATE.        11-JAN-1978:   RUN DATE
 RUN .                  1:   RUN NUMBER
 DD  .F               695:   DEPTH DRILLER
 DL  .F               704:   DEPTH LOGGER
 BLI .F               697:   BOTTOM LOG INTERVAL
 TLI .F                40:   TOP LOG INTERVAL
 CS  .IN            8.625:   CASING SIZE
 CBD .F                40:   CASING BOTTOM DRILLER
 CBL .F                40:   CASING BOTTOM LOGGER
 BS  .IN            7.875:   BIT SIZE
 BSD .F               695:   BIT SIZE AT DEPTH
 DFT .                KCL:   DRILLING FLUID TYPE
 DFD .                8.6:   DRILLING FLUID DENSITY
 DFV .                 31:   DRILLING FLUID VISCOSITY
 DFPH.                9.5:   DRILLING FLUID PH
 DFL .                7.6:   DRILLING FLUID LOSS
 MSS .           FLOWLINE:   MUD SAMPLE SOURCE
 RMS .OHMM           0.32:   RESISTIVITY MUD SAMPLE
 MST .F                62:   MUD SAMPLE TEMPERATURE
 RMF .OHMM           0.32:   RESISTIVITY MUD FILTRATE SAMPLE
 MFST.F                62:   MUD FILTRATE SAMPLE TEMPERATURE
 RMC .OHMM            0.8:   RESISTIVITY MUD CAKE
 MCST.F                63:   MUD CAKE SAMPLE TEMPERATURE
 MFSS.               MEAS:   MUD FILTRATE SAMPLE SOURCE
 MCSS.               MEAS:   MUD CAKE SAMPLE SOURCE
 TCS .HRS               2:   TIME CURCULATED STOPPED
 LUN .               2958:   LOGGING UNIT NUMBER
 LUL .             CASPER:   LOGGING UNIT LOCATION
 ENGI.           REYNOLDS:   RECORDING ENGINEER
 WITN.         HARRINGTON:   WITNESSED BY
 CLNT.            A2DTECH:   CLIENT CODE
 ORIG.           5" PRINT:   ORIGIN OF DATA
 UWI .       490251055400:   UNIQUE WELL ID
 DICO. A2D Technologies, Inc.:   DIGITIZING COMPANY
~OTHER INFORMATION
~A   DEPT      ILD         SN        SPR       CALD       DPHI       DRHO         GRD      RHOB   
# ...
  437.0000    10.2034    11.0721   -39.6679     8.5709     0.0760     0.0913    99.2101     2.5191
  437.5000    10.5664    11.2177   -39.8138     8.5715     0.0672     0.0808   100.2484     2.5289
  438.0000    10.7915    11.3760   -39.9586     8.5870     0.0615     0.0779    99.9326     2.5365
  438.5000    10.9453    11.4566   -39.8038     8.5875     0.0729     0.0884    98.4482     2.5252
  439.0000    11.0245    11.4582   -39.6501     8.6030     0.0811     0.1005    97.7089     2.5102
  439.5000    11.0275    11.4598   -39.3471     8.6334     0.0850     0.1036    99.3542     2.4915
  440.0000    11.1073    11.4613   -39.1934     8.6637     0.0846     0.1051   101.1484     2.4866
  440.5000    11.1877    11.4496   -39.6367     8.7090     0.0822     0.1052   103.0917     2.4991
  441.0000    11.1908    11.4126   -40.2293     8.7542     0.0803     0.1052   101.9054     2.5104
  441.5000    11.1939    11.3756   -40.3741     8.7697     0.0779     0.1052    99.0782     2.5141
  442.0000    11.1970    11.3387   -40.3697     8.7851     0.0749     0.1053   101.7681     2.5164
  442.5000    11.2001    11.3017   -40.5145     8.8006     0.0776     0.1053   107.7353     2.5172
  443.0000    11.2038    11.2647   -41.1070     8.8012     0.0740     0.1039   110.1257     2.5195
  443.5000    11.0526    11.2363   -41.2530     8.8018     0.0701     0.0964   108.9393     2.5255
  444.0000    10.7531    11.1603   -41.3978     8.7873     0.0689     0.0844   105.3684     2.5346
  444.5000    10.3895    11.0083   -41.6918     8.7583     0.0818     0.0800   105.3743     2.5414
  445.0000    10.1080    10.8584   -41.6863     8.7440     0.0773     0.0800   105.3802     2.5364
  445.5000    10.1108    10.6342   -41.6818     8.7297     0.0751     0.0801   102.5545     2.5156
  446.0000     9.8368    10.4146   -42.1262     8.7155     0.0848     0.0801    99.2817     2.5039
  446.5000     8.8061    10.1995   -42.2699     8.7161     0.0935     0.0786    99.8867     2.5012
  447.0000     8.1615     9.9200   -43.0118     8.7018     0.0989     0.0757   103.2400     2.4805
  447.5000     8.1637     9.6481   -42.5596     8.7025     0.0965     0.0757   110.2236     2.4687
  448.0000     8.1660     9.3968   -41.8088     8.7031     0.0946     0.0833   117.3204     2.4822
  448.5000     8.1682     9.2049   -41.6551     8.6888     0.0928     0.0893   113.4706     2.4905
  449.0000     8.1705     9.3994   -41.6507     8.6745     0.0940     0.0924   110.4959     2.4936
  449.5000     8.1727     9.9362   -41.6462     8.6602     0.0958     0.0970   108.1158     2.4883
  450.0000     8.1750    10.0762   -41.6418     8.6608     0.0907     0.0985   112.1470     2.4914
  450.5000     8.1772    10.0080   -41.1856     8.6465     0.0876     0.0985   112.0024     2.4936
  451.0000     8.1795     9.8717   -40.8866     8.6471     0.0888     0.1016   112.6059     2.4944
  451.5000     8.2387     9.6701   -41.1807     8.6477     0.0918     0.1046   114.4002     2.4952
  452.0000     8.2409     9.3422   -41.3255     8.6483     0.0936     0.0972   115.0007     2.4922
  452.5000     8.2432     9.2150   -41.5099     8.6489     0.0948     0.0762   110.0901     2.4885
  453.0000     8.3028     9.2163   -41.7644     8.6345     0.0824     0.0702   109.0527     2.4976
  453.5000     8.3629     9.1536   -41.7597     8.6352     0.0706     0.0672   108.9081     2.5201
  454.0000     8.4821     9.1552   -41.7544     8.9975     0.0711     0.0628   109.6606     2.5254
  454.5000     8.7231     9.6780   -41.9003     8.7665     0.0734     0.0716   112.6472     2.5232
  455.0000     9.0334    10.0900   -41.7455     8.7598     0.0836     0.0776   113.8453     2.5104
  455.5000     9.2280    10.2321   -41.7410     8.7532     0.0875     0.0866   113.7022     2.4953
  456.0000     9.1574    10.1629   -41.5873     8.7465     0.0890     0.0942   113.3912     2.4924
  456.5000     8.7252    10.1674   -41.4336     8.7398     0.0858     0.1017   114.5890     2.4949
  457.0000     8.4882    10.1759   -41.2799     8.7331     0.0770     0.1047   114.1464     2.5063
  457.5000     8.3147    10.1844   -41.1262     8.7269     0.0788     0.1077   107.5934     2.5122
  458.0000     8.3168    10.1915   -40.8232     8.7275     0.0779     0.1032   101.3386     2.5143
  458.5000     8.3186    10.1943   -40.6695     8.7129     0.0616     0.0806   101.9391     2.5203
  459.0000     8.3782    10.1971   -40.2173     8.7135     0.0586     0.0625   102.3907     2.5496
  459.5000     8.5561    10.2707   -39.8573     8.7139     0.0604     0.0537   102.8422     2.5519
  460.0000     8.7378    10.3449   -40.0010     8.7107     0.0628     0.0552   103.2937     2.5354
  460.5000     9.0479    10.4921   -40.1410     8.7052     0.0643     0.0570   101.6588     2.5347
  461.0000     9.3691    10.7897   -41.0292     8.6997     0.0661     0.0582   100.6201     2.5287
  461.5000     9.7692    11.1729   -41.1729     8.6943     0.0646     0.0582   100.4754     2.5197
  462.0000    10.1864    11.4899   -40.5666     8.6888     0.0625     0.0583   100.0328     2.5265
  462.5000    10.4751    11.7343   -40.2626     8.6867     0.0619     0.0583   100.0373     2.5302
  463.0000    10.8470    11.9840   -40.5537     8.6873     0.0619     0.0583    98.5356     2.5303
  463.5000    11.2321    12.0705   -40.0967     8.6877     0.0619     0.0583    97.6616     2.5303
  464.0000    11.3913    12.2422   -39.6416     8.6732     0.0622     0.0598    98.1133     2.5303
  464.5000    11.3881    12.3307   -40.5297     8.6737     0.0640     0.0628    98.4157     2.5318
  465.0000    11.3830    12.4198   -40.6716     8.6742     0.0673     0.0659    97.7844     2.5334
  465.5000    11.3780    12.4232   -40.9642     8.6746     0.0712     0.0689    95.0566     2.5236
  466.0000    11.3729    12.4266   -41.2538     8.6601     0.0782     0.0719    91.0710     2.5229
  466.5000    11.3679    12.4301   -41.3957     8.6307     0.0808     0.0719    90.2367     2.5244
  467.0000    11.3628    12.4335   -41.5376     8.6163     0.0805     0.0734    91.5836     2.5267
  467.5000    11.3578    12.4370   -41.5299     8.6168     0.0796     0.0750    91.7370     2.5267
  468.0000    11.3527    12.4411   -41.5210     8.6173     0.0787     0.0780    91.2944     2.5230
  468.5000    11.3477    12.4445   -41.6647     8.6169     0.0799     0.0810    90.4046     2.5140
  469.0000    11.3426    12.4479   -41.8065     8.6161     0.0844     0.0855    90.1099     2.5050
  469.5000    11.3382    12.4513   -41.9484     8.6154     0.0862     0.0916    90.5625     2.5013
  470.0000    11.6601    12.4547   -41.6407     8.6146     0.0889     0.1111    91.7592     2.4945
  470.5000    11.9906    12.4581   -41.0363     8.6138     0.0987     0.1412    94.8933     2.4832
  471.0000    12.3304    12.4615   -40.1334     8.6131     0.1026     0.1729    96.3881     2.4726
  471.5000    12.6799    12.5516   -39.6782     8.6123     0.0901     0.1849    91.6235     2.4771
  472.0000    12.9491    12.6423   -39.5216     8.6116     0.0865     0.1940    89.2435     2.4934
  472.5000    12.7734    12.6457   -39.5142     8.6108     0.0859     0.2001    88.2047     2.5016
  473.0000    12.0029    12.5610   -39.5075     8.6101     0.0910     0.2077    87.0169     2.4962
  473.5000    10.2126    12.2221   -39.6506     8.6093     0.0968     0.2165    87.3194     2.4827
  474.0000     8.4303    11.4867   -39.6413     8.6086     0.1053     0.2240    89.2612     2.4669
  474.5000     8.4325    10.7956   -39.4847     8.6082     0.1157     0.2316    92.0973     2.4504
  475.0000     8.4339    10.0761   -39.3280     8.5937     0.1224     0.2346    96.7217     2.4399
  475.5000     8.4947     9.6686   -39.1714     8.5645     0.1217     0.2286   108.2015     2.4399
  476.0000     8.6151     9.6045   -39.0148     8.6393     0.1096     0.2316   111.6337     2.4602
  476.5000     8.6768     9.7411   -38.7089     8.6843     0.0554     0.2361   108.5085     2.5421
  477.0000     8.9848    10.4440   -38.4030     8.6550     0.0530     0.2377    97.6541     2.5564
