~VERSION INFORMATION
 VERS.                2.0:   CWLS LOG ASCII STANDARD - VERSION 2.0
 WRAP.                 NO:   ONE LINE PER DEPTH STEP
~WELL INFORMATION
#MNEM.UNIT      DATA TYPE    INFORMATION
#----------   ------------   ------------------------------
 STRT.F            8.0000:   START DEPTH
 STOP.F          916.0000:   STOP DEPTH
 STEP.F            0.5000:   STEP LENGTH
 NULL.          -999.2500:   NO VALUE
 COMP. LAWRENCE/ALLISON INC:   COMPANY
 WELL.    41-66 SX #11-11:   WELL
 FLD .             NPR #3:   FIELD
 LOC .      S11 T38N R78W:   LOCATION
 CNTY.            NATRONA:   COUNTY
 STAT.            WYOMING:   STATE
 CTRY. UNITED STATES OF AMERICA:   COUNTRY
 SRVC.           Gearhart:   SERVICE COMPANY
 DATE.        13-MAY-1987:   LOGDATE
 API .       490251112600:   API NUMBER
~CURVE INFORMATION
#MNEM.UNIT       API CODE    CURVE DESCRIPTION
#----------   ------------   ------------------------------
 DEPT.F                  :   
 GRR .GAPI   07 310 01 00:   GAMMA RAY FROM RES. LOG.
 RILM.OHMM   07 120 44 00:   INDUCTION LOG MEDIUM RESISTIVITY
 RILD.OHMM   07 120 46 00:   INDUCTION LOG DEEP RESISTIVITY
~PARAMETER INFORMATION
#MNEM.UNIT          VALUE    DESCRIPTION
#----------   ------------   ------------------------------
 PD  .                 GL:   PERMANENT DATUM
 EPD .F              5166:   ELEVATION PERMANENT DATUM
 LMF .                 KB:   LOG MEASURED FROM
 DAPD.F                 8:   FEET ABOVE PERMANENT DATUM
 DMF .                 KB:   DRILLING MEASURED FROM
 EKB .F              5174:   KELLING BUSHING
 EDF .F              5174:   DRILLING FLOOR
 EGL .F              5166:   GROUND LEVEL
 DATE.            5-13-87:   RUN DATE
 RUN .                  1:   RUN NUMBER
 DD  .F               945:   DEPTH DRILLER
 DL  .F               930:   DEPTH LOGGER
 BLI .F               921:   BOTTOM LOG INTERVAL
 TLI .F                49:   TOP LOG INTERVAL
 CS  .IN            8.625:   CASING SIZE
 CBD .F                47:   CASING BOTTOM DRILLER
 CBL .F                49:   CASING BOTTOM LOGGER
 BS  .IN            7.875:   BIT SIZE
 BSD .F               945:   BIT SIZE AT DEPTH
 DFT .           AIR FOAM:   DRILLING FLUID TYPE
 TCS .HRS            2230:   TIME CURCULATED STOPPED
 TLAB.HRS            1105:   TIME LOGGER AT BOTTOM
 MRT .F                80:   MAXIMUM RECORDED TEMPERATURE
 LUN .               7597:   LOGGING UNIT NUMBER
 LUL .                GLT:   LOGGING UNIT LOCATION
 ENGI.            WANGLER:   RECORDING ENGINEER
 WITN.             STRONG:   WITNESSED BY
 CLNT.            A2DTECH:   CLIENT CODE
 ORIG.       2", 5" PRINT:   ORIGIN OF DATA
 UWI .       490251112600:   UNIQUE WELL ID
 DICO. A2D Technologies, Inc.:   DIGITIZING COMPANY
~OTHER INFORMATION
~A    DEPT      GRR      RILM       RILD   
# ...
  281.0000    83.8027    10.9102    10.3748
  281.5000    82.0517    11.3000    10.4872
  282.0000    79.5139    11.7347     9.5726
  282.5000    76.8962    11.8460     8.7538
  283.0000    77.4768    11.2062     8.0089
  283.5000    79.9776     9.3997     7.3277
  284.0000    82.5180     7.8990     6.7045
  284.5000    85.0640     6.6399     6.2906
  285.0000    90.2398     5.5814     6.2907
  285.5000    96.2650     5.2065     6.2324
  286.0000    99.8505     5.2129     6.2361
  286.5000   101.2160     5.5099     6.2357
  287.0000    98.5827     5.9038     6.4147
  287.5000    94.0559     6.4299     6.8114
  288.0000    91.1312     7.2420     7.4007
  288.5000    90.2137     8.1567     8.0420
  289.0000    90.2244     8.8414     8.7436
  289.5000    89.7405     9.2811     9.4452
  290.0000    87.7290     9.7152     9.8735
  290.5000    85.7156    10.1696    10.3692
  291.0000    84.5012    10.6453    10.8896
  291.5000    86.0537    11.1432    11.3109
  292.0000    87.8455    11.5187    11.6727
  292.5000    89.5228    11.7776    12.0717
  293.0000    89.8150    12.0263    12.4004
  293.5000    88.9751    12.2786    12.7629
  294.0000    87.1271    12.5364    13.1359
  294.5000    85.1726    12.7996    13.2935
  295.0000    85.1653    13.0683    13.3941
  295.5000    85.7274    13.1859    13.4954
  296.0000    84.7241    13.2466    13.5975
  296.5000    83.7049    13.3075    13.7003
  297.0000    83.6786    13.3688    13.8039
  297.5000    85.6653    13.4303    13.9083
  298.0000    87.5067    13.4921    14.0135
  298.5000    89.0781    13.5527    14.1520
  299.0000    87.6049    13.7415    14.3024
  299.5000    85.8201    13.9330    14.4544
  300.0000    85.0952    14.1271    14.6080
  300.5000    88.4693    14.3239    14.7632
  301.0000    91.4051    14.5235    14.9201
  301.5000    93.3676    14.7258    15.0786
  302.0000    91.6478    14.9310    15.2388
  302.5000    90.1068    15.1390    15.4008
  303.0000    89.8659    15.3499    15.5644
  303.5000    90.1294    15.5638    15.7293
  304.0000    88.7840    15.7806    15.9109
  304.5000    85.6481    16.0005    16.1705
  305.0000    84.2808    16.2234    16.4355
  305.5000    83.2981    16.4495    16.7045
  306.0000    83.6690    16.8954    16.9778
  306.5000    84.0816    17.3910    17.4165
  307.0000    81.7059    17.9012    18.0329
  307.5000    76.7777    18.4263    18.6711
  308.0000    71.5852    18.9668    19.3320
  308.5000    68.5908    19.5232    19.8784
  309.0000    66.0670    19.8996    20.2542
  309.5000    66.0303    20.1790    20.6371
  310.0000    68.2432    20.4885    21.0273
  310.5000    72.1648    20.4547    21.4248
  311.0000    76.1169    21.4217    21.6704
  311.5000    77.7778    22.4350    21.4869
  312.0000    77.2191    23.4770    21.3057
  312.5000    75.8457    24.7457    21.1261
  313.0000    76.0098    24.7498    20.9479
  313.5000    77.5084    22.9328    20.6310
  314.0000    79.4789    21.8799    20.1729
  314.5000    82.2996    20.8400    19.5920
  315.0000    84.9137    19.8496    19.0279
  315.5000    85.5302    18.9062    18.4800
  316.0000    86.0820    18.2554    17.9479
  316.5000    86.7872    17.7297    17.5556
  317.0000    88.3108    17.5072    17.4053
  317.5000    88.9548    17.2428    17.2564
  318.0000    88.2374    16.9825    17.1162
  318.5000    87.3596    16.7946    16.9554
  319.0000    88.6165    16.8898    16.5948
  319.5000    90.2588    17.0295    16.0885
  320.0000    91.6351    17.1674    15.3342
  320.5000    91.4023    17.2785    13.9648
  321.0000    89.5324    16.4821    12.7177
  321.5000    87.6993    14.4933    11.5820
  322.0000    89.1581    12.3883    10.5477
  322.5000    97.0151    10.6035     9.6058
  323.0000   106.2223     9.0805     8.7480
  323.5000   114.6112     8.2623     7.9697
  324.0000   118.8209     7.8495     7.5677
  324.5000   119.1717     7.4573     7.1874
  325.0000   117.6702     7.0847     6.8262
  325.5000   114.6298     6.9177     6.6615
  326.0000   111.6364     6.9204     6.6615
  326.5000   109.0642     6.9373     6.6875
  327.0000   107.3582     6.9542     6.7565
  327.5000   107.3852     6.9711     6.8264
  328.0000   108.9864     6.9833     6.8966
  328.5000   110.6377     6.9099     6.9177
  329.0000   111.0013     6.8850     6.8660
  329.5000   110.7674     6.8602     6.7960
  330.0000   109.3216     6.8355     6.7267
  330.5000   108.5656     6.8108     6.6615
  331.0000   111.7751     6.7882     6.6898
  331.5000   117.1309     6.8296     6.7328
  332.0000   117.6007     6.9134     6.7761
  332.5000   115.5353     6.9982     6.8197
  333.0000   114.5596     7.0839     6.8635
  333.5000   115.4018     7.1707     6.9076
  334.0000   114.5988     7.1839     6.9520
  334.5000   111.9628     7.0600     6.9833
  335.0000   113.5312     7.0079     6.9047
  335.5000   115.5353     6.9561     6.8343
  336.0000   113.4986     6.9048     6.7646
  336.5000   109.7807     6.8538     6.6956
  337.0000   107.7130     6.8032     6.6272
  337.5000   106.6121     6.7530     6.5597
  338.0000   105.5714     6.7031     6.4755
  338.5000   104.8408     6.6615     6.5296
  339.0000   106.3969     6.7539     6.6032
  339.5000   108.2988     6.8347     6.6780
  340.0000   109.3986     6.9165     6.7535
  340.5000   108.0501     6.9992     6.8298
  341.0000   105.0136     7.0829     6.9070
  341.5000   102.1321     7.1676     6.9851
  342.0000   101.8183     7.2534     7.0640
  342.5000   104.6765     7.3401     7.1438
  343.0000   108.0164     7.4279     7.2245
  343.5000   110.7636     7.5168     7.3062
  344.0000   112.8714     7.6067     7.3888
  344.5000   113.8647     7.6977     7.4722
  345.0000   112.4355     7.7897     7.5567
  345.5000   110.6066     7.8829     7.6421
  346.0000   109.4681     7.9772     7.7286
  346.5000   111.4698     8.0726     7.8158
  347.0000   110.2848     8.1985     7.8948
  347.5000   105.8889     8.1369     7.8699
  348.0000   101.7594     8.0519     7.8474
  348.5000   101.5995     7.9675     7.8249
  349.0000   103.7179     7.8841     7.7495
  349.5000   104.9065     7.8016     7.6625
  350.0000   103.7347     7.7199     7.5766
  350.5000   102.1304     7.6391     7.4915
  351.0000   103.7847     7.5592     7.4075
  351.5000   107.6164     7.4801     7.3244
  352.0000   111.4401     7.4017     7.2422
  352.5000   113.4213     7.3243     7.1609
  353.0000   110.7067     7.2476     7.0806
  353.5000   106.9517     7.1839     6.9833
  354.0000   106.2066     7.2101     7.0046
  354.5000   109.2247     7.2328     7.0321
  355.0000   111.6867     7.2556     7.0597
  355.5000   112.4172     7.2785     7.0874
  356.0000   112.1150     7.3014     7.1152
  356.5000   111.2195     7.3244     7.1431
  357.0000   110.3718     7.3475     7.1712
  357.5000   107.8287     7.3706     7.1993
  358.0000   105.0921     7.3938     7.2276
  358.5000   102.7180     7.4171     7.2560
  359.0000   104.8051     7.4405     7.2845
  359.5000   106.7545     7.4639     7.3131
  360.0000   107.9124     7.4875     7.3418
  360.5000   106.7308     7.5110     7.3706
  361.0000   107.3145     7.5347     7.3995
  361.5000   108.3719     7.5584     7.4286
  362.0000   108.9096     7.5823     7.4577
  362.5000   107.6215     7.6061     7.4870
  363.0000   106.3594     7.6301     7.5164
  363.5000   105.9110     7.6541     7.5310
  364.0000   106.5303     7.6744     7.5310
  364.5000   107.1428     7.5270     7.3849
  365.0000   107.1229     7.4019     7.2884
  365.5000   106.8217     7.2789     7.1933
  366.0000   106.5420     7.1580     7.0994
  366.5000   107.1434     7.0390     7.0067
  367.0000   107.7945     6.9221     6.9152
  367.5000   108.4380     6.8071     6.8248
  368.0000   109.0884     6.7758     6.7358
  368.5000   108.8745     6.7563     6.7067
  369.0000   108.0094     6.7369     6.6862
  369.5000   107.1343     6.7175     6.6658
  370.0000   106.5129     6.6982     6.6454
  370.5000   107.7020     6.6789     6.6251
  371.0000   109.0713     6.6597     6.6045
  371.5000   110.3013     6.6405     6.5706
