~VERSION INFORMATION
 VERS.                2.0:   CWLS LOG ASCII STANDARD - VERSION 2.0
 WRAP.                 NO:   ONE LINE PER DEPTH STEP
~WELL INFORMATION
#MNEM.UNIT      DATA TYPE    INFORMATION
#----------   ------------   ------------------------------
 STRT.F           57.5000:   START DEPTH
 STOP.F         4049.0000:   STOP DEPTH
 STEP.F            0.5000:   STEP LENGTH
 NULL.          -999.2500:   NO VALUE
 COMP. LAWRENCE/ALLISON INC:   COMPANY
 WELL.     NPR #3` #13-11:   WELL
 FLD .             NPR #3:   FIELD
 LOC .      S11 T38N R78W:   LOCATION
 CNTY.            NATRONA:   COUNTY
 STAT.            WYOMING:   STATE
 CTRY. UNITED STATES OF AMERICA:   COUNTRY
 SRVC.      Dresser Atlas:   SERVICE COMPANY
 DATE.        13-MAR-1986:   LOGDATE
 API .       490251106500:   API NUMBER
~CURVE INFORMATION
#MNEM.UNIT       API CODE    CURVE DESCRIPTION
#----------   ------------   ------------------------------
 DEPT.F                  :   
 CALR.IN     07 280 01 00:   CALIPER FROM RESISTIVITY
 GRR .GAPI   07 310 01 00:   GAMMA RAY FROM RESISTIVITY
 RILD.OHMM   07 120 46 00:   RESISTIVITY INDUCTION LOG DEEP
 RILM.OHMM   07 120 44 00:   RESISTIVITY INDUCTION LOG MEDIUM
 RFOC.OHMM   07 220 04 00:   RESISTIVITY FOCUSED LOG
 SPR .MV     07 010 01 00:   SPONTANEOUS POTENTIAL FROM RES.
 PORD.DEC    45 890 12 00:   POROSITY DENSITY SANDSTONE
 CNC .DEC    42 890 03 00:   COMPENSATED NEUTRON POROSITY SANDSTONE
 CORR.G/C3   45 356 01 00:   DENSITY CORRECTION
 DEN .G/C3   45 350 01 00:   COMPENSATED BULK DENSTIY
 DT  .US/F   60 520 00 00:   INTERVAL TRANSIT TIME
~PARAMETER INFORMATION
#MNEM.UNIT          VALUE    DESCRIPTION
#----------   ------------   ------------------------------
 PD  .                 GL:   PERMANENT DATUM
 EPD .F              5176:   ELEVATION PERMANENT DATUM
 LMF .                 KB:   LOG MEASURED FROM
 DAPD.F              11.8:   FEET ABOVE PERMANENT DATUM
 DMF .                 KB:   DRILLING MEASURED FROM
 EKB .F            5187.8:   KELLING BUSHING
 EGL .F              5176:   GROUND LEVEL
 DATE.        13-MAR-1986:   RUN DATE
 RUN .                  1:   RUN NUMBER
 DD  .F              4051:   DEPTH DRILLER
 DL  .F              4051:   DEPTH LOGGER
 BLI .F              4049:   BOTTOM LOG INTERVAL
 TLI .F               564:   TOP LOG INTERVAL
 CS  .IN            8.625:   CASING SIZE
 CBD .F               564:   CASING BOTTOM DRILLER
 CBL .F               564:   CASING BOTTOM LOGGER
 BS  .IN            7.875:   BIT SIZE
 BSD .F              4051:   BIT SIZE AT DEPTH
 DFT .          POLY- KCL:   DRILLING FLUID TYPE
 DFD .                8.9:   DRILLING FLUID DENSITY
 DFV .                 36:   DRILLING FLUID VISCOSITY
 DFPH.                8.5:   DRILLING FLUID PH
 DFL .               13.5:   DRILLING FLUID LOSS
 MSS .           FLOWLINE:   MUD SAMPLE SOURCE
 RMS .OHMM           .275:   RESISTIVITY MUD SAMPLE
 MST .F                55:   MUD SAMPLE TEMPERATURE
 RMF .OHMM           .206:   RESISTIVITY MUD FILTRATE SAMPLE
 MFST.F                55:   MUD FILTRATE SAMPLE TEMPERATURE
 RMC .OHMM           .344:   RESISTIVITY MUD CAKE
 MCST.F                55:   MUD CAKE SAMPLE TEMPERATURE
 MFSS.               CALC:   MUD FILTRATE SAMPLE SOURCE
 MCSS.               CALC:   MUD CAKE SAMPLE SOURCE
 RMB .OHMM           .092:   RESISTIVITY MUD AT BHT
 BHT .F               164:   BOTTOM HOLE TEMPERATURE
 TCS .HRS            0400:   TIME CURCULATED STOPPED
 MRT .F               164:   MAXIMUM RECORDED TEMPERATURE
 LUN .               6274:   LOGGING UNIT NUMBER
 LUL .           GILLETTE:   LOGGING UNIT LOCATION
 ENGI.             MILLER:   RECORDING ENGINEER
 WITN.             STRONG:   WITNESSED BY
 CLNT.            A2DTECH:   CLIENT CODE
 ORIG.         2.5" PRINT:   ORIGIN OF DATA
 UWI .       490251106500:   UNIQUE WELL ID
 DICO. A2D Technologies, Inc.:   DIGITIZING COMPANY
~OTHER INFORMATION
~A   DEPT     CALR         GRR      RILD       RILM       RFOC        SPR       PORD        CNC       CORR        DEN         DT   
# ...
 2650.0000     9.9602    65.3374    34.6211    22.4266    20.0000   -68.9533     0.0535     0.1221     0.0045     2.5612    72.0783
 2650.5000     9.9595    64.0889    33.6677    26.2958    22.0393   -68.2517     0.0946     0.1227     0.0075     2.5500    68.8651
 2651.0000     9.9493    62.2268    32.2889    27.1709    32.0516   -66.7369     0.1266     0.1288     0.0346     2.4921    63.1330
 2651.5000     9.9275    62.2053    30.5394    25.4036    55.0540   -65.3206     0.1526     0.1821     0.0315     2.4298    60.6453
 2652.0000     9.9657    65.8647    28.8847    20.3751    43.4890   -64.3173     0.1610     0.2006     0.0284     2.3964    65.0417
 2652.5000    10.0869    71.3647    27.3196    18.0118    23.4600   -63.2037     0.1653     0.2179     0.0344     2.3825    69.0737
 2653.0000    10.1852    76.2511    24.1054    16.3445    17.8143   -62.2023     0.1665     0.2203     0.0404     2.3753    72.7797
 2653.5000    10.2986    74.3891    20.9760    15.0833    17.1698   -60.7820     0.1616     0.2136     0.0404     2.3802    74.4433
 2654.0000    10.3518    69.4596    19.5657    14.5079    16.9333   -59.7827     0.1586     0.2048     0.0433     2.3860    76.2350
 2654.5000    10.4122    70.0521    18.7645    14.5257    16.9119   -58.8777     0.1562     0.1954     0.0493     2.3890    76.3358
 2655.0000    10.4420    71.8704    18.5030    14.9159    16.6808   -58.0640     0.1544     0.1857     0.0559     2.3922    76.4909
 2655.5000    10.4411    73.0759    19.0216    15.3524    16.4530   -57.7678     0.1538     0.1766     0.0631     2.3952    76.5511
 2656.0000    10.4404    72.4409    19.8284    15.7686    16.2283   -57.2550     0.1514     0.1681     0.0690     2.3996    76.7069
 2656.5000    10.3992    71.1923    21.5489    16.2263    16.0193   -56.9577     0.1399     0.1639     0.0745     2.4033    76.8057
 2657.0000    10.3471    69.3303    22.4628    16.4394    16.0304   -56.9665     0.1326     0.1645     0.0684     2.4222    76.6024
 2657.5000    10.3157    70.5357    23.0925    16.4383    16.2622   -56.9741     0.1326     0.1675     0.0546     2.4282    76.1898
 2658.0000    10.3150    73.5817    23.0893    16.4371    17.1939   -56.9817     0.1393     0.1796     0.0347     2.4201    75.2310
 2658.5000    10.3142    74.1748    22.7675    15.5237    18.9549   -56.9049     0.1495     0.1881     0.0354     2.4009    74.2379
 2659.0000    10.3135    74.1521    22.1406    14.0994    20.0000   -56.3039     0.1504     0.1948     0.0413     2.4040    73.6648
 2659.5000    10.3127    74.1305    21.5309    14.0984    16.2392   -55.7027     0.1459     0.1990     0.0489     2.4100    74.3607
 2660.0000    10.3119    74.1090    20.6492    14.0974    15.1547   -55.3254     0.1465     0.1924     0.0533     2.4054    75.7531
 2660.5000    10.3112    73.4739    19.5303    13.9014    14.5370   -54.5798     0.1495     0.1863     0.0592     2.4009    76.4508
 2661.0000    10.3104    74.0659    18.9925    13.3313    14.3368   -54.2042     0.1483     0.1875     0.0668     2.4039    76.7570
 2661.5000    10.3402    74.6595    18.2147    13.1459    14.3368   -53.3755     0.1471     0.1972     0.0726     2.4009    77.0015
 2662.0000    10.3394    77.0903    17.2278    12.6068    14.3368   -53.0020     0.1520     0.2020     0.0710     2.4008    77.0060
 2662.5000    10.3387    79.5227    16.2943    12.0899    14.5370   -52.4010     0.1532     0.1917     0.0634     2.4009    77.0106
 2663.0000    10.3379    82.5687    15.6270    11.2754    14.3368   -51.7245     0.1514     0.1887     0.0499     2.4039    77.0783
 2663.5000    10.3371    81.9336    14.7803    11.1186    13.7524   -50.8939     0.1489     0.1911     0.0317     2.4099    77.2977
 2664.0000    10.3364    81.9121    14.3733    11.1179    13.0102   -50.5245     0.1447     0.1936     0.0136     2.4129    77.6907
 2664.5000    10.3968    83.1175    14.3713    11.1171    12.4799   -49.7628     0.1423     0.1899     0.0072     2.4144    77.9970
 2665.0000    10.4266    83.7117    14.1710    11.1163    12.6542   -49.4656     0.1387     0.1832     0.0162     2.4205    78.0221
 2665.5000    10.4258    81.8475    13.9736    11.2715    12.8310   -49.4039     0.1344     0.1796     0.0252     2.4280    77.6592
 2666.0000    10.4557    79.9854    13.9716    11.2707    13.1919   -49.1760     0.1314     0.1911     0.0254     2.4280    76.8432
 2666.5000    10.5466    78.7369    13.9697    11.2699    13.1919   -49.1844     0.1338     0.1954     0.0237     2.4250    75.8590
 2667.0000    10.5458    79.3288    13.7750    11.1132    12.8310   -49.2590     0.1399     0.1984     0.0236     2.4159    75.5452
 2667.5000    10.5451    81.1478    13.7731    10.6575    12.4799   -49.5046     0.1447     0.1990     0.0279     2.4083    75.8359
 2668.0000    10.5749    79.2858    13.5812    10.5093    12.1384   -49.8171     0.1489     0.1996     0.0308     2.4038    76.3755
 2668.5000    10.5741    78.0372    13.3920    10.3631    11.6437   -50.1937     0.1477     0.2002     0.0239     2.4083    76.9012
 2669.0000    10.6345    79.2427    13.2054    10.3624    11.4833   -50.8100     0.1441     0.2002     0.0131     2.4068    77.2890
 2669.5000    10.6644    81.6751    13.0214    10.2183    11.6437   -51.1213     0.1483     0.2008     0.0082     2.4053    77.3750
 2670.0000    10.6942    84.1076    12.6628    10.0762    11.9712   -52.0427     0.1485     0.2026     0.0039     2.4098    77.5301
 2670.5000    10.7545    84.7025    12.3141    10.0755    12.1384   -52.7187     0.1405     0.2044     0.0021     2.4189    77.5346
 2671.0000    10.7843    84.6780    12.3124    10.3595    12.1384   -53.5804     0.1350     0.2062     0.0020     2.4279    77.6897
 2671.5000    10.7835    85.8834    12.1408    10.5042    11.6437   -54.5015     0.1332     0.2074     0.0031     2.4264    78.1390
 2672.0000    10.8134    90.1563    12.1392    10.9518    11.4833   -55.4229     0.1350     0.2080     0.0049     2.4219    78.4518
 2672.5000    10.8126    88.9078    12.3073    11.1047    11.6437   -56.0951     0.1369     0.2050    -0.0034     2.4188    78.4563
 2673.0000    10.8118    86.4323    12.4777    11.2598    12.1384   -57.2651     0.1387     0.1983    -0.0134     2.4173    78.2369
 2673.5000    10.8110    83.9567    12.8274    11.2589    12.6542   -58.1865     0.1399     0.1941    -0.0042     2.4158    77.8659
 2674.0000    10.8103    81.4812    13.1870    11.1023    12.8310   -59.1075     0.1417     0.1929     0.0138     2.4158    77.4920
 2674.5000    10.8401    79.0057    13.0032    10.6470    12.4799   -59.7762     0.1421     0.1929     0.0308     2.4188    77.1190
 2675.0000    10.8699    77.7572    12.4707    10.2104    12.3080   -60.6453     0.1350     0.1862     0.0398     2.4264    77.0481
 2675.5000    10.8691    78.3491    12.2970    10.0684    12.1384   -61.2618     0.1314     0.1832     0.0468     2.4309    77.5061
 2676.0000    10.8991    80.7815    12.1256     9.9284    11.9712   -61.8293     0.1296     0.1808     0.0137     2.4339    77.9619
 2676.5000    10.8982    88.7355    12.2938    10.0670    12.1384   -62.1418     0.1314     0.1892     0.0013     2.4263    78.2681
 2677.0000    10.8974    89.3313    12.4641    10.4960    12.1384   -62.1494     0.1344     0.1901     0.0003     2.4233    78.3464
 2677.5000    10.9274    88.0789    12.8131    10.9433    12.3080   -62.1570     0.1369     0.1850    -0.0057     2.4218    78.3509
 2678.0000    10.9266    85.6033    12.9909    11.7321    12.4799   -61.8592     0.1381     0.1753    -0.0118     2.4233    78.3554
 2678.5000    10.9258    83.1278    13.1708    13.1147    12.8310   -61.8237     0.1338     0.1668    -0.0140     2.4308    78.2811
 2679.0000    10.9251    81.2658    13.2402    13.2979    13.0102   -61.2647     0.1266     0.1661    -0.0141     2.4414    77.6746
 2679.5000    10.9243    80.6307    13.1668    12.9314    13.7524   -60.9675     0.1230     0.1874    -0.0001     2.4459    76.4640
 2680.0000    10.9235    80.3682    13.0563    11.8934    14.9460   -60.9352     0.1230     0.1908     0.0190     2.4474    74.8796
