~VERSION INFORMATION
 VERS.                2.0:   CWLS LOG ASCII STANDARD - VERSION 2.0
 WRAP.                 NO:   ONE LINE PER DEPTH STEP
~WELL INFORMATION
#MNEM.UNIT      DATA TYPE    INFORMATION
#----------   ------------   ------------------------------
 STRT.F           38.0000:   START DEPTH
 STOP.F          663.5000:   STOP DEPTH
 STEP.F            0.5000:   STEP LENGTH
 NULL.          -999.2500:   NO VALUE
 COMP. FENIX & SCISSON INC:   COMPANY
 WELL.   NPR SX #3 #35-34:   WELL
 FLD .             TEAPOT:   FIELD
 LOC .      S34 T39N R78W:   LOCATION
 CNTY.            NATRONA:   COUNTY
 STAT.            WYOMING:   STATE
 CTRY. UNITED STATES OF AMERICA:   COUNTRY
 SRVC.       Schlumberger:   SERVICE COMPANY
 DATE.        21-MAR-1977:   LOGDATE
 API .       490251031500:   API NUMBER
~CURVE INFORMATION
#MNEM.UNIT       API CODE    CURVE DESCRIPTION
#----------   ------------   ------------------------------
 DEPT.F                  :   
 SPR .MV     07 010 01 00:   SPONTANEOUS POTENTIAL
 LL8 .OHMM   07 220 08 00:   LATEROLOG-8 RES.
 ILD .OHMM   07 120 46 00:   INDUCTION LOG DEEP
 ILM .OHMM   07 120 44 00:   INDUCTION LOG MEDIUM
 CALD.IN     45 280 60 00:   CALIPER
 RHOB.G/C3   45 350 01 00:   BULK DENSITY
 DPHI.DEC    45 890 12 00:   DENSITY POROSITY SANDSTONE
 CORR.G/C3   45 356 01 00:   DENSITY CORRECTION
 GRD .GAPI   45 310 01 00:   GAMMA RAY FROM DENSITY LOG
~PARAMETER INFORMATION
#MNEM.UNIT          VALUE    DESCRIPTION
#----------   ------------   ------------------------------
 PD  .                 GL:   PERMANENT DATUM
 EPD .F              5081:   ELEVATION PERMANENT DATUM
 LMF .                 GL:   LOG MEASURED FROM
 DMF .                 KB:   DRILLING MEASURED FROM
 EKB .F              5086:   KELLING BUSHING
 EGL .F              5081:   GROUND LEVEL
 DATE.          3-21-1977:   RUN DATE
 RUN .                  1:   RUN NUMBER
 DD  .F               670:   DEPTH DRILLER
 DL  .F               665:   DEPTH LOGGER
 BLI .F               659:   BOTTOM LOG INTERVAL
 TLI .F                40:   TOP LOG INTERVAL
 CS  .IN            8.625:   CASING SIZE
 CBD .F                40:   CASING BOTTOM DRILLER
 CBL .F                40:   CASING BOTTOM LOGGER
 BS  .IN            7.875:   BIT SIZE
 BSD .F               670:   BIT SIZE AT DEPTH
 DFT .           CHEM GEL:   DRILLING FLUID TYPE
 DFV .                 33:   DRILLING FLUID VISCOSITY
 MSS .           MUD TANK:   MUD SAMPLE SOURCE
 RMS .OHMM           4.98:   RESISTIVITY MUD SAMPLE
 MST .F                53:   MUD SAMPLE TEMPERATURE
 RMF .OHMM           4.94:   RESISTIVITY MUD FILTRATE SAMPLE
 MFST.F                53:   MUD FILTRATE SAMPLE TEMPERATURE
 RMC .OHMM            2.5:   RESISTIVITY MUD CAKE
 MCST.F                53:   MUD CAKE SAMPLE TEMPERATURE
 MFSS.                  M:   MUD FILTRATE SAMPLE SOURCE
 MCSS.                  C:   MUD CAKE SAMPLE SOURCE
 RMB .OHMM              4:   RESISTIVITY MUD AT BHT
 BHT .F                65:   BOTTOM HOLE TEMPERATURE
 TCS .HRS            1000:   TIME CURCULATED STOPPED
 TLAB.HRS            1400:   TIME LOGGER AT BOTTOM
 MRT .F                65:   MAXIMUM RECORDED TEMPERATURE
 LUN .               7742:   LOGGING UNIT NUMBER
 LUL .                GLT:   LOGGING UNIT LOCATION
 ENGI.               LANE:   RECORDING ENGINEER
 WITN.              BURKE:   WITNESSED BY
 CLNT.            A2DTECH:   CLIENT CODE
 ORIG.       2", 5" PRINT:   ORIGIN OF DATA
 UWI .       490251031500:   UNIQUE WELL ID
 DICO. A2D Technologies, Inc.:   DIGITIZING COMPANY
~OTHER INFORMATION
~A   DEPT      SPR        LL8        ILD        ILM       CALD       RHOB       DPHI       CORR         GRD  
# ...
  220.5000   -65.3775    11.3327     9.0039     7.5035     8.1300     2.4620     0.1143     0.0390   135.9398
  221.0000   -65.4195    11.3001     8.9840     7.4948     8.1300     2.4639     0.1134     0.0358   139.1408
  221.5000   -65.4615    11.0090     8.9642     7.4861     8.1300     2.4427     0.1234     0.0232   136.5317
  222.0000   -65.5035    10.6249     8.9445     7.4773     8.1300     2.4349     0.1323     0.0106   133.2100
  222.5000   -65.5455    10.7382     8.9247     7.4686     8.1300     2.4423     0.1264     0.0093   131.2234
  223.0000   -65.5875    10.9295     8.9050     7.4599     8.1300     2.4482     0.1194     0.0137   133.4886
  223.5000   -65.6295    11.1215     8.8854     7.4512     8.1300     2.4504     0.1177     0.0181   137.6151
  224.0000   -65.6715    11.3167     8.8658     7.4426     8.1300     2.4569     0.1158     0.0226   141.3335
  224.5000   -65.7135    11.5427     8.8462     7.4339     8.1300     2.4658     0.1110     0.0269   143.3146
  225.0000   -65.7555    11.3704     8.8267     7.4252     8.1300     2.4692     0.1058     0.0330   142.4652
  225.5000   -65.7975    11.1715     8.8073     7.4165     8.1300     2.4592     0.1164     0.0194   139.1366
  226.0000   -65.8395    11.1000     8.7879     7.3959     8.1300     2.4503     0.1210     0.0128   135.9451
  226.5000   -65.8815    11.0652     8.7685     7.3662     8.1299     2.4562     0.1206     0.0123   132.7448
  227.0000   -65.9236    11.0311     8.7491     7.3365     8.1295     2.4637     0.1144     0.0225   132.3436
  227.5000   -65.9657    10.9971     8.7298     7.3070     8.1292     2.4701     0.1086     0.0333   134.1490
  228.0000   -66.0070    10.9632     8.7106     7.2776     8.1288     2.4631     0.1138     0.0211   135.7442
  228.5000   -66.0073    10.9295     8.6914     7.2484     8.1285     2.4558     0.1186     0.0134   133.7326
  229.0000   -65.9462    10.8958     8.6722     7.2192     8.1281     2.4563     0.1195     0.0148   130.4829
  229.5000   -65.8858    10.8622     8.6531     7.1902     8.1278     2.4595     0.1182     0.0165   127.4306
  230.0000   -65.8251    10.8287     8.6340     7.1613     8.1274     2.4605     0.1184     0.0161   127.2745
  230.5000   -65.7645    10.7759     8.6150     7.1325     8.1271     2.4587     0.1186     0.0148   129.9588
  231.0000   -65.7039    10.7181     8.5960     7.1038     8.1267     2.4677     0.1151     0.0134   133.8642
  231.5000   -65.6434    10.6607     8.5770     7.0753     8.1264     2.4705     0.1122     0.0123   137.3708
  232.0000   -65.5827    10.6238     8.5581     7.0468     8.1260     2.4540     0.1255     0.0018   139.7251
  232.5000   -65.5221    10.7288     8.5392     7.0185     8.1257     2.4402     0.1285    -0.0038   137.9033
  233.0000   -65.4618    10.8068     8.5204     6.9902     8.1253     2.4432     0.1251     0.0014   135.1017
  233.5000   -65.4387    10.9220     8.5016     6.9621     8.1250     2.4448     0.1235     0.0028   133.6589
  234.0000   -65.4548    10.8905     8.4828     6.9341     8.1246     2.4354     0.1355     0.0011   134.0174
  234.5000   -65.4708    10.8322     8.4641     6.9062     8.1243     2.4448     0.1234     0.0093   133.8951
  235.0000   -65.4868    10.7741     8.4454     6.8785     8.1239     2.4599     0.1134     0.0181   132.8609
  235.5000   -65.5029    10.7212     8.4268     6.8508     8.1236     2.4634     0.1150     0.0259   134.3866
  236.0000   -65.5189    10.7099     8.4082     6.8221     8.1232     2.4542     0.1199     0.0193   135.1514
  236.5000   -65.5350    10.6986     8.3897     6.7558     8.1229     2.4507     0.1242     0.0125   134.5372
  237.0000   -65.5510    10.6874     8.3712     6.6704     8.1225     2.4601     0.1154     0.0174   133.0656
  237.5000   -65.5670    10.6762     8.3527     6.5861     8.1222     2.4697     0.1098     0.0218   130.8921
  238.0000   -65.5830    10.6650     8.3343     6.5145     8.1218     2.4743     0.1077     0.0202   128.6918
  238.5000   -65.5991    10.6537     8.3160     6.6460     8.1215     2.4705     0.1085     0.0198   128.2156
  239.0000   -65.6151    10.6424     8.2982     6.7216     8.1211     2.4667     0.1122     0.0214   128.5766
  239.5000   -65.6311    10.6307     8.2809     6.7981     8.1208     2.4738     0.1089     0.0229   128.6454
  240.0000   -65.6472    10.6248     8.3767     6.8755     8.1204     2.4730     0.1079     0.0146   128.0441
  240.5000   -65.6632    11.0198     8.4658     6.9537     8.1201     2.4699     0.1099     0.0195   128.9872
  241.0000   -65.6792    11.4378     8.5558     7.0329     8.1197     2.4678     0.1102     0.0208   132.4010
  241.5000   -65.6953    11.3181     8.6469     7.1129     8.1194     2.4696     0.1114     0.0153   135.3731
  242.0000   -65.7113    11.1371     8.7392     7.1939     8.1190     2.4817     0.1056     0.0232   133.6185
  242.5000   -65.7273    11.0233     8.8341     7.2773     8.1187     2.4965     0.0934     0.0252   130.4659
  243.0000   -65.7434    11.3062     8.8128     7.2773     8.1183     2.4878     0.0984     0.0186   128.0602
  243.5000   -65.7594    11.5438     8.7859     7.2773     8.1180     2.4787     0.1037     0.0118   129.1739
  244.0000   -65.7754    11.3714     8.7593     7.2593     8.1176     2.4695     0.1089     0.0099   130.2166
  244.5000   -65.7915    11.1790     8.7329     7.2234     8.1173     2.4616     0.1130     0.0141   131.2557
  245.0000   -65.8074    10.9900     8.7065     7.1877     8.1169     2.4632     0.1130     0.0160   132.3027
  245.5000   -65.8236    10.9210     8.6802     7.1521     8.1166     2.4619     0.1134     0.0159   133.2874
  246.0000   -65.8393    10.9220     8.6138     7.1167     8.1162     2.4548     0.1196     0.0120   132.2916
  246.5000   -65.8661    10.9217     8.4969     7.0815     8.1159     2.4498     0.1235     0.0082   133.8464
  247.0000   -65.8925    10.9233     8.3816     7.0468     8.1155     2.4527     0.1202     0.0112   135.7335
  247.5000   -65.9190    10.7600     8.2679     7.0132     8.1152     2.4505     0.1236     0.0152   135.9581
  248.0000   -65.9454    10.6009     8.1558     6.9291     8.1148     2.4525     0.1166     0.0242   138.2673
  248.5000   -65.9719    10.4445     8.0451     6.8501     8.1145     2.4558     0.1137     0.0334   141.2925
  249.0000   -65.9983    10.2906     7.9360     6.7720     8.1141     2.4659     0.1082     0.0413   144.3336
  249.5000   -66.0248    10.1390     7.8283     6.6949     8.1138     2.4514     0.1211     0.0256   147.3886
  250.0000   -66.0512     9.9896     7.7221     6.6185     8.1134     2.4414     0.1291     0.0150   149.1881
  250.5000   -66.0777     9.8424     7.6174     6.5431     8.1131     2.4440     0.1247     0.0108   150.4292
  251.0000   -66.1041     9.7757     7.5510     6.4685     8.1127     2.4472     0.1242     0.0113   151.6635
  251.5000   -66.1306     9.7757     7.5978     6.3954     8.1124     2.4508     0.1200     0.0136   149.8743
  252.0000   -66.1570     9.8650     7.6325     6.3954     8.1120     2.4611     0.1137     0.0159   147.6478
  252.5000   -66.1840    10.0106     7.6673     6.3954     8.1117     2.4677     0.1111     0.0150   145.4200
  253.0000   -66.2107    10.1573     7.7291     6.5035     8.1113     2.4645     0.1126     0.0119   144.3326
  253.5000   -66.2044    10.3061     7.8532     6.6055     8.1110     2.4658     0.1122     0.0102   145.5867
  254.0000   -65.9951    10.4570     7.9793     6.7091     8.1107     2.4674     0.1118     0.0112   143.0478
  254.5000   -65.7869    10.6076     8.1075     6.8143     8.1103     2.4613     0.1157     0.0120   138.5864
  255.0000   -65.5792    10.7607     8.2377     6.9212     8.1064     2.4478     0.1239     0.0093   133.4432
  255.5000   -65.3713    10.9168     8.3700     7.0297     8.0834     2.4445     0.1259     0.0063   128.2091
  256.0000   -65.1634    11.0797     8.5044     7.1400     8.0605     2.4422     0.1280     0.0032   123.7956
  256.5000   -64.9579    11.3327     8.6410     7.2782     8.0377     2.4412     0.1301     0.0003   123.1354
