~VERSION INFORMATION
 VERS.                2.0:   CWLS LOG ASCII STANDARD - VERSION 2.0
 WRAP.                 NO:   ONE LINE PER DEPTH STEP
~WELL INFORMATION
#MNEM.UNIT      DATA TYPE    INFORMATION
#----------   ------------   ------------------------------
 STRT.F            2.0000:   START DEPTH
 STOP.F          547.0000:   STOP DEPTH
 STEP.F            0.5000:   STEP LENGTH
 NULL.          -999.2500:   NO VALUE
 COMP. LAWRENCE/ALLISON INC:   COMPANY
 WELL. NPR # #3 68-61-SX-10:   WELL
 FLD .             TEAPOT:   FIELD
 LOC .      S10 T38N R78W:   LOCATION
 CNTY.            NATRONA:   COUNTY
 STAT.            WYOMING:   STATE
 CTRY. UNITED STATES OF AMERICA:   COUNTRY
 SRVC.           Gearhart:   SERVICE COMPANY
 DATE.        24-JUN-1987:   LOGDATE
 API .       490251114500:   API NUMBER
~CURVE INFORMATION
#MNEM.UNIT       API CODE    CURVE DESCRIPTION
#----------   ------------   ------------------------------
 DEPT.F                  :   
 GRR .GAPI   07 310 01 00:   GAMMA RAY FROM RES. LOG.
 RILD.OHMM   07 120 46 00:   INDUCTION LOG DEEP RESISTIVITY
 RILM.OHMM   07 120 44 00:   INDUCTION LOG MEDIUM RESISTIVITY
~PARAMETER INFORMATION
#MNEM.UNIT          VALUE    DESCRIPTION
#----------   ------------   ------------------------------
 PD  .                 GL:   PERMANENT DATUM
 EPD .F              5203:   ELEVATION PERMANENT DATUM
 LMF .                 KB:   LOG MEASURED FROM
 DAPD.F                 8:   FEET ABOVE PERMANENT DATUM
 DMF .                 KB:   DRILLING MEASURED FROM
 EKB .F              5211:   KELLING BUSHING
 EDF .F              5209:   DRILLING FLOOR
 EGL .F              5203:   GROUND LEVEL
 DATE.            6-24-87:   RUN DATE
 RUN .                  1:   RUN NUMBER
 DD  .F               565:   DEPTH DRILLER
 DL  .F               557:   DEPTH LOGGER
 BLI .F               549:   BOTTOM LOG INTERVAL
 TLI .F                48:   TOP LOG INTERVAL
 CS  .IN            8.625:   CASING SIZE
 CBD .F                50:   CASING BOTTOM DRILLER
 CBL .F                48:   CASING BOTTOM LOGGER
 BS  .IN             7.87:   BIT SIZE
 BSD .F               565:   BIT SIZE AT DEPTH
 DFT .                AIR:   DRILLING FLUID TYPE
 TCS .HRS            0715:   TIME CURCULATED STOPPED
 TLAB.HRS            0904:   TIME LOGGER AT BOTTOM
 LUN .               7597:   LOGGING UNIT NUMBER
 LUL .           GILLETTE:   LOGGING UNIT LOCATION
 ENGI.           JOHNSTON:   RECORDING ENGINEER
 CLNT.            A2DTECH:   CLIENT CODE
 ORIG.       2", 5" PRINT:   ORIGIN OF DATA
 UWI .       490251114500:   UNIQUE WELL ID
 DICO. A2D Technologies, Inc.:   DIGITIZING COMPANY
~OTHER INFORMATION
~A    DEPT      GRR      RILD       RILM   
    2.0000    18.6747  -999.2500  -999.2500
    2.5000    15.2516  -999.2500  -999.2500
    3.0000    11.4458  -999.2500  -999.2500
    3.5000    12.2864  -999.2500  -999.2500
    4.0000    14.6465  -999.2500  -999.2500
    4.5000    21.3790  -999.2500  -999.2500
    5.0000    28.2073  -999.2500  -999.2500
    5.5000    35.0264  -999.2500  -999.2500
    6.0000    41.8830  -999.2500  -999.2500
    6.5000    48.9156  -999.2500  -999.2500
    7.0000    51.9283  -999.2500  -999.2500
    7.5000    51.9128  -999.2500  -999.2500
    8.0000    47.4772  -999.2500  -999.2500
    8.5000    42.9633  -999.2500  -999.2500
    9.0000    40.6062  -999.2500  -999.2500
    9.5000    39.0706  -999.2500  -999.2500
   10.0000    40.2259  -999.2500  -999.2500
   10.5000    42.2330  -999.2500  -999.2500
   11.0000    44.2652  -999.2500  -999.2500
   11.5000    46.3010  -999.2500  -999.2500
   12.0000    46.7488  -999.2500  -999.2500
   12.5000    47.1110  -999.2500  -999.2500
   13.0000    47.4806  -999.2500  -999.2500
   13.5000    47.8527  -999.2500  -999.2500
   14.0000    48.2201  -999.2500  -999.2500
   14.5000    48.9258  -999.2500  -999.2500
   15.0000    51.5820  -999.2500  -999.2500
   15.5000    54.7539  -999.2500  -999.2500
   16.0000    57.9158  -999.2500  -999.2500
   16.5000    58.8008  -999.2500  -999.2500
   17.0000    59.7089  -999.2500  -999.2500
   17.5000    64.2680  -999.2500  -999.2500
   18.0000    69.1149  -999.2500  -999.2500
   18.5000    73.9755  -999.2500  -999.2500
   19.0000    78.7550  -999.2500  -999.2500
   19.5000    79.7883  -999.2500  -999.2500
   20.0000    79.8651  -999.2500  -999.2500
   20.5000    79.4427  -999.2500  -999.2500
   21.0000    77.7466  -999.2500  -999.2500
   21.5000    75.7383  -999.2500  -999.2500
   22.0000    74.3460  -999.2500  -999.2500
   22.5000    74.0747  -999.2500  -999.2500
   23.0000    75.0593  -999.2500  -999.2500
   23.5000    76.3045  -999.2500  -999.2500
   24.0000    74.6237  -999.2500  -999.2500
   24.5000    68.5034  -999.2500  -999.2500
   25.0000    62.5462  -999.2500  -999.2500
   25.5000    60.0442  -999.2500  -999.2500
   26.0000    61.8833  -999.2500  -999.2500
   26.5000    65.2103  -999.2500  -999.2500
   27.0000    69.1320  -999.2500  -999.2500
   27.5000    73.0541  -999.2500  -999.2500
   28.0000    77.0020  -999.2500  -999.2500
   28.5000    79.3759  -999.2500  -999.2500
   29.0000    80.6097  -999.2500  -999.2500
   29.5000    80.9036  -999.2500  -999.2500
   30.0000    81.1943  -999.2500  -999.2500
   30.5000    82.4914  -999.2500  -999.2500
   31.0000    84.3499  -999.2500  -999.2500
   31.5000    86.2298  -999.2500  -999.2500
   32.0000    87.2415  -999.2500  -999.2500
   32.5000    86.5218  -999.2500  -999.2500
   33.0000    85.5301  -999.2500  -999.2500
   33.5000    85.3638  -999.2500  -999.2500
   34.0000    86.3719  -999.2500  -999.2500
   34.5000    86.6308  -999.2500  -999.2500
   35.0000    85.8974  -999.2500  -999.2500
   35.5000    84.0616  -999.2500  -999.2500
   36.0000    82.4515  -999.2500  -999.2500
   36.5000    82.2503  -999.2500  -999.2500
   37.0000    82.0259  -999.2500  -999.2500
   37.5000    81.8199  -999.2500  -999.2500
   38.0000    80.5288  -999.2500  -999.2500
   38.5000    78.7285  -999.2500  -999.2500
   39.0000    78.7550  -999.2500  -999.2500
   39.5000    81.7110  -999.2500  -999.2500
   40.0000    84.5944  -999.2500  -999.2500
   40.5000    86.7026  -999.2500  -999.2500
   41.0000    87.0426  -999.2500  -999.2500
   41.5000    85.9323  -999.2500  -999.2500
   42.0000    83.2028  -999.2500  -999.2500
   42.5000    80.5275  -999.2500  -999.2500
   43.0000    78.2531  -999.2500  -999.2500
   43.5000    81.1442  -999.2500  -999.2500
   44.0000    87.5217  -999.2500  -999.2500
   44.5000    95.5995  -999.2500  -999.2500
   45.0000   101.8720  -999.2500  -999.2500
   45.5000   103.2653  -999.2500  -999.2500
   46.0000   104.7745  -999.2500  -999.2500
   46.5000   108.0881  -999.2500  -999.2500
   47.0000   111.0885  -999.2500  -999.2500
   47.5000   112.1202  -999.2500  -999.2500
   48.0000   111.4788    16.8609     9.0854
   48.5000   111.2668    13.2247    10.2672
   49.0000   112.2316    10.6042    13.4374
   49.5000   113.0266     9.0854    13.2082
   50.0000   112.6358     9.1556    10.9593
   50.5000   112.2428     9.3933     9.3515
   51.0000   111.8551     9.8665     9.1545
   51.5000   111.4639    10.5867     9.1244
   52.0000   111.0552    11.5393     9.0944
   52.5000   111.3781    11.2618     9.0703
   53.0000   111.7611    10.6779     9.0480
   53.5000   112.1301    10.1242     9.0258
   54.0000   113.4644     9.8907     9.0020
   54.5000   115.1473     9.7786     9.0770
   55.0000   116.7361     9.6720     9.1697
   55.5000   116.5034     9.5696     9.1708
   56.0000   113.0918     9.4157     9.1722
   56.5000   111.1601     9.2212     8.9859
   57.0000   111.2632     9.0307     8.7880
   57.5000   113.8662     8.8441     8.5936
   58.0000   116.3811     8.6614     8.4035
   58.5000   118.9980     8.4825     8.2176
   59.0000   117.1455     8.3069     8.0342
   59.5000   114.9293     8.1368     7.9118
   60.0000   114.0460     7.9795     7.8365
   60.5000   117.4086     8.1839     7.8371
   61.0000   119.0974     8.4085     8.0933
   61.5000   116.2109     8.6420     8.3048
   62.0000   112.2304     8.8801     8.4976
   62.5000   108.1045     9.0366     8.6965
   63.0000   105.9204     9.1064     8.8972
   63.5000   104.7454     9.1767     9.0045
   64.0000   103.7915     9.2547     9.0033
   64.5000   102.8420     9.2547     9.0026
   65.0000   101.8838     9.2547     8.9602
   65.5000   101.4136     9.2554     8.9230
   66.0000   101.9961     9.2121     8.8856
   66.5000   103.9032     9.1735     8.8484
   67.0000   106.2705     9.1351     8.8114
   67.5000   108.8699     9.0965     8.7745
   68.0000   110.0753     9.0854     8.7561
   68.5000   110.0146     9.1430     8.8481
   69.0000   108.7700     9.2074     8.9099
   69.5000   107.4821     9.2723     8.9722
   70.0000   107.9513     9.3377     9.0349
   70.5000   109.0211     9.4035     9.0981
   71.0000   110.6371     9.4697     9.1617
   71.5000   110.8575     9.5365     9.2257
   72.0000   109.7214     9.6035     9.2902
   72.5000   108.5191     9.6725     9.3556
   73.0000   108.7169     9.6917     9.4271
   73.5000   109.3558     9.6336     9.4273
   74.0000   109.6474     9.5950     9.3515
   74.5000   108.7986     9.5566     9.3015
   75.0000   107.7107     9.5183     9.2517
   75.5000   105.6261     9.4802     9.2022
   76.0000   103.5083     9.4422     9.1529
   76.5000   103.7197     9.4044     9.1039
   77.0000   104.7554     9.3667     9.0548
   77.5000   106.9673     9.3397     9.0012
   78.0000   109.1355     9.3405     9.0127
   78.5000   111.0063     9.3405     9.0291
   79.0000   109.1718     9.3405     9.0452
   79.5000   107.4551     9.3405     9.0613
   80.0000   106.3713     9.3406     9.0858
   80.5000   107.0939     9.3414     9.0659
   81.0000   107.7604     9.3031     9.0284
   81.5000   108.6696     9.2616     8.9907
   82.0000   110.4245     9.2203     8.9532
   82.5000   112.1722     9.1792     8.9188
   83.0000   112.1671     9.1383     8.9193
   83.5000   110.3716     9.0972     8.9192
   84.0000   108.6616     9.0854     8.9193
   84.5000   107.3782     9.0576     8.9203
   85.0000   108.8656     9.0322     8.8728
   85.5000   110.8591     9.0070     8.8303
   86.0000   112.9343     8.9818     8.7882
   86.5000   113.3664     8.9567     8.7464
   87.0000   113.5047     8.9322     8.7047
   87.5000   114.3443     8.9187     8.6757
   88.0000   114.9972     8.9193     8.7813
   88.5000   113.5137     8.9192     8.8384
   89.0000   112.2998     8.9193     8.7769
   89.5000   113.9665     8.9193     8.6592
   90.0000   115.5436     8.9193     8.5425
   90.5000   116.6903     8.9192     8.4388
   91.0000   116.1985     8.9183     8.5170
   91.5000   114.3003     8.9193     8.6301
   92.0000   112.4782     9.0257     8.7446
   92.5000   110.0157     9.1455     8.8607
