~VERSION INFORMATION
 VERS.                2.0:   CWLS LOG ASCII STANDARD - VERSION 2.0
 WRAP.                 NO:   ONE LINE PER DEPTH STEP
~WELL INFORMATION
#MNEM.UNIT      DATA TYPE    INFORMATION
#----------   ------------   ------------------------------
 STRT.F           92.0000:   START DEPTH
 STOP.F          810.0000:   STOP DEPTH
 STEP.F            0.5000:   STEP LENGTH
 NULL.          -999.2500:   NO VALUE
 COMP. U S NAVY/INTEX OIL CO:   COMPANY
 WELL. NPR #3 #86 S 34-34:   WELL
 FLD .        EAST TEAPOT:   FIELD
 LOC .      S34 T39N R78W:   LOCATION
 CNTY.            NATRONA:   COUNTY
 STAT.            WYOMING:   STATE
 CTRY. UNITED STATES OF AMERICA:   COUNTRY
 SRVC. Schlumberger Well Surveying Corp:   SERVICE COMPANY
 DATE.        22-JUL-1962:   LOGDATE
 API .       490250652900:   API NUMBER
~CURVE INFORMATION
#MNEM.UNIT       API CODE    CURVE DESCRIPTION
#----------   ------------   ------------------------------
 DEPT.F                  :   
 GR  .GAPI   30 310 01 00:   GAMMA RAY
 SPR .MV     05 010 01 00:   SPONTANEOUS POTENTIAL FROM RES.
 CILD.MMHO   05 110 46 00:   CONDUCTIVITY INDUCTION LOG DEEP
 ASN .OHMM   05 041 16 00:   AMPLIFIED SHORT NORMAL 16"
 ILD .OHMM   05 120 46 00:   INDUCTION LOG DEEP
 CALM.IN     15 280 01 00:   CALIPER FROM MICRO LOG
~PARAMETER INFORMATION
#MNEM.UNIT          VALUE    DESCRIPTION
#----------   ------------   ------------------------------
 PD  .                 GL:   PERMANENT DATUM
 EPD .F              5094:   ELEVATION PERMANENT DATUM
 LMF .                 KB:   LOG MEASURED FROM
 DAPD.F                 5:   FEET ABOVE PERMANENT DATUM
 DMF .                 KB:   DRILLING MEASURED FROM
 EKB .F              5099:   KELLING BUSHING
 EGL .F              5094:   GROUND LEVEL
 DATE.            7-22-62:   RUN DATE
 RUN .                  1:   RUN NUMBER
 DD  .F               810:   DEPTH DRILLER
 DL  .F               811:   DEPTH LOGGER
 BLI .F               810:   BOTTOM LOG INTERVAL
 TLI .F               100:   TOP LOG INTERVAL
 BS  .IN             6.75:   BIT SIZE
 BSD .F               810:   BIT SIZE AT DEPTH
 DFT .                GEL:   DRILLING FLUID TYPE
 DFD .               10.3:   DRILLING FLUID DENSITY
 DFV .                 43:   DRILLING FLUID VISCOSITY
 RMS .OHMM              4:   RESISTIVITY MUD SAMPLE
 MST .F                75:   MUD SAMPLE TEMPERATURE
 RMF .OHMM            2.9:   RESISTIVITY MUD FILTRATE SAMPLE
 MFST.F                75:   MUD FILTRATE SAMPLE TEMPERATURE
 RMC .OHMM            3.8:   RESISTIVITY MUD CAKE
 MCST.F                75:   MUD CAKE SAMPLE TEMPERATURE
 TCS .HRS               1:   TIME CURCULATED STOPPED
 LUN .               2503:   LOGGING UNIT NUMBER
 ENGI.           ELLERMAN:   RECORDING ENGINEER
 WITN.          JORGENSON:   WITNESSED BY
 CLNT.            A2DTECH:   CLIENT CODE
 ORIG.   1", 2", 5" PRINT:   ORIGIN OF DATA
 UWI .       490250652900:   UNIQUE WELL ID
 DICO. A2D Technologies, Inc.:   DIGITIZING COMPANY
~OTHER INFORMATION
~A   DEPT       GR        SPR       CILD        ASN        ILD       CALM   
# ...
  768.0000    98.2821   -31.6136   103.1406     9.8976     9.5240     6.4938
  768.5000    89.9440   -31.0698   102.5603     9.9911     9.5390     6.1959
  769.0000    95.4875   -30.5287   101.9799    10.0847     9.5539     6.0012
  769.5000    92.2680   -30.0832   101.3923    10.1781     9.5690     6.4092
  770.0000   102.4931   -29.9424   101.7519    10.2698     9.5841     6.6968
  770.5000    95.7216   -29.7985   102.6972    10.3037     9.5976     6.7452
  771.0000    79.0527   -29.6544   104.5055    10.2129     9.5143     6.7785
  771.5000    88.2503   -29.5100   107.8853    10.1245     9.2438     6.7943
  772.0000    85.6564   -29.3650   111.2650    10.0348     8.9761     6.7946
  772.5000    88.5228   -29.2206   114.7376     9.8768     8.7081     6.7946
  773.0000    99.5238   -29.0934   119.8118     9.5898     8.4402     6.7947
  773.5000    91.6521   -29.2789   125.0345     9.2623     8.1723     6.7946
  774.0000    94.2749   -29.6727   130.2607     8.7308     7.9049     6.7917
  774.5000   103.5674   -29.9670   135.4859     8.2034     7.6343     6.7741
  775.0000    96.2764   -30.4900   140.7355     7.8375     7.4930     6.7560
  775.5000    88.8250   -31.1157   144.0849     7.7773     7.3937     6.7706
  776.0000    88.5894   -31.7453   144.7378     7.7897     7.3118     6.7987
  776.5000    75.9843   -32.0283   142.9889     7.8651     7.4205     6.8132
  777.0000    77.2483   -31.3775   138.4861     8.0608     7.4190     6.8075
  777.5000    79.0302   -29.7191   133.9832     8.2844     7.6042     6.8020
  778.0000    78.4081   -28.2625   129.4804     8.6231     7.8213     6.7965
  778.5000    95.5970   -27.9151   124.9776     8.9566     8.0395     6.7909
  779.0000    92.3810   -28.1551   120.4748     9.2747     8.2572     6.7853
  779.5000    94.6060   -28.0723   117.5410     9.4346     8.4748     6.7795
  780.0000   100.4652   -27.7143   115.4517     9.4892     8.6928     6.7794
  780.5000   104.3019   -27.7854   113.3624     9.6687     8.9107     6.7916
  781.0000    98.6565   -27.9773   111.2731     9.8630     9.0943     6.7892
  781.5000    98.6191   -28.1747   109.1838    10.0391     9.2597     6.7858
  782.0000    98.6383   -28.2273   107.0945    10.0316     9.4261     6.7826
  782.5000  -999.2500   -28.1704   105.4700    10.0172     9.5915     6.7793
  783.0000  -999.2500   -28.1088   104.0583    10.1812     9.7116     6.7753
  783.5000  -999.2500   -28.0713   102.6466    10.3620     9.7092     6.7315
  784.0000  -999.2500   -28.7668   101.2349    10.5433     9.7093     6.6103
  784.5000  -999.2500   -29.6405    99.8232    10.7241     9.7088     6.6104
  785.0000  -999.2500   -30.6076    98.4137    10.9085     9.8385     6.6358
  785.5000  -999.2500   -31.5779    96.9962    11.1322    10.0881     6.5997
  786.0000  -999.2500   -32.6164    95.2022    11.3770    10.3374     6.5706
  786.5000  -999.2500   -33.0013    92.5805    11.6217    10.5872     6.6604
  787.0000  -999.2500   -33.2356    89.9688    11.8665    10.8609     6.7368
  787.5000  -999.2500   -32.8200    87.3572    12.1113    11.2065     6.7498
  788.0000  -999.2500   -31.8647    84.7456    12.3557    11.5456     6.7636
  788.5000  -999.2500   -29.7082    82.1340    12.6329    11.8833     6.7777
  789.0000  -999.2500   -28.2507    79.5223    12.9693    12.2212     6.7919
  789.5000  -999.2500   -28.2582    76.9107    13.3053    12.5597     6.8047
  790.0000  -999.2500   -28.2587    74.2991    13.6412    12.8999     6.7754
  790.5000  -999.2500   -28.2667    71.6874    13.9769    13.2274     6.6569
  791.0000  -999.2500   -27.8375    71.1362    14.3127    13.1836     6.6926
  791.5000  -999.2500   -27.1733    71.1285    14.6492    13.1219     6.7249
  792.0000  -999.2500   -26.5006    71.1309    14.9875    13.0616     6.7510
  792.5000  -999.2500   -26.4609    71.1319    15.2908    13.0019     6.7281
  793.0000  -999.2500   -26.6101    71.1319    15.1441    12.9423     6.7057
  793.5000  -999.2500   -26.7611    71.1319    14.9673    12.8831     6.6839
  794.0000  -999.2500   -26.9072    71.4176    14.7921    12.8214     6.6856
  794.5000  -999.2500   -26.9064    72.6784    14.6187    12.6972     6.7828
  795.0000  -999.2500   -26.3673    73.9392    14.4965    12.5723     6.8745
  795.5000  -999.2500   -25.8466    75.2000    14.5668    12.4477     6.8689
  796.0000  -999.2500   -25.3218    76.4608    14.6338    12.3238     6.8591
  796.5000  -999.2500   -25.1131    77.7216    14.6844    12.2681     6.8496
  797.0000  -999.2500   -25.0462    78.6590    14.4930    12.2235     6.8403
  797.5000  -999.2500   -24.9816    79.2186    14.2998    12.1417     6.8310
  798.0000  -999.2500   -24.9170    79.7782    14.1080    12.0131     6.8217
  798.5000  -999.2500   -24.8522    80.3379    13.9166    11.8851     6.8123
  799.0000  -999.2500   -24.7869    80.8975    13.7264    11.7569     6.8030
  799.5000  -999.2500   -24.7127    81.4571    13.5396    11.6286     6.7937
  800.0000  -999.2500   -24.5986    82.9109    13.2820    11.5004     6.7844
  800.5000  -999.2500   -24.4883    84.4699    13.0330    11.3722     6.7751
  801.0000  -999.2500   -24.3782    86.0289    12.7851    11.2440     6.7657
  801.5000  -999.2500   -24.2680    87.5879    12.5380    11.1157     6.7564
  802.0000  -999.2500   -24.1578    89.1470    12.3450    10.9875     6.7471
  802.5000  -999.2500   -24.0476    90.7060    12.1587    10.8593     6.7375
  803.0000  -999.2500   -23.9374    91.6407    11.9725    10.7310     6.7117
  803.5000  -999.2500   -23.8272  -999.2500    11.7861    10.6027     6.6623
  804.0000  -999.2500   -23.7171  -999.2500    11.5997    10.4728     6.6138
  804.5000  -999.2500   -23.6193  -999.2500    11.4129    10.4410     6.6243
  805.0000  -999.2500   -23.5230  -999.2500    11.2262    10.4496     6.7036
  805.5000  -999.2500   -23.4267  -999.2500    11.0628    10.4588     6.7814
  806.0000  -999.2500   -23.3304  -999.2500    11.0883    10.4680     6.8408
  806.5000  -999.2500   -23.2341  -999.2500    11.1165    10.4771     6.8528
  807.0000  -999.2500   -23.1377  -999.2500    11.1438    10.4862     6.7932
  807.5000  -999.2500   -23.0411  -999.2500    11.1634    10.4953     6.7513
  808.0000  -999.2500   -22.9462  -999.2500    11.1630    10.5044     6.7536
  808.5000  -999.2500   -22.9507  -999.2500    11.1630    10.5136  -999.2500
  809.0000  -999.2500   -23.0847  -999.2500    11.1630    10.5227  -999.2500
  809.5000  -999.2500   -23.0847  -999.2500    11.1630    10.5318  -999.2500
  810.0000  -999.2500   -23.0851  -999.2500    11.1630    10.5399  -999.2500
