~VERSION INFORMATION
 VERS.                2.0:   CWLS LOG ASCII STANDARD - VERSION 2.0
 WRAP.                 NO:   ONE LINE PER DEPTH STEP
~WELL INFORMATION
#MNEM.UNIT      DATA TYPE    INFORMATION
#----------   ------------   ------------------------------
 STRT.F           30.0000:   START DEPTH
 STOP.F          677.0000:   STOP DEPTH
 STEP.F            0.5000:   STEP LENGTH
 NULL.          -999.2500:   NO VALUE
 COMP. FENIX & SCISSON INC:   COMPANY
 WELL. TEAPOT DOME #27 SX -2:   WELL
 FLD .             TEAPOT:   FIELD
 LOC .       S2 T38N R78W:   LOCATION
 CNTY.            NATRONA:   COUNTY
 STAT.            WYOMING:   STATE
 CTRY. UNITED STATES OF AMERICA:   COUNTRY
 SRVC.            Unknown:   SERVICE COMPANY
 DATE.        28-JAN-1978:   LOGDATE
 API .       490251056500:   API NUMBER
~CURVE INFORMATION
#MNEM.UNIT       API CODE    CURVE DESCRIPTION
#----------   ------------   ------------------------------
 DEPT.F                  :   
 ILD .OHMM   05 120 46 00:   INDUCTION LOG DEEP
 SN  .OHMM   05 040 16 00:   SHORT NORMAL 16"
 SPR .MV     05 010 01 00:   SPONTANEOUS POTENSIAL
 CALD.IN     45 280 60 00:   CALIPER FROM DENSITY LOG
 CORR.G/C3   45 356 01 00:   DENSITY CORRECTION
 DPHI.DEC    45 890 12 00:   DENSITY POROSITY SANDSTONE
 GRD .GAPI   45 310 01 00:   GAMMA RAY FROM DENSITY LOG
 RHOB.G/C3   45 350 01 00:   BULK DENSITY
~PARAMETER INFORMATION
#MNEM.UNIT          VALUE    DESCRIPTION
#----------   ------------   ------------------------------
 PD  .                 GL:   PERMANENT DATUM
 EPD .F              5147:   ELEVATION PERMANENT DATUM
 LMF .                 KB:   LOG MEASURED FROM
 DAPD.F                 4:   FEET ABOVE PERMANENT DATUM
 DMF .                 KB:   DRILLING MEASURED FROM
 EKB .F              5151:   KELLING BUSHING
 EGL .F              5147:   GROUND LEVEL
 DATE.        28-JAN-1978:   RUN DATE
 RUN .                  1:   RUN NUMBER
 DD  .F               675:   DEPTH DRILLER
 DL  .F               678:   DEPTH LOGGER
 BLI .F               677:   BOTTOM LOG INTERVAL
 TLI .F                40:   TOP LOG INTERVAL
 CS  .IN            8.625:   CASING SIZE
 CBD .F                40:   CASING BOTTOM DRILLER
 CBL .F                40:   CASING BOTTOM LOGGER
 BS  .IN            7.875:   BIT SIZE
 BSD .F               675:   BIT SIZE AT DEPTH
 DFT .                KCL:   DRILLING FLUID TYPE
 DFD .                8.6:   DRILLING FLUID DENSITY
 DFV .                .34:   DRILLING FLUID VISCOSITY
 DFPH.                9.5:   DRILLING FLUID PH
 MSS .           FLOWLINE:   MUD SAMPLE SOURCE
 RMS .OHMM           0.38:   RESISTIVITY MUD SAMPLE
 MST .F                60:   MUD SAMPLE TEMPERATURE
 RMF .OHMM           0.36:   RESISTIVITY MUD FILTRATE SAMPLE
 MFST.F                62:   MUD FILTRATE SAMPLE TEMPERATURE
 RMC .OHMM            0.7:   RESISTIVITY MUD CAKE
 MCST.F                63:   MUD CAKE SAMPLE TEMPERATURE
 MFSS.               MEAS:   MUD FILTRATE SAMPLE SOURCE
 MCSS.               MEAS:   MUD CAKE SAMPLE SOURCE
 RMB .OHMM           0.31:   RESISTIVITY MUD AT BHT
 BHT .F                76:   BOTTOM HOLE TEMPERATURE
 TCS .HRS               3:   TIME CURCULATED STOPPED
 MRT .F                76:   MAXIMUM RECORDED TEMPERATURE
 LUN .               2958:   LOGGING UNIT NUMBER
 LUL .             CASPER:   LOGGING UNIT LOCATION
 ENGI.           REYNOLDS:   RECORDING ENGINEER
 WITN.     MR. HARRINGTON:   WITNESSED BY
 CLNT.            A2DTECH:   CLIENT CODE
 ORIG.           5" PRINT:   ORIGIN OF DATA
 UWI .       490251056500:   UNIQUE WELL ID
 DICO. A2D Technologies, Inc.:   DIGITIZING COMPANY
~OTHER INFORMATION
~A   DEPT      ILD         SN        SPR       CALD       CORR       DPHI        GRD       RHOB   
# ...
  192.0000     7.8339     7.2896   -68.4713     8.6685     0.0966     0.1128   108.2233     2.4750
  192.5000     7.8409     7.3465   -68.6024     8.6553     0.0938     0.1152   106.4746     2.4684
  193.0000     7.8466     7.3511   -68.5830     8.6580     0.0940     0.1187   105.8988     2.4654
  193.5000     7.8523     7.3781   -68.4106     8.6600     0.0987     0.1205   108.8839     2.4641
  194.0000     7.8580     7.4121   -68.3919     8.6544     0.0989     0.1163   109.2091     2.4656
  194.5000     7.8638     7.3668   -68.5227     8.6347     0.1005     0.1138   109.6712     2.4710
  195.0000     7.8155     7.3199   -68.5040     8.6225     0.1022     0.1120   110.1361     2.4748
  195.5000     7.7676     7.2257   -68.4853     8.6246     0.1069     0.1111   108.2342     2.4779
  196.0000     7.7200     7.2306   -68.4664     8.6268     0.1163     0.1089   107.2146     2.4787
  196.5000     7.6726     7.2356   -68.4433     8.6289     0.1178     0.1077   106.6479     2.4788
  197.0000     7.7860     7.2913   -68.4246     8.6315     0.1179     0.1077   105.3392     2.4789
  197.5000     7.8454     7.3466   -68.4059     8.6337     0.1181     0.1077   104.9166     2.4790
  198.0000     7.8512     7.4199   -68.3872     8.6506     0.1228     0.1088   104.3514     2.4806
  198.5000     7.9125     7.5199   -68.5180     8.6527     0.1245     0.1088   105.5560     2.4814
  199.0000     7.9183     7.6200   -68.6488     8.6548     0.1337     0.1072   104.3937     2.4830
  199.5000     7.9241     7.7310   -68.6254     8.6570     0.1413     0.1063   106.1908     2.4838
  200.0000     7.9294     7.8433   -68.3078     8.6443     0.1475     0.1078   105.4769     2.4802
  200.5000     8.0455     7.9027   -68.2891     8.6469     0.1582     0.1104   104.3147     2.4750
  201.0000     8.0514     7.9080   -68.2704     8.6490     0.1614     0.1107   103.7441     2.4759
  201.5000     8.0575     7.9132   -68.4059     8.6512     0.1488     0.1101   101.9902     2.4760
  202.0000     8.0646     7.8641   -68.2321     8.6237     0.1377     0.1166    98.2678     2.4731
  202.5000     8.0137     7.7085   -68.3632     8.5961     0.1273     0.1192    97.0175     2.4665
  203.0000     7.9645     7.6082   -68.4940     8.5840     0.1200     0.1201   103.2606     2.4614
  203.5000     8.1410     7.6697   -68.4708     8.5404     0.1127     0.1201   106.3911     2.4622
  204.0000     8.0361     7.7707   -68.4523     8.5429     0.0903     0.1194   107.5985     2.4623
  204.5000     8.0995     7.8524   -68.4338     8.5449     0.0905     0.1254   107.4364     2.4624
  205.0000     8.1618     8.0182   -68.4152     8.5469     0.0907     0.1358   104.2502     2.4476
  205.5000     8.2830     8.0800   -68.2466     8.5489     0.0908     0.1369   103.5345     2.4423
  206.0000     8.4624     8.0864   -68.3735     8.5508     0.0940     0.1404   103.1147     2.4366
  206.5000     8.6456     8.0927   -68.3550     8.5529     0.0988     0.1472   104.9139     2.4254
  207.0000     8.7723     8.0992   -68.3365     8.5553     0.1078     0.1511   107.0089     2.4188
  207.5000     8.9008     8.1071   -68.4679     8.5570     0.1155     0.1528   106.5951     2.4092
  208.0000     8.9695     8.1135   -68.6119     8.5591     0.1112     0.1522   107.6546     2.4048
  208.5000     8.9781     8.1198   -68.8788     8.5612     0.1083     0.1456   109.8976     2.4117
  209.0000     8.9852     8.1262   -68.7061     8.5645     0.1055     0.1461   110.6612     2.4163
  209.5000     9.0543     8.1328   -68.5381     8.6101     0.1057     0.1461   111.7208     2.4164
  210.0000     9.0614     8.1407   -68.5196     8.6269     0.1058     0.1439   112.3373     2.4150
  210.5000     9.0688     8.1471   -68.5008     8.6585     0.1060     0.1448   112.3665     2.4158
  211.0000     9.0775     8.2665   -68.4779     8.6605     0.1061     0.1460   112.0886     2.4220
  211.5000     9.0846     8.3302   -68.4593     8.6477     0.1048     0.1429   111.2311     2.4190
  212.0000     9.0918     8.5108   -68.4408     8.6502     0.1032     0.1333   110.3675     2.4221
  212.5000     9.0989     8.6372   -68.5764     8.6521     0.0991     0.1267   110.2318     2.4387
  213.0000     9.2397     8.7764   -68.7027     8.6541     0.0933     0.1219   109.2381     2.4515
  213.5000     9.4991     8.9537   -68.3805     8.6561     0.0620     0.1193   108.3685     2.4576
  214.0000     9.7048     9.1477   -68.5161     8.6581     0.0576     0.1158   107.3630     2.4622
  214.5000     9.8470     9.2843   -68.6471     8.6606     0.0578     0.1277   106.0557     2.4638
  215.0000    10.0602     9.4285   -68.6239     8.6625     0.0595     0.1250   106.3755     2.4467
  215.5000    10.2146     9.6239   -68.6053     8.6645     0.0641     0.1201   104.4825     2.4550
  216.0000    10.4307     9.7298   -68.5822     8.6813     0.0703     0.1261   103.3170     2.4544
  216.5000    10.6565     9.8402   -68.5636     8.6833     0.0825     0.1299   107.0473     2.4461
  217.0000    10.8126     9.9160   -68.5451     8.6853     0.0811     0.1206   106.1837     2.4479
  217.5000    10.9711     9.9242   -68.5266     8.6823     0.0708     0.1191   105.7579     2.4644
  218.0000    11.0556    10.0153   -68.5080     8.6750     0.0785     0.1193   105.0483     2.4817
  218.5000    11.0663    10.1694   -68.4888     8.6678     0.0861     0.1196   101.7825     2.4706
  219.0000    10.9970    10.3687   -68.4663     8.6605     0.0863     0.1171    97.8478     2.4609
  219.5000    11.0078    10.2350   -68.6019     8.6533     0.0774     0.1129   101.2802     2.4648
  220.0000    10.9409    10.1728   -68.4293     8.6537     0.0671     0.1212   100.4166     2.4717
  220.5000    10.8745    10.0980   -68.4107     8.6557     0.0688     0.1215    98.3696     2.4605
  221.0000    10.8085    10.0495   -68.5417     8.6577     0.0704     0.1223    97.2102     2.4592
  221.5000    10.7428    10.0594   -68.5185     8.6596     0.0736     0.1226    98.2757     2.4570
  222.0000    10.6044     9.9982   -68.5000     8.6616     0.0663     0.1191   101.7021     2.4526
  222.5000    10.5420     9.8016   -68.6309     8.6488     0.0618     0.1150   101.5721     2.4632
  223.0000    10.4780     9.6771   -68.6124     8.6513     0.0591     0.1132   103.2294     2.4715
  223.5000    10.4863     9.5523   -68.5934     8.6379     0.0608     0.1122   107.0995     2.4716
  224.0000    10.3511     9.4924   -68.5707     8.6401     0.0714     0.1209   107.2715     2.4650
  224.5000    10.3613     9.3075   -68.8511     8.6411     0.0791     0.1220   105.0825     2.4464
  225.0000    10.3695     9.3167   -68.8325     8.6421     0.0793     0.1148   105.9941     2.4637
  225.5000    10.3066     9.3222   -68.8140     8.6431     0.0809     0.1079   106.4619     2.4803
  226.0000    10.3166     9.2656   -68.7952     8.6441     0.0856     0.1042   106.9297     2.4841
  226.5000    10.3248     9.2747   -68.7723     8.6451     0.0903     0.1015   106.9537     2.4902
  227.0000    10.2613     9.2820   -68.6043     8.6460     0.0889     0.0985   104.4689     2.5025
  227.5000    10.2701     9.2625   -68.5857     8.6470     0.0846     0.1026   103.4574     2.4904
  228.0000    10.2782     9.3627   -68.5672     8.6480     0.0864     0.1002   102.4399     2.4943
  228.5000    10.2883     9.3700   -68.5486     8.6490     0.0894     0.0974   103.5055     2.5019
  229.0000    10.2964     9.4422   -68.3760     8.6500     0.0881     0.0962   104.8817     2.5064
  229.5000    10.3045     9.5148   -68.3575     8.6510     0.0837     0.1009   108.2932     2.4961
  230.0000    10.3838     9.5599   -68.3390     8.6520     0.0794     0.1012   110.0924     2.5007
  230.5000    10.4637     9.6737   -68.1709     8.6530     0.0765     0.0981   110.2583     2.5060
  231.0000    10.6924     9.8056   -68.1524     8.6396     0.0738     0.0987   109.5427     2.4934
  231.5000    10.7747     9.8133   -68.1292     8.6421     0.0694     0.0975   110.6082     2.5032
  232.0000    10.7832     9.8210   -68.2648     8.6584     0.0636     0.0860   110.0710     2.5093
