~VERSION INFORMATION
 VERS.                2.0:   CWLS LOG ASCII STANDARD - VERSION 2.0
 WRAP.                 NO:   ONE LINE PER DEPTH STEP
~WELL INFORMATION
#MNEM.UNIT      DATA TYPE    INFORMATION
#----------   ------------   ------------------------------
 STRT.F            0.0000:   START DEPTH
 STOP.F         2720.0000:   STOP DEPTH
 STEP.F            0.5000:   STEP LENGTH
 NULL.          -999.2500:   NO VALUE
 COMP. DEPARTMENT OF ENERGY:   COMPANY
 WELL.       NPR-3 #410-A:   WELL
 FLD . TEAPOT NAVAL RESERVE:   FIELD
 LOC .      S20 T39N R78W:   LOCATION
 CNTY.            NATRONA:   COUNTY
 STAT.            WYOMING:   STATE
 CTRY. UNITED STATES OF AMERICA:   COUNTRY
 SRVC.      NL McCullough:   SERVICE COMPANY
 DATE.        26-JUL-1965:   LOGDATE
 API .       490251144500:   API NUMBER
~CURVE INFORMATION
#MNEM.UNIT       API CODE    CURVE DESCRIPTION
#----------   ------------   ------------------------------
 DEPT.F                  :   
 GR  .GAPI   30 310 01 00:   GAMMA RAY
 CALI.IN     30 280 01 00:   CALIPER
~PARAMETER INFORMATION
#MNEM.UNIT          VALUE    DESCRIPTION
#----------   ------------   ------------------------------
 PD  .                 GL:   PERMANENT DATUM
 LMF .                 GL:   LOG MEASURED FROM
 DATE.            7-16-65:   RUN DATE
 RUN .                  1:   RUN NUMBER
 DD  .F              2720:   DEPTH DRILLER
 TLI .F              2100:   TOP LOG INTERVAL
 CS  .IN            6.875:   CASING SIZE
 DFT .              WATER:   DRILLING FLUID TYPE
 ENGI. FITZSIMMONE/COWLTHORPE:   RECORDING ENGINEER
 WITN.             HUDSON:   WITNESSED BY
 CLNT.            A2DTECH:   CLIENT CODE
 ORIG.           5" PRINT:   ORIGIN OF DATA
 UWI .       490251144500:   UNIQUE WELL ID
 DICO. A2D Technologies, Inc.:   DIGITIZING COMPANY
~OTHER INFORMATION
~A    DEPT      GR         CALI 
# ...
  972.0000  -999.2500     5.9180
  972.5000  -999.2500     5.9149
  973.0000  -999.2500     5.9117
  973.5000  -999.2500     5.9085
  974.0000  -999.2500     5.9053
  974.5000  -999.2500     5.9022
  975.0000  -999.2500     5.8990
  975.5000  -999.2500     5.8958
  976.0000  -999.2500     5.8925
  976.5000  -999.2500     5.8901
  977.0000  -999.2500     5.9042
  977.5000  -999.2500     5.9186
  978.0000  -999.2500     5.9329
  978.5000  -999.2500     5.9474
  979.0000  -999.2500     5.9511
  979.5000  -999.2500     5.9540
  980.0000  -999.2500     5.9569
  980.5000  -999.2500     5.9598
  981.0000  -999.2500     5.9627
  981.5000  -999.2500     5.9656
  982.0000  -999.2500     5.9685
  982.5000  -999.2500     5.9714
  983.0000  -999.2500     5.9743
  983.5000  -999.2500     5.9773
  984.0000  -999.2500     5.9802
  984.5000  -999.2500     5.9831
  985.0000  -999.2500     5.9860
  985.5000  -999.2500     5.9890
  986.0000  -999.2500     5.9879
  986.5000  -999.2500     5.9849
  987.0000  -999.2500     5.9818
  987.5000  -999.2500     5.9787
  988.0000  -999.2500     5.9756
  988.5000  -999.2500     5.9726
  989.0000  -999.2500     5.9698
  989.5000  -999.2500     5.9699
  990.0000  -999.2500     5.9699
  990.5000  -999.2500     5.9699
  991.0000  -999.2500     5.9699
  991.5000  -999.2500     5.9699
  992.0000  -999.2500     5.9699
  992.5000  -999.2500     5.9699
  993.0000  -999.2500     5.9699
  993.5000  -999.2500     5.9699
  994.0000  -999.2500     5.9699
  994.5000  -999.2500     5.9699
  995.0000  -999.2500     5.9699
  995.5000  -999.2500     5.9699
  996.0000  -999.2500     5.9677
  996.5000  -999.2500     5.9647
  997.0000  -999.2500     5.9618
  997.5000  -999.2500     5.9587
  998.0000  -999.2500     5.9557
  998.5000  -999.2500     5.9527
  999.0000  -999.2500     5.9499
  999.5000  -999.2500     5.9498
 1000.0000  -999.2500     5.9498
 1000.5000  -999.2500     5.9498
 1001.0000  -999.2500     5.9498
 1001.5000  -999.2500     5.9498
 1002.0000  -999.2500     5.9498
 1002.5000  -999.2500     5.9498
 1003.0000  -999.2500     5.9498
 1003.5000  -999.2500     5.9498
 1004.0000  -999.2500     5.9498
 1004.5000  -999.2500     5.9497
 1005.0000  -999.2500     5.9498
 1005.5000  -999.2500     5.9553
 1006.0000  -999.2500     5.9784
 1006.5000  -999.2500     6.0009
 1007.0000  -999.2500     6.0099
 1007.5000  -999.2500     6.0101
 1008.0000  -999.2500     6.0051
 1008.5000  -999.2500     5.9978
 1009.0000  -999.2500     5.9903
 1009.5000  -999.2500     5.9829
 1010.0000  -999.2500     5.9755
 1010.5000  -999.2500     5.9680
 1011.0000  -999.2500     5.9606
 1011.5000  -999.2500     5.9531
 1012.0000  -999.2500     5.9612
 1012.5000  -999.2500     5.9819
 1013.0000  -999.2500     6.0027
 1013.5000  -999.2500     6.0239
 1014.0000  -999.2500     6.0253
 1014.5000  -999.2500     6.0185
 1015.0000  -999.2500     6.0115
 1015.5000  -999.2500     6.0046
 1016.0000  -999.2500     5.9976
 1016.5000  -999.2500     5.9908
 1017.0000  -999.2500     5.9875
 1017.5000  -999.2500     5.9848
 1018.0000  -999.2500     5.9820
 1018.5000  -999.2500     5.9793
 1019.0000  -999.2500     5.9766
 1019.5000  -999.2500     5.9738
 1020.0000  -999.2500     5.9710
 1020.5000  -999.2500     5.9754
 1021.0000  -999.2500     5.9853
 1021.5000  -999.2500     5.9952
 1022.0000  -999.2500     6.0051
 1022.5000  -999.2500     6.0088
 1023.0000  -999.2500     5.9984
 1023.5000  -999.2500     5.9902
 1024.0000  -999.2500     5.9929
 1024.5000  -999.2500     5.9955
 1025.0000  -999.2500     5.9980
 1025.5000  -999.2500     6.0006
 1026.0000  -999.2500     6.0031
 1026.5000  -999.2500     6.0057
 1027.0000  -999.2500     6.0082
 1027.5000  -999.2500     6.0090
 1028.0000  -999.2500     6.0040
 1028.5000  -999.2500     5.9993
 1029.0000  -999.2500     5.9945
 1029.5000  -999.2500     5.9903
 1030.0000  -999.2500     5.9962
 1030.5000  -999.2500     6.0023
 1031.0000  -999.2500     6.0087
 1031.5000  -999.2500     6.0100
 1032.0000  -999.2500     6.0101
 1032.5000  -999.2500     6.0100
 1033.0000  -999.2500     6.0100
 1033.5000  -999.2500     6.0100
 1034.0000  -999.2500     6.0101
 1034.5000  -999.2500     6.0103
 1035.0000  -999.2500     6.0016
 1035.5000  -999.2500     5.9910
 1036.0000  -999.2500     5.9803
 1036.5000  -999.2500     5.9696
 1037.0000  -999.2500     5.9589
 1037.5000  -999.2500     5.9482
 1038.0000  -999.2500     5.9376
 1038.5000  -999.2500     5.9296
 1039.0000  -999.2500     5.9297
 1039.5000  -999.2500     5.9297
 1040.0000  -999.2500     5.9297
 1040.5000  -999.2500     5.9297
 1041.0000  -999.2500     5.9297
 1041.5000  -999.2500     5.9297
 1042.0000  -999.2500     5.9297
 1042.5000  -999.2500     5.9297
 1043.0000  -999.2500     5.9297
 1043.5000  -999.2500     5.9293
 1044.0000  -999.2500     5.9455
 1044.5000  -999.2500     5.9652
 1045.0000  -999.2500     5.9646
 1045.5000  -999.2500     5.9546
 1046.0000  -999.2500     5.9445
 1046.5000  -999.2500     5.9344
 1047.0000  -999.2500     5.9244
 1047.5000  -999.2500     5.9143
 1048.0000  -999.2500     5.9199
 1048.5000  -999.2500     5.9386
 1049.0000  -999.2500     5.9514
 1049.5000  -999.2500     5.9553
 1050.0000  -999.2500     5.9592
 1050.5000  -999.2500     5.9630
 1051.0000  -999.2500     5.9669
 1051.5000  -999.2500     5.9700
 1052.0000  -999.2500     5.9699
 1052.5000  -999.2500     5.9699
 1053.0000  -999.2500     5.9699
 1053.5000  -999.2500     5.9699
 1054.0000  -999.2500     5.9698
 1054.5000  -999.2500     5.9662
 1055.0000  -999.2500     5.9587
 1055.5000  -999.2500     5.9512
 1056.0000  -999.2500     5.9437
 1056.5000  -999.2500     5.9362
 1057.0000  -999.2500     5.9299
 1057.5000  -999.2500     5.9325
 1058.0000  -999.2500     5.9349
 1058.5000  -999.2500     5.9374
 1059.0000  -999.2500     5.9398
 1059.5000  -999.2500     5.9423
 1060.0000  -999.2500     5.9447
 1060.5000  -999.2500     5.9472
 1061.0000  -999.2500     5.9497
 1061.5000  -999.2500     5.9536
 1062.0000  -999.2500     5.9578
 1062.5000  -999.2500     5.9621
 1063.0000  -999.2500     5.9663
 1063.5000  -999.2500     5.9694
 1064.0000  -999.2500     5.9650
 1064.5000  -999.2500     5.9607
 1065.0000  -999.2500     5.9564
 1065.5000  -999.2500     5.9521
 1066.0000  -999.2500     5.9479
 1066.5000  -999.2500     5.9436
 1067.0000  -999.2500     5.9393
 1067.5000  -999.2500     5.9350
 1068.0000  -999.2500     5.9303
 1068.5000  -999.2500     5.9398
 1069.0000  -999.2500     5.9529
 1069.5000  -999.2500     5.9661
 1070.0000  -999.2500     5.9793
 1070.5000  -999.2500     5.9868
 1071.0000  -999.2500     5.9652
 1071.5000  -999.2500     5.9444
 1072.0000  -999.2500     5.9313
 1072.5000  -999.2500     5.9473
 1073.0000  -999.2500     5.9632
 1073.5000  -999.2500     5.9788
 1074.0000  -999.2500     5.9864
 1074.5000  -999.2500     5.9705
 1075.0000  -999.2500     5.9554
 1075.5000  -999.2500     5.9405
 1076.0000  -999.2500     5.9345
 1076.5000  -999.2500     5.9566
 1077.0000  -999.2500     5.9776
 1077.5000  -999.2500     5.9986
 1078.0000  -999.2500     6.0196
 1078.5000  -999.2500     6.0223
 1079.0000  -999.2500     6.0065
 1079.5000  -999.2500     5.9908
 1080.0000  -999.2500     5.9749
 1080.5000  -999.2500     5.9726
 1081.0000  -999.2500     5.9781
 1081.5000  -999.2500     5.9836
 1082.0000  -999.2500     5.9893
 1082.5000  -999.2500     5.9830
 1083.0000  -999.2500     5.9726
 1083.5000  -999.2500     5.9620
 1084.0000  -999.2500     5.9509
 1084.5000  -999.2500     5.9692
 1085.0000  -999.2500     5.9926
 1085.5000  -999.2500     6.0157
 1086.0000  -999.2500     6.0235
 1086.5000  -999.2500     6.0056
 1087.0000  -999.2500     5.9899
 1087.5000  -999.2500     5.9878
 1088.0000  -999.2500     5.9860
 1088.5000  -999.2500     5.9841
 1089.0000  -999.2500     5.9823
 1089.5000  -999.2500     5.9804
 1090.0000  -999.2500     5.9785
 1090.5000  -999.2500     5.9767
 1091.0000  -999.2500     5.9748
 1091.5000  -999.2500     5.9729
 1092.0000  -999.2500     5.9711
 1092.5000  -999.2500     5.9773
 1093.0000  -999.2500     5.9966
