~VERSION INFORMATION
 VERS.                2.0:   CWLS LOG ASCII STANDARD - VERSION 2.0
 WRAP.                 NO:   ONE LINE PER DEPTH STEP
~WELL INFORMATION
#MNEM.UNIT      DATA TYPE    INFORMATION
#----------   ------------   ------------------------------
 STRT.F           16.0000:   START DEPTH
 STOP.F          661.0000:   STOP DEPTH
 STEP.F            0.5000:   STEP LENGTH
 NULL.          -999.2500:   NO VALUE
 COMP. FENIX & SCISSON INC:   COMPANY
 WELL.  26-66 SX 11 #I-11:   WELL
 FLD .             TEAPOT:   FIELD
 LOC .      S11 T38N R78W:   LOCATION
 CNTY.            NATRONA:   COUNTY
 STAT.            WYOMING:   STATE
 CTRY. UNITED STATES OF AMERICA:   COUNTRY
 SRVC.      Dresser Atlas:   SERVICE COMPANY
 DATE.        22-JUL-1980:   LOGDATE
 API .       490251083200:   API NUMBER
~CURVE INFORMATION
#MNEM.UNIT       API CODE    CURVE DESCRIPTION
#----------   ------------   ------------------------------
 DEPT.F                  :   
 SFL .OHMM   07 220 01 00:   SHALLOW FOCUSED LOG RESISTIVITY
 ILD .OHMM   07 120 46 00:   INDUCTION LOG DEEP
 ILM .OHMM   07 120 44 00:   INDUCTION LOG MEDIUM
 SPR .MV     07 010 01 00:   SPONTANEOUS POTENTIAL
 CALD.IN     45 280 60 00:   CALIPER
 GRD .GAPI   45 310 01 00:   GAMMA RAY FROM DENSITY LOG
 RHOB.G/C3   45 350 01 00:   BULK DENSITY
 CORR.G/C3   45 356 01 00:   DENSITY CORRECTION
 DPHI.DEC    45 890 12 00:   DENSITY POROSITY SANDSTONE
 NPHI.DEC    42 890 03 00:   NEUTRON POROSITY SANDSTONE
~PARAMETER INFORMATION
#MNEM.UNIT          VALUE    DESCRIPTION
#----------   ------------   ------------------------------
 PD  .                 GL:   PERMANENT DATUM
 EPD .F              5193:   ELEVATION PERMANENT DATUM
 LMF .                 KB:   LOG MEASURED FROM
 DAPD.F                 5:   FEET ABOVE PERMANENT DATUM
 DMF .                 KB:   DRILLING MEASURED FROM
 EKB .F              5198:   KELLING BUSHING
 EDF .F              5196:   DRILLING FLOOR
 EGL .F              5193:   GROUND LEVEL
 DATE.            7-22-80:   RUN DATE
 RUN .                  1:   RUN NUMBER
 DD  .F               655:   DEPTH DRILLER
 DL  .F               655:   DEPTH LOGGER
 BLI .F               653:   BOTTOM LOG INTERVAL
 TLI .F                20:   TOP LOG INTERVAL
 BS  .IN            7.875:   BIT SIZE
 BSD .F               655:   BIT SIZE AT DEPTH
 DFT .                KCL:   DRILLING FLUID TYPE
 DFD .                9.1:   DRILLING FLUID DENSITY
 DFV .                 46:   DRILLING FLUID VISCOSITY
 DFPH.                 11:   DRILLING FLUID PH
 DFL .                  6:   DRILLING FLUID LOSS
 MSS .           FLOWLINE:   MUD SAMPLE SOURCE
 RMS .OHMM            .17:   RESISTIVITY MUD SAMPLE
 MST .F                75:   MUD SAMPLE TEMPERATURE
 RMF .OHMM            .13:   RESISTIVITY MUD FILTRATE SAMPLE
 MFST.F                75:   MUD FILTRATE SAMPLE TEMPERATURE
 RMC .OHMM            .26:   RESISTIVITY MUD CAKE
 MCST.F                75:   MUD CAKE SAMPLE TEMPERATURE
 MFSS.                  C:   MUD FILTRATE SAMPLE SOURCE
 MCSS.                  C:   MUD CAKE SAMPLE SOURCE
 TCS .HRS               1:   TIME CURCULATED STOPPED
 LUN .               6240:   LOGGING UNIT NUMBER
 LUL .               RVTN:   LOGGING UNIT LOCATION
 ENGI.   K. RALL/J. GETTY:   RECORDING ENGINEER
 WITN.            RHOADES:   WITNESSED BY
 CLNT.            A2DTECH:   CLIENT CODE
 ORIG.        2" 5" PRINT:   ORIGIN OF DATA
 UWI .       490251083200:   UNIQUE WELL ID
 DICO. A2D Technologies, Inc.:   DIGITIZING COMPANY
~OTHER INFORMATION
~A   DEPT      SFL        ILD        ILM        SPR       CALD        GRD       RHOB       CORR         DPHI     NPHI   
# ...
  418.0000     5.8380     6.2843     5.6130   -54.0313     8.1043   120.3702     2.4502     0.0214     0.1500     0.3145
  418.5000     5.4587     6.2661     5.2514   -54.0743     8.0818   122.6231     2.4703     0.0428     0.1296     0.3229
  419.0000     5.1041     6.2468     4.9216   -54.1148     8.0858   121.4234     2.4627     0.0382     0.1240     0.3186
  419.5000     4.7725     6.1077     4.6678   -54.2955     8.0892   116.6684     2.4506     0.0342     0.1319     0.3120
  420.0000     4.6093     5.9038     4.2510   -54.5589     8.0921   111.7366     2.4277     0.0301     0.1447     0.3275
  420.5000     4.5037     5.2192     3.9962   -54.8247     8.0951   110.1412     2.4003     0.0247     0.1621     0.3611
  421.0000     4.4322     4.4163     3.9593   -55.0918     8.0981   113.5948     2.3767     0.0300     0.1780     0.3817
  421.5000     4.4318     3.9722     3.8639   -55.3312     8.1010   115.3866     2.3665     0.0290     0.1876     0.3877
  422.0000     4.6008     4.3506     4.1448   -55.1688     8.1027   115.1538     2.3684     0.0243     0.1872     0.3675
  422.5000     5.6394     4.7868     4.9053   -54.9971     8.0976   113.2514     2.4038     0.0166     0.1728     0.3375
  423.0000     6.7153     5.2667     5.6368   -54.8273     8.0905   112.8458     2.4152     0.0167     0.1611     0.3389
  423.5000     7.3626     5.7416     5.9257   -54.6573     8.0834   112.6436     2.4394     0.0217     0.1502     0.3347
  424.0000     7.3113     6.0454     6.2370   -54.4863     8.0793   112.3625     2.4550     0.0277     0.1366     0.2806
  424.5000     7.2198     6.5407     6.5647   -54.3464     8.0757   115.0455     2.4790     0.0357     0.1233     0.2886
  425.0000     7.0968     6.9668     6.8396   -54.5550     8.0721   118.3302     2.4904     0.0478     0.1126     0.2883
  425.5000     7.1696     7.1191     6.8678   -54.7617     8.0685   125.5065     2.5019     0.0587     0.1079     0.3062
  426.0000     7.2964     7.1758     6.9029   -54.9230     8.0649   129.4645     2.5046     0.0585     0.1052     0.3137
  426.5000     7.4244     7.2330     6.9866   -54.6364     8.0612   131.5809     2.4934     0.0493     0.1124     0.3056
  427.0000     7.5546     7.2907     7.0348   -53.8426     8.0576   130.3605     2.4785     0.0353     0.1227     0.3004
  427.5000     7.6870     7.3489     7.0832   -53.0534     8.0540   126.5221     2.4704     0.0253     0.1247     0.2979
  428.0000     7.8217     7.4076     7.1320   -52.6435     8.0504   122.5789     2.4583     0.0217     0.1333     0.2967
  428.5000     7.9256     7.4666     7.1811   -52.8876     8.0468   121.2816     2.3890    -0.0209     0.1770     0.3011
  429.0000     7.8327     7.4995     7.2282   -52.7603     8.0431   122.1305     2.3453    -0.0290     0.1995     0.3134
  429.5000     7.7874     7.4342     7.2045   -52.6416     8.0423   119.6465     2.3856     0.0004     0.1590     0.3250
  430.0000     7.7425     7.3822     7.1768   -52.5250     8.0422   116.3559     2.4607     0.0404     0.1181     0.3232
  430.5000     7.7096     7.3305     7.1619   -52.4888     8.0422   116.2232     2.5413     0.0805     0.0786     0.3090
  431.0000     7.7334     7.2792     7.2794   -52.4505     8.0422   118.7642     2.5502     0.0759     0.0782     0.3084
  431.5000     7.7523     7.2283     7.3737   -52.4114     8.0422   121.1613     2.5211     0.0444     0.0899     0.3122
  432.0000     7.7712     7.1777     7.4990   -52.3724     8.0422   121.8946     2.4730     0.0132     0.1312     0.3107
  432.5000     7.7809     7.1619     7.4329   -52.3330     8.0422   122.6652     2.4268    -0.0121     0.1517     0.3112
  433.0000     7.5476     7.0963     7.3340   -52.3187     8.0422   122.8248     2.4629     0.0039     0.1215     0.3121
  433.5000     7.4307     7.1592     7.2372   -52.3182     8.0423   121.5331     2.5113     0.0479     0.0944     0.3120
  434.0000     7.5181     7.2171     7.1430   -52.3195     8.0422   118.2199     2.5522     0.0765     0.0759     0.3009
  434.5000     7.6943     7.2755     7.0953   -52.3131     8.0448   117.6353     2.5250     0.0697     0.0920     0.3035
  435.0000     7.7030     7.3343     7.0965   -52.7044     8.0492   119.3712     2.5102     0.0589     0.1044     0.3080
  435.5000     7.7168     7.3626     7.0283   -53.1753     8.0535   120.0597     2.4988     0.0499     0.1092     0.3166
  436.0000     7.4657     7.2358     6.9773   -53.3070     8.0580   118.6352     2.4957     0.0420     0.1093     0.3163
  436.5000     7.3626     7.1249     6.9265   -52.9680     8.0623   117.3305     2.5005     0.0407     0.1046     0.2937
  437.0000     7.4995     7.0157     6.8482   -52.8115     8.0667   118.8539     2.5102     0.0342     0.1007     0.2955
  437.5000     7.6096     6.7338     6.4778   -53.2137     8.0712   122.2664     2.5353     0.0271     0.0857     0.2990
  438.0000     7.7096     6.2706     6.1275   -53.5955     8.0756   123.5446     2.5668     0.0244     0.0670     0.3248
  438.5000     7.2963     5.8392     5.8483   -53.9414     8.0793   121.7926     2.5857     0.0361     0.0565     0.3361
  439.0000     6.5893     5.7416     5.9389   -53.9321     8.0674   122.3316     2.5667     0.0479     0.0718     0.3415
  439.5000     5.9508     5.7947     6.0398   -53.9306     8.0620   129.3089     2.5048     0.0524     0.1038     0.3393
  440.0000     5.5851     5.7947     6.1239   -53.9858     8.0623   134.8235     2.4585     0.0445     0.1358     0.3399
  440.5000     5.9158     5.7947     6.0817   -54.3940     8.0624   136.2622     2.4336     0.0320     0.1466     0.3437
  441.0000     6.5505     5.6889     5.8583   -54.8017     8.0624   135.0671     2.4521     0.0224     0.1367     0.3353
  441.5000     6.9668     5.5597     5.6432   -55.1500     8.0624   129.9146     2.4646     0.0260     0.1298     0.3175
  442.0000     7.0963     5.4324     5.4359   -55.1462     8.0624   123.8134     2.4730     0.0369     0.1229     0.3244
  442.5000     6.7217     5.3080     5.2363   -54.7331     8.0624   119.2050     2.4767     0.0478     0.1199     0.3351
  443.0000     6.3541     5.2364     5.0470   -54.0320     8.0624   119.0442     2.4618     0.0423     0.1288     0.3435
  443.5000     6.0058     5.3858     4.9548   -53.3335     8.0624   120.0360     2.4505     0.0371     0.1366     0.3473
  444.0000     5.6889     5.4329     5.0007   -52.8171     8.0624   123.3142     2.4551     0.0385     0.1374     0.3458
  444.5000     5.9064     5.4329     5.1830   -52.3268     8.0624   131.6405     2.4684     0.0382     0.1261     0.3415
  445.0000     6.3071     5.4329     5.3919   -52.1687     8.0624   133.8660     2.4921     0.0499     0.1141     0.3337
  445.5000     6.7160     5.4329     5.6036   -52.0262     8.0627   127.0560     2.5159     0.0621     0.1021     0.3252
  446.0000     6.9323     5.6552     5.8241   -51.9474     8.0637   117.3281     2.4932     0.0537     0.0997     0.3129
  446.5000     7.0283     5.9348     6.0534   -52.1235     8.0420   114.4001     2.4622     0.0345     0.1296     0.3044
  447.0000     7.1001     6.2282     6.2916   -52.2947     8.0377   117.5981     2.4511     0.0200     0.1374     0.2997
  447.5000     7.0963     6.5361     6.5393   -52.4572     8.0337   121.1613     2.4477     0.0201     0.1394     0.2983
  448.0000     7.0963     6.8593     6.7769   -52.9936     8.0300   121.9639     2.4449     0.0254     0.1411     0.3082
  448.5000     7.0963     6.9668     6.7769   -53.6901     8.0259   123.6282     2.4510     0.0306     0.1385     0.3150
  449.0000     7.2530     6.5723     6.1360   -54.3390     8.0211   125.4079     2.4712     0.0358     0.1278     0.3189
  449.5000     7.3972     6.2168     5.7189   -54.5682     8.0461   126.6035     2.4883     0.0408     0.1157     0.3116
  450.0000     7.5413     5.8674     5.3299   -54.7815     8.0528   126.5774     2.4657     0.0311     0.1140     0.2776
  450.5000     7.6389     5.5153     4.9625   -54.9912     8.0594   125.1534     2.4346     0.0081     0.1462     0.2932
  451.0000     6.3854     5.1845     4.6885   -55.0876     8.0657   125.0801     2.4385     0.0051     0.1458     0.3187
