~VERSION INFORMATION
 VERS.                2.0:   CWLS LOG ASCII STANDARD - VERSION 2.0
 WRAP.                 NO:   ONE LINE PER DEPTH STEP
~WELL INFORMATION
#MNEM.UNIT      DATA TYPE    INFORMATION
#----------   ------------   ------------------------------
 STRT.F           20.0000:   START DEPTH
 STOP.F          600.0000:   STOP DEPTH
 STEP.F            0.5000:   STEP LENGTH
 NULL.          -999.2500:   NO VALUE
 COMP. FENIX & SCISSON INC:   COMPANY
 WELL. TEAPOT DOME #23 SX 3-4:   WELL
 FLD .             TEAPOT:   FIELD
 LOC .       S4 T38N R78W:   LOCATION
 CNTY.            NATRONA:   COUNTY
 STAT.            WYOMING:   STATE
 CTRY. UNITED STATES OF AMERICA:   COUNTRY
 SRVC.            Unknown:   SERVICE COMPANY
 DATE.        31-JUL-1978:   LOGDATE
 API .       490251067600:   API NUMBER
~CURVE INFORMATION
#MNEM.UNIT       API CODE    CURVE DESCRIPTION
#----------   ------------   ------------------------------
 DEPT.F                  :   
 CALD.IN     45 280 60 00:   CALIPER FROM DENSITY LOG
 GRD .GAPI   45 310 01 00:   GAMMA RAY FROM DENSITY LOG
 CORR.G/C3   45 356 01 00:   DENSITY CORRECTION
 DPHI.DEC    45 890 12 00:   DENSITY POROSITY SANDSTONE
 RHOB.G/C3   45 350 01 00:   BULK DENSITY
 SPR .MV     07 010 01 00:   SPONTANEOUS POTENTIAL
 ILD .OHMM   07 120 46 00:   INDUCTION LOG DEEP
 SN  .OHMM   07 040 16 00:   SHORT NORMAL 16"
 CILD.MMHO   07 110 46 00:   CONDUCTIVITY INDUCTION LOG DEEP
~PARAMETER INFORMATION
#MNEM.UNIT          VALUE    DESCRIPTION
#----------   ------------   ------------------------------
 PD  .                 GL:   PERMANENT DATUM
 EPD .F              5181:   ELEVATION PERMANENT DATUM
 LMF .                 KB:   LOG MEASURED FROM
 DAPD.F                 4:   FEET ABOVE PERMANENT DATUM
 DMF .                 KB:   DRILLING MEASURED FROM
 EKB .F              5185:   KELLING BUSHING
 EGL .F              5181:   GROUND LEVEL
 DATE.        31-JUL-1978:   RUN DATE
 RUN .                  1:   RUN NUMBER
 DD  .F               595:   DEPTH DRILLER
 DL  .F               606:   DEPTH LOGGER
 BLI .F               600:   BOTTOM LOG INTERVAL
 TLI .F                40:   TOP LOG INTERVAL
 CBL .F                45:   CASING BOTTOM LOGGER
 BS  .IN            7.875:   BIT SIZE
 BSD .F               595:   BIT SIZE AT DEPTH
 DFT .                KCL:   DRILLING FLUID TYPE
 DFD .                9.0:   DRILLING FLUID DENSITY
 DFV .                 36:   DRILLING FLUID VISCOSITY
 DFPH.                9.0:   DRILLING FLUID PH
 DFL .                8.0:   DRILLING FLUID LOSS
 MSS .           FLOWLINE:   MUD SAMPLE SOURCE
 BHT .F                74:   BOTTOM HOLE TEMPERATURE
 TCS .HRS            0500:   TIME CURCULATED STOPPED
 MRT .F                74:   MAXIMUM RECORDED TEMPERATURE
 LUN .               2958:   LOGGING UNIT NUMBER
 LUL .               CASP:   LOGGING UNIT LOCATION
 ENGI.            POINTER:   RECORDING ENGINEER
 WITN.              AMEND:   WITNESSED BY
 CLNT.            A2DTECH:   CLIENT CODE
 ORIG.           5" PRINT:   ORIGIN OF DATA
 UWI .       490251067600:   UNIQUE WELL ID
 DICO. A2D Technologies, Inc.:   DIGITIZING COMPANY
~OTHER INFORMATION
~A   DEPT     CALD        GRD       CORR       DPHI       RHOB        SPR        ILD         SN       CILD   
# ...
  421.5000     9.2626    72.5403     0.0491     0.0819     2.5095   -15.4309    22.4720    12.2517    40.3208
  422.0000     9.2188    74.6559     0.0297     0.1175     2.4217   -15.1262    22.4861    12.2577    40.2300
  422.5000     9.2207    72.1239     0.0064     0.1628     2.3528   -14.6729    22.1882    12.2637    41.6373
  423.0000     9.2519    71.2410    -0.0078     0.1828     2.3282   -14.2196    21.6007    12.1838    42.3183
  423.5000     9.2834    70.5081    -0.0047     0.1933     2.3253   -14.0635    21.0255    12.1058    42.9766
  424.0000     9.2998    69.4753     0.0036     0.2055     2.3014   -13.9074    20.3248    12.1132    42.8631
  424.5000     9.3163    68.5925     0.0060     0.2223     2.2662   -13.4541    19.2447    12.1010    42.7723
  425.0000     9.3328    66.9315     0.0053     0.2324     2.2536   -12.8523    18.9897    12.0401    43.4533
  425.5000     9.2894    67.1404     0.0085     0.2390     2.2491   -12.2504    20.6463    12.0462    43.3398
  426.0000     9.3509    68.8287     0.0130     0.2423     2.2500   -11.7971    21.2377    12.0529    43.2490
  426.5000     9.3524    71.0639     0.0168     0.2394     2.2972   -11.6410    20.9596    12.0587    43.1582
  427.0000     9.3689    72.4199     0.0243     0.2185     2.2965   -11.6335    20.5157    12.0646    43.0901
  427.5000     9.3704    72.1368     0.0312     0.2170     2.2974   -11.6260    19.9747    11.9860    43.7483
  428.0000     9.3419    71.1040     0.0350     0.2010     2.3311   -11.6185    19.3264    11.8274    43.6555
  428.5000     9.3281    70.5210     0.0366     0.1939     2.3260   -11.6109    19.6221    11.7517    43.5656
  429.0000     9.3600    69.7881     0.0366     0.2094     2.2908   -11.6034    20.7359    11.6603    44.2250
  429.5000     9.3765    67.8558     0.0284     0.2202     2.3025   -11.5959    20.7546    11.6019    44.8833
  430.0000     9.3780    66.8188     0.0293     0.1998     2.3718   -11.5899    19.3750    11.6078    45.5416
  430.5000     9.2596    72.2370     0.0489     0.1980     2.3120   -11.5825    18.6001    11.6134    46.1998
  431.0000     9.3510    73.4531     0.0407     0.2093     2.3151   -11.4264    18.6121    11.7043    46.1090
  431.5000     9.5175    73.7696     0.0332     0.1928     2.3653   -11.4190    18.7528    11.7862    46.0182
  432.0000     9.5640    74.3860     0.0416     0.1568     2.3889   -11.5622    18.8946    11.7919    45.1784
  432.5000     9.6255    75.4522     0.0574     0.1670     2.3557   -12.1470    19.0375    11.7165    44.3385
  433.0000     9.6420    76.3685     0.0537     0.1954     2.2898   -12.5855    19.1814    11.5615    44.2477
  433.5000     9.6251    73.3867     0.0388     0.2314     2.2644   -12.7266    19.7309    11.5671    44.1569
  434.0000     9.5500    71.7542     0.0313     0.2430     2.2728   -12.8677    20.7177    11.5728    44.0661
  434.5000     9.4645    72.8204     0.0291     0.2070     2.3140   -13.0085    20.1660    11.4985    43.2263
  435.0000     9.4068    73.9330     0.0457     0.1288     2.3665   -13.3000    20.7469    11.5044    43.1355
  435.5000     9.3790    75.1514     0.0646     0.1219     2.4437   -14.3308    20.7600    11.4294    43.0447
  436.0000     9.3358    76.6346     0.0767     0.1538     2.4071   -15.0662    20.6268    11.3563    44.4520
  436.5000     9.3074    78.1380     0.0647     0.1557     2.4034   -15.2091    20.0807    11.2850    45.8820
  437.0000     9.2789    78.5968     0.0534     0.1550     2.4147   -15.3502    18.3684    11.2905    47.2667
  437.5000     9.2654    78.1634     0.0537     0.1431     2.4193   -15.3408    17.3923    11.2960    48.6740
  438.0000     9.2220    79.2299     0.0566     0.1544     2.4089   -15.4838    17.1618    11.3798    48.5832
  438.5000     9.1635    78.0472     0.0560     0.1646     2.3707   -15.4744    17.2943    11.3854    49.2642
  439.0000     9.1497    77.0145     0.0515     0.1694     2.3678   -15.4669    17.4250    11.4699    49.1507
  439.5000     9.1212    75.6818     0.0478     0.1750     2.3611   -15.4593    17.4546    11.4755    49.0787
  440.0000     9.1077    73.1498     0.0494     0.1816     2.3485   -15.4518    17.5816    11.4811    48.9888
  440.5000     9.1096    76.0151     0.0517     0.1798     2.3605   -15.5929    18.0802    11.4867    48.8989
  441.0000     9.1111    76.6273     0.0556     0.1755     2.3703   -15.5869    18.5928    11.4118    48.8090
  441.5000     9.1276    74.5492     0.0586     0.1719     2.3712   -15.7469    18.9886    11.4188    49.4685
  442.0000     9.1138    72.7627     0.0602     0.1728     2.3705   -16.0180    19.2628    11.3444    49.3777
  442.5000     9.1157    76.2318     0.0565     0.1728     2.3714   -16.1591    19.0106    11.3513    49.2869
  443.0000     9.1322    75.9487     0.0551     0.1718     2.3743   -16.3001    18.7613    11.3557    49.1961
  443.5000     9.1337    73.1168     0.0544     0.1706     2.3759   -16.4413    18.7734    11.2828    49.8577
  444.0000     9.1352    79.4304     0.0537     0.1679     2.3767   -16.2851    18.7852    11.2884    50.5168
  444.5000     9.1365    82.1415     0.0523     0.1718     2.3768   -16.4262    18.7970    11.2939    50.4218
  445.0000     9.1380    79.5100     0.0501     0.1636     2.3843   -16.8644    18.8088    11.2994    49.5820
  445.5000     9.1244    75.8086     0.0464     0.1627     2.3889   -17.0074    18.5625    11.3048    49.4912
  446.0000     9.1259    75.9451     0.0412     0.1605     2.3920   -16.7027    17.8205    11.3103    48.6740
  446.5000     9.1274    78.1604     0.0353     0.1560     2.3928   -17.7353    17.3459    11.3159    51.5795
  447.0000     9.1290    77.1276     0.0293     0.1587     2.3869   -17.4287    17.0010    11.3214    52.9868
  447.5000     9.0405    76.5442     0.0211     0.1666     2.3809   -17.8669    17.0117    11.3269    52.8733
  448.0000     8.9371    76.8611     0.0147     0.1605     2.3818   -18.3071    17.0224    11.2542    53.5543
  448.5000     8.9836    77.0277     0.0099     0.1650     2.3833   -18.2977    17.1510    11.1825    53.4408
  449.0000     9.0151    75.3953     0.0093     0.1598     2.3841   -18.4387    17.0437    11.1110    52.6009
  449.5000     9.0166    72.1095     0.0101     0.1643     2.3835   -18.4312    16.9371    11.1164    53.2819
  450.0000     8.9728    77.5262     0.0109     0.1630     2.3925   -18.5742    16.2600    11.1218    53.1911
  450.5000     8.9443    79.3404     0.0125     0.1528     2.4038   -18.5468    16.3831    11.1265    55.2729
  451.0000     8.9308    78.6059     0.0140     0.1492     2.4061   -18.5462    16.3913    11.2083    56.7641
  451.5000     8.9177    77.7214     0.0134     0.1513     2.4002   -18.3839    16.2793    11.2130    55.9275
  452.0000     8.9038    79.2358     0.0116     0.1538     2.3905   -18.3702    15.8548    11.2955    55.0944
  452.5000     8.8754    84.0485     0.0082     0.1585     2.3921   -18.6572    15.6471    11.3003    54.2613
  453.0000     8.8773    85.8627     0.0083     0.1636     2.3824   -18.6401    15.3362    11.2261    54.9262
  453.5000     8.8788    87.8268     0.0083     0.1665     2.3817   -18.3292    15.0314    11.3087    54.8422
  454.0000     8.8353    86.6425     0.0084     0.1559     2.4050   -18.3155    14.9351    11.3134    54.7581
  454.5000     8.7469    84.1051     0.0107     0.1505     2.4014   -18.3329    14.9469    11.3967    54.6740
  455.0000     8.6884    87.7221     0.0130     0.1553     2.3909   -18.9153    14.9564    11.4805    54.6067
  455.5000     8.6299    87.8834     0.0086     0.1591     2.3835   -19.6167    14.9659    11.4853    55.2759
  456.0000     8.5415    85.9532     0.0056     0.1612     2.3798   -19.8990    15.0792    11.5698    55.1911
  456.5000     8.4830    84.0193     0.0049     0.1633     2.3777   -19.8850    15.0887    11.5747    55.1078
  457.0000     8.4096    83.4309     0.0042     0.1653     2.3777   -19.7227    15.0963    11.6598    55.0237
  457.5000     8.2762    85.0990     0.0035     0.1650     2.3769   -19.4119    15.1057    11.7456    54.9396
