~VERSION INFORMATION
 VERS.                2.0:   CWLS LOG ASCII STANDARD - VERSION 2.0
 WRAP.                 NO:   ONE LINE PER DEPTH STEP
~WELL INFORMATION
#MNEM.UNIT      DATA TYPE    INFORMATION
#----------   ------------   ------------------------------
 STRT.F           12.5000:   START DEPTH
 STOP.F          688.0000:   STOP DEPTH
 STEP.F            0.5000:   STEP LENGTH
 NULL.          -999.2500:   NO VALUE
 COMP. FENIX & SCISSON INC:   COMPANY
 WELL. 26-66 SX 11 WO #26-11:   WELL
 FLD .             TEAPOT:   FIELD
 LOC .      S11 T38N R78W:   LOCATION
 CNTY.            NATRONA:   COUNTY
 STAT.            WYOMING:   STATE
 CTRY. UNITED STATES OF AMERICA:   COUNTRY
 SRVC.      Dresser Atlas:   SERVICE COMPANY
 DATE.        28-AUG-1980:   LOGDATE
 API .       490251084700:   API NUMBER
~CURVE INFORMATION
#MNEM.UNIT       API CODE    CURVE DESCRIPTION
#----------   ------------   ------------------------------
 DEPT.F                  :   
 SFL .OHMM   07 220 01 00:   SHALLOW FOCUSED LOG RESISTIVITY
 ILD .OHMM   07 120 46 00:   INDUCTION LOG DEEP
 ILM .OHMM   07 120 44 00:   INDUCTION LOG MEDIUM
 SPR .MV     07 010 01 00:   SPONTANEOUS POTENTIAL
 CORR.G/C3   45 356 01 00:   DENSITY CORRECTION
 RHOB.G/C3   45 350 01 00:   BULK DENSITY
 DPOR.DEC    45 890 12 00:   DENSITY POROSITY SANDSTONE
 NPOR.DEC    42 890 03 00:   NEUTRON POROSITY SANDSTONE
 GRD .GAPI   45 310 01 00:   GAMMA RAY FROM DENSITY LOG
~PARAMETER INFORMATION
#MNEM.UNIT          VALUE    DESCRIPTION
#----------   ------------   ------------------------------
 PD  .                 GL:   PERMANENT DATUM
 EPD .F              5194:   ELEVATION PERMANENT DATUM
 LMF .                 KB:   LOG MEASURED FROM
 DAPD.F                 5:   FEET ABOVE PERMANENT DATUM
 DMF .                 KB:   DRILLING MEASURED FROM
 EKB .F              5199:   KELLING BUSHING
 EGL .F              5194:   GROUND LEVEL
 DATE.          8-28-1980:   RUN DATE
 RUN .                  1:   RUN NUMBER
 DD  .F               700:   DEPTH DRILLER
 DL  .F               689:   DEPTH LOGGER
 BLI .F               688:   BOTTOM LOG INTERVAL
 TLI .F                14:   TOP LOG INTERVAL
 BS  .IN             8.75:   BIT SIZE
 BSD .F               700:   BIT SIZE AT DEPTH
 DFT .                KCL:   DRILLING FLUID TYPE
 DFD .                8.8:   DRILLING FLUID DENSITY
 DFV .                 55:   DRILLING FLUID VISCOSITY
 DFPH.                 11:   DRILLING FLUID PH
 DFL .                  8:   DRILLING FLUID LOSS
 MSS .           FLOWLINE:   MUD SAMPLE SOURCE
 RMS .OHMM            .72:   RESISTIVITY MUD SAMPLE
 MST .F                66:   MUD SAMPLE TEMPERATURE
 RMF .OHMM            .21:   RESISTIVITY MUD FILTRATE SAMPLE
 MFST.F                66:   MUD FILTRATE SAMPLE TEMPERATURE
 RMC .OHMM           1.24:   RESISTIVITY MUD CAKE
 MCST.F                66:   MUD CAKE SAMPLE TEMPERATURE
 MFSS.               MEAS:   MUD FILTRATE SAMPLE SOURCE
 MCSS.               MEAS:   MUD CAKE SAMPLE SOURCE
 BHT .F               100:   BOTTOM HOLE TEMPERATURE
 TCS .HRS               2:   TIME CURCULATED STOPPED
 MRT .F               100:   MAXIMUM RECORDED TEMPERATURE
 LUN .               6240:   LOGGING UNIT NUMBER
 LUL .               RYTN:   LOGGING UNIT LOCATION
 ENGI.           J. GETTY:   RECORDING ENGINEER
 WITN.              FIVAS:   WITNESSED BY
 CLNT.            A2DTECH:   CLIENT CODE
 ORIG.      1" 2.5" PRINT:   ORIGIN OF DATA
 UWI .       490251084700:   UNIQUE WELL ID
 DICO. A2D Technologies, Inc.:   DIGITIZING COMPANY
~OTHER INFORMATION
~A   DEPT      SFL        ILD        ILM        SPR       CORR       RHOB       DPOR         NPOR      GRD   
# ...
  523.5000    14.0517    15.1019    14.5263   -67.0889     0.0404     2.3601     0.1884     0.2430   100.7218
  524.0000    14.0887    15.0187    14.5930   -67.8043     0.0369     2.3681     0.1863     0.2451   100.1435
  524.5000    14.1464    14.9358    14.4208   -67.5850     0.0334     2.3638     0.1904     0.2500    99.5150
  525.0000    14.2048    14.8533    14.2594   -67.3354     0.0320     2.3586     0.1904     0.2550    98.7960
  525.5000    14.2634    14.7714    14.1000   -66.8936     0.0329     2.3633     0.1836     0.2391    99.0538
  526.0000    14.3256    14.6898    13.9426   -69.2280     0.0353     2.3760     0.1759     0.2167   100.6060
  526.5000    14.1958    14.6090    13.7861   -74.1733     0.0374     2.3885     0.1707     0.2219   102.0013
  527.0000    14.0603    14.5286    13.6314   -73.8230     0.0397     2.3935     0.1724     0.2308   102.0393
  527.5000    13.9261    14.4487    13.4784   -71.8500     0.0373     2.3879     0.1758     0.2396   102.1820
  528.0000    13.7932    14.3691    13.3035   -69.7168     0.0327     2.3795     0.1791     0.2484   101.2657
  528.5000    13.6614    14.2319    13.2194   -69.7415     0.0426     2.3737     0.1825     0.2476    99.6910
  529.0000    13.5308    14.0314    13.1203   -71.0734     0.0570     2.3774     0.1657     0.2511    98.4839
  529.5000    13.4012    13.8337    13.0219   -72.3101     0.0650     2.4181     0.1429     0.2603    99.0934
  530.0000    13.2727    13.6388    12.9243   -71.7507     0.0640     2.4646     0.1283     0.2662   100.6404
  530.5000    13.1453    13.4466    12.8274   -69.9179     0.0648     2.4465     0.1518     0.2433   102.0045
  531.0000    13.0192    13.2571    12.7313   -70.4153     0.0583     2.3930     0.1762     0.2182   103.7637
  531.5000    12.8213    13.0703    12.6358   -71.3348     0.0461     2.3683     0.1873     0.2252   102.6119
  532.0000    12.8484    12.8862    12.5411   -72.5345     0.0343     2.3883     0.1721     0.2377   101.2969
  532.5000    12.9298    12.7046    12.4471   -73.2916     0.0265     2.3821     0.1807     0.2534    98.1084
  533.0000    13.0104    12.5256    12.3538   -72.3092     0.0242     2.3521     0.1966     0.2477    95.2704
  533.5000    13.0914    12.3531    12.2611   -70.7393     0.0212     2.3356     0.2048     0.2271    93.7235
  534.0000    13.1729    12.6350    12.1262   -69.2318     0.0183     2.3351     0.2051     0.2301    94.3838
  534.5000    13.3035    12.9170    12.2136   -69.1067     0.0155     2.3321     0.2080     0.2394    94.1758
  535.0000    13.2649    13.2053    12.3801   -72.3070     0.0126     2.3394     0.2046     0.2494    96.2357
  535.5000    13.1711    13.5000    12.5490   -75.3652     0.0097     2.3531     0.1952     0.2474   100.0041
  536.0000    13.0780    13.8013    12.8195   -77.5918     0.0070     2.3480     0.2076     0.2461   103.7143
  536.5000    12.9855    14.2660    12.7295   -74.8348     0.0038     2.3184     0.2175     0.2487   105.7174
  537.0000    12.8937    14.2187    12.5205   -71.6806     0.0062     2.3170     0.2183     0.2517   103.0859
  537.5000    12.8025    13.8703    12.3150   -71.5939     0.0088     2.3250     0.2094     0.2517    99.1779
  538.0000    12.7120    13.5300    12.1128   -73.2245     0.0209     2.3398     0.1984     0.2524    98.4862
  538.5000    12.5841    13.1980    11.9139   -74.7709     0.0326     2.3591     0.1848     0.2464    98.9336
  539.0000    12.6441    12.8743    11.7183   -74.4237     0.0471     2.3815     0.1696     0.2358   101.6594
  539.5000    12.8195    12.5587    11.4970   -74.0882     0.0477     2.4037     0.1618     0.2311   106.7496
  540.0000    12.7613    12.2509    11.5606   -74.9007     0.0423     2.3868     0.1897     0.2507   110.3015
  540.5000    12.5896    11.9507    11.6889   -77.3186     0.0362     2.3493     0.2040     0.2773   109.5819
  541.0000    12.4202    11.6858    11.9036   -79.3162     0.0300     2.3383     0.2013     0.2748   106.6366
  541.5000    12.2531    11.6032    11.8816   -80.1171     0.0246     2.3464     0.2006     0.2725   103.3585
  542.0000    12.1063    11.5290    11.8192   -78.4849     0.0251     2.3414     0.2008     0.2757   101.9724
  542.5000    12.0208    11.4554    11.7571   -73.9501     0.0364     2.3558     0.1805     0.2813   103.1935
  543.0000    11.9358    11.3822    11.6953   -72.6001     0.0461     2.3961     0.1570     0.2693   102.8663
  543.5000    11.8514    11.3095    11.6339   -71.3643     0.0564     2.4381     0.1347     0.2733   102.5722
  544.0000    11.7676    11.2373    11.5728   -70.0808     0.0599     2.4553     0.1347     0.2805   102.1198
  544.5000    11.6850    11.1655    11.5120   -69.7215     0.0448     2.4292     0.1572     0.2788   102.8561
  545.0000    11.6656    11.0942    11.4515   -70.5088     0.0218     2.3984     0.1881     0.2751   103.9358
  545.5000    11.6462    11.0233    11.3913   -71.0970     0.0094     2.3680     0.1888     0.2714   104.5100
  546.0000    11.6270    10.9529    11.3315   -70.8014     0.0032     2.3614     0.1881     0.2658   104.3818
  546.5000    11.6078    10.8829    11.2719   -70.5843     0.0043     2.3633     0.1839     0.2543   103.3455
  547.0000    11.5886    10.8166    11.2127   -70.3432     0.0047     2.3756     0.1790     0.2406   102.6345
  547.5000    11.5694    10.7536    11.1538   -70.2842     0.0129     2.3883     0.1740     0.2510   101.3250
  548.0000    11.5501    10.6910    11.0952   -70.2852     0.0201     2.3931     0.1721     0.2754   100.4153
  548.5000    11.5309    10.6287    11.0369   -70.2875     0.0271     2.3916     0.1721     0.2996    98.6746
  549.0000    11.5118    10.5667    10.9789   -70.2871     0.0357     2.3991     0.1681     0.3060    98.6759
  549.5000    11.4927    10.5051    10.9213   -70.2875     0.0334     2.4062     0.1615     0.3139    98.7821
  550.0000    11.4738    10.4392    10.8639   -70.2885     0.0264     2.4158     0.1574     0.2962    98.9470
  550.5000    11.3680    10.3530    10.8068   -70.2875     0.0193     2.4115     0.1634     0.2789    99.1272
  551.0000    11.2437    10.2675    10.7500   -70.2862     0.0120     2.4001     0.1689     0.2861    99.1910
  551.5000    11.1210    10.1826    10.6936   -70.2925     0.0073     2.4025     0.1660     0.2876   103.9127
  552.0000    10.9977    10.0984    10.6374   -70.2894     0.0117     2.4099     0.1619     0.2657   108.4380
  552.5000    10.8770    10.0149    10.5815   -70.2662     0.0187     2.4051     0.1655     0.2486   107.7930
  553.0000    10.7576     9.8915    10.5262   -70.5261     0.0241     2.4010     0.1680     0.2627   104.9049
  553.5000    10.6510     9.9351    10.4603   -70.9931     0.0225     2.4017     0.1676     0.2749   101.8702
  554.0000    10.9878    10.0344    10.4697   -71.4140     0.0186     2.4013     0.1610     0.2685   104.8240
  554.5000    11.3041    10.1348    10.4897   -71.8745     0.0149     2.4116     0.1650     0.2438   111.6916
  555.0000    11.4705    10.2363    10.5099   -72.1618     0.0099     2.4039     0.1731     0.2375   113.6305
  555.5000    11.3445    10.3388    10.5302   -72.4607     0.0075     2.3846     0.1801     0.2483   109.1653
  556.0000    11.2324    10.4422    10.5503   -72.6114     0.0025     2.3870     0.1673     0.2600   105.2162
  556.5000    11.1213    10.5466    10.5704   -72.7365     0.0503     2.4181     0.1394     0.2661   105.4728
  557.0000    11.0114    10.6519    10.5906   -72.7437     0.0397     2.4590     0.1441     0.2567   106.6811
  557.5000    10.9026    10.7583    10.6109   -72.6798     0.0194     2.4354     0.1568     0.2441   107.8715
  558.0000    10.8502    10.8504    10.6308   -72.4274     0.0212     2.4125     0.1689     0.2406   108.6498
  558.5000    10.9333    10.9153    10.6504   -72.1798     0.0318     2.4058     0.1603     0.2677   109.6116
  559.0000    11.0531    10.9723    10.6506   -71.9317     0.0397     2.4371     0.1373     0.2685   108.2548
  559.5000    11.5601    11.0294    10.6510   -71.6827     0.0390     2.4686     0.1203     0.2592   104.2641
