~VERSION INFORMATION
 VERS.                2.0:   CWLS LOG ASCII STANDARD - VERSION 2.0
 WRAP.                 NO:   ONE LINE PER DEPTH STEP
~WELL INFORMATION
#MNEM.UNIT      DATA TYPE    INFORMATION
#----------   ------------   ------------------------------
 STRT.F           70.0000:   START DEPTH
 STOP.F          884.0000:   STOP DEPTH
 STEP.F            0.5000:   STEP LENGTH
 NULL.          -999.2500:   NO VALUE
 COMP. U S NAVY/INTEX OIL CO:   COMPANY
 WELL.   NPR#3 "S" #16-35:   WELL
 FLD .             TEAPOT:   FIELD
 LOC .      S35 T39N R78W:   LOCATION
 CNTY.            NATRONA:   COUNTY
 STAT.            WYOMING:   STATE
 CTRY. UNITED STATES OF AMERICA:   COUNTRY
 SRVC.         Lane Wells:   SERVICE COMPANY
 DATE.        21-MAR-1960:   LOGDATE
 API .       490250651800:   API NUMBER
~CURVE INFORMATION
#MNEM.UNIT       API CODE    CURVE DESCRIPTION
#----------   ------------   ------------------------------
 DEPT.F                  :   
 SPR .MV     05 010 01 00:   SPONTANEOUS POTENTIAL FROM RES.
 ASN .OHMM   05 040 16 00:   AMPLIFIED SHORT NORMAL 16"
 ILD .OHMM   05 120 46 00:   INDUCTION LOG DEEP
 CILD.MMHO   05 110 46 00:   CONDUCTIVITY INDUCTION LOG DEEP
 GR  .GAPI   30 310 01 00:   GAMMA RAY
~PARAMETER INFORMATION
#MNEM.UNIT          VALUE    DESCRIPTION
#----------   ------------   ------------------------------
 PD  .                 GL:   PERMANENT DATUM
 EPD .F              5091:   ELEVATION PERMANENT DATUM
 LMF .                 KB:   LOG MEASURED FROM
 DAPD.F                 5:   FEET ABOVE PERMANENT DATUM
 DMF .                 KB:   DRILLING MEASURED FROM
 EKB .F              5096:   KELLING BUSHING
 EGL .F              5091:   GROUND LEVEL
 DATE.          3-21-1960:   RUN DATE
 RUN .                  1:   RUN NUMBER
 DD  .F               913:   DEPTH DRILLER
 DL  .F               885:   DEPTH LOGGER
 BLI .F               883:   BOTTOM LOG INTERVAL
 TLI .F                70:   TOP LOG INTERVAL
 CS  .IN            8.625:   CASING SIZE
 CBD .F                12:   CASING BOTTOM DRILLER
 BS  .IN            7.875:   BIT SIZE
 BSD .F               913:   BIT SIZE AT DEPTH
 DFT .   GEL-OIL EMULSION:   DRILLING FLUID TYPE
 DFD .                9.9:   DRILLING FLUID DENSITY
 DFV .                 40:   DRILLING FLUID VISCOSITY
 MSS .           FLOWLINE:   MUD SAMPLE SOURCE
 RMS .OHMM              3:   RESISTIVITY MUD SAMPLE
 MST .F                64:   MUD SAMPLE TEMPERATURE
 RMF .OHMM            2.2:   RESISTIVITY MUD FILTRATE SAMPLE
 MFST.F                64:   MUD FILTRATE SAMPLE TEMPERATURE
 RMC .OHMM              4:   RESISTIVITY MUD CAKE
 MCST.F                64:   MUD CAKE SAMPLE TEMPERATURE
 MFSS.                MUD:   MUD FILTRATE SAMPLE SOURCE
 MCSS.              PRESS:   MUD CAKE SAMPLE SOURCE
 RMB .OHMM            2.7:   RESISTIVITY MUD AT BHT
 BHT .F                70:   BOTTOM HOLE TEMPERATURE
 MRT .F                70:   MAXIMUM RECORDED TEMPERATURE
 LUN .             L-4474:   LOGGING UNIT NUMBER
 LUL .             CASPER:   LOGGING UNIT LOCATION
 ENGI.             NELSON:   RECORDING ENGINEER
 WITN.          JORGENSEN:   WITNESSED BY
 CLNT.            A2DTECH:   CLIENT CODE
 ORIG.      2" & 5" PRINT:   ORIGIN OF DATA
 UWI .       490250651800:   UNIQUE WELL ID
 DICO. A2D Technologies, Inc.:   DIGITIZING COMPANY
~OTHER INFORMATION
~A   DEPT      SPR          ASN      ILD        CILD        GR   
# ...
  497.0000   -24.1155     8.3031     6.2234   172.4245  -999.2500
  497.5000   -24.1315     8.4776     6.3027   170.1789  -999.2500
  498.0000   -24.1140     8.6537     6.3848   167.9255  -999.2500
  498.5000   -24.1416     8.8328     6.4657   165.6662  -999.2500
  499.0000   -24.0931     8.9997     6.5476   163.4004  -999.2500
  499.5000   -24.4228     9.1418     6.6282   161.1288  -999.2500
  500.0000   -24.9724     9.1549     6.7105   158.9695  -999.2500
  500.5000   -25.4988     9.0509     6.7904   156.7449  -999.2500
  501.0000   -25.4190     8.9683     6.8784   156.9628  -999.2500
  501.5000   -25.1707     8.8826     6.8898   156.8226  -999.2500
  502.0000   -24.9549     8.8584     6.8878   156.6472  -999.2500
  502.5000   -24.7314     8.9639     6.8883   156.4719  -999.2500
  503.0000   -24.5028     8.9998     6.8880   156.2965  -999.2500
  503.5000   -24.2902     8.9682     6.8878   156.1212  -999.2500
  504.0000   -24.0417     8.9483     6.8877   155.9458  -999.2500
  504.5000   -23.9956     8.9230     6.8873   155.7704  -999.2500
  505.0000   -24.1609     8.9525     6.8873   155.5951  -999.2500
  505.5000   -24.2912     8.9727     6.8873   155.4197  -999.2500
  506.0000   -24.4398     9.1850     6.8861   155.2444  -999.2500
  506.5000   -24.5781     9.5822     6.8965   154.0964  -999.2500
  507.0000   -24.7232     9.9357     6.9991   152.0877  -999.2500
  507.5000   -24.8621    10.3256     7.1069   150.0791  -999.2500
  508.0000   -25.0097    10.6594     7.2156   148.0705  -999.2500
  508.5000   -25.1410    10.8099     7.3213   146.0619  -999.2500
  509.0000   -25.3092    10.8288     7.4341   144.3577  -999.2500
  509.5000   -25.3498    10.7648     7.5050   143.6510  -999.2500
  510.0000   -25.1538    10.4089     7.4100   143.0372  -999.2500
  510.5000   -24.9718    10.2656     7.3204   142.5570  -999.2500
  511.0000   -24.7890     9.7464     7.2246   144.7989  -999.2500
  511.5000   -24.5849     8.9405     7.1370   146.6674  -999.2500
  512.0000   -24.5001     9.0658     7.0343   148.5089  -999.2500
  512.5000   -24.5791     9.0533     6.9606   150.3528  -999.2500
  513.0000   -24.6321     9.0852     6.9300   152.1973  -999.2500
  513.5000   -24.6989     9.1194     6.8885   153.6591  -999.2500
  514.0000   -24.7585     9.0354     6.8523   154.4095  -999.2500
  514.5000   -24.8226     8.9410     6.8133   155.1567  -999.2500
  515.0000   -24.8837     8.8451     6.7757   155.9026  -999.2500
  515.5000   -24.9480     8.7498     6.7374   156.6470  -999.2500
  516.0000   -25.0070     8.7321     6.6995   157.4023  -999.2500
  516.5000   -25.0745     8.7277     6.6613   158.1577  -999.2500
  517.0000   -25.1267     8.7636     6.6232   158.9131  -999.2500
  517.5000   -25.2059     8.8036     6.5851   159.6685  -999.2500
  518.0000   -25.0868     8.8449     6.5468   160.4239  -999.2500
  518.5000   -24.8452     8.8832     6.5090   161.1792  -999.2500
  519.0000   -24.6599     8.9270     6.4700   161.9346  -999.2500
  519.5000   -24.4211     8.9312     6.4390   162.6905  -999.2500
  520.0000   -24.3185     8.9115     6.4373   163.4470  -999.2500
  520.5000   -24.4059     8.9090     6.4373   164.2047  -999.2500
  521.0000   -24.4658     8.9862     6.4375   164.9644  -999.2500
  521.5000   -24.5431     9.1007     6.4374   165.7256  -999.2500
  522.0000   -24.6067     9.1999     6.4375   166.4868  -999.2500
  522.5000   -24.6854     9.2316     6.4375   167.2459  -999.2500
  523.0000   -24.7421     9.1789     6.4376   167.7085  -999.2500
  523.5000   -24.8375     9.0812     6.4376   167.4093  -999.2500
  524.0000   -24.7025     8.9774     6.4375   167.1086  -999.2500
  524.5000   -24.3699     8.8753     6.4376   166.8085  -999.2500
  525.0000   -24.0761     8.7713     6.4374   166.5103  -999.2500
  525.5000   -23.7691     8.7575     6.4376   166.2149  -999.2500
  526.0000   -23.4562     8.7766     6.4372   165.9204  -999.2500
  526.5000   -23.2411     8.8286     6.4378   165.6254  -999.2500
  527.0000   -23.3478     8.8455     6.4365   165.3282  -999.2500
  527.5000   -23.4475     8.8276     6.4467   165.0336  -999.2500
  528.0000   -23.5554     8.8158     6.4692   164.7390  -999.2500
  528.5000   -23.6574     8.8137     6.4899   164.4444  -999.2500
  529.0000   -23.7634     8.8277     6.5115   164.1657  -999.2500
  529.5000   -23.8675     8.9155     6.5325   162.6732  -999.2500
  530.0000   -23.9724     9.0584     6.5539   161.2568  -999.2500
  530.5000   -24.0770     9.0927     6.5753   159.8405  -999.2500
  531.0000   -24.1811     9.0586     6.5965   158.4241  -999.2500
  531.5000   -24.2850     9.0358     6.6182   157.0078  -999.2500
  532.0000   -24.3923     9.0077     6.6389   155.5915  -999.2500
  532.5000   -24.4681     8.9826     6.6611   155.7323  -999.2500
  533.0000   -24.3132     8.9556     6.6814   156.5506  -999.2500
  533.5000   -24.1385     8.9255     6.7044   157.3690  -999.2500
  534.0000   -23.9689     8.8717     6.6634   158.1873  -999.2500
  534.5000   -23.7922     8.8009     6.5993   159.0056  -999.2500
  535.0000   -23.6288     8.7328     6.5389   159.8239  -999.2500
  535.5000   -23.4434     8.6556     6.4769   160.6423  -999.2500
  536.0000   -23.4883     8.5489     6.4157   161.4606  -999.2500
  536.5000   -23.6628     8.4231     6.3541   162.3649  -999.2500
  537.0000   -23.8031     8.3001     6.2925   164.5618  -999.2500
  537.5000   -23.9548     8.1753     6.2312   167.0168  -999.2500
  538.0000   -24.1063     8.0528     6.1692   169.4718  -999.2500
  538.5000   -24.2470     7.9253     6.1087   171.9268  -999.2500
  539.0000   -24.4175     7.8197     6.0454   174.3817  -999.2500
  539.5000   -24.4393     7.8086     5.9871   176.7707  -999.2500
  540.0000   -24.2746     7.8113     5.9194   176.7707  -999.2500
  540.5000   -24.1326     7.9021     5.9172   178.5714  -999.2500
  541.0000   -23.9832     7.9937     5.9707   178.5714  -999.2500
  541.5000   -23.8291     8.0859     6.0135   178.5714  -999.2500
  542.0000   -23.7589     8.1806     6.0614   176.9923  -999.2500
  542.5000   -23.7679     8.2527     6.1066   175.5760  -999.2500
  543.0000   -23.7620     8.2666     6.1532   174.1597  -999.2500
  543.5000   -23.7702     8.2682     6.1991   172.7433  -999.2500
  544.0000   -23.7236     8.3181     6.2455   171.3270  -999.2500
  544.5000   -23.3220     8.3984     6.2914   169.9107  -999.2500
  545.0000   -23.0458     8.4653     6.3377   168.4943  -999.2500
  545.5000   -23.0892     8.5389     6.3835   167.0780  -999.2500
  546.0000   -23.2724     8.6071     6.4300   165.6617  -999.2500
  546.5000   -23.4589     8.6836     6.4757   164.2226  -999.2500
  547.0000   -23.6430     8.7380     6.5230   162.7968  -999.2500
  547.5000   -23.8342     8.7306     6.5286   161.3742  -999.2500
  548.0000   -24.0105     8.6976     6.5277   160.7236  -999.2500
  548.5000   -24.2203     8.6646     6.5279   161.2225  -999.2500
  549.0000   -24.2658     8.6314     6.5278   161.7236  -999.2500
  549.5000   -24.1147     8.5984     6.5277   162.2231  -999.2500
  550.0000   -23.9928     8.5652     6.5277   162.7185  -999.2500
  550.5000   -23.8554     8.5319     6.5276   163.2102  -999.2500
  551.0000   -23.7267     8.4990     6.5276   163.7007  -999.2500
  551.5000   -23.5926     8.4649     6.5276   164.1602  -999.2500
  552.0000   -23.4641     8.4384     6.5273   163.6715  -999.2500
  552.5000   -23.3237     8.4446     6.5276   163.2152  -999.2500
  553.0000   -23.2566     8.4567     6.5265   162.7598  -999.2500
  553.5000   -23.5477     8.4980     6.5282   162.3038  -999.2500
  554.0000   -23.8193     8.6117     6.5246   161.8463  -999.2500
  554.5000   -24.1107     8.7021     6.5307   161.3734  -999.2500
  555.0000   -24.3713     8.8328     6.5182   160.9131  -999.2500
  555.5000   -24.6931     8.9893     6.6118   159.9225  -999.2500
  556.0000   -24.8119     9.1277     6.7650   157.2711  -999.2500
  556.5000   -24.6104     9.2732     6.8935   154.6197  -999.2500
  557.0000   -24.4489     9.4148     7.0320   151.9683  -999.2500
  557.5000   -24.2638     9.5587     7.1654   149.3169  -999.2500
