~VERSION INFORMATION
 VERS.                2.0:   CWLS LOG ASCII STANDARD - VERSION 2.0
 WRAP.                 NO:   ONE LINE PER DEPTH STEP
~WELL INFORMATION
#MNEM.UNIT      DATA TYPE    INFORMATION
#----------   ------------   ------------------------------
 STRT.F           26.0000:   START DEPTH
 STOP.F          484.0000:   STOP DEPTH
 STEP.F            0.5000:   STEP LENGTH
 NULL.          -999.2500:   NO VALUE
 COMP.    FENIX & SCISSON:   COMPANY
 WELL.        NPR #44-S-3:   WELL
 FLD .              NPR-3:   FIELD
 LOC .       S3 T38N R78W:   LOCATION
 CNTY.            NATRONA:   COUNTY
 STAT.            WYOMING:   STATE
 CTRY. UNITED STATES OF AMERICA:   COUNTRY
 SRVC.              Welex:   SERVICE COMPANY
 DATE.        22-APR-1977:   LOGDATE
 API .       490251034000:   API NUMBER
~CURVE INFORMATION
#MNEM.UNIT       API CODE    CURVE DESCRIPTION
#----------   ------------   ------------------------------
 DEPT.F                  :   
 SPR .MV     07 010 01 00:   SPONTANEOUS POTENTIAL
 ILD .OHMM   07 120 46 00:   INDUCTION LOG DEEP
 ILM .OHMM   07 120 44 00:   INDUCTION LOG MEDIUM
 SGRD.OHMM   07 221 05 00:   SHALLOW SHORT GUARD RESISTIVITY
 GRD .GAPI   45 310 01 00:   GAMMA RAY FROM DENSITY LOG
 CALD.IN     45 280 60 00:   CALIPER FROM DENSITY LOG
 CORR.G/C3   45 356 01 00:   DENSITY CORRECTION
 RHOB.G/C3   45 350 01 00:   BULK DENSITY
 DPHI.DEC    45 890 12 00:   DENSITY POROSITY SANDSTONE
~PARAMETER INFORMATION
#MNEM.UNIT          VALUE    DESCRIPTION
#----------   ------------   ------------------------------
 PD  .                 GL:   PERMANENT DATUM
 EPD .F              5160:   ELEVATION PERMANENT DATUM
 LMF .                 GL:   LOG MEASURED FROM
 DMF .                 GL:   DRILLING MEASURED FROM
 EGL .F              5160:   GROUND LEVEL
 DATE.        22-APR-1977:   RUN DATE
 RUN .                  1:   RUN NUMBER
 DD  .F               490:   DEPTH DRILLER
 DL  .F               486:   DEPTH LOGGER
 BLI .F               484:   BOTTOM LOG INTERVAL
 TLI .F                30:   TOP LOG INTERVAL
 CS  .IN            8.625:   CASING SIZE
 CBD .F                40:   CASING BOTTOM DRILLER
 CBL .F                38:   CASING BOTTOM LOGGER
 BS  .IN            7.875:   BIT SIZE
 BSD .F               490:   BIT SIZE AT DEPTH
 DFT .            KCL GEL:   DRILLING FLUID TYPE
 DFD .                8.8:   DRILLING FLUID DENSITY
 DFV .                 36:   DRILLING FLUID VISCOSITY
 DFPH.                8.0:   DRILLING FLUID PH
 DFL .                6.4:   DRILLING FLUID LOSS
 MSS .            MUD PIT:   MUD SAMPLE SOURCE
 RMS .OHMM            .36:   RESISTIVITY MUD SAMPLE
 MST .F                60:   MUD SAMPLE TEMPERATURE
 RMF .OHMM            .30:   RESISTIVITY MUD FILTRATE SAMPLE
 MFST.F                60:   MUD FILTRATE SAMPLE TEMPERATURE
 RMC .OHMM            .42:   RESISTIVITY MUD CAKE
 MCST.F                60:   MUD CAKE SAMPLE TEMPERATURE
 MFSS.               MEAS:   MUD FILTRATE SAMPLE SOURCE
 MCSS.               MEAS:   MUD CAKE SAMPLE SOURCE
 RMB .OHMM            .30:   RESISTIVITY MUD AT BHT
 BHT .F                70:   BOTTOM HOLE TEMPERATURE
 TCS .HRS            0200:   TIME CURCULATED STOPPED
 MRT .F                70:   MAXIMUM RECORDED TEMPERATURE
 LUN .               8611:   LOGGING UNIT NUMBER
 LUL .             CASPER:   LOGGING UNIT LOCATION
 ENGI.          T. JOYNER:   RECORDING ENGINEER
 WITN.           ROB LYON:   WITNESSED BY
 CLNT.            A2DTECH:   CLIENT CODE
 ORIG.           5" PRINT:   ORIGIN OF DATA
 UWI .       490251034000:   UNIQUE WELL ID
 DICO. A2D Technologies, Inc.:   DIGITIZING COMPANY
~OTHER INFORMATION
~A   DEPT      SPR        ILD        ILM       SGRD        GRD       CALD       CORR       RHOB       DPHI   
# ...
  464.0000   -35.4030    12.6552    15.2024    19.3740   101.5651     7.7305    -0.0074     2.4484     0.1227
  464.5000   -35.3881    12.6640    14.8988    18.9827   100.0957     7.7168    -0.0072     2.4417     0.1221
  465.0000   -35.3731    12.6727    14.5007    18.4712   100.2631     7.7186    -0.0071     2.4328     0.1243
  465.5000   -35.3308    12.5919    14.2101    17.9694   101.1746     7.7201    -0.0070     2.4299     0.1271
  466.0000   -35.1911    12.5138    13.7362    17.7247   102.3838     7.7215    -0.0069     2.4375     0.1271
  466.5000   -35.1762    12.3526    13.4589    17.3628   103.4441     7.7230    -0.0068     2.4352     0.1241
  467.0000   -35.1613    12.3611    13.2807    17.0083   103.1651     7.7245    -0.0067     2.4331     0.1271
  467.5000   -35.2957    12.4555    13.2007    16.9122    96.4873     7.7259    -0.0050     2.4408     0.1257
  468.0000   -35.4338    12.4641    13.2084    17.6362    76.7143     7.7274    -0.0034     2.4422     0.1234
  468.5000   -35.5682    12.5592    13.2231    17.8879  -999.2500     7.7289    -0.0018     2.4401     0.1234
  469.0000   -35.8481    12.6551    13.3154    17.4059  -999.2500     7.7155    -0.0002     2.4461     0.1233
  469.5000   -36.1318    12.7517    13.3230    17.2919  -999.2500     7.7170     0.0014     2.4544     0.1200
  470.0000   -36.4154    12.9382    13.3307    17.2978  -999.2500     7.7188     0.0030     2.4612     0.1172
  470.5000   -36.6991    12.7671    13.3382    17.0661  -999.2500     7.7203     0.0031     2.4613     0.1149
  471.0000   -37.2812    12.4296    13.0718    16.7215  -999.2500     7.7217     0.0017     2.4606     0.1149
  471.5000   -38.0126    12.0988    12.7984    16.2709  -999.2500     7.7232     0.0004     2.4584     0.1155
  472.0000   -38.7440    11.7769    12.3696    15.8311  -999.2500     7.7247     0.0005     2.4511     0.1178
  472.5000   -39.7740    11.4636    12.0517    15.4058  -999.2500     7.7409    -0.0009     2.4437     0.1196
  473.0000   -40.6546    10.7793    11.9612    15.1995  -999.2500     7.7424    -0.0038     2.4415     0.1207
  473.5000   -41.9830     9.9968    11.8179    15.0986  -999.2500     7.7587    -0.0052     2.4483     0.1219
  474.0000   -43.3115     8.9559    11.6639    15.3154  -999.2500     7.7602    -0.0051     2.4491     0.1230
  474.5000   -46.8787     7.8046    11.4294    15.4270  -999.2500     7.7616    -0.0050     2.4365     0.1206
  475.0000   -51.6399     6.7079    11.0489    15.1154  -999.2500     7.8223    -0.0064     2.4388     0.1216
  475.5000   -54.7594     5.8861    10.5329    14.7081  -999.2500     7.8831    -0.0078     2.4471     0.1242
  476.0000   -56.8341     5.4211    10.3211    14.6105  -999.2500     7.8845    -0.0076     2.4502     0.1241
  476.5000   -57.2707     5.1686    10.3987    14.6168  -999.2500     7.8860    -0.0075     2.4495     0.1208
  477.0000   -57.2521     4.9964    10.2633    14.2229  -999.2500     7.8875    -0.0059     2.4421     0.1199
  477.5000   -57.0880     4.8963    10.0583    13.9357  -999.2500     7.8741    -0.0043     2.4452     0.1219
  478.0000   -56.9239     4.8660     9.1989    13.7489  -999.2500     7.8756    -0.0042     2.4497     0.1216
  478.5000   -56.4613     4.9039     7.1759    13.6589  -999.2500     7.8622    -0.0041     2.4520     0.1198
  479.0000   -55.9986     4.9757     6.1243    13.6637  -999.2500     7.8637    -0.0025     2.4536     0.1186
  479.5000   -55.6853     5.1900     5.8780    13.7632  -999.2500     7.8652    -0.0008     2.4559     0.1179
  480.0000   -55.3719     5.6041     6.0472    13.8634  -999.2500     7.8815     0.0023     2.4597     0.1179
  480.5000   -55.2078     6.0511     6.3070    13.8682  -999.2500     7.8853     0.0024     2.4650     0.1167
  481.0000   -55.0437     6.4888     6.6235    13.8794  -999.2500     7.8699     0.0040     2.4696     0.1128
  481.5000   -54.8795     6.8153     6.8605    13.8777  -999.2500     7.8566     0.0071     2.4779     0.1089
  482.0000   -54.5662     6.9630     7.2049    13.7868  -999.2500     7.8580     0.0087     2.4879     0.1044
  482.5000   -54.4021     6.9198     7.4112    13.6965  -999.2500     7.8443     0.0088     2.4951     0.1013
  483.0000   -53.9751     6.8283     7.4662    13.7965  -999.2500     7.8462     0.0089     2.4833     0.1106
  483.5000  -999.2500  -999.2500  -999.2500  -999.2500  -999.2500     7.8324     0.0091     2.4953     0.1055
  484.0000  -999.2500  -999.2500  -999.2500  -999.2500  -999.2500     7.8043     0.0068     2.4663     0.1019
