~VERSION INFORMATION
 VERS.                2.0:   CWLS LOG ASCII STANDARD - VERSION 2.0
 WRAP.                 NO:   ONE LINE PER DEPTH STEP
~WELL INFORMATION
#MNEM.UNIT      DATA TYPE    INFORMATION
#----------   ------------   ------------------------------
 STRT.F            4.0000:   START DEPTH
 STOP.F          530.0000:   STOP DEPTH
 STEP.F            0.5000:   STEP LENGTH
 NULL.          -999.2500:   NO VALUE
 COMP. LAWRENCE-ALLISON &ASSOC:   COMPANY
 WELL.  NPR 3 #77-22STX10:   WELL
 FLD .             TEAPOT:   FIELD
 LOC .      S10 T38N R78W:   LOCATION
 CNTY.            NATRONA:   COUNTY
 STAT.            WYOMING:   STATE
 CTRY. UNITED STATES OF AMERICA:   COUNTRY
 SRVC.           Gearhart:   SERVICE COMPANY
 DATE.        27-JUN-1986:   LOGDATE
 API .       490251108100:   API NUMBER
~CURVE INFORMATION
#MNEM.UNIT       API CODE    CURVE DESCRIPTION
#----------   ------------   ------------------------------
 DEPT.F                  :   
 GRR .GAPI   07 310 01 00:   GAMMA RAY FROM RES. LOG.
 SPR .MV     07 010 01 00:   SPONTANEOUS POTENTIAL
 ILM .OHMM   07 120 44 00:   INDUCTION LOG MEDIUM
 ILD .OHMM   07 120 46 00:   INDUCTION LOG DEEP
 RLLA.OHMM   07 220 00 00:   LATEROLOG RESISTIVITY
~PARAMETER INFORMATION
#MNEM.UNIT          VALUE    DESCRIPTION
#----------   ------------   ------------------------------
 PD  .                 GL:   PERMANENT DATUM
 EPD .F              5188:   ELEVATION PERMANENT DATUM
 LMF .                 KB:   LOG MEASURED FROM
 DAPD.F                 5:   FEET ABOVE PERMANENT DATUM
 DMF .                 KB:   DRILLING MEASURED FROM
 EKB .F              5193:   KELLING BUSHING
 EGL .F              5188:   GROUND LEVEL
 DATE.            6-27-86:   RUN DATE
 RUN .                  1:   RUN NUMBER
 DD  .F               555:   DEPTH DRILLER
 DL  .F               534:   DEPTH LOGGER
 BLI .F               530:   BOTTOM LOG INTERVAL
 TLI .F                44:   TOP LOG INTERVAL
 CS  .IN            8.625:   CASING SIZE
 CBD .F                42:   CASING BOTTOM DRILLER
 CBL .F                44:   CASING BOTTOM LOGGER
 BS  .IN            7.875:   BIT SIZE
 BSD .F               555:   BIT SIZE AT DEPTH
 DFT .                AIR:   DRILLING FLUID TYPE
 MSS .           FLOWLINE:   MUD SAMPLE SOURCE
 RMS .OHMM            1.5:   RESISTIVITY MUD SAMPLE
 MST .F                68:   MUD SAMPLE TEMPERATURE
 RMF .OHMM            1.2:   RESISTIVITY MUD FILTRATE SAMPLE
 MFST.F                66:   MUD FILTRATE SAMPLE TEMPERATURE
 RMC .OHMM            1.7:   RESISTIVITY MUD CAKE
 MCST.F                66:   MUD CAKE SAMPLE TEMPERATURE
 MFSS.                  M:   MUD FILTRATE SAMPLE SOURCE
 MCSS.                  M:   MUD CAKE SAMPLE SOURCE
 RMB .OHMM            1.5:   RESISTIVITY MUD AT BHT
 BHT .F                65:   BOTTOM HOLE TEMPERATURE
 TCS .HRS            0600:   TIME CURCULATED STOPPED
 TLAB.HRS            0055:   TIME LOGGER AT BOTTOM
 MRT .F                61:   MAXIMUM RECORDED TEMPERATURE
 LUN .               7609:   LOGGING UNIT NUMBER
 LUL .           GILLETTE:   LOGGING UNIT LOCATION
 ENGI.            WANGLER:   RECORDING ENGINEER
 WITN.              FIVAS:   WITNESSED BY
 CLNT.            A2DTECH:   CLIENT CODE
 ORIG.       2", 5" PRINT:   ORIGIN OF DATA
 UWI .       490251108100:   UNIQUE WELL ID
 DICO. A2D Technologies, Inc.:   DIGITIZING COMPANY
~OTHER INFORMATION
~A    DEPT      GRR       SPR        ILM        ILD       RLLA   
# ...
  126.0000    82.9382   -70.4069     9.7599    10.2354    10.4640
  126.5000    80.5931   -70.6197     9.6587    10.2150    10.1060
  127.0000    78.9352   -70.5384     9.7493    10.2405     9.8407
  127.5000    80.3450   -71.0288     9.5690    10.2589     9.7936
  128.0000    83.0069   -71.1602     9.4699    10.2772     9.7486
  128.5000    85.4123   -70.9294     9.3921    10.2956     9.7038
  129.0000    85.0846   -70.8363     9.4395    10.3099     9.6587
  129.5000    84.7939   -71.5014     9.4810    10.2861     9.7826
  130.0000    85.4318   -71.3255     9.5228    10.2655     9.9095
  130.5000    86.7122   -70.3877     9.5647    10.2449    10.0261
  131.0000    87.1396   -70.0825     9.6526    10.2243     9.9207
  131.5000    87.6000   -69.8303     9.7464    10.2150     9.8253
  132.0000    86.8559   -69.4136     9.8407    10.4262     9.7308
  132.5000    84.6244   -70.0724     9.9887    10.5849     9.6371
  133.0000    82.3951   -69.3310    10.1384    10.7029     9.5444
  133.5000    81.0777   -68.5809    10.2150    10.6713     9.4526
  134.0000    80.4339   -69.1151    10.0884    10.3837     9.3486
  134.5000    79.8076   -68.6186     9.9158    10.1038     9.2204
  135.0000    79.1651   -67.9626     9.7493     9.8315     9.0939
  135.5000    78.9819   -68.8869     9.4567     9.4791     8.9692
  136.0000    80.5889   -69.8572     9.2177     9.4803     8.8456
  136.5000    83.4009   -70.0693     8.9848     9.6595     8.7172
  137.0000    83.1453   -69.8840     8.7982     9.4328     8.6607
  137.5000    80.3136   -69.9475     8.7626     9.1958     8.6011
  138.0000    77.7342   -69.3269     8.7258     8.9648     8.5486
  138.5000    79.9437   -68.3096     8.6892     8.7982     8.5191
  139.0000    82.4772   -69.6590     8.6528     8.7982     8.4897
  139.5000    84.3450   -70.9896     8.5553     8.7982     8.4605
  140.0000    84.2362   -70.5822     8.5960     8.7982     8.4313
  140.5000    84.1720   -69.5517     8.6504     8.7982     8.3971
  141.0000    85.7645   -68.9324     8.7051     8.7982     8.4389
  141.5000    89.3581   -69.3177     8.7602     8.7982     8.4901
  142.0000    92.1602   -70.3551     8.7982     8.7980     8.5415
  142.5000    90.7168   -70.6441     8.7095     8.7981     8.5933
  143.0000    89.3331   -70.2418     8.5900     8.7970     8.6454
  143.5000    88.0459   -70.3475     8.4758     8.8707     8.6978
  144.0000    87.0521   -71.1291     8.5821     8.9322     8.7944
  144.5000    86.0586   -71.2057     8.6864     8.9941     9.1039
  145.0000    85.1027   -71.6444     8.7977     9.0564    10.1201
  145.5000    85.9039   -72.2118     8.8879     9.1192    10.0289
  146.0000    86.8267   -71.8699     8.9696     9.1824     9.9330
  146.5000    87.3725   -71.8375     8.9948     9.2184    10.4074
  147.0000    84.5310   -71.9249     9.0207     9.2184    10.4074
  147.5000    81.6256   -71.6246     9.0479     9.2185     9.7761
  148.0000    81.9407   -72.0056     8.9946     9.2184     9.3679
  148.5000    87.9915   -71.8695     8.9368     9.2149     9.0480
  149.0000    92.7182   -72.9553     8.8804     9.2054     9.2184
  149.5000    94.5199   -73.9898     8.8009     9.1959     9.1260
  150.0000    94.2419   -74.2117     8.7165     9.1865     9.3252
  150.5000    91.9934   -72.7922     8.7858     9.1771     9.6258
  151.0000    90.7293   -72.6778     8.8632     9.1676     9.9325
  151.5000    89.6661   -72.8039     8.8807     9.1582    10.2490
  152.0000    89.2086   -73.3577     8.8807     9.1488    10.3107
  152.5000    88.0366   -74.8926     8.8807     9.1395    10.3107
  153.0000    88.2508   -74.7429     8.8807     9.1288    10.5050
  153.5000    89.4662   -74.4819     8.8807     9.0907    10.4262
  154.0000    89.4245   -74.7605     8.8808     9.0527    10.2763
  154.5000    86.8787   -75.3763     8.8817     9.0148     9.9980
  155.0000    85.4588   -76.0536     8.8837     8.9770     9.4660
  155.5000    86.6467   -75.7784     8.8844     8.9360     8.9623
  156.0000    90.7558   -76.0875     8.5467     8.8928     8.7165
  156.5000    94.7831   -76.8436     8.5330     8.8500     8.7165
  157.0000    97.1950   -76.6628     8.5185     8.8075     8.7165
  157.5000    95.5270   -76.9490     8.5041     8.7653     8.7165
  158.0000    92.8538   -78.7533     8.4899     8.7221     9.0134
  158.5000    90.0846   -79.6306     8.4752     8.6426     9.4317
  159.0000    88.9604   -79.3608     8.3666     8.5310     9.5866
  159.5000    88.8514   -78.3612     8.2663     8.4209     9.7459
  160.0000    89.0225   -77.3228     8.1653     8.3123     9.8394
  160.5000    87.9254   -78.0408     8.0533     8.2050     8.8367
  161.0000    88.5261   -78.7049     7.9133     8.0515     8.5453
  161.5000    89.1311   -78.6886     7.7756     7.8731     8.2708
  162.0000    89.5234   -78.6885     7.6411     7.6987     8.0895
  162.5000    88.4251   -78.5383     7.4612     7.5279     8.2418
  163.0000    87.5562   -78.3087     7.2499     7.3617     8.0343
  163.5000    88.1679   -78.3704     7.1515     7.2329     7.8661
  164.0000    89.1285   -78.5416     7.1286     7.2748     8.0143
  164.5000    90.2847   -78.7103     7.0988     7.3098     8.8807
  165.0000    91.9695   -79.3467     7.1329     7.3454     8.9683
  165.5000    93.0288   -79.9131     7.1940     7.4081     9.0595
  166.0000    93.1027   -79.7643     7.3894     7.5243     9.1303
  166.5000    89.2146   -79.2957     7.5570     7.6423     8.7438
  167.0000    86.3101   -79.4876     7.6795     7.7622     7.9399
  167.5000    85.8130   -80.4862     7.8040     7.8839     8.0041
  168.0000    87.2185   -80.6257     7.9391     8.0084     8.1012
  168.5000    88.6273   -80.8053     7.9560     8.1007     8.1836
  169.0000    88.1849   -81.3942     7.9721     8.1356     8.2393
  169.5000    87.8993   -83.5166     7.9888     8.1696     8.2984
  170.0000    88.0471   -84.2543     8.0055     8.2039     8.8749
  170.5000    88.1824   -82.3249     8.0143     8.2421    10.1201
  171.0000    88.0304   -81.7537     8.0141     8.2054    10.0780
  171.5000    86.9400   -82.6977     7.9823     8.1539    10.0269
  172.0000    85.8438   -83.3981     7.9235     8.1028    10.2499
  172.5000    83.7826   -84.1120     7.8661     8.0514    10.4009
  173.0000    81.9992   -84.8271     7.7554     7.9720     8.9924
  173.5000    85.6546   -85.5538     7.6208     7.8013     8.7781
  174.0000    89.4122   -85.7604     7.4751     7.6360     8.5553
  174.5000    90.8243   -85.5047     7.2540     7.4740     8.1783
  175.0000    90.3459   -84.1814     7.0132     7.2524     7.8661
  175.5000    91.9977   -83.3437     6.7803     7.0195     7.9572
  176.0000    94.1058   -83.0081     6.5551     6.7941     8.0143
  176.5000    95.4071   -83.3809     6.3374     6.5760     7.0423
  177.0000    93.3449   -84.0115     6.1270     6.3648     5.4942
  177.5000    90.2987   -84.5839     5.9235     6.1604     4.9546
  178.0000    87.5948   -85.4786     5.7276     5.9758     4.8420
  178.5000    85.7882   -86.3369     5.6177     5.8490     4.9332
  179.0000    86.2161   -86.8549     5.5190     5.7813     6.0474
  179.5000    91.2968   -87.4136     5.8079     6.1187     7.3599
  180.0000    92.5996   -87.9760     6.0968     6.3998     8.3971
  180.5000    91.6849   -88.5375     6.3986     6.6940     8.3858
  181.0000    90.3689   -89.1060     6.7151     7.0015     8.3459
  181.5000    91.2418   -89.6818     7.0469     7.3239     8.3242
  182.0000    91.6545   -90.2299     7.2276     7.5481     8.1420
  182.5000    91.8295   -89.6923     7.3826     7.7200     8.0143
  183.0000    94.3773   -89.9563     7.5410     7.8958     8.0580
  183.5000    96.7647   -90.5527     7.7028     7.9947     8.1418
  184.0000    95.5379   -90.0257     7.8661     8.0964     8.2264
  184.5000    93.2724   -90.4920     7.9588     8.1982     8.8438
  185.0000    91.3927   -90.6535     8.0515     8.3012     9.6395
  185.5000    91.1331   -90.2319     8.1453     8.4067    10.4518
  186.0000    91.3588   -90.8479     8.2401     8.4873    10.8631
  186.5000    91.0697   -91.2232     8.3191     8.5751    11.2177
