~VERSION INFORMATION
 VERS.                2.0:   CWLS LOG ASCII STANDARD - VERSION 2.0
 WRAP.                 NO:   ONE LINE PER DEPTH STEP
~WELL INFORMATION
#MNEM.UNIT      DATA TYPE    INFORMATION
#----------   ------------   ------------------------------
 STRT.F            0.0000:   START DEPTH
 STOP.F         2720.0000:   STOP DEPTH
 STEP.F            0.5000:   STEP LENGTH
 NULL.          -999.2500:   NO VALUE
 COMP. DEPARTMENT OF ENERGY:   COMPANY
 WELL.       NPR-3 #410-A:   WELL
 FLD . TEAPOT NAVAL RESERVE:   FIELD
 LOC .      S20 T39N R78W:   LOCATION
 CNTY.            NATRONA:   COUNTY
 STAT.            WYOMING:   STATE
 CTRY. UNITED STATES OF AMERICA:   COUNTRY
 SRVC.      NL McCullough:   SERVICE COMPANY
 DATE.        26-JUL-1965:   LOGDATE
 API .       490251144500:   API NUMBER
~CURVE INFORMATION
#MNEM.UNIT       API CODE    CURVE DESCRIPTION
#----------   ------------   ------------------------------
 DEPT.F                  :   
 GR  .GAPI   30 310 01 00:   GAMMA RAY
 CALI.IN     30 280 01 00:   CALIPER
~PARAMETER INFORMATION
#MNEM.UNIT          VALUE    DESCRIPTION
#----------   ------------   ------------------------------
 PD  .                 GL:   PERMANENT DATUM
 LMF .                 GL:   LOG MEASURED FROM
 DATE.            7-16-65:   RUN DATE
 RUN .                  1:   RUN NUMBER
 DD  .F              2720:   DEPTH DRILLER
 TLI .F              2100:   TOP LOG INTERVAL
 CS  .IN            6.875:   CASING SIZE
 DFT .              WATER:   DRILLING FLUID TYPE
 ENGI. FITZSIMMONE/COWLTHORPE:   RECORDING ENGINEER
 WITN.             HUDSON:   WITNESSED BY
 CLNT.            A2DTECH:   CLIENT CODE
 ORIG.           5" PRINT:   ORIGIN OF DATA
 UWI .       490251144500:   UNIQUE WELL ID
 DICO. A2D Technologies, Inc.:   DIGITIZING COMPANY
~OTHER INFORMATION
~A    DEPT      GR         CALI 
# ...
  364.5000  -999.2500     5.9476
  365.0000  -999.2500     5.9446
  365.5000  -999.2500     5.9417
  366.0000  -999.2500     5.9389
  366.5000  -999.2500     5.9360
  367.0000  -999.2500     5.9331
  367.5000  -999.2500     5.9300
  368.0000  -999.2500     5.9414
  368.5000  -999.2500     5.9596
  369.0000  -999.2500     5.9777
  369.5000  -999.2500     5.9901
  370.0000  -999.2500     5.9899
  370.5000  -999.2500     5.9900
  371.0000  -999.2500     5.9900
  371.5000  -999.2500     5.9900
  372.0000  -999.2500     5.9900
  372.5000  -999.2500     5.9900
  373.0000  -999.2500     5.9900
  373.5000  -999.2500     5.9900
  374.0000  -999.2500     5.9900
  374.5000  -999.2500     5.9900
  375.0000  -999.2500     5.9900
  375.5000  -999.2500     5.9900
  376.0000  -999.2500     5.9900
  376.5000  -999.2500     5.9900
  377.0000  -999.2500     5.9900
  377.5000  -999.2500     5.9900
  378.0000  -999.2500     5.9900
  378.5000  -999.2500     5.9900
  379.0000  -999.2500     5.9900
  379.5000  -999.2500     5.9900
  380.0000  -999.2500     5.9900
  380.5000  -999.2500     5.9900
  381.0000  -999.2500     5.9900
  381.5000  -999.2500     5.9900
  382.0000  -999.2500     5.9900
  382.5000  -999.2500     5.9900
  383.0000  -999.2500     5.9900
  383.5000  -999.2500     5.9900
  384.0000  -999.2500     5.9900
  384.5000  -999.2500     5.9900
  385.0000  -999.2500     5.9886
  385.5000  -999.2500     5.9842
  386.0000  -999.2500     5.9799
  386.5000  -999.2500     5.9756
  387.0000  -999.2500     5.9712
  387.5000  -999.2500     5.9736
  388.0000  -999.2500     5.9790
  388.5000  -999.2500     5.9847
  389.0000  -999.2500     5.9892
  389.5000  -999.2500     5.9672
  390.0000  -999.2500     5.9479
  390.5000  -999.2500     5.9411
  391.0000  -999.2500     5.9343
  391.5000  -999.2500     5.9304
  392.0000  -999.2500     5.9328
  392.5000  -999.2500     5.9350
  393.0000  -999.2500     5.9373
  393.5000  -999.2500     5.9395
  394.0000  -999.2500     5.9418
  394.5000  -999.2500     5.9440
  395.0000  -999.2500     5.9463
  395.5000  -999.2500     5.9485
  396.0000  -999.2500     5.9489
  396.5000  -999.2500     5.9468
  397.0000  -999.2500     5.9447
  397.5000  -999.2500     5.9425
  398.0000  -999.2500     5.9404
  398.5000  -999.2500     5.9383
  399.0000  -999.2500     5.9362
  399.5000  -999.2500     5.9341
  400.0000  -999.2500     5.9319
  400.5000  -999.2500     5.9300
  401.0000  -999.2500     5.9397
  401.5000  -999.2500     5.9494
  402.0000  -999.2500     5.9435
  402.5000  -999.2500     5.9373
  403.0000  -999.2500     5.9305
  403.5000  -999.2500     5.9485
  404.0000  -999.2500     5.9725
  404.5000  -999.2500     5.9847
  405.0000  -999.2500     5.9600
  405.5000  -999.2500     5.9574
  406.0000  -999.2500     5.9702
  406.5000  -999.2500     5.9833
  407.0000  -999.2500     5.9880
  407.5000  -999.2500     5.9839
  408.0000  -999.2500     5.9799
  408.5000  -999.2500     5.9759
  409.0000  -999.2500     5.9718
  409.5000  -999.2500     5.9672
  410.0000  -999.2500     5.9619
  410.5000  -999.2500     5.9568
  411.0000  -999.2500     5.9508
  411.5000  -999.2500     5.9923
  412.0000  -999.2500     6.0521
  412.5000  -999.2500     6.0907
  413.0000  -999.2500     6.0903
  413.5000  -999.2500     6.0904
  414.0000  -999.2500     6.0904
  414.5000  -999.2500     6.0904
  415.0000  -999.2500     6.0904
  415.5000  -999.2500     6.0904
  416.0000  -999.2500     6.0904
  416.5000  -999.2500     6.0905
  417.0000  -999.2500     6.0732
  417.5000  -999.2500     6.0458
  418.0000  -999.2500     6.0267
  418.5000  -999.2500     6.0095
  419.0000  -999.2500     6.0100
  419.5000  -999.2500     6.0100
  420.0000  -999.2500     6.0100
  420.5000  -999.2500     6.0100
  421.0000  -999.2500     6.0100
  421.5000  -999.2500     6.0100
  422.0000  -999.2500     6.0100
  422.5000  -999.2500     6.0100
  423.0000  -999.2500     6.0100
  423.5000  -999.2500     6.0100
  424.0000  -999.2500     6.0100
  424.5000  -999.2500     6.0100
  425.0000  -999.2500     6.0100
  425.5000  -999.2500     6.0100
  426.0000  -999.2500     6.0100
  426.5000  -999.2500     6.0100
  427.0000  -999.2500     6.0100
  427.5000  -999.2500     6.0100
  428.0000  -999.2500     6.0100
  428.5000  -999.2500     6.0100
  429.0000  -999.2500     6.0100
  429.5000  -999.2500     6.0100
  430.0000  -999.2500     6.0101
  430.5000  -999.2500     6.0104
  431.0000  -999.2500     5.9945
  431.5000  -999.2500     5.9748
  432.0000  -999.2500     5.9542
  432.5000  -999.2500     5.9574
  433.0000  -999.2500     5.9678
  433.5000  -999.2500     5.9785
  434.0000  -999.2500     5.9892
  434.5000  -999.2500     5.9778
  435.0000  -999.2500     5.9641
  435.5000  -999.2500     5.9503
  436.0000  -999.2500     5.9367
  436.5000  -999.2500     5.9297
  437.0000  -999.2500     5.9297
  437.5000  -999.2500     5.9297
  438.0000  -999.2500     5.9297
  438.5000  -999.2500     5.9315
  439.0000  -999.2500     5.9336
  439.5000  -999.2500     5.9357
  440.0000  -999.2500     5.9378
  440.5000  -999.2500     5.9399
  441.0000  -999.2500     5.9420
  441.5000  -999.2500     5.9441
  442.0000  -999.2500     5.9462
  442.5000  -999.2500     5.9483
  443.0000  -999.2500     5.9469
  443.5000  -999.2500     5.9336
  444.0000  -999.2500     5.9209
  444.5000  -999.2500     5.9082
  445.0000  -999.2500     5.8955
  445.5000  -999.2500     5.8827
  446.0000  -999.2500     5.8700
  446.5000  -999.2500     5.8694
  447.0000  -999.2500     5.8695
  447.5000  -999.2500     5.8695
  448.0000  -999.2500     5.8695
  448.5000  -999.2500     5.8695
  449.0000  -999.2500     5.8695
  449.5000  -999.2500     5.8695
  450.0000  -999.2500     5.8695
  450.5000  -999.2500     5.8695
  451.0000  -999.2500     5.8695
  451.5000  -999.2500     5.8674
  452.0000  -999.2500     5.8616
  452.5000  -999.2500     5.8559
  453.0000  -999.2500     5.8502
  453.5000  -999.2500     5.8445
  454.0000  -999.2500     5.8387
  454.5000  -999.2500     5.8331
  455.0000  -999.2500     5.8288
  455.5000  -999.2500     5.8273
  456.0000  -999.2500     5.8257
  456.5000  -999.2500     5.8242
  457.0000  -999.2500     5.8227
  457.5000  -999.2500     5.8212
  458.0000  -999.2500     5.8197
  458.5000  -999.2500     5.8182
  459.0000  -999.2500     5.8167
  459.5000  -999.2500     5.8151
  460.0000  -999.2500     5.8136
  460.5000  -999.2500     5.8121
  461.0000  -999.2500     5.8105
  461.5000  -999.2500     5.8100
  462.0000  -999.2500     5.8260
  462.5000  -999.2500     5.8417
  463.0000  -999.2500     5.8571
  463.5000  -999.2500     5.8698
  464.0000  -999.2500     5.8695
  464.5000  -999.2500     5.8695
  465.0000  -999.2500     5.8695
  465.5000  -999.2500     5.8695
  466.0000  -999.2500     5.8695
  466.5000  -999.2500     5.8695
  467.0000  -999.2500     5.8695
  467.5000  -999.2500     5.8695
  468.0000  -999.2500     5.8695
  468.5000  -999.2500     5.8696
  469.0000  -999.2500     5.8628
  469.5000  -999.2500     5.8531
  470.0000  -999.2500     5.8433
  470.5000  -999.2500     5.8333
  471.0000  -999.2500     5.8403
  471.5000  -999.2500     5.8588
  472.0000  -999.2500     5.8777
  472.5000  -999.2500     5.8963
  473.0000  -999.2500     5.9046
  473.5000  -999.2500     5.8820
  474.0000  -999.2500     5.8605
  474.5000  -999.2500     5.8391
  475.0000  -999.2500     5.8175
  475.5000  -999.2500     5.8106
  476.0000  -999.2500     5.8135
  476.5000  -999.2500     5.8165
  477.0000  -999.2500     5.8196
  477.5000  -999.2500     5.8226
  478.0000  -999.2500     5.8256
  478.5000  -999.2500     5.8287
  479.0000  -999.2500     5.8313
  479.5000  -999.2500     5.8339
  480.0000  -999.2500     5.8365
  480.5000  -999.2500     5.8391
  481.0000  -999.2500     5.8417
  481.5000  -999.2500     5.8442
  482.0000  -999.2500     5.8468
  482.5000  -999.2500     5.8493
  483.0000  -999.2500     5.8478
  483.5000  -999.2500     5.8462
  484.0000  -999.2500     5.8446
  484.5000  -999.2500     5.8430
  485.0000  -999.2500     5.8414
  485.5000  -999.2500     5.8398
