~VERSION INFORMATION
 VERS.                2.0:   CWLS LOG ASCII STANDARD - VERSION 2.0
 WRAP.                 NO:   ONE LINE PER DEPTH STEP
~WELL INFORMATION
#MNEM.UNIT      DATA TYPE    INFORMATION
#----------   ------------   ------------------------------
 STRT.F           30.0000:   START DEPTH
 STOP.F          655.5000:   STOP DEPTH
 STEP.F            0.5000:   STEP LENGTH
 NULL.          -999.2500:   NO VALUE
 COMP. FENIX & SCISSON INC:   COMPANY
 WELL.    NPR-3 SX #52-15:   WELL
 FLD .             TEAPOT:   FIELD
 LOC .      S15 T38N R78W:   LOCATION
 CNTY.            NATRONA:   COUNTY
 STAT.            WYOMING:   STATE
 CTRY. UNITED STATES OF AMERICA:   COUNTRY
 SRVC.            Unknown:   SERVICE COMPANY
 DATE.        27-MAY-1978:   LOGDATE
 API .       490251062200:   API NUMBER
~CURVE INFORMATION
#MNEM.UNIT       API CODE    CURVE DESCRIPTION
#----------   ------------   ------------------------------
 DEPT.F                  :   
 GRD .GAPI   45 310 01 00:   GAMMA RAY FROM DENSITY LOG
 CALD.IN     45 280 60 00:   CALIPER
 RHOB.G/C3   45 350 01 00:   BULK DENSITY
 DPHI.DEC    45 890 12 00:   DENSITY POROSITY SANDSTONE
 CORR.G/C3   45 356 01 00:   DENSITY CORRECTION
 SN  .OHMM   05 040 16 00:   SHORT NORMAL 16"
 IL  .OHMM   05 120 00 00:   INDUCTION LOG
 SPR .MV     05 010 01 00:   SPONTANEOUS POTENTIAL FROM RES.
~PARAMETER INFORMATION
#MNEM.UNIT          VALUE    DESCRIPTION
#----------   ------------   ------------------------------
 PD  .                 GL:   PERMANENT DATUM
 EPD .F              5240:   ELEVATION PERMANENT DATUM
 LMF .                 KB:   LOG MEASURED FROM
 DAPD.F                 4:   FEET ABOVE PERMANENT DATUM
 DMF .                 GL:   DRILLING MEASURED FROM
 EKB .F              5244:   KELLING BUSHING
 EGL .F              5240:   GROUND LEVEL
 DATE.          5-27-1978:   RUN DATE
 RUN .                  1:   RUN NUMBER
 DD  .F               645:   DEPTH DRILLER
 DL  .F               655:   DEPTH LOGGER
 BLI .F               650:   BOTTOM LOG INTERVAL
 TLI .F                50:   TOP LOG INTERVAL
 CS  .IN            8.625:   CASING SIZE
 CBD .F                40:   CASING BOTTOM DRILLER
 CBL .F                40:   CASING BOTTOM LOGGER
 BS  .IN            7.875:   BIT SIZE
 BSD .F               645:   BIT SIZE AT DEPTH
 DFT .                KCL:   DRILLING FLUID TYPE
 DFD .                8.6:   DRILLING FLUID DENSITY
 DFV .                 32:   DRILLING FLUID VISCOSITY
 DFPH.               10.5:   DRILLING FLUID PH
 DFL .                7.4:   DRILLING FLUID LOSS
 MSS .           FLOWLINE:   MUD SAMPLE SOURCE
 RMS .OHMM            .30:   RESISTIVITY MUD SAMPLE
 MST .F                66:   MUD SAMPLE TEMPERATURE
 RMF .OHMM            .32:   RESISTIVITY MUD FILTRATE SAMPLE
 MFST.F                64:   MUD FILTRATE SAMPLE TEMPERATURE
 RMC .OHMM            .50:   RESISTIVITY MUD CAKE
 MCST.F                64:   MUD CAKE SAMPLE TEMPERATURE
 MFSS.           MEASURED:   MUD FILTRATE SAMPLE SOURCE
 BHT .F                68:   BOTTOM HOLE TEMPERATURE
 TCS .HRS               2:   TIME CURCULATED STOPPED
 MRT .F                68:   MAXIMUM RECORDED TEMPERATURE
 LUN .               2958:   LOGGING UNIT NUMBER
 LUL .              CASP.:   LOGGING UNIT LOCATION
 ENGI.            POINTER:   RECORDING ENGINEER
 WITN.           MCGINLEY:   WITNESSED BY
 CLNT.            A2DTECH:   CLIENT CODE
 ORIG.      2" , 5" PRINT:   ORIGIN OF DATA
 UWI .       490251062200:   UNIQUE WELL ID
 DICO. A2D Technologies, Inc.:   DIGITIZING COMPANY
~OTHER INFORMATION
~A   DEPT       GRD      CALD       RHOB       DPHI       CORR         SN         IL        SPR   
# ...
  313.5000    82.6550     7.6454     2.4705     0.1289     0.0453     9.0876    10.6422   -20.4655
  314.0000    83.8653     7.6448     2.4693     0.1275     0.0468     8.9863    10.3837   -20.5344
  314.5000    84.9103     7.6447     2.4689     0.1239     0.0483     8.8854     9.9750   -20.6033
  315.0000    85.2529     7.6444     2.4740     0.1206     0.0497     8.7435     9.5823   -20.6721
  315.5000    86.3660     7.6290     2.4791     0.1184     0.0511     8.5827     9.0998   -20.7410
  316.0000    89.7732     7.5954     2.4842     0.1204     0.0512     8.4249     9.0964   -20.8099
  316.5000    92.7602     7.5617     2.4873     0.1239     0.0484     8.2699     9.1001   -20.8790
  317.0000    91.9472     7.5601     2.4783     0.1250     0.0457     8.1179     9.1183   -20.9488
  317.5000    89.5601     7.5896     2.4769     0.1262     0.0430     7.9994     9.1381   -21.0112
  318.0000    88.3936     7.6193     2.4775     0.1294     0.0402     8.1007     9.1578   -20.9172
  318.5000    88.1133     7.6443     2.4731     0.1335     0.0380     8.1861     9.1775   -20.8174
  319.0000    88.3190     7.6352     2.4676     0.1329     0.0381     8.2726     9.1972   -20.7183
  319.5000    87.6740     7.6261     2.4626     0.1305     0.0387     8.3599     9.2169   -20.6190
  320.0000    86.4029     7.6389     2.4634     0.1276     0.0415     8.4482     9.2367   -20.5182
  320.5000    85.4196     7.6573     2.4642     0.1235     0.0443     8.5374     9.2566   -20.4269
  321.0000    84.9622     7.6646     2.4684     0.1195     0.0502     8.6275     9.2877   -20.6631
  321.5000    84.8682     7.6647     2.4746     0.1154     0.0559     8.7185     9.3885   -20.9205
  322.0000    86.9326     7.6647     2.4830     0.1114     0.0616     8.8106     9.4905   -21.1772
  322.5000    91.5710     7.6647     2.4911     0.1067     0.0673     8.9036     9.5935   -21.4313
  323.0000    95.8058     7.6647     2.4992     0.1092     0.0723     8.9434     9.6977   -21.5893
  323.5000    98.8281     7.6647     2.5049     0.1133     0.0721     8.9579     9.8030   -21.4675
  324.0000    99.1220     7.6645     2.5039     0.1131     0.0721     8.9723     9.9094   -21.3538
  324.5000    97.8737     7.6647     2.4994     0.1104     0.0733     8.9868     9.9777   -21.2402
  325.0000    96.5352     7.6753     2.5007     0.1029     0.0802     9.0012     9.9479   -21.1266
  325.5000    94.0476     7.7197     2.5089     0.0998     0.0871     9.0158     9.9226   -21.0128
  326.0000    91.5521     7.7622     2.5170     0.1095     0.0872     9.0303     9.8972   -20.8996
  326.5000    89.2915     7.7382     2.5217     0.1085     0.0865     9.0448     9.8720   -20.8149
  327.0000    89.2589     7.7090     2.4988     0.1059     0.0946     9.0594     9.8468   -20.8166
  327.5000    89.4211     7.6796     2.5015     0.1033     0.1028     9.0740     9.8217   -20.8167
  328.0000    90.7847     7.6502     2.5085     0.1007     0.1101     9.0887     9.7966   -20.8169
  328.5000    91.4550     7.6204     2.5156     0.0990     0.1099     9.1033     9.7717   -20.8166
  329.0000    91.5606     7.5900     2.5208     0.0983     0.1096     9.1180     9.7467   -20.8181
  329.5000    93.3304     7.5925     2.5221     0.0976     0.1093     9.1327     9.7219   -20.7028
  330.0000    95.4079     7.6020     2.5236     0.0975     0.1090     9.1476     9.6971   -20.5218
  330.5000    96.2825     7.6117     2.5244     0.1015     0.1087     9.1701     9.6723   -20.3391
  331.0000    93.8447     7.6217     2.5232     0.1054     0.1084     9.1841     9.6476   -20.1556
  331.5000    90.2540     7.6083     2.5195     0.1069     0.1093     9.0661     9.6227   -19.9730
  332.0000    89.9624     7.5832     2.5114     0.1044     0.1122     8.9647     9.6168   -19.8417
  332.5000    89.8495     7.5505     2.5081     0.1019     0.1151     8.8644     9.6168   -20.0172
  333.0000    91.2606     7.4891     2.5124     0.0994     0.1162     8.7655     9.6168   -20.1884
  333.5000    93.4757     7.4281     2.5165     0.0969     0.1162     8.6908     9.6168   -20.3589
  334.0000    95.6704     7.4346     2.5207     0.0946     0.1162     8.8182     9.6168   -20.5292
  334.5000    97.7596     7.4569     2.5247     0.0967     0.1162     8.9337     9.6168   -20.6995
  335.0000    98.5439     7.5384     2.5293     0.0988     0.1162     8.8884     9.5862   -20.8702
  335.5000    97.6776     7.5772     2.5301     0.1006     0.1162     8.8381     9.5427   -21.0427
  336.0000    95.5685     7.6169     2.5240     0.1070     0.1162     8.7881     9.4995   -21.2050
  336.5000    93.4176     7.6577     2.5182     0.1091     0.1171     8.7385     9.4564   -21.0188
  337.0000    92.4937     7.6372     2.5123     0.1021     0.1288     8.6891     9.4135   -20.8119
  337.5000    91.8388     7.6020     2.5076     0.0962     0.1493     8.6399     9.3709   -20.6055
  338.0000    91.9110     7.5665     2.5186     0.0902     0.1697     8.5911     9.3284   -20.4261
  338.5000    92.4303     7.5321     2.5303     0.0921     0.1869     8.5426     9.2861   -20.5534
  339.0000    92.2982     7.4652     2.5361     0.0942     0.1867     8.4948     9.2440   -20.6833
  339.5000    89.7184     7.4178     2.5404     0.0949     0.1777     8.4529     9.2021   -20.8116
  340.0000    87.1139     7.4240     2.5353     0.0937     0.1668     8.3162     9.0876   -20.9367
  340.5000    85.2301     7.5041     2.5260     0.0926     0.1574     8.1742     8.9197   -20.9214
  341.0000    85.5021     7.5044     2.5317     0.1037     0.1538     8.0349     8.7549   -20.6734
  341.5000    87.1532     7.4810     2.5309     0.1116     0.1503     7.8980     8.5931   -20.4281
  342.0000    89.3288     7.4473     2.5155     0.1154     0.1536     7.7635     8.4343   -20.1835
  342.5000    91.5492     7.3885     2.5000     0.1136     0.1648     7.6312     8.2785   -19.9367
  343.0000    92.4710     7.4222     2.4955     0.1100     0.1839     7.5012     8.1255   -20.0761
  343.5000    92.2948     7.5404     2.4954     0.1064     0.2059     7.3734     7.9989   -20.5573
  344.0000    92.2611     7.5613     2.5028     0.0972     0.2210     7.2951     7.9989   -21.0425
  344.5000    92.0171     7.5263     2.5166     0.0859     0.2301     7.4286     7.9989   -21.5351
  345.0000    89.4788     7.4923     2.5305     0.0749     0.2308     7.5433     7.9989   -21.5655
  345.5000    89.2336     7.4586     2.5445     0.0915     0.2226     7.6598     8.0579   -21.5056
  346.0000    90.2633     7.4251     2.5594     0.1154     0.2044     7.7780     8.2656   -21.4442
  346.5000    92.8323     7.4118     2.5433     0.1134     0.1723     7.8981     8.4172   -21.3840
  347.0000    95.3713     7.4398     2.5030     0.1099     0.1617     8.0201     8.5717   -21.3239
  347.5000    97.7713     7.5116     2.4971     0.1053     0.1655     8.1476     8.7290   -21.2638
  348.0000    97.1304     7.5593     2.5032     0.1011     0.1672     8.1476     8.8890   -21.2037
  348.5000    95.0614     7.5263     2.5124     0.1125     0.1616     8.1477     9.0163   -21.1435
  349.0000    93.0208     7.4940     2.5216     0.1250     0.1442     8.1476     8.9637   -21.0832
  349.5000    91.5719     7.5260     2.5213     0.1144     0.1254     8.1476     8.9124   -21.0232
  350.0000    92.9730     7.5834     2.4924     0.1017     0.1131     8.1476     8.8615   -21.0157
  350.5000    93.1767     7.6342     2.4794     0.1068     0.1355     8.1477     8.8108   -21.0158
  351.0000    93.2837     7.6627     2.5008     0.1133     0.1494     8.1484     8.7605   -21.0159
  351.5000    93.9349     7.6922     2.5091     0.1150     0.1457     8.0501     8.6899   -21.0159
  352.0000    94.5458     7.6747     2.4979     0.1114     0.1454     7.9241     8.6912   -21.0159
  352.5000    93.7217     7.6499     2.4961     0.1078     0.1481     7.8000     8.4701   -21.0159
  353.0000    92.9774     7.6308     2.5001     0.1162     0.1498     7.6779     8.2921   -21.0159
  353.5000    92.9919     7.6117     2.5021     0.1120     0.1470     7.5577     8.1177   -21.0201
