~VERSION INFORMATION
 VERS.                2.0:   CWLS LOG ASCII STANDARD - VERSION 2.0
 WRAP.                 NO:   ONE LINE PER DEPTH STEP
~WELL INFORMATION
#MNEM.UNIT      DATA TYPE    INFORMATION
#----------   ------------   ------------------------------
 STRT.F          566.5000:   START DEPTH
 STOP.F         2065.5000:   STOP DEPTH
 STEP.F            0.5000:   STEP LENGTH
 NULL.          -999.2500:   NO VALUE
 COMP. LAWRENCE/ALLISON INC:   COMPANY
 WELL.      NPR 3 #25-X-3:   WELL
 FLD .             TEAPOT:   FIELD
 LOC .       S3 T38N R78W:   LOCATION
 CNTY.            NATRONA:   COUNTY
 STAT.            WYOMING:   STATE
 CTRY. UNITED STATES OF AMERICA:   COUNTRY
 SRVC.            Unknown:   SERVICE COMPANY
 DATE.        26-SEP-1987:   LOGDATE
 API .       490251119000:   API NUMBER
~CURVE INFORMATION
#MNEM.UNIT       API CODE    CURVE DESCRIPTION
#----------   ------------   ------------------------------
 DEPT.F                  :   
 ROP .MIN/FT 91 810 01 00:   RATE OF DRILLING PENETRATION
 TGAS.UNITS  91 830 01 00:   TOTAL GAS FROM HOTWIRE
~PARAMETER INFORMATION
#MNEM.UNIT          VALUE    DESCRIPTION
#----------   ------------   ------------------------------
 DATE.        26-SEP-1987:   RUN DATE
 RUN .                  1:   RUN NUMBER
 DD  .F              2066:   DEPTH DRILLER
 TLI .F               566:   TOP LOG INTERVAL
 WITN. R. HUSK/R. PETERSON:   WITNESSED BY
 CLNT.            A2DTECH:   CLIENT CODE
 ORIG.           5" PRINT:   ORIGIN OF DATA
 UWI .       490251119000:   UNIQUE WELL ID
 DICO. A2D Technologies, Inc.:   DIGITIZING COMPANY
~OTHER INFORMATION
~A   DEPT        ROP       TGAS 
# ...
 1417.0000     0.4354   154.3501
 1417.5000     0.4362   154.4435
 1418.0000     0.4370   154.5368
 1418.5000     0.4378   154.6302
 1419.0000     0.4387   154.7235
 1419.5000     0.4395   154.8169
 1420.0000     0.4403   154.9103
 1420.5000     0.4411   155.0036
 1421.0000     0.4419   155.0970
 1421.5000     0.4428   155.1904
 1422.0000     0.4436   155.2837
 1422.5000     0.4444   155.3771
 1423.0000     0.4452   155.4705
 1423.5000     0.4461   155.5638
 1424.0000     0.4469   155.6572
 1424.5000     0.4477   155.7506
 1425.0000     0.4485   155.8439
 1425.5000     0.4493   155.9373
 1426.0000     0.4502   156.0307
 1426.5000     0.4510   156.1240
 1427.0000     0.4518   156.2174
 1427.5000     0.4526   156.3108
 1428.0000     0.4534   156.4041
 1428.5000     0.4543   156.4975
 1429.0000     0.4551   156.5909
 1429.5000     0.4559   156.6842
 1430.0000     0.4567   156.7776
 1430.5000     0.4575   156.8710
 1431.0000     0.4584   156.9643
 1431.5000     0.4592   157.0577
 1432.0000     0.4600   157.1511
 1432.5000     0.4608   157.2444
 1433.0000     0.4617   157.3378
 1433.5000     0.4625   157.4312
 1434.0000     0.4633   157.5246
 1434.5000     0.4641   157.6179
 1435.0000     0.4649   157.7113
 1435.5000     0.4658   157.8046
 1436.0000     0.4666   157.8980
 1436.5000     0.4674   157.9914
 1437.0000     0.4682   158.0847
 1437.5000     0.4690   158.1781
 1438.0000     0.4699   158.2715
 1438.5000     0.4707   158.3649
 1439.0000     0.4715   158.4582
 1439.5000     0.4723   158.5516
 1440.0000     0.4731   158.6449
 1440.5000     0.4740   158.7383
 1441.0000     0.4748   158.8317
 1441.5000     0.4756   158.9250
 1442.0000     0.4764   159.0184
 1442.5000     0.4772   159.1118
 1443.0000     0.4781   159.2052
 1443.5000     0.4789   159.2985
 1444.0000     0.4797   159.3919
 1444.5000     0.4805   159.4852
 1445.0000     0.4814   159.5786
 1445.5000     0.4822   159.6720
 1446.0000     0.4830   159.7654
 1446.5000     0.4838   159.8587
 1447.0000     0.4846   159.9521
 1447.5000     0.4855   160.0454
 1448.0000     0.4863   160.1388
 1448.5000     0.4871   160.2322
 1449.0000     0.4879   160.3255
 1449.5000     0.4887   160.4189
 1450.0000     0.4896   160.5123
 1450.5000     0.4904   160.6057
 1451.0000     0.4912   160.6990
 1451.5000     0.4920   160.7924
 1452.0000     0.4928   160.8857
 1452.5000     0.4937   160.9791
 1453.0000     0.4945   161.0725
 1453.5000     0.4953   161.1658
 1454.0000     0.4961   161.2592
 1454.5000     0.4970   161.3526
 1455.0000     0.4978   161.4460
 1455.5000     0.4986   161.5393
 1456.0000     0.4994   161.6327
 1456.5000     0.5002   161.7260
 1457.0000     0.5010   161.8194
 1457.5000     0.5013   161.9128
 1458.0000     0.5122   162.0172
 1458.5000     0.5125   174.2384
 1459.0000     0.5023   188.1048
 1459.5000     0.5028   201.9713
 1460.0000     0.4719   216.5047
 1460.5000     0.4617   216.4502
 1461.0000     0.4308   216.3929
 1461.5000     0.4103   216.3356
 1462.0000     0.3793   216.2784
 1462.5000     0.3693   216.2211
 1463.0000     0.3487   216.1639
 1463.5000     0.3492   216.1066
 1464.0000     0.3390   216.0493
 1464.5000     0.3395   215.9921
 1465.0000     0.3503   215.9348
 1465.5000     0.3506   215.8775
 1466.0000     0.3719   215.8203
 1466.5000     0.3723   215.7630
 1467.0000     0.3830   215.7058
 1467.5000     0.3834   215.6485
 1468.0000     0.3838   215.5912
 1468.5000     0.3841   215.5340
 1469.0000     0.3950   215.4767
 1469.5000     0.3953   215.4195
 1470.0000     0.3957   215.3622
 1470.5000     0.3962   215.3049
 1471.0000     0.3968   215.2477
 1471.5000     0.3974   215.1904
 1472.0000     0.3980   215.1332
 1472.5000     0.3986   215.0759
 1473.0000     0.3992   215.0186
 1473.5000     0.3999   214.9614
 1474.0000     0.4005   214.9041
 1474.5000     0.4011   214.8469
 1475.0000     0.4017   214.7896
 1475.5000     0.4023   214.7323
 1476.0000     0.4029   214.6751
 1476.5000     0.4036   214.6178
 1477.0000     0.4042   214.5606
 1477.5000     0.4048   214.5033
 1478.0000     0.4054   214.4460
 1478.5000     0.4060   214.3888
 1479.0000     0.4066   214.3315
 1479.5000     0.4073   214.2743
 1480.0000     0.4079   214.2170
 1480.5000     0.4085   214.1597
 1481.0000     0.4091   214.1025
 1481.5000     0.4097   214.0452
 1482.0000     0.4103   213.9879
 1482.5000     0.4109   213.9307
 1483.0000     0.4116   213.8734
 1483.5000     0.4122   213.8162
 1484.0000     0.4128   213.7589
 1484.5000     0.4134   213.7016
 1485.0000     0.4140   213.6444
 1485.5000     0.4146   213.5871
 1486.0000     0.4153   213.5299
 1486.5000     0.4159   213.4726
 1487.0000     0.4165   213.4153
 1487.5000     0.4171   213.3581
 1488.0000     0.4177   213.3008
 1488.5000     0.4183   213.2436
 1489.0000     0.4190   213.1863
 1489.5000     0.4196   213.1290
 1490.0000     0.4202   213.0718
 1490.5000     0.4208   213.0145
 1491.0000     0.4214   212.9573
 1491.5000     0.4220   212.9000
 1492.0000     0.4227   212.8427
 1492.5000     0.4233   212.7855
 1493.0000     0.4239   212.7282
 1493.5000     0.4245   212.6710
 1494.0000     0.4251   212.6137
 1494.5000     0.4257   212.5564
 1495.0000     0.4263   212.4992
 1495.5000     0.4270   212.4419
 1496.0000     0.4276   212.3847
 1496.5000     0.4282   212.3274
 1497.0000     0.4288   212.2701
 1497.5000     0.4294   212.2129
 1498.0000     0.4300   212.1556
 1498.5000     0.4307   212.0984
 1499.0000     0.4313   212.0411
 1499.5000     0.4319   211.9838
 1500.0000     0.4325   211.9266
 1500.5000     0.4331   211.8693
 1501.0000     0.4337   211.8118
 1501.5000     0.4344   211.9663
 1502.0000     0.4350   212.1216
 1502.5000     0.4356   212.2768
 1503.0000     0.4362   212.4321
 1503.5000     0.4368   212.5874
 1504.0000     0.4374   212.7427
 1504.5000     0.4381   212.8979
 1505.0000     0.4387   213.0532
 1505.5000     0.4393   213.2085
 1506.0000     0.4399   213.3638
 1506.5000     0.4405   213.5190
 1507.0000     0.4411   213.6743
 1507.5000     0.4417   213.8296
 1508.0000     0.4424   213.9849
 1508.5000     0.4430   214.1401
 1509.0000     0.4436   214.2954
 1509.5000     0.4442   214.4507
 1510.0000     0.4448   214.6060
 1510.5000     0.4454   214.7612
 1511.0000     0.4461   214.9165
 1511.5000     0.4467   215.0718
 1512.0000     0.4473   215.2271
 1512.5000     0.4479   215.3823
 1513.0000     0.4485   215.5376
 1513.5000     0.4491   215.6929
 1514.0000     0.4498   215.8482
 1514.5000     0.4504   216.0034
 1515.0000     0.4510   216.1587
 1515.5000     0.4516   216.3140
 1516.0000     0.4522   216.4693
 1516.5000     0.4528   216.6245
 1517.0000     0.4535   216.7798
 1517.5000     0.4541   216.9351
 1518.0000     0.4547   217.0904
 1518.5000     0.4553   217.2457
 1519.0000     0.4559   217.4009
 1519.5000     0.4565   217.5562
 1520.0000     0.4572   217.7115
 1520.5000     0.4578   217.8667
 1521.0000     0.4584   218.0220
 1521.5000     0.4590   218.1773
 1522.0000     0.4596   218.3326
 1522.5000     0.4602   218.4879
 1523.0000     0.4608   218.6431
 1523.5000     0.4615   218.7984
 1524.0000     0.4621   218.9537
 1524.5000     0.4627   219.1089
 1525.0000     0.4633   219.2642
 1525.5000     0.4639   219.4195
 1526.0000     0.4645   219.5748
 1526.5000     0.4652   219.7301
 1527.0000     0.4658   219.8853
 1527.5000     0.4664   220.0406
 1528.0000     0.4670   220.1959
 1528.5000     0.4676   220.3512
 1529.0000     0.4682   223.2918
 1529.5000     0.4689   275.0572
 1530.0000     0.4695   279.7119
 1530.5000     0.4701   263.2192
 1531.0000     0.4707   246.7266
 1531.5000     0.4713   230.2340
 1532.0000     0.4719   220.9289
 1532.5000     0.4727   220.9017
 1533.0000     0.4416   220.8745
 1533.5000     0.4315   220.8474
 1534.0000     0.4320   220.8202
 1534.5000     0.4324   220.7930
 1535.0000     0.4327   220.7659
 1535.5000     0.4435   220.7387
 1536.0000     0.4752   220.7115
 1536.5000     0.5173   220.6844
 1537.0000     0.5595   220.6572
 1537.5000     0.6016   220.6300
 1538.0000     0.6437   220.6028
