~VERSION INFORMATION
 VERS.                2.0:   CWLS LOG ASCII STANDARD - VERSION 2.0
 WRAP.                 NO:   ONE LINE PER DEPTH STEP
~WELL INFORMATION
#MNEM.UNIT      DATA TYPE    INFORMATION
#----------   ------------   ------------------------------
 STRT.F          100.0000:   START DEPTH
 STOP.F          872.0000:   STOP DEPTH
 STEP.F            0.5000:   STEP LENGTH
 NULL.          -999.2500:   NO VALUE
 COMP. U S NAVY/INTEX OIL CO:   COMPANY
 WELL. 53 S 11 #N P R 3-11:   WELL
 FLD .             TEAPOT:   FIELD
 LOC .      S11 T38N R78W:   LOCATION
 CNTY.            NATRONA:   COUNTY
 STAT.            WYOMING:   STATE
 CTRY. UNITED STATES OF AMERICA:   COUNTRY
 SRVC.       Schlumberger:   SERVICE COMPANY
 DATE.        07-AUG-1961:   LOGDATE
 API .       490250635800:   API NUMBER
~CURVE INFORMATION
#MNEM.UNIT       API CODE    CURVE DESCRIPTION
#----------   ------------   ------------------------------
 DEPT.F                  :   
 CILD.MMHO   05 110 46 00:   CONDUCTIVITY INDUCTION LOG DEEP
 ILD .OHMM   05 120 46 00:   INDUCTION LOG DEEP
 SPR .MV     05 010 01 00:   SPONTANEOUS POTENTIAL FROM RES.
 ASN .OHMM   05 041 16 00:   AMPLIFIED SHORT NORMAL 16"
~PARAMETER INFORMATION
#MNEM.UNIT          VALUE    DESCRIPTION
#----------   ------------   ------------------------------
 PD  .                 GL:   PERMANENT DATUM
 EPD .F              5192:   ELEVATION PERMANENT DATUM
 LMF .                 KB:   LOG MEASURED FROM
 DAPD.F                 6:   FEET ABOVE PERMANENT DATUM
 DMF .                 KB:   DRILLING MEASURED FROM
 EKB .F              5198:   KELLING BUSHING
 EGL .F              5192:   GROUND LEVEL
 DATE.             8-7-61:   RUN DATE
 RUN .                  1:   RUN NUMBER
 DD  .F               870:   DEPTH DRILLER
 DL  .F               873:   DEPTH LOGGER
 BLI .F               872:   BOTTOM LOG INTERVAL
 TLI .F               100:   TOP LOG INTERVAL
 BS  .IN            7.875:   BIT SIZE
 BSD .F               870:   BIT SIZE AT DEPTH
 DFT .            GEL/OIL:   DRILLING FLUID TYPE
 DFD .               10.4:   DRILLING FLUID DENSITY
 DFV .                 43:   DRILLING FLUID VISCOSITY
 RMS .OHMM            .02:   RESISTIVITY MUD SAMPLE
 MST .F                70:   MUD SAMPLE TEMPERATURE
 TCS .HRS               1:   TIME CURCULATED STOPPED
 LUN .               2544:   LOGGING UNIT NUMBER
 LUL .                 NC:   LOGGING UNIT LOCATION
 ENGI.             QUINCY:   RECORDING ENGINEER
 WITN.          JORGENSON:   WITNESSED BY
 CLNT.            A2DTECH:   CLIENT CODE
 ORIG.       2", 5" PRINT:   ORIGIN OF DATA
 UWI .       490250635800:   UNIQUE WELL ID
 DICO. A2D Technologies, Inc.:   DIGITIZING COMPANY
~OTHER INFORMATION
~A   DEPT      CILD         ILD      SPR          ASN 
# ...
  173.0000   168.4159     4.8648   -21.5955     6.5846
  173.5000   165.8291     4.9960   -21.8862     6.6023
  174.0000   165.8291     4.8534   -22.0936     6.7297
  174.5000   168.7035     4.7156   -22.2951     6.9027
  175.0000   177.1859     4.5613   -22.5073     6.9071
  175.5000   186.1849     4.2221   -22.5263     6.8640
  176.0000   195.9799     3.8906   -22.4694     6.5921
  176.5000   208.2312     3.5509   -22.3923     6.2544
  177.0000   221.6712     3.2146   -22.3422     5.9306
  177.5000   235.1113     2.8927   -22.2084     5.5975
  178.0000   244.2211     2.8781   -21.9187     5.2722
  178.5000   242.2111     2.9058   -21.6550     4.9444
  179.0000   238.1909     2.9483   -21.3660     5.0406
  179.5000   232.1608     2.9442   -21.1341     5.2880
  180.0000   228.1407     3.1820   -21.0919     5.4997
  180.5000   212.0477     3.6532   -21.2171     5.7318
  181.0000   196.7085     4.0849   -21.4234     5.9622
  181.5000   181.2889     4.4774   -21.6490     6.1905
  182.0000   167.7981     4.6705   -21.6966     6.4169
  182.5000   160.5216     4.8363   -22.0246     6.6489
  183.0000   153.9986     5.0257   -22.6852     6.8406
  183.5000   148.6299     5.4596   -23.1042     6.9618
  184.0000   143.8468     5.8586   -23.1375     7.0605
  184.5000   139.0570     6.0997   -23.1373     7.1763
  185.0000   136.7169     6.2551   -23.0973     7.2565
  185.5000   135.3534     6.4082   -23.0342     7.4342
  186.0000   133.9899     6.5787   -22.9691     7.5961
  186.5000   132.6265     6.6031   -22.9176     7.6296
  187.0000   131.8955     6.5916   -22.6924     7.7004
  187.5000   132.7136     6.4253   -22.3496     7.6746
  188.0000   133.6683     6.1907   -22.0498     7.5965
  188.5000   139.1196     5.9687   -21.6905     7.4559
  189.0000   145.6643     5.7416   -21.5048     7.3082
  189.5000   152.2090     5.4983   -21.6951     7.1450
  190.0000   158.7538     5.2045   -21.8943     6.9598
  190.5000   165.8291     4.8770   -22.1059     6.7667
  191.0000   170.3397     4.5529   -22.3077     6.5763
  191.5000   175.2482     4.2276   -22.5187     6.3748
  192.0000   185.8251     3.9021   -22.7194     6.1184
  192.5000   203.0050     3.5751   -22.9253     5.8514
  193.0000   220.1849     3.2235   -22.8382     5.5813
  193.5000   237.3648     2.8792   -22.6230     5.3172
  194.0000   254.5447     2.5118   -22.4115     4.9874
  194.5000   261.7513     2.3447   -22.3175     4.6178
  195.0000   260.7286     2.4085   -22.2936     4.6211
  195.5000   259.7060     2.4933   -22.2115     4.6261
  196.0000   258.6834     2.5677   -22.1504     4.6196
  196.5000   253.7507     2.6682   -22.1010     4.5475
  197.0000   246.3879     2.7109   -21.9677     4.6549
  197.5000   240.2010     3.0633   -21.8260     4.9307
  198.0000   217.8378     3.6298   -21.7160     5.1635
  198.5000   198.5542     4.1107   -21.7409     5.4222
  199.0000   179.2706     4.4159   -21.9625     5.6137
  199.5000   174.9366     4.5689   -22.1644     5.7072
  200.0000   176.4190     4.5435   -22.3766     5.7593
  200.5000   177.9014     4.4524   -22.5720     5.8094
  201.0000   179.3839     4.3855   -22.8047     5.7991
  201.5000   180.8663     4.3077   -22.9446     5.7486
  202.0000   182.8141     4.2340   -22.9245     5.6959
  202.5000   185.8668     4.0865   -22.9386     5.6490
  203.0000   194.0368     3.6930   -22.9249     5.5372
  203.5000   216.0804     3.2044   -22.9464     5.3209
  204.0000   251.3903     2.7174   -22.7898     5.0739
  204.5000   293.4506     2.2479   -22.3582     4.7543
  205.0000   335.5109     1.7273   -21.9776     4.3526
  205.5000   377.5712     1.3445   -21.7686     4.0037
  206.0000   419.0955     1.1821   -21.4006     3.7116
  206.5000   417.2613     1.1688   -21.0410     3.3969
  207.0000   415.0754     1.2577   -20.6646     3.3955
  207.5000   403.7688     1.3079   -20.3613     3.4142
  208.0000   390.9548     1.3998   -20.7411     3.4656
  208.5000   370.6407     1.4242   -21.2100     3.4432
  209.0000   348.7437     1.7243   -21.6841     3.8432
  209.5000   293.9598     2.3686   -22.0781     4.4456
  210.0000   237.7889     2.9701   -22.2487     5.0069
  210.5000   206.3417     3.5520   -22.5263     5.2665
  211.0000   199.0151     3.7867   -22.7679     5.2185
  211.5000   191.9598     3.9722   -23.0432     5.1634
  212.0000   194.0703     3.9295   -23.1225     5.0725
  212.5000   196.1055     3.8092   -22.9039     5.0741
  213.0000   198.1407     3.7033   -22.7036     5.1410
  213.5000   200.1759     3.5909   -22.4941     5.1927
  214.0000   202.2111     3.4808   -22.2902     5.2512
  214.5000   204.2462     3.3713   -22.0840     5.1885
  215.0000   206.0302     3.2628   -21.8771     5.0670
  215.5000   220.5109     3.1246   -21.6740     4.9619
  216.0000   233.8062     2.7964   -21.4618     4.8498
  216.5000   244.5486     2.4314   -21.3128     4.6746
  217.0000   270.0434     2.1885   -21.3372     4.5079
  217.5000   291.9478     2.0431   -21.4467     4.3415
  218.0000   313.8999     1.8141   -21.5527     4.1749
  218.5000   336.5035     1.6186   -21.6649     4.0090
  219.0000   350.6625     1.4161   -21.7791     3.8402
  219.5000   353.8142     1.3412   -21.9099     3.6829
  220.0000   356.1809     1.4513   -21.9272     3.5950
  220.5000   345.0335     1.6115   -22.2920     3.6587
  221.0000   329.4305     1.7603   -22.5516     3.7209
  221.5000   310.5528     1.9611   -22.5201     3.8791
  222.0000   288.0402     2.3011   -22.5690     4.1576
  222.5000   259.5477     2.7934   -22.6189     4.6836
  223.0000   231.0553     3.2667   -22.6443     5.1973
  223.5000   204.9372     3.7696   -22.7372     5.3152
  224.0000   183.5678     4.3310   -22.4265     5.4667
  224.5000   173.8694     4.5133   -22.0142     5.4859
  225.0000   175.2764     4.6027   -21.6703     5.5525
  225.5000   176.9045     4.4687   -21.5553     5.5888
  226.0000   181.9095     4.1235   -21.7315     5.6526
  226.5000   190.4271     3.8294   -21.8499     5.6534
  227.0000   196.5327     3.6180   -21.9955     5.6238
  227.5000   209.6734     3.2258   -22.1371     5.4553
  228.0000   232.0318     2.8359   -22.4390     5.1130
  228.5000   254.4618     2.4563   -22.7249     4.7857
  229.0000   276.9190     2.0426   -23.0320     4.4571
  229.5000   296.4384     1.8409   -23.1234     4.1133
  230.0000   312.7830     1.8685   -22.9145     3.9126
  230.5000   312.7988     1.8529   -22.7316     3.9179
  231.0000   314.7754     1.8757   -22.5376     3.9747
  231.5000   308.0905     2.0129   -22.3496     4.0446
  232.0000   299.5645     2.1782   -22.1589     4.1983
  232.5000   294.4724     2.4408   -21.9730     4.3576
  233.0000   269.1601     2.7095   -21.9078     4.5118
  233.5000   245.3194     2.9726   -21.9561     4.6688
  234.0000   221.4788     3.2442   -22.0881     4.8204
  234.5000   208.7772     3.4666   -22.2252     4.9509
  235.0000   204.0201     3.5232   -22.3640     5.0623
  235.5000   203.9304     3.5611   -22.5037     5.1766
  236.0000   203.9309     3.5832   -22.5667     5.2657
  236.5000   203.8864     3.5328   -22.6850     5.3025
  237.0000   205.8362     3.4496   -22.8058     5.2800
  237.5000   207.5034     3.3728   -22.9271     5.2109
  238.0000   209.1997     3.3036   -23.0477     5.0676
  238.5000   218.8365     3.2361   -23.1689     4.9303
  239.0000   231.8422     2.9551   -23.2897     4.7944
  239.5000   245.0662     2.6828   -23.4117     4.6579
  240.0000   258.0174     2.4304   -23.5277     4.5217
  240.5000   270.9685     2.1289   -23.5310     4.3853
  241.0000   290.4523     1.9478   -23.4047     4.2496
  241.5000   293.2224     1.9583   -23.2727     4.1129
  242.0000   296.7839     1.9064   -23.1060     3.9776
  242.5000   300.3455     1.8717   -22.7716     3.8321
  243.0000   304.5226     1.8295   -22.4590     3.7908
  243.5000   311.0627     1.7864   -22.1584     3.7656
  244.0000   320.4083     1.7551   -21.8334     3.7360
  244.5000   326.4967     1.6672   -21.7231     3.7084
  245.0000   333.6866     1.5449   -21.9561     3.6727
  245.5000   340.8897     1.4313   -22.1683     3.5634
