~VERSION INFORMATION
 VERS.                2.0:   CWLS LOG ASCII STANDARD - VERSION 2.0
 WRAP.                 NO:   ONE LINE PER DEPTH STEP
~WELL INFORMATION
#MNEM.UNIT      DATA TYPE    INFORMATION
#----------   ------------   ------------------------------
 STRT.F            0.0000:   START DEPTH
 STOP.F         3024.5000:   STOP DEPTH
 STEP.F            0.5000:   STEP LENGTH
 NULL.          -999.2500:   NO VALUE
 COMP. LAWRENCE/ALLISON INC:   COMPANY
 WELL.   NPR 3 77X #77-28:   WELL
 FLD .           N.P.R. 3:   FIELD
 LOC .      S28 T39N R78W:   LOCATION
 CNTY.            NATRONA:   COUNTY
 STAT.            WYOMING:   STATE
 CTRY. UNITED STATES OF AMERICA:   COUNTRY
 SRVC.      Dresser Atlas:   SERVICE COMPANY
 DATE.        19-OCT-1986:   LOGDATE
 API .       490251110400:   API NUMBER
~CURVE INFORMATION
#MNEM.UNIT       API CODE    CURVE DESCRIPTION
#----------   ------------   ------------------------------
 DEPT.F                  :   
 PORD.DEC    45 890 12 00:   DENSITY POROSITY SANDSTONE
 CNC .DEC    42 890 03 00:   NEUTRON POROSITY SANDSTONE
 DEN .G/C3   45 350 01 00:   COMPENSATED BULK DENSTIY
 CORR.G/C3   45 356 01 00:   DENSITY CORRECTION
 CALD.IN     45 280 60 00:   CALIPER FROM DENSITY LOG
 GRR .GAPI   07 310 01 00:   GAMMA RAY FROM RES. LOG.
 RFOC.OHMM   07 220 04 00:   RESISTIVITY FOCUSED LOG
 RILD.OHMM   07 120 46 00:   INDUCTION LOG DEEP RESISTIVITY
 RILM.OHMM   07 120 44 00:   INDUCTION LOG MEDIUM RESISTIVITY
 SPR .MV     07 010 01 00:   SPONTANEOUS POTENTIAL
~PARAMETER INFORMATION
#MNEM.UNIT          VALUE    DESCRIPTION
#----------   ------------   ------------------------------
 PD  .                 GL:   PERMANENT DATUM
 EPD .F              5074:   ELEVATION PERMANENT DATUM
 LMF .                 KB:   LOG MEASURED FROM
 DAPD.F                12:   FEET ABOVE PERMANENT DATUM
 DMF .                 KB:   DRILLING MEASURED FROM
 EKB .F              5086:   KELLING BUSHING
 EGL .F              5074:   GROUND LEVEL
 DATE.           10-19-86:   RUN DATE
 RUN .                  1:   RUN NUMBER
 DD  .F              3021:   DEPTH DRILLER
 DL  .F              3025:   DEPTH LOGGER
 BLI .F              3023:   BOTTOM LOG INTERVAL
 CS  .IN            8.625:   CASING SIZE
 CBD .F               620:   CASING BOTTOM DRILLER
 CBL .F               615:   CASING BOTTOM LOGGER
 BS  .IN            7.875:   BIT SIZE
 BSD .F              3021:   BIT SIZE AT DEPTH
 DFT .        KCL POLYMER:   DRILLING FLUID TYPE
 DFD .                8.9:   DRILLING FLUID DENSITY
 DFV .                 38:   DRILLING FLUID VISCOSITY
 DFPH.                9.5:   DRILLING FLUID PH
 DFL .               11.2:   DRILLING FLUID LOSS
 MSS .           FLOWLINE:   MUD SAMPLE SOURCE
 RMS .OHMM            .25:   RESISTIVITY MUD SAMPLE
 MST .F                65:   MUD SAMPLE TEMPERATURE
 RMF .OHMM           .203:   RESISTIVITY MUD FILTRATE SAMPLE
 MFST.F                65:   MUD FILTRATE SAMPLE TEMPERATURE
 RMC .OHMM            .31:   RESISTIVITY MUD CAKE
 MCST.F                65:   MUD CAKE SAMPLE TEMPERATURE
 MFSS.               MEAS:   MUD FILTRATE SAMPLE SOURCE
 MCSS.               CALC:   MUD CAKE SAMPLE SOURCE
 RMB .OHMM           .136:   RESISTIVITY MUD AT BHT
 BHT .F               119:   BOTTOM HOLE TEMPERATURE
 TCS .HRS               5:   TIME CURCULATED STOPPED
 MRT .F               119:   MAXIMUM RECORDED TEMPERATURE
 LUN .               6274:   LOGGING UNIT NUMBER
 LUL .               GLTE:   LOGGING UNIT LOCATION
 ENGI.             RAUTIO:   RECORDING ENGINEER
 WITN.             STRONG:   WITNESSED BY
 CLNT.            A2DTECH:   CLIENT CODE
 ORIG.       2", 5" PRINT:   ORIGIN OF DATA
 UWI .       490251110400:   UNIQUE WELL ID
 DICO. A2D Technologies, Inc.:   DIGITIZING COMPANY
~OTHER INFORMATION
~A    DEPT    PORD        CNC        DEN       CORR       CALD        GRR       RFOC       RILD       RILM        SPR   
# ...
 2211.0000  -999.2500  -999.2500  -999.2500  -999.2500  -999.2500   106.1058     7.4281     4.9364     5.8286   -82.1150
 2211.5000  -999.2500  -999.2500  -999.2500  -999.2500  -999.2500   103.1336     8.7375     5.1012     5.9555   -81.8635
 2212.0000  -999.2500  -999.2500  -999.2500  -999.2500  -999.2500   104.0538     8.4971     5.3545     6.0772   -81.6130
 2212.5000  -999.2500  -999.2500  -999.2500  -999.2500  -999.2500   105.0070     8.0650     5.6180     6.2014   -81.4344
 2213.0000  -999.2500  -999.2500  -999.2500  -999.2500  -999.2500   105.5755     7.6512     5.8944     6.3454   -81.6063
 2213.5000  -999.2500  -999.2500  -999.2500  -999.2500  -999.2500   105.0433     7.2596     6.1844     6.5170   -81.7706
 2214.0000  -999.2500  -999.2500  -999.2500  -999.2500  -999.2500   104.3590     6.9421     6.3107     6.6933   -81.9343
 2214.5000  -999.2500  -999.2500  -999.2500  -999.2500  -999.2500   104.4134     7.5131     6.3836     6.8743   -81.9638
 2215.0000  -999.2500  -999.2500  -999.2500  -999.2500  -999.2500   102.7466     8.3562     6.4573     7.0602   -81.8417
 2215.5000  -999.2500  -999.2500  -999.2500  -999.2500  -999.2500   100.6673     9.2364     6.5319     7.2728   -81.7190
 2216.0000  -999.2500  -999.2500  -999.2500  -999.2500  -999.2500    98.5912    10.1338     6.6073     7.2205   -81.6238
 2216.5000  -999.2500  -999.2500  -999.2500  -999.2500  -999.2500    96.6835     9.8752     6.6837     7.1442   -81.7468
 2217.0000  -999.2500  -999.2500  -999.2500  -999.2500  -999.2500    97.1316     9.1817     6.7609     7.0709   -81.8723
 2217.5000  -999.2500  -999.2500  -999.2500  -999.2500  -999.2500    98.7658     8.5319     6.8390     7.0692   -81.9975
 2218.0000  -999.2500  -999.2500  -999.2500  -999.2500  -999.2500   100.3998     7.9221     6.9180     7.0688   -82.1198
 2218.5000  -999.2500  -999.2500  -999.2500  -999.2500  -999.2500   102.0500     7.5313     7.0062     7.3440   -82.1719
 2219.0000  -999.2500  -999.2500  -999.2500  -999.2500  -999.2500   101.8479     8.0889     7.0142     7.5652   -82.0492
 2219.5000  -999.2500  -999.2500  -999.2500  -999.2500  -999.2500   100.1933     9.2105     7.0625     7.7935   -81.9296
 2220.0000  -999.2500  -999.2500  -999.2500  -999.2500  -999.2500    98.5134    10.4744     7.2123     7.9695   -81.8090
 2220.5000  -999.2500  -999.2500  -999.2500  -999.2500  -999.2500    96.8326    11.3052     7.3876     7.9695   -81.6922
 2221.0000  -999.2500  -999.2500  -999.2500  -999.2500  -999.2500    95.1703    10.1650     7.5672     7.9695   -81.7051
 2221.5000  -999.2500  -999.2500  -999.2500  -999.2500  -999.2500    94.0000     9.3616     7.6815     7.9695   -82.0058
 2222.0000  -999.2500  -999.2500  -999.2500  -999.2500  -999.2500    94.7416     9.0651     7.3117     7.5985   -82.3047
 2222.5000  -999.2500  -999.2500  -999.2500  -999.2500  -999.2500    95.5294     9.9388     6.9543     7.2422   -82.4045
 2223.0000  -999.2500  -999.2500  -999.2500  -999.2500  -999.2500    95.5302     9.3871     6.6144     6.9026   -82.4062
 2223.5000  -999.2500  -999.2500  -999.2500  -999.2500  -999.2500   100.2150     8.0442     6.2910     6.5789   -82.4057
 2224.0000  -999.2500  -999.2500  -999.2500  -999.2500  -999.2500   106.4256     6.8934     6.1030     6.4494   -82.4056
 2224.5000  -999.2500  -999.2500  -999.2500  -999.2500  -999.2500   112.6595     6.4494     6.0471     6.4494   -82.4055
 2225.0000  -999.2500  -999.2500  -999.2500  -999.2500  -999.2500   115.9000     7.5507     6.0471     6.2854   -82.4053
 2225.5000  -999.2500  -999.2500  -999.2500  -999.2500  -999.2500   114.0280     8.6931     5.8454     6.0485   -82.4062
 2226.0000  -999.2500  -999.2500  -999.2500  -999.2500  -999.2500   111.9415     9.7576     5.6301     5.8205   -82.4595
 2226.5000  -999.2500  -999.2500  -999.2500  -999.2500  -999.2500   113.2966     8.6267     5.4228     5.6011   -82.6090
 2227.0000  -999.2500  -999.2500  -999.2500  -999.2500  -999.2500   117.6408     7.6180     5.2231     5.3899   -82.7571
 2227.5000  -999.2500  -999.2500  -999.2500  -999.2500  -999.2500   122.2977     6.7772     5.0307     5.1868   -82.9054
 2228.0000  -999.2500  -999.2500  -999.2500  -999.2500  -999.2500   128.4037     6.5297     4.8454     4.9846   -83.0576
 2228.5000  -999.2500  -999.2500  -999.2500  -999.2500  -999.2500   134.6531     6.2738     4.7605     4.9390   -83.1850
 2229.0000  -999.2500  -999.2500  -999.2500  -999.2500  -999.2500   140.8740     5.7257     4.7585     5.0307   -83.4169
 2229.5000  -999.2500  -999.2500  -999.2500  -999.2500  -999.2500   145.7070     5.3162     5.0588     5.5378   -83.0312
 2230.0000  -999.2500  -999.2500  -999.2500  -999.2500  -999.2500   139.3854     6.6038     5.4703     6.1208   -82.4987
 2230.5000  -999.2500  -999.2500  -999.2500  -999.2500  -999.2500   130.3509     8.8518     5.9135     6.7698   -81.9559
 2231.0000  -999.2500  -999.2500  -999.2500  -999.2500  -999.2500   128.7121    10.8698     6.3926     7.4860   -81.4132
 2231.5000  -999.2500  -999.2500  -999.2500  -999.2500  -999.2500   133.2478    13.0463     6.9104     7.9454   -80.9241
 2232.0000  -999.2500  -999.2500  -999.2500  -999.2500  -999.2500   137.7342    13.3415     7.4701     8.3650   -80.6379
 2232.5000  -999.2500  -999.2500  -999.2500  -999.2500  -999.2500   142.2050    11.0837     8.0752     8.7352   -80.9286
 2233.0000  -999.2500  -999.2500  -999.2500  -999.2500  -999.2500   146.6702    10.0307     8.3447     8.7434   -81.2138
 2233.5000  -999.2500  -999.2500  -999.2500  -999.2500  -999.2500   151.1339    10.6293     7.8882     8.3496   -81.4980
 2234.0000  -999.2500  -999.2500  -999.2500  -999.2500  -999.2500   155.6071    11.0990     7.4590     7.9770   -81.7790
 2234.5000  -999.2500  -999.2500  -999.2500  -999.2500  -999.2500   160.5571     9.1547     7.0534     7.6213   -81.8098
 2235.0000  -999.2500  -999.2500  -999.2500  -999.2500  -999.2500   165.6206     7.8757     6.5536     7.0988   -81.8112
 2235.5000  -999.2500  -999.2500  -999.2500  -999.2500  -999.2500   167.4874     7.2023     6.0081     6.3236   -81.9193
 2236.0000  -999.2500  -999.2500  -999.2500  -999.2500  -999.2500   165.1460     8.4498     5.5076     5.6331   -82.1956
 2236.5000  -999.2500  -999.2500  -999.2500  -999.2500  -999.2500   162.6313     8.9821     5.0489     5.0180   -82.4699
 2237.0000  -999.2500  -999.2500  -999.2500  -999.2500  -999.2500   161.2827     6.9182     4.6282     4.4701   -82.7448
 2237.5000  -999.2500  -999.2500  -999.2500  -999.2500  -999.2500   159.6009     5.4685     4.2424     4.0252   -83.0197
 2238.0000  -999.2500  -999.2500  -999.2500  -999.2500  -999.2500   154.8776     5.0938     3.8896     3.7933   -83.2948
 2238.5000  -999.2500  -999.2500  -999.2500  -999.2500  -999.2500   150.3809     4.7531     3.6438     3.5748   -83.5686
 2239.0000  -999.2500  -999.2500  -999.2500  -999.2500  -999.2500   144.1624     4.4346     3.4993     3.3559   -83.5975
 2239.5000  -999.2500  -999.2500  -999.2500  -999.2500  -999.2500   137.9055     4.1468     3.3606     3.3559   -83.9760
 2240.0000  -999.2500  -999.2500  -999.2500  -999.2500  -999.2500   133.8047     4.4978     3.2274     3.4849   -84.6526
 2240.5000  -999.2500  -999.2500  -999.2500  -999.2500  -999.2500   131.0571     4.9880     3.1756     3.5139   -85.3329
 2241.0000  -999.2500  -999.2500  -999.2500  -999.2500  -999.2500   130.6288     5.3654     3.2277     3.5214   -86.0139
 2241.5000  -999.2500  -999.2500  -999.2500  -999.2500  -999.2500   131.4682     5.1829     3.3373     3.5953   -86.6989
 2242.0000  -999.2500  -999.2500  -999.2500  -999.2500  -999.2500   131.7508     4.9399     3.4507     3.6708   -87.3623
 2242.5000  -999.2500  -999.2500  -999.2500  -999.2500  -999.2500   129.3432     4.8045     3.5680     3.7478   -87.3252
 2243.0000  -999.2500  -999.2500  -999.2500  -999.2500  -999.2500   125.4660     5.0652     3.6793     3.8265   -86.8736
 2243.5000  -999.2500  -999.2500  -999.2500  -999.2500  -999.2500   121.6038     5.2826     3.7200     3.9068   -86.4600
 2244.0000  -999.2500  -999.2500  -999.2500  -999.2500  -999.2500   119.9175     5.5156     3.7581     3.9888   -86.0621
