~VERSION INFORMATION
 VERS.                2.0:   CWLS LOG ASCII STANDARD - VERSION 2.0
 WRAP.                 NO:   ONE LINE PER DEPTH STEP
~WELL INFORMATION
#MNEM.UNIT      DATA TYPE    INFORMATION
#----------   ------------   ------------------------------
 STRT.F           30.5000:   START DEPTH
 STOP.F          692.0000:   STOP DEPTH
 STEP.F            0.5000:   STEP LENGTH
 NULL.          -999.2500:   NO VALUE
 COMP. FENIX & SCISSON INC:   COMPANY
 WELL.   27-S-11-WP #3-11:   WELL
 FLD .  TEAPOT DOME NPR-3:   FIELD
 LOC .      S11 T38N R78W:   LOCATION
 CNTY.            NATRONA:   COUNTY
 STAT.            WYOMING:   STATE
 CTRY. UNITED STATES OF AMERICA:   COUNTRY
 SRVC.       Schlumberger:   SERVICE COMPANY
 DATE.        18-FEB-1978:   LOGDATE
 API .       490251058100:   API NUMBER
~CURVE INFORMATION
#MNEM.UNIT       API CODE    CURVE DESCRIPTION
#----------   ------------   ------------------------------
 DEPT.F                  :   
 CALD.IN     45 280 60 00:   CALIPER FROM DENSITY LOG
 CORR.G/C3   45 356 01 00:   DENSITY CORRECTION
 DPHI.DEC    45 890 12 00:   DENSITY POROSITY SANDSTONE
 GRD .GAPI   45 310 01 00:   GAMMA RAY FROM DENSITY LOG
 RHOB.G/C3   45 350 01 00:   BULK DENSITY
 ILD .OHMM   05 110 46 00:   INDUCTION LOG DEEP
 SN  .OHMM   05 040 16 00:   SHORT NORMAL 16"
 SPR .MV     05 010 01 00:   SPONTANEOUS POTENSIAL FROM RES.
~PARAMETER INFORMATION
#MNEM.UNIT          VALUE    DESCRIPTION
#----------   ------------   ------------------------------
 PD  .                 GL:   PERMANENT DATUM
 EPD .F              5195:   ELEVATION PERMANENT DATUM
 LMF .                 KB:   LOG MEASURED FROM
 DAPD.F                 4:   FEET ABOVE PERMANENT DATUM
 DMF .                 KB:   DRILLING MEASURED FROM
 EKB .F              5199:   KELLING BUSHING
 EGL .F              5195:   GROUND LEVEL
 DATE.        18-FEB-1978:   RUN DATE
 RUN .                  1:   RUN NUMBER
 DD  .F               690:   DEPTH DRILLER
 DL  .F               695:   DEPTH LOGGER
 BLI .F               688:   BOTTOM LOG INTERVAL
 TLI .F                40:   TOP LOG INTERVAL
 CS  .IN            8.625:   CASING SIZE
 CBD .F                40:   CASING BOTTOM DRILLER
 CBL .F                40:   CASING BOTTOM LOGGER
 BS  .IN            7.875:   BIT SIZE
 BSD .F               690:   BIT SIZE AT DEPTH
 DFT .       LIGNO/ SULF.:   DRILLING FLUID TYPE
 DFD .                8.8:   DRILLING FLUID DENSITY
 DFV .                 33:   DRILLING FLUID VISCOSITY
 DFPH.               10.0:   DRILLING FLUID PH
 DFL .                5.0:   DRILLING FLUID LOSS
 MSS .           FLOWLINE:   MUD SAMPLE SOURCE
 RMS .OHMM            1.7:   RESISTIVITY MUD SAMPLE
 MST .F                66:   MUD SAMPLE TEMPERATURE
 RMF .OHMM            2.0:   RESISTIVITY MUD FILTRATE SAMPLE
 MFST.F                58:   MUD FILTRATE SAMPLE TEMPERATURE
 RMC .OHMM            3.0:   RESISTIVITY MUD CAKE
 MCST.F                60:   MUD CAKE SAMPLE TEMPERATURE
 MFSS.               MEAS:   MUD FILTRATE SAMPLE SOURCE
 RMB .OHMM           1.65:   RESISTIVITY MUD AT BHT
 BHT .F                68:   BOTTOM HOLE TEMPERATURE
 TCS .HRS               2:   TIME CURCULATED STOPPED
 MRT .F                68:   MAXIMUM RECORDED TEMPERATURE
 LUN .               2958:   LOGGING UNIT NUMBER
 LUL .             CASPER:   LOGGING UNIT LOCATION
 ENGI.            POINTER:   RECORDING ENGINEER
 WITN.           MCGINLEY:   WITNESSED BY
 CLNT.            A2DTECH:   CLIENT CODE
 ORIG.           5" PRINT:   ORIGIN OF DATA
 UWI .       490251058100:   UNIQUE WELL ID
~OTHER INFORMATION
~A   DEPT     CALD       CORR       DPHI         GRD      RHOB        ILD         SN        SPR   
# ...
  233.0000     7.8786     0.0300     0.0955   101.4769     2.4867     8.4747     9.0011   -33.1179
  233.5000     7.8768     0.0329     0.0899   100.2356     2.4943     8.4425     8.9926   -33.4437
  234.0000     7.7831     0.0357     0.0799    98.3827     2.5048     8.4635     9.0505   -33.4646
  234.5000     7.5973     0.0355     0.0800    98.0589     2.5123     8.4556     9.1071   -33.1799
  235.0000     7.5343     0.0322     0.0824    99.1112     2.5122     8.4492     9.0985   -32.7443
  235.5000     7.5328     0.0260     0.0910   100.1635     2.5122     8.4429     8.9655   -32.6127
  236.0000     7.5313     0.0258     0.0983   100.6042     2.5082     8.4973     8.8966   -32.6341
  236.5000     7.5912     0.0241     0.0990   101.5036     2.4936     8.4302     8.8279   -32.6555
  237.0000     7.6512     0.0239     0.0990   103.1675     2.4860     8.4238     8.8207   -32.9856
  237.5000     7.8033     0.0237     0.0991   103.4939     2.4859     8.3538     8.7529   -33.0065
  238.0000     7.8943     0.0250     0.0985   100.6850     2.4843     8.2363     8.6853   -32.7226
  238.5000     7.8924     0.0248     0.0956    98.2029     2.4804     8.2288     8.6774   -32.4386
  239.0000     7.9063     0.0262     0.0929    97.5515     2.4856     8.2226     8.6708   -32.4595
  239.5000     7.9201     0.0260     0.0935    95.7364     2.4962     8.2164     8.7267   -32.7854
  240.0000     7.9493     0.0258     0.0966    94.1893     2.4984     8.2102     8.7193   -33.1112
  240.5000     7.9478     0.0241     0.0976    94.1713     2.4945     8.2041     8.7126   -33.1321
  241.0000     7.9462     0.0224     0.0973    96.4058     2.4868     8.1979     8.7664   -33.0006
  241.5000     7.9447     0.0252     0.0940   100.9501     2.4974     8.1917     8.7603   -32.8690
  242.0000     7.9432     0.0296     0.0884   102.3741     2.5003     8.1856     8.7535   -32.5851
  242.5000     7.9413     0.0355     0.0839   100.6695     2.4979     8.1224     8.7468   -32.6060
  243.0000     7.9091     0.0414     0.0833    98.9696     2.5062     8.0596     8.8013   -32.9370
  243.5000     7.9076     0.0442     0.0843    98.3399     2.5084     8.1102     8.7946   -33.5677
  244.0000     7.8753     0.0456     0.0895    99.5451     2.5091     8.0472     8.7879   -33.8935
  244.5000     7.8585     0.0438     0.0926   104.4201     2.5059     8.0401     8.8429   -33.9144
  245.0000     7.8109     0.0451     0.0939   104.4020     2.4975     8.0349     8.8357   -33.7829
  245.5000     7.7786     0.0495     0.0969   104.0782     2.4913     8.0287     8.8279   -33.3413
  246.0000     7.7771     0.0569     0.0991   102.2253     2.4920     8.0219     8.8213   -33.0574
  246.5000     7.7756     0.0613     0.0995   101.2898     2.4980     8.0726     8.8155   -33.2359
  247.0000     7.7741     0.0657     0.0989   101.8834     2.5025     8.0661     8.8080   -33.7142
  247.5000     7.7726     0.0653     0.0887   103.7002     2.5056     8.0600     8.8014   -33.7351
  248.0000     7.7403     0.0635     0.0848   104.9215     2.5092     8.0539     8.8300   -32.9919
  248.5000     7.7388     0.0620     0.0967   105.3461     2.5098     8.1044     8.9118   -32.5295
  249.0000     7.7373     0.0633     0.0991   105.1707     2.4998     8.0980     8.9675   -31.9431
  249.5000     7.7050     0.0662     0.0931   104.2352     2.4959     8.2046     9.0237   -31.3798
  250.0000     7.6728     0.0720     0.0762   102.3823     2.5103     8.2627     9.2078   -31.2550
  250.5000     7.6559     0.0688     0.0711    99.6035     2.5149     8.3256     9.3966   -31.7425
  251.0000     7.6544     0.0867     0.0599    95.9066     2.5285     8.3884     9.5229   -32.6872
  251.5000     7.6375     0.1138     0.0581    90.5277     2.5450     8.4513     9.5840   -32.5649
  252.0000     7.5742     0.1318     0.0615    89.1243     2.5547     8.5323     9.5778   -32.4351
  252.5000     7.5573     0.1376     0.0928    89.0800     2.5265     8.4670     9.5052   -32.4728
  253.0000     7.5715     0.1373     0.1094    93.1983     2.4694     8.4623     9.3670   -32.8078
  253.5000     7.6315     0.1371     0.1284   104.0000     2.4282     8.3987     9.1674   -33.1428
  254.0000     7.7217     0.1351     0.1243   104.6117     2.4349     8.2198     8.9640   -33.1729
  254.5000     7.8124     0.1213     0.1248   103.3522     2.4485     8.1580     8.7799   -33.2031
  255.0000     7.8727     0.0392     0.1322   103.1804     2.4355     8.0966     8.7122   -32.4710
  255.5000     7.9019     0.0313     0.1295   103.1529     2.4225     8.0922     8.6462   -31.4341
  256.0000     7.9000     0.0311     0.1095   103.0968     2.4505     8.0877     8.6408   -31.7691
  256.5000     7.8985     0.0339     0.1004   102.3281     2.4633     8.0832     8.5753   -32.7139
  257.0000     7.8970     0.0412     0.0975    99.5486     2.4785     8.0224     8.5103   -33.3538
  257.5000     7.8801     0.0637     0.0963    96.9220     2.4875     7.9621     8.3870   -33.3841
  258.0000     7.8018     0.0877     0.0988    96.1302     2.4874     7.8472     8.2655   -32.7805
  258.5000     7.7081     0.0981     0.1097    96.1030     2.4759     7.8389     8.1457   -32.4919
  259.0000     7.7066     0.0994     0.1143    96.6874     2.4659     7.7295     8.0840   -31.9499
  259.5000     7.7362     0.0991     0.1195    99.1066     2.4528     7.6714     8.0230   -31.9876
  260.0000     7.8285     0.0989     0.1196   100.1497     2.4490     7.6128     8.0177   -32.3226
  260.5000     7.9207     0.0971     0.1166    99.8167     2.4504     7.6086     7.9570   -32.0479
  261.0000     7.9770     0.0422     0.1130   101.4714     2.4495     7.5514     8.0079   -31.6207
  261.5000     7.9751     0.0268     0.1063   102.3616     2.4547     7.6012     8.0028   -31.4908
  262.0000     7.9736     0.0204     0.0978   102.4941     2.4714     7.6503     8.0825   -31.5285
  262.5000     7.9721     0.0170     0.0973   103.2246     2.4819     7.8071     8.1053   -31.8635
  263.0000     7.9399     0.0139     0.0992   103.5100     2.4879     7.8708     8.2144   -32.3510
  263.5000     7.9383     0.0136     0.0981   103.7829     2.4833     7.9784     8.2669   -32.6860
  264.0000     7.9368     0.0134     0.0920   103.7545     2.4817     8.1012     8.3197   -32.7161
  264.5000     7.9353     0.0116     0.0915   103.1157     2.4922     8.1807     8.3145   -32.5863
  265.0000     7.9338     0.0129     0.0915   101.8652     2.4952     8.2347     8.4250   -32.1666
  265.5000     7.9323     0.0126     0.0916   101.8380     2.4958     8.2867     8.4198   -31.7319
  266.0000     7.9308     0.0124     0.0916   102.5753     2.4965     8.2821     8.5330   -32.2269
  266.5000     7.9292     0.0137     0.0907   102.7010     2.4971     8.2199     8.5888   -33.1717
  267.0000     7.9277     0.0150     0.0896   102.9795     2.4978     8.2153     8.6437   -33.8116
  267.5000     7.9262     0.0147     0.0887   103.6188     2.4977     8.2108     8.6989   -34.2990
  268.0000     7.8940     0.0144     0.0891   103.9954     2.4976     8.1491     8.7545   -34.1748
  268.5000     7.7696     0.0157     0.0912   101.3620     2.4966     8.1445     8.7477   -33.3994
  269.0000     7.7523     0.0169     0.0931   100.7300     2.4957     8.1400     8.7423   -32.0874
  269.5000     7.7358     0.0167     0.0928   101.3075     2.4919     8.1355     8.7369   -31.9806
  270.0000     7.7035     0.0164     0.0913   101.5929     2.4934     8.1310     8.7315   -32.6280
  270.5000     7.7020     0.0162     0.0911   101.8715     2.4971     8.1836     8.7260   -32.6581
  271.0000     7.7159     0.0176     0.0953   102.1501     2.4947     8.1789     8.7206   -32.3834
  271.5000     7.7140     0.0187     0.1036   102.4219     2.4847     8.1734     8.7151   -31.8038
  272.0000     7.7282     0.0184     0.1091   102.3947     2.4823     8.1689     8.7096   -30.7668
  272.5000     7.7878     0.0182     0.1113   102.3674     2.4754     8.2228     8.7031   -30.0348
  273.0000     7.8477     0.0179     0.1123   101.5757     2.4692     8.2748     8.6977   -30.0649
