~VERSION INFORMATION
 VERS.                2.0:   CWLS LOG ASCII STANDARD - VERSION 2.0
 WRAP.                 NO:   ONE LINE PER DEPTH STEP
~WELL INFORMATION
#MNEM.UNIT      DATA TYPE    INFORMATION
#----------   ------------   ------------------------------
 STRT.F           11.0000:   START DEPTH
 STOP.F          807.0000:   STOP DEPTH
 STEP.F            0.5000:   STEP LENGTH
 NULL.          -999.2500:   NO VALUE
 COMP. BROWN JOHN E&C INC:   COMPANY
 WELL. NPR 3 SHX-34 #77-1-34:   WELL
 FLD .             TEAPOT:   FIELD
 LOC .      S34 T39N R79W:   LOCATION
 CNTY.            NATRONA:   COUNTY
 STAT.            WYOMING:   STATE
 CTRY. UNITED STATES OF AMERICA:   COUNTRY
 SRVC.     Atlas Wireline:   SERVICE COMPANY
 DATE.        07-DEC-1991:   LOGDATE
 API .       490252248000:   API NUMBER
~CURVE INFORMATION
#MNEM.UNIT       API CODE    CURVE DESCRIPTION
#----------   ------------   ------------------------------
 DEPT.F                  :   
 CALD.IN     45 280 60 00:   CALIPER FROM DENSITY LOG
 CORR.G/C3   45 356 01 00:   DENSITY CORRECTION
 DEN .G/C3   45 350 01 00:   COMPENSATED BULK DENSTIY
 GRD .GAPI   45 310 01 00:   GAMMA RAY FROM DENSITY LOG
 PORD.DEC    45 890 12 00:   POROSITY DENSITY SANDSTONE
 GRR .GAPI   07 310 01 00:   GAMMA RAY FROM RESISTIVITY
 RILD.OHMM   07 120 46 00:   RESISTIVITY INDUCTION LOG DEEP
 RILM.OHMM   07 120 44 00:   RESITIVITY INDUCTION LOG MEDIUM
~PARAMETER INFORMATION
#MNEM.UNIT          VALUE    DESCRIPTION
#----------   ------------   ------------------------------
 PD  .                 GL:   PERMANENT DATUM
 EPD .F              5098:   ELEVATION PERMANENT DATUM
 LMF .                 KB:   LOG MEASURED FROM
 DAPD.F                10:   FEET ABOVE PERMANENT DATUM
 DMF .                 KB:   DRILLING MEASURED FROM
 EKB .F              5108:   KELLING BUSHING
 EDF .F              5107:   DRILLING FLOOR
 EGL .F              5098:   GROUND LEVEL
 DATE.        07-DEC-1991:   RUN DATE
 RUN .                  1:   RUN NUMBER
 DD  .F               810:   DEPTH DRILLER
 DL  .F               810:   DEPTH LOGGER
 BLI .F               808:   BOTTOM LOG INTERVAL
 CS  .IN            9.625:   CASING SIZE
 CBD .F                85:   CASING BOTTOM DRILLER
 CBL .F                97:   CASING BOTTOM LOGGER
 BS  .IN             8.75:   BIT SIZE
 BSD .F               810:   BIT SIZE AT DEPTH
 DFT .                AIR:   DRILLING FLUID TYPE
 BHT .F                90:   BOTTOM HOLE TEMPERATURE
 MRT .F                90:   MAXIMUM RECORDED TEMPERATURE
 LUN .            HL 6274:   LOGGING UNIT NUMBER
 LUL .             CASPER:   LOGGING UNIT LOCATION
 ENGI.       P. RASMUSSEN:   RECORDING ENGINEER
 WITN.        GARY STRONG:   WITNESSED BY
 CLNT.            A2DTECH:   CLIENT CODE
 ORIG.           5" PRINT:   ORIGIN OF DATA
 UWI .       490252248000:   UNIQUE WELL ID
 DICO. A2D Technologies, Inc.:   DIGITIZING COMPANY
~OTHER INFORMATION
~A   DEPT     CALD       CORR        DEN        GRD       PORD         GRR      RILD       RILM   
# ...
  578.0000     9.2431     0.0341     2.3972   158.1265     0.1506   136.9005     5.6925     5.3346
  578.5000     9.2427     0.0627     2.3212   160.2315     0.1838   138.9969     5.7319     5.5597
  579.0000     9.1972     0.0748     2.3136   161.4355     0.2016   138.8768     5.6925     5.8004
  579.5000     9.1818     0.0595     2.3227   152.1297     0.1949   131.1762     5.8924     6.1655
  580.0000     9.1664     0.0356     2.4031   146.7271     0.1386   126.3657     6.2271     6.5605
  580.5000     9.1510     0.0220     2.4746   144.3269     0.1108   125.7594     6.6263     6.9808
  581.0000     9.1655     0.0115     2.4851   143.7297     0.1021   125.1531     6.9544     7.3769
  581.5000     9.1801     0.0024     2.4866   144.6697     0.0996   123.3453     7.3493     7.7478
  582.0000     9.1796    -0.0066     2.4843   146.7392     0.0991   124.2393     7.8761     8.2946
  582.5000     9.1791    -0.0081     2.4783   147.9432     0.1015   125.7351     8.3219     8.5264
  583.0000     9.1787    -0.0066     2.4730   147.9461     0.1042   126.9320     8.4960     8.6440
  583.5000     9.1782    -0.0036     2.4670   147.3244     0.1063   127.8258     8.5549     8.6426
  584.0000     9.1778    -0.0006     2.4647   144.3488     0.1084   126.3171     8.4376     8.6414
  584.5000     9.1924     0.0023     2.4640   141.0477     0.1096   123.0081     8.4376     8.6400
  585.0000     9.1919    -0.0007     2.4640   143.1533     0.1105   118.7982     8.5549     8.6389
  585.5000     9.1914     0.0023     2.4639   144.9822     0.1108   116.6918     8.6738     8.6377
  586.0000     9.1909     0.0083     2.4639   147.3639     0.1114   120.5886     8.6738     8.6968
  586.5000     9.1853     0.0113     2.4631   148.2676     0.1123   120.2811     8.6738     8.7557
  587.0000     9.1751     0.0038     2.4609   147.9701     0.1132   120.2754     8.6738     8.7543
  587.5000     9.1746    -0.0008     2.4594   144.3694     0.1147   125.6751     8.5549     8.6928
  588.0000     9.1741     0.0007     2.4594   138.9675     0.1144   128.6724     8.4376     8.6318
  588.5000     9.1587     0.0022     2.4624   139.2706     0.1129   125.0630     8.3795     8.4534
  589.0000     9.1433     0.0037     2.4661   142.5768     0.1117   123.2541     8.3219     8.3362
  589.5000     9.1429     0.0022     2.4638   146.7838     0.1111   125.0502     8.3219     8.2774
  590.0000     9.1424    -0.0008     2.4563   148.5892     0.1114   128.3478     8.3219     8.2763
  590.5000     9.1419    -0.0023     2.4562   150.3938     0.1129   131.0448     8.4376     8.3908
  591.0000     9.1415    -0.0039     2.4578   154.6008     0.1132   126.5245     8.5549     8.5652
  591.5000     9.1561    -0.0054     2.4638   162.4115     0.1111   122.0229     8.6738     8.6834
  592.0000     9.1706    -0.0054     2.4690   166.6185     0.1080   119.6148     8.6691     8.8028
  592.5000     9.1701    -0.0039     2.4713   159.1145     0.1077   118.4079     8.4376     8.8630
  593.0000     9.1697     0.0021     2.4704   155.5138     0.1077   116.6003     7.9842     8.8005
  593.5000     9.1693     0.0051     2.4697   154.0150     0.1077   115.0860     7.3493     8.2684
  594.0000     9.1687     0.0096     2.4690   153.4173     0.1087   115.9869     6.8590     7.4528
  594.5000     9.1683     0.0141     2.4652   153.4209     0.1131   119.2845     6.5311     6.4445
  595.0000     9.1679     0.0217     2.4363   152.5228     0.1225   120.1811     6.3574     5.9305
  595.5000     9.1675     0.0336     2.3869   149.2223     0.1508   119.2730     6.3574     5.6888
  596.0000     9.1670     0.0321     2.3553   146.7987     0.1710   114.7027     6.4904     5.8881
  596.5000     9.1515     0.0200     2.3538   145.9247     0.1764   108.7497     6.6722     6.2653
  597.0000     9.1511     0.0110     2.3793   145.6272     0.1514   109.9452     6.8698     7.0351
  597.5000     9.1357     0.0050     2.4696   145.0302     0.1152   115.3448     7.5031     7.8147
  598.0000     9.1502     0.0019     2.4861   144.4324     0.0980   120.4442     8.6738     8.7278
  598.5000     9.1647     0.0019     2.4876   144.4359     0.0968   118.8861     9.5541     9.3514
  599.0000     9.1643     0.0019     2.4839   145.3397     0.1014   112.6236     9.8216     9.7462
  599.5000     9.1638     0.0004     2.4785   146.2434     0.1047   111.1178     9.9582    10.1673
  600.0000     9.1634     0.0019     2.4725   145.9459     0.1086   113.2127     9.9582    10.1561
  600.5000     9.1629     0.0034     2.4657   145.0479     0.1143   113.5075     9.9582    10.1547
  601.0000     9.1325     0.0049     2.4597   145.9523     0.1164   111.6997     9.9582    10.0140
  601.5000     9.1321     0.0079     2.4567   149.2585     0.1179   114.6957     9.9582     9.9436
  602.0000     9.1316     0.0078     2.4529   154.0661     0.1194   116.4918    10.0967     9.8738
  602.5000     9.1311     0.0093     2.4491   155.2708     0.1212   117.6887    10.2371     9.9410
  603.0000     9.1307     0.0108     2.4416   153.4719     0.1236   118.2823    10.5966    10.5047
  603.5000     9.1302     0.0108     2.4288   148.6699     0.1270   111.9448    11.1213    11.6512
  604.0000     9.1298     0.0106     2.4190   136.6607     0.1324    94.2452    11.8343    13.0125
  604.5000     9.1294     0.0078     2.4044   118.8647     0.1405    82.8281    14.4577    13.9827
  605.0000     9.1440     0.0077     2.3693   102.9418     0.1574    65.5834    15.9250    15.1460
  605.5000     9.1434     0.0138     2.3129    94.8281     0.1867    52.6528    16.7136    16.1164
  606.0000     9.1581     0.0137     2.2820    89.7174     0.2229    49.6322    17.0634    16.4526
  606.5000     9.1571     0.0077     2.2707    85.1349     0.2295    49.0139    17.0634    15.7814
  607.0000     9.1271     0.0017     2.2699    80.3955     0.2308    48.6960    16.8294    15.0247
  607.5000     9.1266     0.0017     2.2669    78.2878     0.2326    48.9790    16.7136    14.7227
  608.0000     9.1262     0.0257     2.2661    78.2822     0.2332    54.3664    16.5986    14.6193
  608.5000     9.1258     0.0408     2.2691    82.1791     0.2269    59.9288    16.3709    14.7193
  609.0000     9.1253     0.0377     2.2882    90.8822     0.2109    65.1419    16.2583    14.7169
  609.5000     9.1248     0.0166     2.3120    96.8826     0.2036    60.3150    16.1464    14.9271
  610.0000     9.1341     0.0016     2.3142    99.8998     0.2067    59.6968    16.1464    15.2300
  610.5000     9.1422     0.0062     2.2916   101.0756     0.2284    59.6791    16.1464    15.3342
  611.0000     9.1418     0.0196     2.2703   101.0686     0.2435    60.5624    16.1464    15.3317
  611.5000     9.1415     0.0271     2.2389   100.7627     0.2646    63.2474    16.1464    15.3297
  612.0000     9.1712     0.0286     2.2103    99.8548     0.2947    66.2328    15.9250    15.3276
  612.5000     9.3958     0.0256     2.0944    97.4467     0.3613    69.8187    15.7066    15.3251
  613.0000    10.2200     0.1219     2.0403    93.5372     0.3797    73.4047    15.4912    15.1126
  613.5000    10.7145     0.1730     2.0620    90.8288     0.3674    75.7894    15.2788    14.9031
  614.0000    10.5793     0.1941     2.1432    93.2243     0.3446    76.9730    15.1709    14.4947
  614.5000     9.4395     0.1564     2.2244    98.0235     0.2830    76.3041    14.8626    14.2937
  615.0000     9.2893     0.0400     2.3056   101.9218     0.1965    75.1351    14.5944    13.9979
  615.5000     9.2890     0.0285     2.3391   104.6175     0.1893    75.4141    14.4057    13.8996
  616.0000     9.2888     0.0315     2.3413   105.8131     0.1896    76.2974    14.2170    13.7069
  616.5000     9.2584     0.0405     2.3330   105.2069     0.1932    76.8847    14.0319    13.5169
  617.0000     9.2132     0.0465     2.3233   103.3994     0.1965    77.4633    14.0309    13.3295
  617.5000     9.1529     0.0284     2.3128   101.5907     0.2010    78.0462    13.9333    13.1934
  618.0000     9.1376     0.0043     2.3008    99.7847     0.2094    78.0286    13.7413    13.1112
