~VERSION INFORMATION
 VERS.                2.0:   CWLS LOG ASCII STANDARD - VERSION 2.0
 WRAP.                 NO:   ONE LINE PER DEPTH STEP
~WELL INFORMATION
#MNEM.UNIT      DATA TYPE    INFORMATION
#----------   ------------   ------------------------------
 STRT.F           32.5000:   START DEPTH
 STOP.F          654.0000:   STOP DEPTH
 STEP.F            0.5000:   STEP LENGTH
 NULL.          -999.2500:   NO VALUE
 COMP. FENIX & SCISSON INC:   COMPANY
 WELL.          NPR #13-2:   WELL
 FLD .             TEAPOT:   FIELD
 LOC .       S2 T38N R78W:   LOCATION
 CNTY.            NATRONA:   COUNTY
 STAT.            WYOMING:   STATE
 CTRY. UNITED STATES OF AMERICA:   COUNTRY
 SRVC.           BIRDWELL:   SERVICE COMPANY
 DATE.        16-JAN-1978:   LOGDATE
 API .       490251055100:   API NUMBER
~CURVE INFORMATION
#MNEM.UNIT       API CODE    CURVE DESCRIPTION
#----------   ------------   ------------------------------
 DEPT.F                  :   
 ILD .OHMM   05 120 46 00:   INDUCTION LOG DEEP
 SN  .OHMM   05 040 16 00:   SHORT NORMAL 16"
 SPR .MV     05 010 01 00:   SPONTANEOUS POTENTIAL FROM RES.
 CALD.IN     45 280 60 00:   CALIPER FROM DENSITY LOG
 CORR.G/C3   45 356 01 00:   DENSITY CORRECTION
 DPHI.DEC    45 890 12 00:   DENSITY POROSITY SANDSTONE
 GRD .GAPI   45 310 01 00:   GAMMA RAY FROM DENSITY LOG
 RHOB.G/C3   45 350 01 00:   BULK DENSITY
~PARAMETER INFORMATION
#MNEM.UNIT          VALUE    DESCRIPTION
#----------   ------------   ------------------------------
 PD  .                 GL:   PERMANENT DATUM
 EPD .F              5091:   ELEVATION PERMANENT DATUM
 LMF .                 KB:   LOG MEASURED FROM
 DAPD.F                 4:   FEET ABOVE PERMANENT DATUM
 DMF .                 KB:   DRILLING MEASURED FROM
 EKB .F              5095:   KELLING BUSHING
 EGL .F              5091:   GROUND LEVEL
 DATE.        16-JAN-1978:   RUN DATE
 RUN .                  1:   RUN NUMBER
 DD  .F               652:   DEPTH DRILLER
 DL  .F               654:   DEPTH LOGGER
 BLI .F               649:   BOTTOM LOG INTERVAL
 TLI .F                30:   TOP LOG INTERVAL
 CS  .IN            8.625:   CASING SIZE
 CBD .F                20:   CASING BOTTOM DRILLER
 CBL .F                34:   CASING BOTTOM LOGGER
 BS  .IN            7.875:   BIT SIZE
 BSD .F               652:   BIT SIZE AT DEPTH
 DFT .                KCL:   DRILLING FLUID TYPE
 DFD .                8.7:   DRILLING FLUID DENSITY
 DFV .                 34:   DRILLING FLUID VISCOSITY
 DFPH.                 10:   DRILLING FLUID PH
 MSS .           FLOWLINE:   MUD SAMPLE SOURCE
 RMS .OHMM            0.3:   RESISTIVITY MUD SAMPLE
 MST .F                62:   MUD SAMPLE TEMPERATURE
 RMF .OHMM           0.26:   RESISTIVITY MUD FILTRATE SAMPLE
 MFST.F                66:   MUD FILTRATE SAMPLE TEMPERATURE
 RMC .OHMM           0.48:   RESISTIVITY MUD CAKE
 MCST.F                66:   MUD CAKE SAMPLE TEMPERATURE
 MFSS.               MEAS:   MUD FILTRATE SAMPLE SOURCE
 MCSS.               MEAS:   MUD CAKE SAMPLE SOURCE
 RMB .OHMM           0.26:   RESISTIVITY MUD AT BHT
 BHT .F                72:   BOTTOM HOLE TEMPERATURE
 TCS .HRS               3:   TIME CURCULATED STOPPED
 MRT .F                72:   MAXIMUM RECORDED TEMPERATURE
 LUN .               3027:   LOGGING UNIT NUMBER
 LUL .                GJT:   LOGGING UNIT LOCATION
 ENGI.           MARTINEZ:   RECORDING ENGINEER
 WITN.         HARRINGTON:   WITNESSED BY
 CLNT.            A2DTECH:   CLIENT CODE
 ORIG.           5" PRINT:   ORIGIN OF DATA
 UWI .       490251055100:   UNIQUE WELL ID
 DICO. A2D Technologies, Inc.:   DIGITIZING COMPANY
~OTHER INFORMATION
~A   DEPT      ILD         SN        SPR       CALD       CORR       DPHI         GRD      RHOB   
# ...
  599.5000    15.9185    15.8665   -34.3892     8.6521     0.0766     0.0937    82.9341     2.5060
  600.0000    15.9196    15.7585   -34.3469     8.6527     0.0721     0.0913    78.8922     2.5030
  600.5000    15.9219    15.7606   -34.3785     8.6518     0.0703     0.0901    78.2934     2.5068
  601.0000    15.8142    15.6536   -34.5229     8.6509     0.0646     0.0931    79.4910     2.5075
  601.5000    15.7074    15.6562   -34.5156     8.6500     0.0646     0.0949    80.0898     2.5030
  602.0000    15.7096    15.6583   -34.6613     8.6491     0.0662     0.0931    77.8443     2.5000
  602.5000    15.8212    15.6604   -34.6540     8.6482     0.0662     0.0904    76.6467     2.5015
  603.0000    15.9331    15.7712   -34.6482     8.6473     0.0677     0.0925    77.0958     2.5045
  603.5000    15.9352    15.7738   -34.7940     8.6464     0.0662     0.0973    78.2934     2.5008
  604.0000    15.9374    15.7759   -34.7867     8.6455     0.0588     0.1003    77.8443     2.4977
  604.5000    15.6123    15.7780   -34.6307     8.6446     0.0528     0.1015    78.9701     2.4985
  605.0000    15.3999    15.6709   -34.7750     8.6437     0.0483     0.1003    80.8383     2.5008
  605.5000    15.0858    15.6736   -34.9193     8.6443     0.0498     0.0991    81.4371     2.5046
  606.0000    15.2980    15.5672   -34.9120     8.6450     0.0498     0.0976    79.9401     2.5060
  606.5000    15.5135    15.6778   -34.9061     8.6157     0.0484     0.1003    78.7425     2.5023
  607.0000    15.4082    15.6865   -34.9003     8.6162     0.0469     0.1048    77.6946     2.4925
  607.5000    15.3040    15.7912   -34.8945     8.6168     0.0439     0.1072    77.5449     2.4865
  608.0000    15.0964    15.5766   -34.8886     8.6324     0.0424     0.1036    78.8922     2.4887
  608.5000    14.6865    15.4714   -34.7326     8.6479     0.0470     0.0859    80.2395     2.4977
  609.0000    14.2878    15.3670   -34.5766     8.6485     0.0545     0.0781    81.2874     2.5090
  609.5000    14.3899    15.1581   -34.5936     8.6192     0.0620     0.0751    80.5389     2.5240
  610.0000    14.4907    14.9516   -35.1641     8.6048     0.0666     0.0783    81.7365     2.5315
  610.5000    14.3927    14.7488   -35.3099     8.6204     0.0636     0.0817    82.9341     2.5285
  611.0000    14.1974    14.7508   -35.4542     8.6510     0.0575     0.0823    83.6826     2.5239
  611.5000    13.9078    14.6512   -35.4469     8.6516     0.0531     0.0832    84.5808     2.5194
  612.0000    13.6241    14.5528   -35.4410     8.6522     0.0487     0.0841    84.4311     2.5180
  612.5000    13.3462    14.5547   -35.4352     8.6528     0.0487     0.0832    80.5389     2.5188
  613.0000    13.0740    14.4560   -35.4294     8.6533     0.0502     0.0799    79.7904     2.5195
  613.5000    12.8961    14.3583   -35.5826     8.6539     0.0502     0.0859    81.4371     2.5210
  614.0000    12.8979    14.2619   -36.0440     8.6545     0.0533     0.0895    82.7844     2.5158
  614.5000    12.8107    14.2638   -36.4614     8.6551     0.0548     0.0877    83.6886     2.5135
  615.0000    12.6369    14.0699   -36.6072     8.6557     0.0563     0.0847    84.1317     2.5150
  615.5000    12.5511    13.8787   -36.2996     8.6571     0.0563     0.0849    83.6826     2.5165
  616.0000    12.4662    13.7850   -36.2938     8.6587     0.0564     0.0895    84.4311     2.5150
  616.5000    12.2967    13.6923   -36.2879     8.6603     0.0564     0.0907    86.8263     2.5120
  617.0000    12.2139    13.5994   -36.2821     8.6618     0.0549     0.0841    88.4731     2.5150
  617.5000    12.1315    13.5076   -36.4264     8.6634     0.0564     0.0805    85.9281     2.5195
  618.0000    12.1331    13.4168   -36.4204     8.6650     0.0565     0.0832    86.2275     2.5210
  618.5000    11.9685    13.4186   -36.5648     8.6666     0.0550     0.0844    87.7245     2.5210
  619.0000    11.8872    13.4204   -36.7092     8.6682     0.0505     0.0841    87.4251     2.5218
  619.5000    11.8069    13.3298   -36.8535     8.6698     0.0490     0.0817    88.4731     2.5240
  620.0000    11.8088    13.3320   -36.6960     8.6714     0.0506     0.0751    88.6228     2.5315
  620.5000    11.8104    13.4263   -36.6902     8.6730     0.0551     0.0681    87.6765     2.5390
  621.0000    11.8120    13.2438   -36.6843     8.6746     0.0626     0.0703    86.5269     2.5495
  621.5000    11.7322    13.1539   -36.6785     8.6762     0.0610     0.0763    85.4790     2.5409
  622.0000    11.6454    13.1561   -36.6727     8.6778     0.0552     0.0835    84.8802     2.5193
  622.5000    11.4944    13.0672   -36.6667     8.6794     0.0567     0.0853    85.0299     2.5105
  623.0000    11.3381    13.0690   -36.6595     8.6802     0.0582     0.0871    86.0778     2.5135
  623.5000    11.2614    12.9692   -36.6537     8.6810     0.0552     0.0940    88.6228     2.5150
  624.0000    11.1853    12.8931   -36.4977     8.6815     0.0508     0.0991    88.9222     2.5068
  624.5000    11.1101    12.8061   -36.4918     8.6821     0.0478     0.1015    87.7245     2.4970
  625.0000    11.1116    12.7200   -36.6361     8.6827     0.0418     0.1039    86.2275     2.4910
  625.5000    11.1131    12.5471   -37.2309     8.6833     0.0418     0.1072    85.6287     2.4865
  626.0000    11.0380    12.3766   -37.6757     8.6688     0.0509     0.1093    88.9222     2.4805
  626.5000    11.0399    12.3783   -37.9700     8.6695     0.0509     0.1075    90.4192     2.4790
  627.0000    10.9649    12.2100   -37.9640     8.6701     0.0526     0.1054    90.7186     2.4844
  627.5000    10.6676    12.1179   -37.9568     8.6407     0.0629     0.1027    91.0180     2.4902
  628.0000    10.4500    11.8804   -38.1026     8.6432     0.0720     0.1063    90.1198     2.4835
  628.5000    10.1662    11.7189   -38.0953     8.6463     0.0765     0.1093    88.9222     2.4790
  629.0000     9.7544    11.5600   -38.0895     8.6493     0.0780     0.1093    87.7245     2.4805
  629.5000     9.3592    11.2464   -38.0836     8.6524     0.0781     0.1072    86.9761     2.4865
  630.0000     9.1052    11.0171   -38.0778     8.6555     0.0796     0.1033    86.6766     2.4947
  630.5000     9.1067    10.9427   -37.9218     8.6586     0.0781     0.0976    86.6806     2.5068
  631.0000     9.1079    10.9442   -37.7658     8.6616     0.0781     0.0925    87.1257     2.5150
  631.5000     9.2360    11.0216   -37.9101     8.6647     0.0797     0.0872    89.5210     2.5165
  632.0000     9.4963    11.1768   -37.7527     8.6678     0.0842     0.0865    90.7186     2.5165
  632.5000    10.1074    11.7323   -37.7468     8.6708     0.0795     0.0916    91.0180     2.5135
  633.0000    10.9076    12.3153   -37.7410     8.6739     0.0737     0.0907    90.4192     2.5113
  633.5000    11.6901    12.8383   -37.5850     8.6770     0.0692     0.0883    88.9222     2.5120
  634.0000    12.1074    13.1998   -37.5792     8.6785     0.0663     0.0865    87.1257     2.5158
  634.5000    12.2735    13.5716   -37.5733     8.6490     0.0678     0.0847    88.9222     2.5180
  635.0000    12.3599    13.7623   -37.5675     8.6497     0.0723     0.0832    88.1737     2.5210
  635.5000    12.1918    13.8596   -37.5616     8.6503     0.0739     0.0817    86.0778     2.5210
  636.0000    12.1939    13.8619   -37.5556     8.6509     0.0739     0.0817    84.2574     2.5195
  636.5000    12.1111    13.8637   -37.5485     8.6366     0.0724     0.0832    83.5329     2.5165
  637.0000    12.1131    13.8656   -37.3925     8.6371     0.0724     0.0857    84.2814     2.5150
  637.5000    12.1147    13.9631   -37.5383     8.6338     0.0708     0.0907    85.6287     2.5158
  638.0000    12.0329    13.8688   -37.6826     8.6307     0.0695     0.0937    87.8743     2.5132
  638.5000    11.9515    13.8712   -37.3750     8.6277     0.0695     0.0955    89.6707     2.5060
  639.0000    11.8708    13.7775   -37.2190     8.6246     0.0680     0.0955    90.5689     2.5030
  639.5000    11.8728    13.6845   -36.3122     8.6216     0.0680     0.0946    90.4192     2.5015
