~VERSION INFORMATION
 VERS.                2.0:   CWLS LOG ASCII STANDARD - VERSION 2.0
 WRAP.                 NO:   ONE LINE PER DEPTH STEP
~WELL INFORMATION
#MNEM.UNIT      DATA TYPE    INFORMATION
#----------   ------------   ------------------------------
 STRT.F          648.0000:   START DEPTH
 STOP.F         2443.0000:   STOP DEPTH
 STEP.F            0.5000:   STEP LENGTH
 NULL.          -999.2500:   NO VALUE
 COMP.    FENIX & SCISSON:   COMPANY
 WELL.  NPR #3 SHX-11 #22:   WELL
 FLD .             TEAPOT:   FIELD
 LOC .      S11 T38N R78W:   LOCATION
 CNTY.            NATRONA:   COUNTY
 STAT.            WYOMING:   STATE
 CTRY. UNITED STATES OF AMERICA:   COUNTRY
 SRVC.           BIRDWELL:   SERVICE COMPANY
 DATE.        23-APR-1978:   LOGDATE
 API .       490251061300:   API NUMBER
~CURVE INFORMATION
#MNEM.UNIT       API CODE    CURVE DESCRIPTION
#----------   ------------   ------------------------------
 DEPT.F                  :   
 CALD.IN     45 280 60 00:   CALIPER FROM DENSITY LOG
 CORR.G/C3   45 356 01 00:   DENSITY CORRECTION
 DPHI.DEC    45 890 12 00:   DENSITY POROSITY SANDSTONE
 GRD .GAPI   45 310 01 00:   GAMMA RAY FROM DENSITY LOG
 RHOB.G/C3   45 350 01 00:   BULK DENSITY
~PARAMETER INFORMATION
#MNEM.UNIT          VALUE    DESCRIPTION
#----------   ------------   ------------------------------
 PD  .                 GL:   PERMANENT DATUM
 EPD .F              5166:   ELEVATION PERMANENT DATUM
 LMF .                 KB:   LOG MEASURED FROM
 DMF .                 KB:   DRILLING MEASURED FROM
 EKB .F              5176:   KELLING BUSHING
 EGL .F              5166:   GROUND LEVEL
 DATE.        23-APR-1978:   RUN DATE
 RUN .                  1:   RUN NUMBER
 DD  .F              2450:   DEPTH DRILLER
 DL  .F              2450:   DEPTH LOGGER
 BLI .F              2443:   BOTTOM LOG INTERVAL
 TLI .F               670:   TOP LOG INTERVAL
 CS  .IN            9.625:   CASING SIZE
 CBD .F               660:   CASING BOTTOM DRILLER
 CBL .F               670:   CASING BOTTOM LOGGER
 BS  .IN             8.75:   BIT SIZE
 BSD .F              2450:   BIT SIZE AT DEPTH
 DFT .               MIST:   DRILLING FLUID TYPE
 LUN .               2958:   LOGGING UNIT NUMBER
 LUL .             CASPER:   LOGGING UNIT LOCATION
 ENGI.             MILLER:   RECORDING ENGINEER
 WITN.          MC GINLEY:   WITNESSED BY
 CLNT.            A2DTECH:   CLIENT CODE
 ORIG.           5" PRINT:   ORIGIN OF DATA
 UWI .       490251061300:   UNIQUE WELL ID
 DICO. A2D Technologies, Inc.:   DIGITIZING COMPANY
~OTHER INFORMATION
~A   DEPT     CALD       CORR       DPHI        GRD       RHOB   
# ...
 1075.0000    10.5988     0.0346     0.0174   108.4558     2.5071
 1075.5000    10.5981     0.0346     0.0258   115.4935     2.5123
 1076.0000    10.5838     0.0328     0.0276   114.5869     2.5221
 1076.5000    10.5838     0.0149     0.0279   113.0807     2.5148
 1077.0000    10.5689     0.0148     0.0283   110.0808     2.5009
 1077.5000    10.5689     0.0163     0.0307   102.7201     2.5017
 1078.0000    10.5689     0.0162     0.0325   101.2138     2.5024
 1078.5000    10.5838     0.0161     0.0352   103.0059     2.4946
 1079.0000    10.5838     0.0206     0.0391   105.9957     2.4850
 1079.5000    10.5689     0.0251     0.0367   107.6378     2.4827
 1080.0000    10.5539     0.0205     0.0298   107.1811     2.4781
 1080.5000    10.5335     0.0189     0.0247   106.4908     2.4894
 1081.0000    10.5165     0.0279     0.0199   105.0663     2.5006
 1081.5000    10.4790     0.0293     0.0162   105.5091     2.5073
 1082.0000    10.4790     0.0293     0.0124   106.1018     2.5129
 1082.5000    10.4790     0.0292     0.0115   106.9926     2.5215
 1083.0000    10.4790     0.0307     0.0297   113.1325     2.5259
 1083.5000    10.4790     0.0276     0.0396   122.7207     2.5304
 1084.0000    10.4790     0.0230     0.0306   123.4692     2.5179
 1084.5000    10.4940     0.0169     0.0427   124.5041     2.4943
 1085.0000    10.5090     0.0184     0.0424   125.0985     2.4912
 1085.5000    10.5240     0.0198     0.0340   124.1902     2.4791
 1086.0000    10.5539     0.0258     0.0199   122.5323     2.4738
 1086.5000    10.5838     0.0318     0.0190   122.8251     2.4971
 1087.0000    10.5988     0.0287     0.0244   122.9698     2.5166
 1087.5000    10.6138     0.0211     0.0241   122.8111     2.5180
 1088.0000    10.6287     0.0195     0.0199   121.3031     2.5135
 1088.5000    10.6587     0.0194     0.0187   116.1986     2.5119
 1089.0000    10.6737     0.0209     0.0172   117.3910     2.5126
 1089.5000    10.6886     0.0239     0.0220   119.1831     2.5148
 1090.0000    10.7036     0.0253     0.0223   115.4262     2.5156
 1090.5000    10.7186     0.0283     0.0212   111.8210     2.5155
 1091.0000    10.7635     0.0297     0.0203   107.0164     2.5147
 1091.5000    10.7934     0.0266     0.0224   105.0586     2.5132
 1092.0000    10.8234     0.0251     0.0269   104.0022     2.5124
 1092.5000    10.8383     0.0250     0.0272   100.0971     2.5116
 1093.0000    10.8683     0.0310     0.0272   100.3899     2.5085
 1093.5000    10.8683     0.0369     0.0260   100.9826     2.5052
 1094.0000    10.8683     0.0414     0.0248   101.8734     2.4994
 1094.5000    10.8683     0.0368     0.0248   102.7660     2.5144
 1095.0000    10.8683     0.0247     0.0269   104.5563     2.5161
 1095.5000    10.8683     0.0201     0.0284   104.9991     2.5039
 1096.0000    10.8533     0.0155     0.0297   105.5918     2.4902
 1096.5000    10.8383     0.0155     0.0297   105.7347     2.5037
 1097.0000    10.8234     0.0184     0.0270   105.4261     2.5112
 1097.5000    10.8084     0.0184     0.0279   105.7207     2.5062
 1098.0000    10.7784     0.0198     0.0324   107.0613     2.4960
 1098.5000    10.7635     0.0213     0.0330   109.3014     2.5020
 1099.0000    10.7335     0.0197     0.0324   110.0440     2.5080
 1099.5000    10.7186     0.0196     0.0306   111.6862     2.5040
 1100.0000    10.7186     0.0196     0.0249   114.0780     2.4921
 1100.5000    10.6760     0.0180     0.0270   116.4698     2.4936
 1101.0000    10.6433     0.0119     0.0334   116.7626     2.5033
 1101.5000    10.6002     0.0104     0.0283   114.0552     2.5085
 1102.0000    10.5856     0.0148     0.0211   110.7316     2.4964
 1102.5000    10.5861     0.0223     0.0177   111.0409     2.4949
 1103.0000    10.5865     0.0283     0.0151   111.6336     2.4971
 1103.5000    10.5870     0.0297     0.0139   112.2264     2.5047
 1104.0000    10.5874     0.0296     0.0118   112.9672     2.5173
 1104.5000    10.6029     0.0296     0.0235   113.4117     2.5248
 1105.0000    10.6033     0.0295     0.0292   113.5653     2.5285
 1105.5000    10.6337     0.0287     0.0274   113.6225     2.5292
 1106.0000    10.6492     0.0272     0.0268   113.6872     2.5164
 1106.5000    10.6496     0.0257     0.0262   113.2302     2.5043
 1107.0000    10.6500     0.0235     0.0242   112.3235     2.5020
 1107.5000    10.6354     0.0204     0.0224   109.3178     2.5102
 1108.0000    10.6060     0.0204     0.0196   106.3118     2.5049
 1108.5000    10.5914     0.0218     0.0179   106.6030     2.5071
 1109.0000    10.5769     0.0218     0.0227   106.2960     2.5093
 1109.5000    10.5774     0.0187     0.0227   105.0894     2.5123
 1110.0000    10.5629     0.0172     0.0224   103.8828     2.5198
 1110.5000    10.5483     0.0171     0.0260   106.3664     2.5137
 1111.0000    10.5338     0.0201     0.0287   110.4652     2.5129
 1111.5000    10.5193     0.0200     0.0342   109.2568     2.5129
 1112.0000    10.5047     0.0185     0.0366   105.8013     2.5038
 1112.5000    10.4903     0.0199     0.0372   106.2439     2.4947
 1113.0000    10.4608     0.0229     0.0387   108.1858     2.4887
 1113.5000    10.4313     0.0259     0.0384   110.6236     2.4841
 1114.0000    10.4168     0.0258     0.0372   112.5174     2.4826
 1114.5000    10.4172     0.0258     0.0363   109.8116     2.4991
 1115.0000    10.4177     0.0257     0.0351   108.4551     2.4893
 1115.5000    10.4332     0.0272     0.0324   108.5996     2.4832
 1116.0000    10.4336     0.0257     0.0309   108.5907     2.4877
 1116.5000    10.4490     0.0271     0.0264   109.6816     2.4915
 1117.0000    10.4644     0.0271     0.0228   110.9733     2.4956
 1117.5000    10.4798     0.0285     0.0195   111.1179     2.5001
 1118.0000    10.4803     0.0285     0.0165   111.5587     2.5099
 1118.5000    10.4957     0.0284     0.0153   111.5515     2.5183
 1119.0000    10.5111     0.0284     0.0144   111.5442     2.5211
 1119.5000    10.5265     0.0284     0.0138   111.5353     2.5204
 1120.0000    10.5269     0.0268     0.0135   102.2328     2.5196
 1120.5000    10.5424     0.0268     0.0171   101.7776     2.5196
 1121.0000    10.5429     0.0282     0.0201   102.6682     2.5196
 1121.5000    10.5433     0.0327     0.0228   104.9099     2.5226
 1122.0000    10.5437     0.0357     0.0159   114.5772     2.5241
 1122.5000    10.5442     0.0296     0.0147   118.2371     2.5128
 1123.0000    10.5447     0.0265     0.0198   119.8809     2.5120
 1123.5000    10.5451     0.0235     0.0237   120.4734     2.5256
 1124.0000    10.5455     0.0234     0.0246   116.7163     2.5211
 1124.5000    10.5609     0.0279     0.0285   113.2609     2.5150
 1125.0000    10.5615     0.0339     0.0252   110.7031     2.5105
 1125.5000    10.5618     0.0399     0.0192   110.0963     2.5037
 1126.0000    10.5623     0.0504     0.0099   109.9392     2.4985
 1126.5000    10.5627     0.0443     0.0198   112.0309     2.5112
 1127.0000    10.5781     0.0292     0.0333   118.3206     2.5255
 1127.5000    10.5787     0.0216     0.0351   119.8201     2.5315
 1128.0000    10.5640     0.0231     0.0279   120.5533     2.5066
 1128.5000    10.5646     0.0322     0.0351   121.1459     2.4932
 1129.0000    10.5499     0.0350     0.0369   121.7384     2.4984
 1129.5000    10.5504     0.0350     0.0321   122.7807     2.4947
 1130.0000    10.5061     0.0365     0.0273   123.3733     2.4894
 1130.5000    10.4914     0.0334     0.0252   118.1528     2.4871
 1131.0000    10.4620     0.0241     0.0324   116.1606     2.5007
 1131.5000    10.4325     0.0182     0.0334   118.4023     2.5052
 1132.0000    10.4180     0.0167     0.0309   118.3952     2.4954
 1132.5000    10.4185     0.0212     0.0327   118.2381     2.4916
 1133.0000    10.4038     0.0181     0.0327   118.2309     2.4924
 1133.5000    10.4044     0.0120     0.0333   118.6717     2.4954
 1134.0000    10.4048     0.0105     0.0345   121.6630     2.4931
 1134.5000    10.4202     0.0150     0.0383   123.1551     2.4893
 1135.0000    10.4356     0.0149     0.0393   123.8975     2.4863
 1135.5000    10.4439     0.0164     0.0369   125.0897     2.4826
