~VERSION INFORMATION
 VERS.                2.0:   CWLS LOG ASCII STANDARD - VERSION 2.0
 WRAP.                 NO:   ONE LINE PER DEPTH STEP
~WELL INFORMATION
#MNEM.UNIT      DATA TYPE    INFORMATION
#----------   ------------   ------------------------------
 STRT.F           70.0000:   START DEPTH
 STOP.F         1088.0000:   STOP DEPTH
 STEP.F            0.5000:   STEP LENGTH
 NULL.          -999.2500:   NO VALUE
 COMP. U S NAVY/INTEX OIL CO:   COMPANY
 WELL. RES 3 TEAPOT DOME #66S-11:   WELL
 FLD .             TEAPOT:   FIELD
 LOC .      S11 T38N R78W:   LOCATION
 CNTY.            NATRONA:   COUNTY
 STAT.            WYOMING:   STATE
 CTRY. UNITED STATES OF AMERICA:   COUNTRY
 SRVC.         Lane Wells:   SERVICE COMPANY
 DATE.        06-MAR-1960:   LOGDATE
 API .       490250633400:   API NUMBER
~CURVE INFORMATION
#MNEM.UNIT       API CODE    CURVE DESCRIPTION
#----------   ------------   ------------------------------
 DEPT.F                  :   
 SPR .MV     05 010 01 00:   SPONTANEOUS POTENTIAL FROM RES.
 ILD .OHMM   05 120 46 00:   INDUCTION LOG DEEP
 CILD.MMHO   05 110 00 00:   CONDUCTIVITY INDUCTION LOG
 ASN .OHMM   05 041 16 00:   AMPLIFIED SHORT NORMAL 16"
~PARAMETER INFORMATION
#MNEM.UNIT          VALUE    DESCRIPTION
#----------   ------------   ------------------------------
 PD  .                 GL:   PERMANENT DATUM
 EPD .F              5238:   ELEVATION PERMANENT DATUM
 LMF .                 KB:   LOG MEASURED FROM
 DAPD.F                 5:   FEET ABOVE PERMANENT DATUM
 DMF .                 KB:   DRILLING MEASURED FROM
 EKB .F              5243:   KELLING BUSHING
 EGL .F              5238:   GROUND LEVEL
 DATE.             3-6-60:   RUN DATE
 RUN .                  1:   RUN NUMBER
 DD  .F              1085:   DEPTH DRILLER
 DL  .F              1087:   DEPTH LOGGER
 BLI .F              1085:   BOTTOM LOG INTERVAL
 TLI .F                70:   TOP LOG INTERVAL
 CS  .IN            8.625:   CASING SIZE
 CBD .F                12:   CASING BOTTOM DRILLER
 BS  .IN            7.875:   BIT SIZE
 BSD .F              1085:   BIT SIZE AT DEPTH
 DFT .   GEL/OIL EMULSION:   DRILLING FLUID TYPE
 DFD .               10.3:   DRILLING FLUID DENSITY
 DFV .                 37:   DRILLING FLUID VISCOSITY
 DFPH.                8.5:   DRILLING FLUID PH
 DFL .                7.2:   DRILLING FLUID LOSS
 MSS .          FLOW LINE:   MUD SAMPLE SOURCE
 RMS .OHMM           1.65:   RESISTIVITY MUD SAMPLE
 MST .F                70:   MUD SAMPLE TEMPERATURE
 RMF .OHMM            1.2:   RESISTIVITY MUD FILTRATE SAMPLE
 MFST.F                68:   MUD FILTRATE SAMPLE TEMPERATURE
 RMC .OHMM            1.8:   RESISTIVITY MUD CAKE
 MCST.F                68:   MUD CAKE SAMPLE TEMPERATURE
 MFSS.              PRESS:   MUD FILTRATE SAMPLE SOURCE
 MCSS.              PRESS:   MUD CAKE SAMPLE SOURCE
 RMB .OHMM            1.5:   RESISTIVITY MUD AT BHT
 BHT .F                74:   BOTTOM HOLE TEMPERATURE
 MRT .F                74:   MAXIMUM RECORDED TEMPERATURE
 LUN .               4474:   LOGGING UNIT NUMBER
 LUL .             CASPER:   LOGGING UNIT LOCATION
 ENGI.      NELSON/GRIGGS:   RECORDING ENGINEER
 WITN.   JORGENSEN/HUDSON:   WITNESSED BY
 CLNT.            A2DTECH:   CLIENT CODE
 ORIG.       2", 5" PRINT:   ORIGIN OF DATA
 UWI .       490250633400:   UNIQUE WELL ID
 DICO. A2D Technologies, Inc.:   DIGITIZING COMPANY
~OTHER INFORMATION
~A   DEPT      SPR          ILD      CILD         ASN 
# ...
  581.0000   -36.3870     6.0554   170.5186     7.0561
  581.5000   -36.2017     6.0146   172.5454     6.9164
  582.0000   -36.0164     5.9737   174.5696     6.7770
  582.5000   -35.8311     5.9328   176.5938     6.6375
  583.0000   -35.6453     5.8919   178.6179     6.4980
  583.5000   -35.4603     5.8499   180.6421     6.3583
  584.0000   -35.3173     5.8413   182.6663     6.2193
  584.5000   -35.4962     5.8412   184.6905     6.1164
  585.0000   -35.7182     5.8412   186.1164     6.1160
  585.5000   -35.9411     5.8411   184.3433     6.2199
  586.0000   -36.1636     5.8401   182.1351     6.3460
  586.5000   -36.3863     5.8837   179.9269     6.4724
  587.0000   -36.6090     5.9347   177.7187     6.5986
  587.5000   -36.8279     5.9859   175.5105     6.7249
  588.0000   -36.8763     6.0370   173.3023     6.8520
  588.5000   -36.6253     6.0881   171.0941     6.9828
  589.0000   -36.3785     6.1391   169.5653     7.0264
  589.5000   -36.1288     6.1902   168.9954     7.0657
  590.0000   -35.8841     6.2417   168.4318     7.1058
  590.5000   -35.9873     6.2923   167.8667     7.1459
  591.0000   -36.1138     6.2946   167.3000     7.1859
  591.5000   -36.2325     6.2934   166.7321     7.2006
  592.0000   -36.1951     6.2681   166.1748     7.1883
  592.5000   -36.1506     6.2417   166.1737     7.1760
  593.0000   -36.1067     6.2154   166.1737     7.1867
  593.5000   -36.0631     6.1892   166.1737     7.2177
  594.0000   -36.0195     6.1629   166.1737     7.2491
  594.5000   -35.9759     6.1366   166.1737     7.3088
  595.0000   -35.9319     6.1104   167.7691     7.1828
  595.5000   -35.8876     6.0841   169.2401     7.0575
  596.0000   -35.9019     6.0578   170.7136     6.9335
  596.5000   -36.1372     6.0316   172.1855     6.8098
  597.0000   -36.3739     6.0053   173.6576     6.6848
  597.5000   -36.6102     5.9790   175.1298     6.6314
  598.0000   -36.8465     5.9528   176.6019     6.6109
  598.5000   -37.1022     5.9289   177.0553     6.5910
  599.0000   -36.6204     5.9160   177.0529     6.5708
  599.5000   -35.8844     5.9029   177.0520     6.5509
  600.0000   -35.2936     5.8897   177.0515     6.5416
  600.5000   -36.2542     5.8766   177.0515     6.5715
  601.0000   -37.1220     5.8633   177.0515     6.6002
  601.5000   -36.8480     5.8505   177.0515     6.6289
  602.0000   -36.3529     5.8522   177.0515     6.6576
  602.5000   -35.8741     5.8897   177.0515     6.6863
  603.0000   -35.3924     5.9266   177.0515     6.7150
  603.5000   -35.4012     5.9634   177.0515     6.7437
  604.0000   -35.4938     6.0003   176.6273     6.7724
  604.5000   -35.5877     6.0372   175.5205     6.8027
  605.0000   -35.6805     6.0740   174.4145     6.8355
  605.5000   -35.7732     6.1108   173.3062     6.8683
  606.0000   -35.8658     6.1477   172.2122     6.9009
  606.5000   -35.9585     6.1852   170.7360     6.9350
  607.0000   -36.0511     6.2360   168.9064     7.0065
  607.5000   -36.1438     6.3028   167.0582     7.0756
  608.0000   -36.2364     6.3692   165.2128     7.1416
  608.5000   -36.3291     6.4359   163.3681     7.2069
  609.0000   -36.4226     6.5026   161.5234     7.2721
  609.5000   -36.5177     6.5693   159.6787     7.3373
  610.0000   -36.5734     6.6359   157.8338     7.4024
  610.5000   -36.0802     6.7026   155.9896     7.4808
  611.0000   -36.3796     6.7692   154.1446     7.6413
  611.5000   -36.6931     6.8359   152.5956     7.8035
  612.0000   -36.9652     6.9026   151.2121     7.9872
  612.5000   -36.8596     6.9692   149.8285     8.1775
  613.0000   -36.7593     7.0359   148.4450     8.3440
  613.5000   -36.6604     7.1025   147.0615     8.3938
  614.0000   -36.5615     7.1692   145.6780     8.4457
  614.5000   -36.4627     7.2358   144.2944     8.4979
  615.0000   -36.3637     7.3025   142.9109     8.5501
  615.5000   -36.2588     7.3692   141.5274     8.6022
  616.0000   -36.3442     7.4358   140.1438     8.6771
  616.5000   -36.4915     7.5025   138.7603     8.8064
  617.0000   -36.6403     7.5691   137.3768     8.9424
  617.5000   -36.7886     7.6358   135.9933     9.0901
  618.0000   -36.9370     7.7037   134.6097     9.2379
  618.5000   -37.0854     7.8135   133.2262     9.3852
  619.0000   -37.2319     7.8372   131.7271     9.5084
  619.5000   -37.3343     7.9153   131.7271     9.5941
  620.0000   -37.3324     7.9261   129.4307     9.6794
  620.5000   -37.3328     7.9346   128.2142     9.6932
  621.0000   -37.3335     7.9454   128.4601     9.6188
  621.5000   -37.3388     7.9562   128.7061     9.5451
  622.0000   -37.1343     7.9670   128.9520     9.4715
  622.5000   -36.9117     7.9779   129.1980     9.3969
  623.0000   -36.6884     7.9887   129.4440     9.4339
  623.5000   -36.4645     7.9996   129.6899     9.5598
  624.0000   -36.2445     8.0105   129.9141     9.6866
  624.5000   -36.2382     8.0128   130.1053     9.8034
  625.0000   -36.3360     7.9955   130.2810     9.7593
  625.5000   -36.4378     7.9778   130.4567     9.5863
  626.0000   -36.5390     7.9603   130.6324     9.4119
  626.5000   -36.6401     7.9427   130.8081     9.2354
  627.0000   -36.7412     7.9252   130.9838     9.2003
  627.5000   -36.8423     7.9076   131.1595     9.2239
  628.0000   -36.9433     7.8901   131.3351     9.2511
  628.5000   -37.0445     7.8725   131.5108     9.1804
  629.0000   -37.1463     7.8550   131.6865     9.0758
  629.5000   -37.2475     7.8378   132.6001     9.0905
  630.0000   -37.3006     7.7996   133.7353     9.1352
  630.5000   -37.0498     7.7563   134.8705     9.1807
  631.0000   -36.8019     7.7128   136.0060     9.2256
  631.5000   -36.5858     7.6695   137.1415     9.2578
  632.0000   -36.5240     7.6261   138.2838     9.1827
  632.5000   -36.4590     7.5827   138.9756     9.0976
  633.0000   -36.3937     7.5394   138.9820     9.0122
  633.5000   -36.3283     7.4961   138.9799     8.9270
  634.0000   -36.2629     7.4659   138.9790     8.8418
  634.5000   -36.1974     7.4538   138.9790     8.7563
  635.0000   -36.1318     7.4415   138.9790     8.6948
  635.5000   -36.0646     7.4292   138.9790     8.7174
  636.0000   -36.0924     7.4169   138.9790     8.7686
  636.5000   -36.1387     7.4047   138.9790     8.8191
  637.0000   -36.1845     7.3923   138.9790     8.8705
  637.5000   -36.2244     7.3813   139.9204     8.8376
  638.0000   -36.4801     7.3455   141.6232     8.7400
  638.5000   -36.7586     7.2845   143.3260     8.6415
  639.0000   -37.0405     7.2230   145.0288     8.5430
  639.5000   -37.3174     7.1616   146.7316     8.4462
  640.0000   -37.1049     7.0999   148.4344     8.3793
  640.5000   -36.8547     7.0388   149.8710     8.3102
  641.0000   -36.6078     6.9648   149.8518     8.2414
  641.5000   -36.3608     6.8865   149.8633     8.1744
  642.0000   -36.4249     6.8075   150.4969     8.0948
  642.5000   -36.7948     6.7285   153.5977     7.9071
  643.0000   -36.6296     6.6495   156.6687     7.7224
  643.5000   -36.0742     6.5705   159.7451     7.5379
  644.0000   -36.2844     6.4915   162.8197     7.3533
  644.5000   -36.5134     6.4124   165.8942     7.1685
  645.0000   -36.4748     6.3333   167.9866     6.9861
  645.5000   -36.2655     6.2554   167.1138     6.8602
  646.0000   -36.0535     6.2163   166.0597     6.8840
  646.5000   -35.8597     6.2571   165.0060     7.0396
  647.0000   -35.8111     6.2964   163.9516     7.2041
  647.5000   -35.7589     6.3360   162.8961     7.3689
  648.0000   -35.7035     6.3755   161.8357     7.5332
  648.5000   -35.7821     6.4150   160.7347     7.6978
  649.0000   -35.9109     6.4541   161.2346     7.8049
  649.5000   -36.0420     6.4595   161.7616     7.8206
  650.0000   -36.1729     6.4258   162.2887     7.7647
  650.5000   -36.3037     6.3924   162.5477     7.7037
  651.0000   -36.4346     6.3588   163.2301     7.6434
  651.5000   -36.5657     6.3253   163.9008     7.5833
  652.0000   -36.6945     6.2918   164.5717     7.5230
  652.5000   -36.7654     6.2583   165.2424     7.4629
  653.0000   -36.6942     6.2248   165.9147     7.4026
  653.5000   -36.6259     6.1912   166.1742     7.3424
