~VERSION INFORMATION
 VERS.                2.0:   CWLS LOG ASCII STANDARD - VERSION 2.0
 WRAP.                 NO:   ONE LINE PER DEPTH STEP
~WELL INFORMATION
#MNEM.UNIT      DATA TYPE    INFORMATION
#----------   ------------   ------------------------------
 STRT.F           95.0000:   START DEPTH
 STOP.F          914.0000:   STOP DEPTH
 STEP.F            0.5000:   STEP LENGTH
 NULL.          -999.2500:   NO VALUE
 COMP. LAWRENCE/ALLISON INC:   COMPANY
 WELL. NPR ##3 31-61 SX 2:   WELL
 FLD .             TEAPOT:   FIELD
 LOC .       S2 T38N R78W:   LOCATION
 CNTY.            NATRONA:   COUNTY
 STAT.            WYOMING:   STATE
 CTRY. UNITED STATES OF AMERICA:   COUNTRY
 SRVC.      Dresser Atlas:   SERVICE COMPANY
 DATE.        30-JAN-1986:   LOGDATE
 API .       490251106800:   API NUMBER
~CURVE INFORMATION
#MNEM.UNIT       API CODE    CURVE DESCRIPTION
#----------   ------------   ------------------------------
 DEPT.F                  :   
 RILD.OHMM   07 120 46 00:   INDUCTION LOG DEEP RESISTIVITY
 RILM.OHMM   07 120 44 00:   INDUCTION LOG MEDIUM RESISTIVITY
 CALD.IN     45 280 60 00:   CALIPER FROM DENSITY
 GRD .GAPI   45 310 01 00:   GAMMA RAY FROM DENSITY LOG
 CORR.G/C3   45 356 01 00:   DENSITY CORRECTION
 PORD.DEC    45 890 10 00:   POROSITY DENSITY LIMESTONE
 DEN .G/C3   45 350 01 00:   COMPENSATED BULK DENSITY
~PARAMETER INFORMATION
#MNEM.UNIT          VALUE    DESCRIPTION
#----------   ------------   ------------------------------
 PD  .                 GL:   PERMANENT DATUM
 EPD .F              5126:   ELEVATION PERMANENT DATUM
 LMF .                 GL:   LOG MEASURED FROM
 DMF .                 GL:   DRILLING MEASURED FROM
 EGL .F              5126:   GROUND LEVEL
 DATE.        30-JAN-1986:   RUN DATE
 RUN .                  1:   RUN NUMBER
 DD  .F               925:   DEPTH DRILLER
 DL  .F               918:   DEPTH LOGGER
 BLI .F               910:   BOTTOM LOG INTERVAL
 CS  .IN            8.625:   CASING SIZE
 CBD .F               127:   CASING BOTTOM DRILLER
 CBL .F               127:   CASING BOTTOM LOGGER
 BS  .IN             6.25:   BIT SIZE
 BSD .F               925:   BIT SIZE AT DEPTH
 DFT .                AIR:   DRILLING FLUID TYPE
 LUN .            HL-6264:   LOGGING UNIT NUMBER
 LUL .           GILLETTE:   LOGGING UNIT LOCATION
 ENGI.     P. M. FAHLSING:   RECORDING ENGINEER
 WITN.        LINOA FIVAS:   WITNESSED BY
 CLNT.            A2DTECH:   CLIENT CODE
 ORIG.           5" PRINT:   ORIGIN OF DATA
 UWI .       490251106800:   UNIQUE WELL ID
 DICO. A2D Technologies, Inc.:   DIGITIZING COMPANY
~OTHER INFORMATION
~A   DEPT     RILD       RILM       CALD         GRD      CORR       PORD        DEN   
# ...
  550.0000    10.9062    10.6818     6.7006   126.2840     0.1346     0.0802     2.5482
  550.5000    11.0551    10.9459     6.7171   128.2390     0.1480     0.0799     2.5579
  551.0000    11.2063    11.1295     6.7293   130.2386     0.1750     0.0754     2.5624
  551.5000    11.3596    11.2817     6.7293   130.5527     0.1779     0.0772     2.5398
  552.0000    11.4362    11.4352     6.7293   127.8457     0.1132     0.0943     2.5172
  552.5000    11.5126    11.5123     6.7293   122.1176     0.0996     0.1022     2.5096
  553.0000    11.5894    11.5084     6.7293   119.4106     0.1070     0.1046     2.5058
  553.5000    11.5855    11.5052     6.7143   117.6100     0.1129     0.1079     2.4990
  554.0000    11.5823    11.3437     6.6968   118.5284     0.1143     0.1136     2.4899
  554.5000    11.4197    11.1072     6.6842   120.6552     0.1142     0.1197     2.4763
  555.0000    11.2594    10.8757     6.6692   120.9634     0.1036     0.1263     2.4650
  555.5000    11.0247    10.7976     6.6692   119.7730     0.0930     0.1302     2.4589
  556.0000    10.7203    10.6460     6.6692   118.8787     0.0854     0.1275     2.4619
  556.5000    10.4968    10.4966     6.6692   118.2865     0.0898     0.1251     2.4686
  557.0000    10.4214    10.4212     6.6842   117.3922     0.1077     0.1221     2.4746
  557.5000    10.4185    10.3464     6.6842   116.4949     0.1302     0.1260     2.4686
  558.0000    10.3437    10.2721     6.6842   116.2048     0.1467     0.1282     2.4648
  558.5000    10.3409    10.2693     6.6692   117.4283     0.1496     0.1213     2.4805
  559.0000    10.3380    10.2664     6.6692   119.2530     0.1513     0.1131     2.4910
  559.5000    10.3352    10.2636     6.6842   120.7757     0.1602     0.1102     2.4970
  560.0000    10.3323    10.1899     6.6842   117.7666     0.1614     0.1099     2.4962
  560.5000    10.3295    10.1871     6.6842   118.3828     0.1534     0.1108     2.4947
  561.0000    10.3266    10.1843     6.6842   120.8118     0.1445     0.1090     2.4962
  561.5000    10.3202    10.1815     6.6842   124.4492     0.1476     0.1033     2.5036
  562.0000    10.2496    10.1787     6.6692   127.1803     0.1581     0.0961     2.5172
  562.5000    10.1760    10.2467     6.6692   120.8479     0.1654     0.0916     2.5284
  563.0000    10.1029    10.2438     6.6692   117.2346     0.1653     0.0862     2.5434
  563.5000    10.0223    10.1703     6.6692   118.4551     0.1592     0.0817     2.5479
  564.0000     9.8895     9.8895     6.6541   121.4883     0.1531     0.0880     2.5276
  564.5000     9.7507     9.6833     6.6541   124.5215     0.1260     0.0961     2.5110
  565.0000     9.6138     9.4814     6.6541   126.9504     0.1214     0.1019     2.5056
  565.5000     9.4789     9.3484     6.6541   127.8688     0.1243     0.1040     2.5041
  566.0000     9.4103     9.2812     6.6541   128.1830     0.1287     0.1052     2.5003
  566.5000     9.3427     9.2146     6.6541   127.2887     0.1346     0.1073     2.4995
  567.0000     9.2116     9.1476     6.6673   125.7902     0.1435     0.1079     2.4995
  567.5000     9.2090     9.0827     6.6629   123.6874     0.1660     0.1091     2.4979
  568.0000     9.1429     9.0802     6.6585   121.5846     0.1689     0.1119     2.4919
  568.5000     9.1404     9.0777     6.6541   122.2009     0.1553     0.1152     2.4858
  569.0000     9.0747     8.9502     6.6527   121.3066     0.1402     0.1170     2.4828
  569.5000     9.0722     8.8860     6.6541   118.9017     0.1356     0.1200     2.4767
  570.0000     8.9449     8.8140     6.6541   117.7023     0.1355     0.1245     2.4676
  570.5000     8.8806     8.6891     6.6541   118.9258     0.1339     0.1288     2.4563
  571.0000     8.8169     8.5659     6.6692   120.1463     0.1338     0.1357     2.4465
  571.5000     8.8144     8.4445     6.6692   120.4605     0.1322     0.1408     2.4359
  572.0000     8.6907     8.2791     6.6842   120.1674     0.1321     0.1477     2.4336
  572.5000     8.5687     8.1629     6.6842   121.3909     0.1275     0.1411     2.4509
  573.0000     8.4484     8.1042     6.6692   122.3093     0.1169     0.1315     2.4689
  573.5000     8.3299     8.1020     6.6692   122.6205     0.1078     0.1210     2.4832
  574.0000     8.2700     8.1567     6.6541   122.0313     0.1002     0.1150     2.4877
  574.5000     8.1540     8.0975     6.6541   121.1370     0.0971     0.1219     2.4695
  575.0000     7.9840     7.9839     6.6241   121.1490     0.0940     0.1271     2.4620
  575.5000     7.8719     7.7635     6.6241   121.7653     0.1044     0.1298     2.4642
  576.0000     7.7614     7.4452     6.6241   125.4027     0.1269     0.1283     2.4657
  576.5000     7.6525     7.1400     6.6241   129.0402     0.1343     0.1271     2.4671
  577.0000     7.4929     6.9429     6.6391   130.8649     0.1267     0.1271     2.4663
  577.5000     7.3877     6.8930     6.6541   128.7621     0.1383     0.1271     2.4671
  578.0000     7.3347     6.9395     6.6541   126.3573     0.1574     0.1274     2.4685
  578.5000     7.2820     7.0344     6.6541   123.9524     0.1718     0.1258     2.4722
  579.0000     7.2800     7.1306     6.6541   122.4539     0.1745     0.1195     2.4820
  579.5000     7.3291     7.2282     6.6541   122.7680     0.1727     0.1154     2.4880
  580.0000     7.3781     7.3775     6.6541   123.9855     0.1559     0.1128     2.4902
  580.5000     7.4785     7.4273     6.6541   121.8888     0.1471     0.1107     2.4939
  581.0000     7.5289     7.5288     6.6541   121.5927     0.1591     0.1089     2.4992
  581.5000     7.5792     7.5262     6.6391   122.8192     0.1530     0.1083     2.5014
  582.0000     7.6292     7.5242     6.6391   124.9461     0.1303     0.1089     2.4968
  582.5000     7.6271     7.5221     6.6541   127.3750     0.1122     0.1108     2.4885
  583.0000     7.6250     7.5728     6.6541   127.6892     0.1151     0.1155     2.4772
  583.5000     7.6765     7.6234     6.6541   127.0970     0.1210     0.1224     2.4696
  584.0000     7.7277     7.7271     6.6391   125.9006     0.1149     0.1264     2.4681
  584.5000     7.7789     7.8328     6.6391   125.6075     0.0983     0.1270     2.4695
  585.0000     7.8308     7.9405     6.6391   125.6226     0.0997     0.1251     2.4727
  585.5000     7.9378     7.9930     6.6391   125.3265     0.1146     0.1224     2.4765
  586.0000     7.9356     8.0469     6.6391   124.1300     0.1266     0.1184     2.4827
  586.5000     8.0442     8.1001     6.6391   125.9608     0.1416     0.1135     2.4910
  587.0000     8.0419     8.0978     6.6391   128.3898     0.1369     0.1039     2.5077
  587.5000     8.0957     8.0956     6.6391   130.2145     0.1263     0.0955     2.5219
  588.0000     8.0934     8.0934     6.6391   130.2265     0.1202     0.0898     2.5352
  588.5000     8.0353     8.0352     6.6541   130.2386     0.1231     0.0848     2.5464
  589.0000     7.9776     7.9225     6.6541   131.1570     0.1396     0.0806     2.5529
  589.5000     7.9203     7.8656     6.6692   131.7732     0.1440     0.0781     2.5518
  590.0000     7.8091     7.8091     6.6692   132.3895     0.1228     0.0820     2.5409
  590.5000     7.7530     7.6995     6.6842   133.0058     0.1213     0.0868     2.5227
  591.0000     7.6974     7.6974     6.6992   133.3169     0.1347     0.0950     2.5063
  591.5000     7.6952     7.6952     6.6992   132.1235     0.1316     0.1049     2.4959
  592.0000     7.6931     7.6931     6.6842   130.3229     0.1240     0.1109     2.4907
  592.5000     7.6910     7.6910     6.6842   129.1235     0.1299     0.1143     2.4884
  593.0000     7.7424     7.6888     6.6692   128.2322     0.1373     0.1167     2.4854
  593.5000     7.6867     7.6828     6.6692   129.1506     0.1418     0.1188     2.4824
  594.0000     7.6846     7.6315     6.6692   132.1838     0.1191     0.1206     2.4785
  594.5000     7.6824     7.6294     6.6842   134.3106     0.1085     0.1224     2.4732
  595.0000     7.6803     7.6273     6.6842   131.9057     0.1129     0.1245     2.4679
