~VERSION INFORMATION
 VERS.                2.0:   CWLS LOG ASCII STANDARD - VERSION 2.0
 WRAP.                 NO:   ONE LINE PER DEPTH STEP
~WELL INFORMATION
#MNEM.UNIT      DATA TYPE    INFORMATION
#----------   ------------   ------------------------------
 STRT.F           20.0000:   START DEPTH
 STOP.F          488.0000:   STOP DEPTH
 STEP.F            0.5000:   STEP LENGTH
 NULL.          -999.2500:   NO VALUE
 COMP.    FENIX & SCISSON:   COMPANY
 WELL.  SX-3 NPR #3-3 #43:   WELL
 FLD .             TEAPOT:   FIELD
 LOC .       S3 T38N R78W:   LOCATION
 CNTY.            NATRONA:   COUNTY
 STAT.            WYOMING:   STATE
 CTRY. UNITED STATES OF AMERICA:   COUNTRY
 SRVC.           BIRDWELL:   SERVICE COMPANY
 DATE.        04-JAN-1978:   LOGDATE
 API .       490251044800:   API NUMBER
~CURVE INFORMATION
#MNEM.UNIT       API CODE    CURVE DESCRIPTION
#----------   ------------   ------------------------------
 DEPT.F                  :   
 ILD .OHMM   05 120 46 00:   INDUCTION LOG DEEP
 SN  .OHMM   05 040 16 00:   SHORT NORMAL 16"
 SPR .MV     05 010 01 00:   SPONTANEOUS POTENTIAL FROM RES.
 CALD.IN     45 280 60 00:   CALIPER FROM DENSITY LOG
 DPHI.DEC    45 890 12 00:   DENSITY POROSITY SANDSTONE
 DRHO.G/C3   45 356 01 00:   DENSITY CORRECTION
 GRD .GAPI   45 310 01 00:   GAMMA RAY FROM DENSITY LOG
 RHOB.G/C3   45 350 01 00:   BULK DENSITY
~PARAMETER INFORMATION
#MNEM.UNIT          VALUE    DESCRIPTION
#----------   ------------   ------------------------------
 PD  .                 GL:   PERMANENT DATUM
 LMF .                 KB:   LOG MEASURED FROM
 DAPD.F                 4:   FEET ABOVE PERMANENT DATUM
 DMF .                 KB:   DRILLING MEASURED FROM
 EKB .F              5163:   KELLING BUSHING
 EGL .F              5159:   GROUND LEVEL
 DATE.        04-JAN-1978:   RUN DATE
 RUN .                  1:   RUN NUMBER
 DD  .F               490:   DEPTH DRILLER
 DL  .F               490:   DEPTH LOGGER
 BLI .F               485:   BOTTOM LOG INTERVAL
 TLI .F                20:   TOP LOG INTERVAL
 CS  .IN            8.625:   CASING SIZE
 CBD .F                40:   CASING BOTTOM DRILLER
 CBL .F                44:   CASING BOTTOM LOGGER
 BS  .IN            7.875:   BIT SIZE
 BSD .F               490:   BIT SIZE AT DEPTH
 DFT .                KCL:   DRILLING FLUID TYPE
 DFD .                8.4:   DRILLING FLUID DENSITY
 DFV .                 32:   DRILLING FLUID VISCOSITY
 DFPH.                 11:   DRILLING FLUID PH
 DFL .                  8:   DRILLING FLUID LOSS
 MSS .                PIT:   MUD SAMPLE SOURCE
 RMS .OHMM           0.32:   RESISTIVITY MUD SAMPLE
 MST .F                62:   MUD SAMPLE TEMPERATURE
 RMF .OHMM           0.30:   RESISTIVITY MUD FILTRATE SAMPLE
 MFST.F                62:   MUD FILTRATE SAMPLE TEMPERATURE
 RMC .OHMM           0.35:   RESISTIVITY MUD CAKE
 MCST.F                62:   MUD CAKE SAMPLE TEMPERATURE
 MFSS.               MEAS:   MUD FILTRATE SAMPLE SOURCE
 MCSS.               MEAS:   MUD CAKE SAMPLE SOURCE
 RMB .OHMM           0.26:   RESISTIVITY MUD AT BHT
 BHT .F                75:   BOTTOM HOLE TEMPERATURE
 TCS .HRS               2:   TIME CURCULATED STOPPED
 MRT .F                75:   MAXIMUM RECORDED TEMPERATURE
 LUN .               2958:   LOGGING UNIT NUMBER
 LUL .             CASPER:   LOGGING UNIT LOCATION
 ENGI.             HUGHES:   RECORDING ENGINEER
 WITN.         HARRINGTON:   WITNESSED BY
 CLNT.            A2DTECH:   CLIENT CODE
 ORIG.           5" PRINT:   ORIGIN OF DATA
 UWI .       490251044800:   UNIQUE WELL ID
 DICO. A2D Technologies, Inc.:   DIGITIZING COMPANY
~OTHER INFORMATION
~A   DEPT      ILD         SN        SPR       CALD       DPHI       DRHO         GRD      RHOB   
# ...
   60.5000    11.7247    10.3842   -94.7606     8.6193     0.1046     0.0288   123.6771     2.4701
   61.0000    11.7710    10.3135   -94.6045     8.4882     0.1058     0.0319   116.2429     2.4678
   61.5000    11.8063    10.2431   -94.4471     8.4446     0.1080     0.0327   109.3684     2.4709
   62.0000    11.8063    10.1732   -94.4414     8.5326     0.1099     0.0320   106.1920     2.4731
   62.5000    11.7247    10.1039   -94.4357     8.6496     0.1120     0.0321   110.0014     2.4709
   63.0000    11.8063    10.0349   -94.4301     8.6499     0.1138     0.0314   115.8518     2.4664
   63.5000    11.7778    10.0356   -94.1222     8.6356     0.1132     0.0308   119.3665     2.4642
   64.0000    11.8063     9.9671   -93.9662     8.6359     0.1084     0.0293   116.8986     2.4649
   64.5000    11.8063     9.9678   -93.9605     8.6508     0.1060     0.0264   111.6541     2.4702
   65.0000    11.8063     9.8997   -94.1053     8.6803     0.1095     0.0235   109.3294     2.4717
   65.5000    12.0545     9.8321   -94.3989     8.7266     0.1119     0.0146   107.4426     2.4725
   66.0000    12.0545     9.7650   -94.3932     8.8123     0.1125     0.0117   112.0477     2.4687
   66.5000    12.1384     9.7658   -94.3875     8.9294     0.1095     0.0170   119.2923     2.4673
   67.0000    12.1384     9.7760   -94.6826     9.0172     0.1026     0.0218   122.2230     2.4673
   67.5000    12.3080     9.8350   -94.9777     8.9869     0.0945     0.0292   124.5698     2.4703
   68.0000    12.4799     9.9039   -96.7751     8.8573     0.0891     0.0338   121.5737     2.4763
   68.5000    12.4799     9.9046   -98.7243     8.7554     0.0855     0.0353   113.4997     2.4869
   69.0000    12.5667    10.0432   -98.8692     8.6535     0.0861     0.0346   115.5546     2.4973
   69.5000    12.6542    10.0440   -99.0138     8.5953     0.0894     0.0265   122.4269     2.5010
   70.0000    12.8310    10.0447   -98.8563     8.5372     0.0917     0.0333   124.6277     2.5085
   70.5000    12.8310    10.0453   -98.7002     8.4938     0.0974     0.0364   122.5977     2.5093
   71.0000    12.8310    10.0460   -98.5442     8.4794     0.1016     0.0290   117.3533     2.4913
   71.5000    12.8310     9.9775   -98.5383     8.4797     0.1034     0.0222   111.8169     2.4809
   72.0000    12.8310     9.9781   -98.2307     8.4800     0.0995     0.0314   105.6965     2.4801
   72.5000    12.8310     9.9788   -98.2250     8.4657     0.0974     0.0397   103.9557     2.4846
   73.0000    12.8310    10.0488   -98.0690     8.4514     0.0976     0.0436   108.4951     2.4899
   73.5000    12.8310     9.9802   -98.0476     8.4370     0.0988     0.0466   111.8638     2.4899
   74.0000    12.6542     9.9809   -97.9058     8.4228     0.1015     0.0430   112.7795     2.4869
   74.5000    12.4799     9.9128   -97.9002     8.4214     0.1033     0.0401   108.0467     2.4810
   75.0000    12.3080     9.9136   -97.5938     8.3941     0.1045     0.0424   107.2254     2.4750
   75.5000    12.1384     9.9142   -97.6110     8.3652     0.1050     0.0507   110.0129     2.4773
   76.0000    12.1384     9.8464   -97.8832     8.3656     0.1059     0.0607   111.9217     2.4810
   76.5000    12.1384     9.7794   -98.0265     8.3658     0.1020     0.0524   113.5631     2.4803
   77.0000    12.1384     9.7800   -98.1726     8.3662     0.0990     0.0405   118.2239     2.4749
   77.5000    12.1384     9.6463   -98.1654     8.3665     0.0984     0.0368   120.7167     2.4683
   78.0000    12.1384     9.5805   -98.1584     8.3813     0.1011     0.0451   118.2460     2.4706
   78.5000    12.1384     9.5152   -98.4535     8.3816     0.1047     0.0512   118.9870     2.4781
   79.0000    12.1384     9.5159   -98.4478     8.4111     0.1076     0.0498   114.9132     2.4773
   79.5000    12.1384     9.5165   -98.5960     8.4260     0.1103     0.0356   109.2308     2.4714
   80.0000    12.1384     9.5173   -98.7372     8.4555     0.1127     0.0222   113.9133     2.4617
   80.5000    12.1384     9.5839   -98.7301     8.4850     0.1118     0.0323   120.9317     2.4557
   81.0000    12.1384     9.6511   -98.6682     8.4853     0.1067     0.0396   120.6219     2.4550
   81.5000    12.2229     9.7187   -98.4180     8.5002     0.1019     0.0397   114.3872     2.4677
   82.0000    12.4799     9.7193   -98.4109     8.5005     0.0995     0.0368   111.1865     2.4797
   82.5000    12.4799     9.7201   -98.4053     8.5008     0.1006     0.0339   112.2194     2.4857
   83.0000    12.5667     9.7882   -97.9485     8.5156     0.1006     0.0295   115.0725     2.4827
   83.5000    12.5667     9.8568   -97.4917     8.5159     0.0970     0.0243   120.1275     2.4910
   84.0000    12.7423     9.9947   -96.8845     8.5163     0.0913     0.0206   117.8027     2.4857
   84.5000    12.8310    10.0757   -96.7271     8.5165     0.0871     0.0357   112.9935     2.4820
   85.0000    12.9203    10.2057   -96.5710     8.5021     0.0904     0.0463   113.2993     2.4955
   85.5000    13.0102    10.2064   -96.5653     8.4879     0.0961     0.0389   111.9992     2.5022
   86.0000    12.8310    10.1365   -96.5582     8.4882     0.1002     0.0270   105.9581     2.4821
   86.5000    12.8310    10.0675   -96.5526     8.4885     0.1047     0.0361   107.4282     2.4851
   87.0000    12.8310    10.0683   -97.1498     8.4742     0.1074     0.0459   108.4584     2.4769
   87.5000    12.7423    10.0690   -97.8946     8.4453     0.1053     0.0542   108.3227     2.4830
   88.0000    12.6542    10.0001   -98.9416     8.4156     0.0963     0.0618   105.5573     2.4918
   88.5000    12.4799    10.0009   -98.9345     8.3583     0.0957     0.0671   105.8575     2.4941
   89.0000    12.4799    10.0016   -98.6281     8.3147     0.1019     0.0574   107.7635     2.4859
   89.5000    12.4799    10.0718   -98.3216     8.2858     0.1058     0.0515   100.0366     2.4724
   90.0000    12.4799    10.0725   -97.9950     8.2569     0.1094     0.0426    96.8332     2.4650
   90.5000    12.4799    10.1430   -97.7074     8.2595     0.1133     0.0397    99.6152     2.4568
   91.0000    12.4799    10.1437   -97.1002     8.2722     0.1160     0.0480   109.1125     2.4538
   91.5000    12.8310    10.2148   -96.4930     8.2724     0.1171     0.0421   117.0060     2.4568
   92.0000    13.1007    10.2865   -96.0361     8.2873     0.1174     0.0279   121.2479     2.4531
   92.5000    13.1919    10.2161   -96.1809     8.2876     0.1177     0.0258   124.3218     2.4531
   93.0000    13.1919    10.2169   -96.1739     8.2879     0.1171     0.0296   124.3406     2.4598
   93.5000    13.4692    10.2176   -96.1682     8.2882     0.1108     0.0492   123.1725     2.4591
   94.0000    13.6574    10.1479   -96.0120     8.3031     0.1048     0.0372   120.2611     2.4853
   94.5000    13.9445    10.2191   -96.1568     8.2888     0.1021     0.0284   116.1817     2.4913
   95.0000    13.9445    10.2198   -96.3001     8.2891     0.1063     0.0255   114.8761     2.4846
   95.5000    14.2377    10.3628   -96.8960     8.2894     0.1077     0.0315   117.4506     2.4771
   96.0000    14.3368    10.5807   -97.9589     8.2897     0.1020     0.0376   121.6080     2.4756
   96.5000    14.3368    10.8033   -98.2380     8.3045     0.1005     0.0347   117.0927     2.4988
   97.0000    14.5370    11.0305   -98.0806     8.3048     0.1050     0.0303   114.9112     2.4914
   97.5000    14.6382    11.3406   -97.9245     8.3052     0.1056     0.0251   113.3577     2.4802
   98.0000    14.7401    11.4200   -97.7644     8.2908     0.1014     0.0222   110.4042     2.4803
   98.5000    14.7401    11.5798   -97.6110     8.2911     0.0981     0.0290   110.9964     2.4952
   99.0000    14.8427    11.7421   -97.6053     8.2914     0.0972     0.0381   113.9244     2.5064
   99.5000    15.1547    11.9063   -97.5997     8.3063     0.0998     0.0404   116.8524     2.5027
  100.0000    15.5810    12.0729   -97.5940     8.3066     0.1043     0.0263   113.7970     2.4825
  100.5000    16.0193    12.2419   -97.5923     8.2923     0.1085     0.0361   112.3433     2.4683
