~VERSION INFORMATION
 VERS.                2.0:   CWLS LOG ASCII STANDARD - VERSION 2.0
 WRAP.                 NO:   ONE LINE PER DEPTH STEP
~WELL INFORMATION
#MNEM.UNIT      DATA TYPE    INFORMATION
#----------   ------------   ------------------------------
 STRT.F            8.0000:   START DEPTH
 STOP.F          513.0000:   STOP DEPTH
 STEP.F            0.5000:   STEP LENGTH
 NULL.          -999.2500:   NO VALUE
 COMP. LAWRENCE-ALLISON &AS:   COMPANY
 WELL. NPR 3 #51-63SX10UP3:   WELL
 FLD .             TEAPOT:   FIELD
 LOC .      S10 T38N R78W:   LOCATION
 CNTY.            NATRONA:   COUNTY
 STAT.            WYOMING:   STATE
 CTRY. UNITED STATES OF AMERICA:   COUNTRY
 SRVC.      Dresser Atlas:   SERVICE COMPANY
 DATE.        09-DEC-1984:   LOGDATE
 API .       490251099400:   API NUMBER
~CURVE INFORMATION
#MNEM.UNIT       API CODE    CURVE DESCRIPTION
#----------   ------------   ------------------------------
 DEPT.F                  :   
 RFOC.OHMM   07 220 01 00:   RESISTIVITY FOCUSED LOG
 RILD.OHMM   07 120 46 00:   INDUCTION LOG DEEP RESISTIVITY
 RILM.OHMM   07 120 44 00:   RESITIVITY LONG MEDIUM
 SPR .MV     07 010 01 00:   SPONTANEOUS POTENTIAL
 CALD.IN     45 280 60 00:   CALIPER FROM DENSITY LOG
 CORR.none               :   
 DEN .G/C3   45 350 01 00:   COMPENSATED BULK DENSTIY
 GRD .GAPI   45 310 01 00:   GAMMA RAY FROM DENSITY LOG
 PORD.DEC    45 890 12 00:   POROSITY DENSITY SANDSTONE
 CNC .DEC    42 890 03 00:   NEUTRON POROSITY SANDSTONE
~PARAMETER INFORMATION
#MNEM.UNIT          VALUE    DESCRIPTION
#----------   ------------   ------------------------------
 PD  .                 GL:   PERMANENT DATUM
 EPD .F              5162:   ELEVATION PERMANENT DATUM
 LMF .                 GL:   LOG MEASURED FROM
 DMF .                 GL:   DRILLING MEASURED FROM
 EGL .F              5162:   GROUND LEVEL
 DATE.        09-DEC-1984:   RUN DATE
 RUN .                  1:   RUN NUMBER
 DD  .F               510:   DEPTH DRILLER
 DL  .F               515:   DEPTH LOGGER
 BLI .F               513:   BOTTOM LOG INTERVAL
 TLI .F                20:   TOP LOG INTERVAL
 CS  .IN            8.625:   CASING SIZE
 CBD .F                20:   CASING BOTTOM DRILLER
 CBL .F                20:   CASING BOTTOM LOGGER
 BS  .IN            7.875:   BIT SIZE
 BSD .F               510:   BIT SIZE AT DEPTH
 DFT .          KCL-WATER:   DRILLING FLUID TYPE
 MSS .            MUDTANK:   MUD SAMPLE SOURCE
 RMS .OHMM           0.41:   RESISTIVITY MUD SAMPLE
 MST .F                45:   MUD SAMPLE TEMPERATURE
 RMF .OHMM           0.31:   RESISTIVITY MUD FILTRATE SAMPLE
 MFST.F                45:   MUD FILTRATE SAMPLE TEMPERATURE
 RMC .OHMM           0.51:   RESISTIVITY MUD CAKE
 MCST.F                45:   MUD CAKE SAMPLE TEMPERATURE
 MFSS.               CALC:   MUD FILTRATE SAMPLE SOURCE
 MCSS.               CALC:   MUD CAKE SAMPLE SOURCE
 RMB .OHMM           0.22:   RESISTIVITY MUD AT BHT
 BHT .F                85:   BOTTOM HOLE TEMPERATURE
 TCS .HRS               2:   TIME CURCULATED STOPPED
 MRT .F               100:   MAXIMUM RECORDED TEMPERATURE
 LUN .               6270:   LOGGING UNIT NUMBER
 LUL .                 FM:   LOGGING UNIT LOCATION
 ENGI.          E. GOVETT:   RECORDING ENGINEER
 WITN.              LUERS:   WITNESSED BY
 CLNT.            A2DTECH:   CLIENT CODE
 ORIG.           5" PRINT:   ORIGIN OF DATA
 UWI .       490251099400:   UNIQUE WELL ID
 DICO. A2D Technologies, Inc.:   DIGITIZING COMPANY
~OTHER INFORMATION
~A    DEPT    RFOC       RILD       RILM        SPR       CALD       CORR        DEN        GRD       PORD          CNC 
# ...
  209.0000     5.8085     5.8084     6.2698   -47.5085     8.0921     0.0350     2.4187   117.9631     0.1613     0.3320
  209.5000     5.3842     5.5350     6.3615   -47.4983     8.1062     0.0409     2.4069   119.1617     0.1600     0.3265
  210.0000     6.2342     5.3459     6.4996   -47.0422     8.1054     0.0408     2.4266   117.0520     0.1442     0.3223
  210.5000     7.4220     5.2355     6.6406   -47.1831     8.1045     0.0391     2.4501   113.4385     0.1304     0.3159
  211.0000     7.9060     5.1704     6.6911   -47.4700     8.1187     0.0343     2.4660   108.6220     0.1238     0.3233
  211.5000     8.0217     5.1370     6.5492   -47.7548     8.1278     0.0326     2.4781   106.9635     0.1220     0.3383
  212.0000     7.8044     5.1401     6.3820   -47.7441     8.1470     0.0309     2.4742   108.0117     0.1268     0.3269
  212.5000     6.7669     5.1785     6.2968   -47.5852     8.1461     0.0292     2.4696   112.8193     0.1296     0.3166
  213.0000     5.6987     5.1810     6.4344   -47.4264     8.1650     0.0555     2.4658   111.9126     0.1305     0.3078
  213.5000     5.3733     5.2561     6.6199   -47.2675     8.1893     0.0775     2.4648   108.7503     0.1272     0.3014
  214.0000     6.0941     5.3322     6.8582   -46.9599     8.2068     0.0438     2.4733   107.5428     0.1233     0.2962
  214.5000     7.0563     5.4095     7.0559   -46.8009     8.2179     0.0330     2.4801   108.3038     0.1199     0.2972
  215.0000     7.7823     5.5263     7.3100   -46.4933     8.2469     0.0268     2.4854   109.9850     0.1163     0.3039
  215.5000     8.1187     5.7246     7.5207   -46.3323     8.2461     0.0282     2.4883   111.3143     0.1157     0.2950
  216.0000     8.2361     5.9715     7.6839   -46.1735     8.2604     0.0325     2.4883   109.7796     0.1164     0.2823
  216.5000     8.1841     6.2724     7.7962   -46.0146     8.2593     0.0369     2.4875   106.6173     0.1164     0.2726
  217.0000     8.1904     6.5472     7.8555   -46.1555     8.2584     0.0306     2.4882   108.4174     0.1161     0.2759
  217.5000     8.1374     6.8307     7.9152   -46.1426     8.2425     0.0244     2.4821   111.2701     0.1198     0.2820
  218.0000     8.2005     6.9351     7.9211   -46.1324     8.2265     0.0166     2.4775   113.3709     0.1225     0.2788
  218.5000     8.2055     6.6449     7.8699   -46.2732     8.2104     0.0103     2.4744   111.1108     0.1243     0.2841
  219.0000     8.2679     6.3763     7.5542   -46.2604     8.1946     0.0071     2.4728   106.1440     0.1253     0.2939
  219.5000     8.3888     6.1186     7.0513   -46.2501     8.1935     0.0179     2.4743   101.4779     0.1224     0.3039
  220.0000     8.4525     5.8306     6.5362   -46.0913     8.1928     0.0310     2.4796    98.6163     0.1180     0.3282
  220.5000     6.9146     5.5949     6.2296   -46.0810     8.1768     0.0369     2.4864   106.1307     0.1299     0.3419
  221.0000     5.8966     5.3687     6.0205   -46.0707     8.1608     0.0383     2.4550   111.6902     0.1484     0.3479
  221.5000     5.1703     5.1877     5.8990   -45.7633     8.1448     0.0412     2.4160   115.9022     0.1764     0.3361
  222.0000     5.9865     5.0477     5.8218   -45.4558     8.1440     0.0440     2.3822   115.3444     0.1648     0.3066
  222.5000     7.2773     5.1567     5.9483   -44.9998     8.1280     0.0454     2.3935   111.4587     0.1463     0.2961
  223.0000     8.0820     5.3047     6.1203   -44.8409     8.1271     0.0375     2.4261   111.8217     0.1333     0.2802
  223.5000     8.3730     5.7293     6.3443   -44.6820     8.1111     0.0313     2.4504   115.4263     0.1285     0.2845
  224.0000     8.5547     6.1914     6.6223   -44.6716     8.1146     0.0250     2.4633   117.8290     0.1282     0.2906
  224.5000     8.8013     6.7390     6.9493   -44.6612     8.1245     0.0203     2.4670   111.2069     0.1285     0.2939
  225.0000     9.1182     7.1268     7.1995   -44.6508     8.1233     0.0156     2.4670   108.1949     0.1279     0.2869
  225.5000     9.3161     7.4262     7.4587   -44.6384     8.1225     0.0154     2.4684   107.8909     0.1267     0.2766
  226.0000     9.3868     7.5865     7.6205   -44.7793     8.1217     0.0253     2.4699   108.3364     0.1252     0.2687
  226.5000     9.4582     7.7502     7.7319   -44.7664     8.1208     0.0499     2.4714   107.1290     0.1252     0.2754
  227.0000     9.4641     7.8080     7.8450   -44.9073     8.1198     0.0437     2.4713   103.6659     0.1253     0.2819
  227.5000     9.4042     7.9212     7.9046   -44.8945     8.1271     0.0237     2.4705   101.2555     0.1253     0.2851
  228.0000     9.3448     8.0360     7.9646   -44.7356     8.1331     0.0206     2.4689    99.5969     0.1271     0.2858
  228.5000     9.3510     8.1525     8.0251   -44.4282     8.1472     0.0295     2.4651   102.7504     0.1293     0.2858
  229.0000     9.3577     8.2133     8.0860   -43.9721     8.1614     0.0217     2.4636   106.3729     0.1308     0.2809
  229.5000     9.3634     8.2746     8.1505   -43.5161     8.1706     0.0048     2.4658   107.4421     0.1263     0.2727
  230.0000     9.3692     8.3364     8.2171   -43.0601     8.1898     0.0016     2.4726   109.6533     0.1226     0.2676
  230.5000     9.4404     8.3986     8.3306   -43.0498     8.1889     0.0136     2.4763   115.2127     0.1208     0.2642
  231.0000     9.5339     8.2865     8.3938   -43.6339     8.1948     0.0195     2.4786   112.6519     0.1203     0.2600
  231.5000     9.6512     8.1759     8.4576   -43.7727     8.2022     0.0224     2.4816   107.6851     0.1178     0.2588
  232.0000     9.6571     8.0668     8.5218   -44.0591     8.2011     0.0316     2.4868   103.9212     0.1142     0.2686
  232.5000     9.4636     8.0147     8.5865   -44.0488     8.2001     0.0462     2.4944   102.8653     0.1106     0.2846
  233.0000     9.2098     8.0195     8.6517   -43.8900     8.1994     0.0491     2.5004   107.5214     0.1066     0.2931
  233.5000     8.9627     8.0234     8.6570   -43.7311     8.1985     0.0322     2.5072   109.6222     0.1029     0.2980
  234.0000     8.8388     8.0272     8.7836   -43.5622     8.1976     0.0244     2.5125   110.0700     0.0991     0.2995
  234.5000     8.7885     8.0871     8.8503   -43.4131     8.1816     0.0227     2.5109   109.3126     0.1025     0.2883
  235.0000     9.1699     8.0910     8.9797   -43.4027     8.1807     0.0241     2.5086   107.2029     0.1037     0.2795
  235.5000     9.7002     8.1514     9.0479   -43.3903     8.1798     0.0239     2.5078   104.4917     0.1007     0.2707
  236.0000    10.2612     7.9868     9.0535   -43.0828     8.1787     0.0222     2.5123   100.5534     0.0995     0.2637
  236.5000    10.7048     7.7175     9.0590   -42.9240     8.1779     0.0159     2.5160    98.8857     0.1016     0.2588
  237.0000    10.8614     7.4056     8.8173   -42.7677     8.1619     0.0188     2.5114    98.4632     0.1035     0.2680
  237.5000    10.6438     7.0080     8.2303   -42.9060     8.1610     0.0232     2.5076   101.1646     0.1056     0.2904
  238.0000     8.5263     6.5859     7.4199   -43.0443     8.1452     0.0245     2.5022   106.2729     0.1129     0.3141
  238.5000     6.4606     6.2299     7.0718   -43.1800     8.1291     0.0213     2.4771   111.2309     0.1393     0.3299
  239.0000     5.0685     6.0170     6.9301   -43.1698     8.1283     0.0196     2.4277   114.9859     0.1603     0.3141
  239.5000     4.5063     5.8604     7.0315   -43.3106     8.1210     0.0224     2.3912   117.2382     0.1916     0.3003
  240.0000     5.8723     5.8219     7.6478   -43.1492     8.1114     0.0438     2.3571   111.6687     0.1734     0.2765
  240.5000     8.3787     5.9482     8.5528   -42.9904     8.1105     0.0214     2.3968   105.4989     0.1546     0.2580
  241.0000    10.9377     6.2047     9.4327   -42.9801     8.1096     0.0021     2.4496   103.6899     0.1279     0.2549
  241.5000    12.1465     6.7014    10.1179   -42.8212     8.1027     0.0005     2.4776   102.3321     0.1212     0.2777
  242.0000    12.0472     7.4420    10.4901   -42.5138     8.0926     0.0063     2.4882   100.6736     0.1155     0.2829
