~VERSION INFORMATION
 VERS.                2.0:   CWLS LOG ASCII STANDARD - VERSION 2.0
 WRAP.                 NO:   ONE LINE PER DEPTH STEP
~WELL INFORMATION
#MNEM.UNIT      DATA TYPE    INFORMATION
#----------   ------------   ------------------------------
 STRT.F           15.0000:   START DEPTH
 STOP.F          531.0000:   STOP DEPTH
 STEP.F            0.1000:   STEP LENGTH
 NULL.          -999.2500:   NO VALUE
 COMP. LAWRENCE/ALLISON INC:   COMPANY
 WELL.   NPR 3 #42-61SX10:   WELL
 FLD .          N.P.R. #3:   FIELD
 LOC .      S10 T38N R78W:   LOCATION
 CNTY.            NATRONA:   COUNTY
 STAT.            WYOMING:   STATE
 CTRY. UNITED STATES OF AMERICA:   COUNTRY
 SRVC.           Gearhart:   SERVICE COMPANY
 DATE.        06-JUL-1986:   LOGDATE
 API .       490251109500:   API NUMBER
~CURVE INFORMATION
#MNEM.UNIT       API CODE    CURVE DESCRIPTION
#----------   ------------   ------------------------------
 DEPT.F                  :   
 GRR .GAPI   07 310 01 00:   GAMMA RAY
 RILD.OHMM   07 120 46 00:   INDUCTION LOG DEEP
 RILM.OHMM   07 120 44 00:   INDUCTION LOG MEDIUM
~PARAMETER INFORMATION
#MNEM.UNIT          VALUE    DESCRIPTION
#----------   ------------   ------------------------------
 PD  .                 GL:   PERMANENT DATUM
 EPD .F              5196:   ELEVATION PERMANENT DATUM
 LMF .                 KB:   LOG MEASURED FROM
 DAPD.F                 5:   FEET ABOVE PERMANENT DATUM
 DMF .                 KB:   DRILLING MEASURED FROM
 EKB .F              5201:   KELLING BUSHING
 EGL .F              5196:   GROUND LEVEL
 DATE.        06-JUL-1986:   RUN DATE
 RUN .                  1:   RUN NUMBER
 DD  .F               548:   DEPTH DRILLER
 DL  .F               541:   DEPTH LOGGER
 BLI .F               531:   BOTTOM LOG INTERVAL
 TLI .F                15:   TOP LOG INTERVAL
 CS  .IN            8.625:   CASING SIZE
 CBD .F                47:   CASING BOTTOM DRILLER
 CBL .F                47:   CASING BOTTOM LOGGER
 BS  .IN            7.875:   BIT SIZE
 BSD .F               548:   BIT SIZE AT DEPTH
 DFT .                AIR:   DRILLING FLUID TYPE
 BHT .F                82:   BOTTOM HOLE TEMPERATURE
 TCS .HRS            2000:   TIME CURCULATED STOPPED
 TLAB.HRS            2130:   TIME LOGGER AT BOTTOM
 MRT .F                82:   MAXIMUM RECORDED TEMPERATURE
 LUN .               7609:   LOGGING UNIT NUMBER
 LUL .           GILLETTE:   LOGGING UNIT LOCATION
 ENGI.              BAUER:   RECORDING ENGINEER
 WITN.           JENNINGS:   WITNESSED BY
 CLNT.            A2DTECH:   CLIENT CODE
 ORIG.           5" PRINT:   ORIGIN OF DATA
 UWI .       490251109500:   UNIQUE WELL ID
 DICO. A2D Technologies, Inc.:   DIGITIZING COMPANY
~OTHER INFORMATION
~A   DEPT      GRR       RILD       RILM   
# ...
   87.8000   102.6215    10.0543    10.0056
   87.9000   102.3880    10.1134    10.0713
   88.0000   102.1374    10.1681    10.0717
   88.1000   101.7560    10.1684    10.1121
   88.2000   101.3308    10.2208    10.1716
   88.3000   101.0802    10.2809    10.2154
   88.4000   100.8033    10.3414    10.2158
   88.5000   100.8053    10.3863    10.2163
   88.6000   100.8076    10.3900    10.2680
   88.7000   100.8099    10.4602    10.3285
   88.8000   100.8122    10.5126    10.3620
   88.9000   100.8145    10.5346    10.3773
   89.0000   100.8171    10.5622    10.4359
   89.1000   100.8191    10.6243    10.4364
   89.2000   100.8214    10.6847    10.4878
   89.3000   100.8237    10.6851    10.5107
   89.4000   100.8260    10.7371    10.5374
   89.5000   100.8282    10.8002    10.5857
   89.6000   100.8309    10.8372    10.5871
   89.7000   100.8328    10.8511    10.6612
   89.8000   100.8351    10.9148    10.7122
   89.9000   100.7341    10.9917    10.7372
   90.0000   100.5343    11.0436    10.7628
   90.1000   100.5367    11.0698    10.8262
   90.2000   100.5389    11.0957    10.8904
   90.3000   100.5412    11.1609    10.8908
   90.4000   100.5435    11.2275    10.9414
   90.5000   100.5458    11.2925    11.0058
   90.6000   100.5481    11.3074    11.0706
   90.7000   100.5505    11.3458    11.1245
   90.8000   100.3104    11.4125    11.1250
   90.9000   100.2496    11.4795    11.1884
   91.0000   100.1145    11.5497    11.2543
   91.1000    99.9489    11.6149    11.3205
   91.2000    99.9186    11.6833    11.3871
   91.3000    99.6483    11.7142    11.4442
   91.4000    99.4173    11.7383    11.4447
   91.5000    99.1667    11.8073    11.5083
   91.6000    98.9160    11.8812    11.5761
   91.7000    98.6654    11.9466    11.6442
   91.8000    98.3913    12.0168    11.7127
   91.9000    97.8300    12.0875    11.7816
   92.0000    97.3842    12.1585    11.8565
   92.1000    97.0522    12.2300    11.9208
   92.2000    96.5634    12.3083    11.9910
   92.3000    95.8735    12.3743    12.0615
   92.4000    95.3557    12.4471    12.1325
   92.5000    94.4851    12.5202    12.2039
   92.6000    93.6280    12.5938    12.2832
   92.7000    92.9433    12.6679    12.3480
   92.8000    92.1099    12.7507    12.4207
   92.9000    90.8476    12.8173    12.4938
   93.0000    89.5954    12.8414    12.5673
   93.1000    88.6974    12.8777    12.6413
   93.2000    88.2880    12.9534    12.7253
   93.3000    87.6313    13.0243    12.7257
   93.4000    86.9756    13.0248    12.7759
   93.5000    86.4720    13.0910    12.8511
   93.6000    85.9603    13.1680    12.9073
   93.7000    85.7137    13.2103    12.9118
   93.8000    85.2667    13.2300    12.9994
   93.9000    85.0511    13.3043    12.9999
   94.0000    85.0534    13.3048    13.0493
   94.1000    85.1733    13.3051    13.0925
   94.2000    85.9742    13.3055    13.0931
   94.3000    86.9351    13.3060    13.0958
   94.4000    88.1364    13.3064    13.1865
   94.5000    89.4033    13.3068    13.1870
   94.6000    90.7527    13.3073    13.1876
   94.7000    92.2425    13.3076    13.1881
   94.8000    93.6216    13.3081    13.1887
   94.9000    95.0068    13.3085    13.1892
   95.0000    96.3486    13.3089    13.1898
   95.1000    97.3641    13.3093    13.1903
   95.2000    98.1252    13.3097    13.1909
   95.3000    98.8654    13.3102    13.1914
   95.4000    99.4369    13.2652    13.1920
   95.5000    99.6603    13.2178    13.1926
   95.6000    99.9155    13.2182    13.1931
   95.7000   100.0542    13.2187    13.1937
   95.8000   100.1206    13.2191    13.1942
   95.9000   100.3641    13.1606    13.1668
   96.0000   100.3668    13.1274    13.1029
   96.1000   100.3687    13.1005    13.1036
   96.2000   100.2112    13.0362    13.0314
   96.3000    99.9606    13.0367    12.9563
   96.4000    99.7099    12.9653    12.9225
   96.5000    99.4593    12.9462    12.9231
   96.6000    99.1592    12.9062    12.9134
   96.7000    98.9580    12.8564    12.8338
   96.8000    98.5567    12.8472    12.7648
   96.9000    97.9550    12.7673    12.7450
   97.0000    97.2443    12.6991    12.7069
   97.1000    96.7275    12.6257    12.6336
   97.2000    96.2372    12.5903    12.5689
   97.3000    95.5397    12.5681    12.5695
   97.4000    94.9247    12.4953    12.5037
   97.5000    94.4211    12.4158    12.4826
   97.6000    93.9175    12.4162    12.4831
   97.7000    93.3826    12.3664    12.4624
   97.8000    92.9104    12.2949    12.3968
   97.9000    92.5916    12.2441    12.3974
   98.0000    92.2086    12.2388    12.3343
   98.1000    91.7850    12.1592    12.2631
   98.2000    91.5343    12.1595    12.2260
   98.3000    91.2590    12.1125    12.2075
   98.4000    90.8051    12.0752    12.1415
   98.5000    90.6527    12.0756    12.1421
   98.6000    90.7781    12.0720    12.0820
   98.7000    91.1041    11.9918    12.0581
   98.8000    91.6122    11.9922    12.0271
   98.9000    92.1889    11.9925    11.9748
   99.0000    92.4097    11.9929    11.9725
   99.1000    92.8313    11.9933    11.8921
   99.2000    93.3394    11.9914    11.8925
   99.3000    93.8476    11.9101    11.8930
   99.4000    94.3557    11.9105    11.8641
   99.5000    94.9508    11.9108    11.8108
   99.6000    95.3720    11.9112    11.8113
   99.7000    95.8801    11.9116    11.8119
   99.8000    96.3883    11.9120    11.8123
   99.9000    96.8440    11.9124    11.8128
  100.0000    97.0992    11.9127    11.8158
  100.1000    97.3531    11.8999    11.8224
  100.2000    97.6069    11.8783    11.8291
  100.3000    97.7118    11.8567    11.8358
  100.4000    97.6155    11.8350    11.8424
  100.5000    97.3629    11.8134    11.8491
  100.6000    97.1029    11.8088    11.8557
  100.7000    96.8576    11.8089    11.8624
  100.8000    96.6050    11.8089    11.8690
  100.9000    96.3524    11.8089    11.8757
  101.0000    96.0997    11.8090    11.8824
  101.1000    95.8471    11.8090    11.8890
  101.2000    95.5799    11.8091    11.8957
  101.3000    95.3419    11.8486    11.8987
  101.4000    95.0893    11.8924    11.8989
  101.5000    94.8366    11.8924    11.8885
  101.6000    94.5840    11.8925    11.8160
  101.7000    94.3314    11.8925    11.8161
  101.8000    94.0568    11.8926    11.8163
  101.9000    94.0574    11.9313    11.8165
  102.0000    93.8789    11.9765    11.8166
  102.1000    93.7533    11.9765    11.8168
  102.2000    93.6790    11.9766    11.8170
  102.3000    93.4264    11.9766    11.8171
  102.4000    93.1445    11.9767    11.8173
  102.5000    93.1450    11.9767    11.8175
  102.6000    93.1456    11.9767    11.8176
  102.7000    93.3857    11.9768    11.8178
  102.8000    93.8927    11.9768    11.8180
  102.9000    94.3998    11.9769    11.8181
  103.0000    94.9802    11.9769    11.8183
  103.1000    95.4139    11.9770    11.8184
  103.2000    95.9210    11.9544    11.8186
  103.3000    96.3157    11.8932    11.8188
  103.4000    96.6901    11.8932    11.8190
  103.5000    97.4341    11.8933    11.8191
  103.6000    97.7320    11.8933    11.8193
  103.7000    98.1510    11.8934    11.8194
  103.8000    98.5010    11.8934    11.8196
  103.9000    98.7548    11.8934    11.8198
  104.0000    99.0616    11.8935    11.8200
  104.1000    99.5678    11.8935    11.8201
  104.2000    99.8217    11.8451    11.8203
  104.3000   100.0755    11.8103    11.7886
  104.4000   100.3294    11.8104    11.7379
  104.5000   100.5832    11.8104    11.7381
  104.6000   100.7915    11.8105    11.7383
  104.7000   100.7921    11.7494    11.7384
  104.8000   101.0394    11.7279    11.6943
  104.9000   101.2932    11.7279    11.6566
  105.0000   101.4046    11.7280    11.6405
  105.1000   101.4956    11.7280    11.5754
  105.2000   101.7494    11.7280    11.5756
  105.3000   102.0171    11.6684    11.5197
  105.4000   102.2571    11.6460    11.4949
  105.5000   102.5109    11.6461    11.4667
  105.6000   102.7648    11.6280    11.4148
  105.7000   103.0186    11.5646    11.4138
  105.8000   103.2415    11.5646    11.3353
  105.9000   103.2422    11.5068    11.3354
