~VERSION INFORMATION
 VERS.                2.0:   CWLS LOG ASCII STANDARD - VERSION 2.0
 WRAP.                 NO:   ONE LINE PER DEPTH STEP
~WELL INFORMATION
#MNEM.UNIT      DATA TYPE    INFORMATION
#----------   ------------   ------------------------------
 STRT.F           36.0000:   START DEPTH
 STOP.F          592.0000:   STOP DEPTH
 STEP.F            0.5000:   STEP LENGTH
 NULL.          -999.2500:   NO VALUE
 COMP. FENIX & SCISSON INC:   COMPANY
 WELL.           S #35-10:   WELL
 FLD .              NPR-3:   FIELD
 LOC .      S10 T38N R78W:   LOCATION
 CNTY.            NATRONA:   COUNTY
 STAT.            WYOMING:   STATE
 CTRY. UNITED STATES OF AMERICA:   COUNTRY
 SRVC.              Welex:   SERVICE COMPANY
 DATE.        07-MAR-1977:   LOGDATE
 API .       490251029000:   API NUMBER
~CURVE INFORMATION
#MNEM.UNIT       API CODE    CURVE DESCRIPTION
#----------   ------------   ------------------------------
 DEPT.F                  :   
 SPR .MV     07 010 01 00:   SPONTANEOUS POTENTIAL
 ILM .OHMM   07 120 44 00:   INDUCTION LOG MEDIUM
 ILD .OHMM   07 120 46 00:   INDUCTION LOG DEEP
 SGRD.OHMM   07 220 05 00:   SHALLOW GUARD RESISTIVITY
 CALD.IN     45 280 60 00:   CALIPER FROM DENSITY LOG
 RHOB.G/C3   45 350 01 00:   BULK DENSITY
 CORR.G/C3   45 356 01 00:   DENSITY CORRECTION
 DPHI.DEC    45 890 12 00:   DENSITY POROSITY SANDSTONE
 GRD .GAPI   45 310 01 00:   GAMMA RAY FROM DENSITY LOG
~PARAMETER INFORMATION
#MNEM.UNIT          VALUE    DESCRIPTION
#----------   ------------   ------------------------------
 PD  .                 GL:   PERMANENT DATUM
 EPD .F              5234:   ELEVATION PERMANENT DATUM
 LMF .                 GL:   LOG MEASURED FROM
 DMF .                 GL:   DRILLING MEASURED FROM
 EGL .F              5234:   GROUND LEVEL
 DATE.             3-7-77:   RUN DATE
 RUN .                  1:   RUN NUMBER
 DD  .F               600:   DEPTH DRILLER
 DL  .F               593:   DEPTH LOGGER
 BLI .F               591:   BOTTOM LOG INTERVAL
 TLI .F                35:   TOP LOG INTERVAL
 CS  .IN            8.625:   CASING SIZE
 CBD .F                42:   CASING BOTTOM DRILLER
 CBL .F                42:   CASING BOTTOM LOGGER
 BS  .IN            7.875:   BIT SIZE
 BSD .F               600:   BIT SIZE AT DEPTH
 DFT .            KCL MUD:   DRILLING FLUID TYPE
 MSS .          FLOW LINE:   MUD SAMPLE SOURCE
 RMS .OHMM            .40:   RESISTIVITY MUD SAMPLE
 MST .F                58:   MUD SAMPLE TEMPERATURE
 RMF .OHMM            .33:   RESISTIVITY MUD FILTRATE SAMPLE
 MFST.F                58:   MUD FILTRATE SAMPLE TEMPERATURE
 RMC .OHMM            .44:   RESISTIVITY MUD CAKE
 MCST.F                58:   MUD CAKE SAMPLE TEMPERATURE
 MFSS.           FANN KIT:   MUD FILTRATE SAMPLE SOURCE
 MCSS.           FANN KIT:   MUD CAKE SAMPLE SOURCE
 RMB .OHMM            .31:   RESISTIVITY MUD AT BHT
 BHT .F                62:   BOTTOM HOLE TEMPERATURE
 TCS .HRS               3:   TIME CURCULATED STOPPED
 MRT .F                62:   MAXIMUM RECORDED TEMPERATURE
 LUN .               8611:   LOGGING UNIT NUMBER
 LUL .           GILLETTE:   LOGGING UNIT LOCATION
 ENGI.            C. DOAK:   RECORDING ENGINEER
 WITN.      L. STUEBINGER:   WITNESSED BY
 CLNT.            A2DTECH:   CLIENT CODE
 ORIG.        2" 5" PRINT:   ORIGIN OF DATA
 UWI .       490251029000:   UNIQUE WELL ID
 DICO. A2D Technologies, Inc.:   DIGITIZING COMPANY
~OTHER INFORMATION
~A   DEPT      SPR        ILM        ILD       SGRD         CALD       RHOB      CORR        DPHI       GRD  
# ...
  328.0000   -54.2374     9.1792     7.6682    10.0905     7.9322     2.4774     0.0347     0.1004   129.3266
  328.5000   -54.3118     9.1646     7.6480    10.0145     7.9215     2.4806     0.0341     0.0986   130.8914
  329.0000   -54.3696     9.1500     7.6219     9.9390     7.9299     2.4820     0.0329     0.0993   130.2161
  329.5000   -54.3276     9.1354     7.5982     9.8642     7.9461     2.4773     0.0301     0.1005   128.9903
  330.0000   -54.2874     9.0233     7.4703     9.7901     7.9627     2.4727     0.0274     0.1031   128.5655
  330.5000   -54.2470     8.9562     7.2938     9.7161     7.9793     2.4681     0.0259     0.1132   131.9878
  331.0000   -54.2070     8.8926     7.1211     9.6449     7.9958     2.4635     0.0266     0.1180   135.4736
  331.5000   -54.1930     8.7159     6.9527     9.3423     7.9981     2.4589     0.0272     0.1161   137.8202
  332.0000   -54.3062     8.5239     6.7883     9.0918     7.9981     2.4539     0.0281     0.1145   136.9440
  332.5000   -54.4171     8.3354     6.6276     8.8480     7.9980     2.4468     0.0303     0.1168   133.4713
  333.0000   -54.5277     8.1513     6.4004     8.6108     7.9980     2.4533     0.0325     0.1174   131.8301
  333.5000   -54.6383     7.9728     6.1310     8.3799     7.9980     2.4599     0.0332     0.1155   134.2856
  334.0000   -54.7490     7.8078     5.8734     8.1551     7.9980     2.4620     0.0303     0.1193   137.0648
  334.5000   -54.8596     7.4489     5.6266     7.9378     7.9978     2.4495     0.0275     0.1240   139.8057
  335.0000   -54.9712     7.1262     5.3901     7.6593     7.9963     2.4377     0.0247     0.1287   142.6138
  335.5000   -55.0816     6.8162     5.1687     7.3950     7.9948     2.4291     0.0220     0.1317   143.3620
  336.0000   -55.1214     6.4261     5.0746     7.1398     7.9932     2.4271     0.0243     0.1342   138.7545
  336.5000   -54.8386     6.0967     5.0136     5.7771     7.9917     2.4236     0.0270     0.1361   135.1035
  337.0000   -54.5629     6.3309     4.9825     4.7591     7.9901     2.4180     0.0248     0.1375   132.9670
  337.5000   -54.2875     6.6691     4.9825     7.5982     7.9886     2.4122     0.0202     0.1388   135.6159
  338.0000   -54.0122     7.0250     5.2477     8.3984     7.9871     2.4309     0.0209     0.1295   139.4349
  338.5000   -53.7370     7.4042     5.4812     9.2828     7.9855     2.4572     0.0266     0.1113   142.7323
  339.0000   -53.4603     7.6927     5.7251     9.5565     7.9840     2.4792     0.0324     0.1004   143.0195
  339.5000   -53.2677     7.9166     5.9799     9.8094     7.9824     2.4781     0.0361     0.1008   140.5221
  340.0000   -53.1073     8.1438     6.2459     9.9140     7.9811     2.4777     0.0376     0.1005   137.3887
  340.5000   -52.9475     8.3775     6.5238     9.8790     7.9794     2.4821     0.0390     0.0986   134.2796
  341.0000   -52.7876     8.6395     6.8141     9.8542     7.9665     2.4821     0.0405     0.0987   132.7036
  341.5000   -52.6276     8.7354     7.1173     9.8213     7.9034     2.4824     0.0420     0.0990   133.2845
  342.0000   -52.4675     8.8673     7.3535     9.9436     7.8575     2.4883     0.0434     0.0948   134.8108
  342.5000   -52.3077     9.0023     7.5719    10.2649     7.8636     2.4892     0.0449     0.0937   136.3534
  343.0000   -52.1698     9.1395     7.7968    10.5987     7.8783     2.4871     0.0456     0.0949   137.0688
  343.5000   -52.1032     9.2787     7.9548    10.9425     7.8789     2.4848     0.0449     0.0953   137.3125
  344.0000   -52.0362     9.4201     7.9548    11.2975     7.8790     2.4891     0.0442     0.0936   137.0076
  344.5000   -51.9691     9.5636     7.9548    11.5241     7.8776     2.4941     0.0436     0.0918   136.4192
  345.0000   -51.9018     9.7839     8.2200    11.7329     7.9000     2.4901     0.0424     0.0939   134.5889
  345.5000   -51.8359    10.3626     8.6577    11.8018     7.8972     2.4861     0.0413     0.0958   132.3134
  346.0000   -51.8121    10.9619     8.9624    10.9442     7.9196     2.4822     0.0402     0.0979   130.0161
  346.5000   -51.8908    12.1398     8.9875    10.4013     7.9154     2.4792     0.0390     0.1000   128.5143
  347.0000   -51.9676    13.7029     9.0206    10.0976     7.9128     2.4755     0.0378     0.1014   129.6842
  347.5000   -52.0446    14.9745     9.0539    10.3793     7.9099     2.4796     0.0354     0.0979   131.9125
  348.0000   -52.1216    13.3768     9.0873    11.9554     7.9070     2.4906     0.0317     0.0930   134.1273
  348.5000   -52.2106    12.2363     9.1284    14.3091     7.9042     2.5088     0.0343     0.0809   133.8966
  349.0000   -52.3607    11.1909     9.0558    11.6940     7.9013     2.5270     0.0386     0.0668   134.4189
  349.5000   -52.5117    10.2845     8.9633    10.6690     7.8986     2.5334     0.0418     0.0718   136.2969
  350.0000   -52.6625    10.0959     8.8806    11.2726     7.8986     2.5038     0.0417     0.0859   135.9122
  350.5000   -52.8133     9.9562     8.6113    11.1121     7.8986     2.4789     0.0418     0.1018   133.2296
  351.0000   -52.9640     9.8184     8.3727    10.7924     7.8986     2.4722     0.0410     0.1035   130.7000
  351.5000   -53.1146     9.6449     8.1408    10.4867     7.8986     2.4698     0.0399     0.1057   129.3846
  352.0000   -53.2654     9.4040     7.9152    10.1890     7.8986     2.4658     0.0408     0.1085   132.0059
  352.5000   -53.4218     9.2155     7.6959     9.9140     7.8985     2.4633     0.0420     0.1082   135.6638
  353.0000   -53.6111     9.0308     7.4827     9.4538     7.8989     2.4657     0.0432     0.1066   138.3272
  353.5000   -53.7972     8.8498     7.2576     9.0563     7.9152     2.4622     0.0421     0.1091   141.0306
  354.0000   -53.9834     8.6379     6.9513     8.6395     7.9326     2.4577     0.0393     0.1134   144.1930
  354.5000   -54.1698     8.3965     6.6305     9.3816     7.9500     2.4533     0.0378     0.1161   148.3148
  355.0000   -54.3560     8.1618     6.3246     9.8235     7.9670     2.4571     0.0384     0.1125   151.9175
  355.5000   -54.5454     7.9337     6.0327     7.5627     7.9725     2.4620     0.0428     0.1096   154.3095
  356.0000   -54.4615     7.7389     5.8394     5.2368     7.9562     2.4670     0.0472     0.1068   154.9473
  356.5000   -54.2956     7.8156     5.6990     8.9331     7.9403     2.4655     0.0492     0.1068   145.1656
  357.0000   -54.2263     7.8773     5.5620     8.9624     7.9383     2.4607     0.0471     0.1106   137.8824
  357.5000   -54.4086     7.9545     5.4282     8.9624     7.9383     2.4558     0.0450     0.1161   136.2144
  358.0000   -54.5863     7.6972     5.2977     9.1849     7.9356     2.4539     0.0442     0.1132   141.7814
  358.5000   -54.7655     7.3699     5.1703     9.4782     7.9281     2.4607     0.0454     0.1082   145.7003
  359.0000   -54.9502     7.0564     5.0673     8.4839     7.9205     2.4669     0.0467     0.1077   146.1881
  359.5000   -54.7668     6.7563     5.0358     6.6612     7.9136     2.4624     0.0473     0.1129   144.6058
  360.0000   -54.5239     6.4689     5.0284     5.2765     7.9067     2.4521     0.0434     0.1169   142.4360
  360.5000   -54.2804     6.7339     5.2045     4.5042     7.8998     2.4412     0.0396     0.1218   141.8500
  361.0000   -54.0379     7.0730     5.3520     9.5568     7.8928     2.4228     0.0357     0.1266   141.7450
  361.5000   -53.7951     7.4292     5.5038    10.0976     7.8859     2.4180     0.0343     0.1288   139.7850
  362.0000   -53.5525     7.8033     5.6599     9.8875     7.8790     2.4302     0.0363     0.1236   137.8942
  362.5000   -53.3115     8.1768     5.8204     9.6041     7.8787     2.4458     0.0374     0.1163   135.9964
  363.0000   -53.2169     8.3228     5.9854     9.3289     7.8787     2.4614     0.0378     0.1090   134.0893
  363.5000   -53.2958     8.4644     6.1552     9.2974     7.8787     2.4697     0.0360     0.1061   133.7951
  364.0000   -53.3795     8.6084     6.3299     9.7457     7.8787     2.4696     0.0339     0.1052   135.6904
