~VERSION INFORMATION
 VERS.                2.0:   CWLS LOG ASCII STANDARD - VERSION 2.0
 WRAP.                 NO:   ONE LINE PER DEPTH STEP
~WELL INFORMATION
#MNEM.UNIT      DATA TYPE    INFORMATION
#----------   ------------   ------------------------------
 STRT.F            1.0000:   START DEPTH
 STOP.F          886.0000:   STOP DEPTH
 STEP.F            0.5000:   STEP LENGTH
 NULL.          -999.2500:   NO VALUE
 COMP. BROWN JOHN E&C INC:   COMPANY
 WELL. NAVAL PETROLEUM RESERVE 3 SHX-1 #33-2:   WELL
 FLD .             NPR #3:   FIELD
 LOC .       S2 T38N R78W:   LOCATION
 CNTY.            NATRONA:   COUNTY
 STAT.            WYOMING:   STATE
 CTRY. UNITED STATES OF AMERICA:   COUNTRY
 SRVC.      Western Atlas:   SERVICE COMPANY
 DATE.        26-NOV-1991:   LOGDATE
 API .       490252248300:   API NUMBER
~CURVE INFORMATION
#MNEM.UNIT       API CODE    CURVE DESCRIPTION
#----------   ------------   ------------------------------
 DEPT.F                  :   
 RILD.OHMM   07 120 46 00:   INDUCTION LOG DEEP RESISTIVITY
 RILM.OHMM   07 120 44 00:   INDUCTION LOG MEDIUM RESISTIVITY
 RFOC.OHMM   07 220 04 00:   RESISTIVITY FOCUSED LOG
 SPR .MV     07 010 01 00:   SPONTANEOUS POTENTIAL
 GRR .GAPI   07 310 01 00:   GAMMA RAY
~PARAMETER INFORMATION
#MNEM.UNIT          VALUE    DESCRIPTION
#----------   ------------   ------------------------------
 PD  .                 GL:   PERMANENT DATUM
 EPD .F              5133:   ELEVATION PERMANENT DATUM
 LMF .                 KB:   LOG MEASURED FROM
 DAPD.F                10:   FEET ABOVE PERMANENT DATUM
 DMF .                 KB:   DRILLING MEASURED FROM
 EKB .F              5143:   KELLING BUSHING
 EGL .F              5133:   GROUND LEVEL
 DATE.        26-NOV-1991:   RUN DATE
 RUN .                  1:   RUN NUMBER
 DD  .F               892:   DEPTH DRILLER
 DL  .F               889:   DEPTH LOGGER
 BLI .F               837:   BOTTOM LOG INTERVAL
 CS  .IN            8.625:   CASING SIZE
 CBD .F                40:   CASING BOTTOM DRILLER
 CBL .F                55:   CASING BOTTOM LOGGER
 BS  .IN            7.875:   BIT SIZE
 BSD .F               892:   BIT SIZE AT DEPTH
 DFT .            POLYMER:   DRILLING FLUID TYPE
 DFD .                9.8:   DRILLING FLUID DENSITY
 DFV .                 38:   DRILLING FLUID VISCOSITY
 DFPH.                9.5:   DRILLING FLUID PH
 DFL .               10.6:   DRILLING FLUID LOSS
 MSS .           FLOWLINE:   MUD SAMPLE SOURCE
 RMS .OHMM           2.08:   RESISTIVITY MUD SAMPLE
 MST .F                78:   MUD SAMPLE TEMPERATURE
 RMF .OHMM           1.66:   RESISTIVITY MUD FILTRATE SAMPLE
 MFST.F                78:   MUD FILTRATE SAMPLE TEMPERATURE
 RMC .OHMM           2.60:   RESISTIVITY MUD CAKE
 MCST.F                78:   MUD CAKE SAMPLE TEMPERATURE
 MFSS.               MEAS:   MUD FILTRATE SAMPLE SOURCE
 MCSS.               CALC:   MUD CAKE SAMPLE SOURCE
 RMB .OHMM           1.08:   RESISTIVITY MUD AT BHT
 BHT .F               150:   BOTTOM HOLE TEMPERATURE
 TCS .HRS               2:   TIME CURCULATED STOPPED
 MRT .F               150:   MAXIMUM RECORDED TEMPERATURE
 LUN .            HL-6307:   LOGGING UNIT NUMBER
 LUL .         CASPER, WY:   LOGGING UNIT LOCATION
 ENGI.             ZIEGER:   RECORDING ENGINEER
 WITN.             STRONG:   WITNESSED BY
 CLNT.            A2DTECH:   CLIENT CODE
 ORIG.           5" PRINT:   ORIGIN OF DATA
 UWI .       490252248300:   UNIQUE WELL ID
 DICO. A2D Technologies, Inc.:   DIGITIZING COMPANY
~OTHER INFORMATION
~A    DEPT    RILD       RILM       RFOC        SPR         GRR  
# ...
  672.0000     6.6299     6.8163     7.9401   -85.5148   118.2957
  672.5000     6.6277     6.8615     7.9124   -85.6787   120.1054
  673.0000     6.6716     6.8592     7.7671   -85.6923   122.5194
  673.5000     6.8090     6.9589     7.6084   -85.5575   123.7257
  674.0000     6.9498     7.1452     7.4404   -85.1181   123.7220
  674.5000     6.9964     7.2930     7.3534   -84.9804   122.1634
  675.0000     6.9935     7.4444     7.5265   -84.6919   119.6377
  675.5000     6.9911     7.4937     8.0871   -84.7050   116.4617
  676.0000     6.9405     7.5427     8.3269   -84.5673   114.6461
  676.5000     6.5594     7.3849     8.4683   -84.5807   112.8305
  677.0000     5.8781     6.6530     8.6487   -84.5969   110.4106
  677.5000     5.1096     5.5741     8.8378   -84.4559   108.8971
  678.0000     4.8997     5.0725     8.9587   -84.1707   109.1963
  678.5000     4.8305     4.9320     7.1232   -84.0297   117.0483
  679.0000     4.7955     4.9304     4.3819   -83.8920   122.9366
  679.5000     4.8277     5.1739     3.8396   -84.0593   129.1263
  680.0000     4.9271     5.5436     4.6936   -84.6757   126.7065
  680.5000     5.0661     5.8987     7.1133   -85.4636   118.5464
  681.0000     5.2770     6.1472     8.7715   -86.0627   114.9181
  681.5000     5.8536     6.5504     9.1401   -86.5284   114.0088
  682.0000     7.3057     7.4076     8.9958   -86.8432   113.7038
  682.5000     7.9923     8.0478     9.0074   -87.1580   113.7008
  683.0000     8.3870     8.4453     9.0820   -87.1711   113.6979
  683.5000     8.6208     8.5611     9.1572   -87.1842   113.6949
  684.0000     8.5576     8.4983     9.2360   -87.3484   112.7850
  684.5000     8.4369     8.3205     9.2329   -87.5154   112.1778
  685.0000     8.3751     8.2602     9.2297   -87.8302   110.9664
  685.5000     8.3723     8.3201     9.2265   -87.8434   109.7550
  686.0000     8.4863     8.6047     9.2230   -88.1582   108.5436
  686.5000     8.7221     8.9673     9.1378   -88.4730   109.1449
  687.0000     9.0897     9.4757     9.0513   -88.9386   111.2568
  687.5000     9.6719    10.2235     9.3419   -90.1584   111.5560
  688.0000    10.6545    11.0303    10.5805   -91.6100    93.1233
  688.5000    11.8547    11.9007    13.2049   -93.6570    77.7125
  689.0000    13.1089    12.8398    16.2536   -95.3293    70.1567
  689.5000    14.2418    13.8754    17.4550   -96.8507    68.6432
  690.0000    15.5803    15.3654    18.4019   -98.2213    68.0360
  690.5000    16.6936    16.5779    19.9928   -99.5919    66.5225
  691.0000    17.0389    17.3967    21.4209  -100.1403    64.4048
  691.5000    17.6342    17.7565    21.7831   -99.7668    61.3755
  692.0000    18.7637    17.8756    21.4053  -101.1407    63.6534
  692.5000    19.1649    18.2437    21.1022  -101.4555    67.4164
  693.0000    19.6839    18.7506    20.9513  -101.4691    67.7163
  693.5000    19.9504    19.4057    21.5330  -100.5801    67.4112
  694.0000    20.0842    19.9449    23.2688  -100.1396    69.2203
  694.5000    20.0758    20.2167    24.3793   -99.2478    69.2173
  695.0000    19.9303    19.3845    24.6126   -98.6576    68.6101
  695.5000    19.6492    18.8478    25.2688   -98.5199    68.3051
  696.0000    19.2381    18.4535    26.1030   -99.4413    71.7256
  696.5000    18.9517    18.0674    23.7623   -99.7561    77.6641
  697.0000    18.5683    17.6894    21.1837   -99.0151    81.5886
  697.5000    18.3064    17.0748    19.7582   -98.4216    84.3047
  698.0000    18.0482    16.8396    19.4795   -98.2839    85.8131
  698.5000    17.9174    16.8327    19.4978   -97.9985    83.0904
  699.0000    17.5426    17.1809    19.6018   -98.0121    80.3684
  699.5000    17.6587    18.2813    19.6851   -98.9332    81.2718
  700.0000    18.1494    18.7908    20.6440  -100.1530    85.4985
  700.5000    19.0477    19.0462    22.9691  -101.6679    86.6989
  701.0000    19.8531    19.9883    24.6126  -101.8309    79.1350
  701.5000    20.8365    20.8320    25.7646  -102.4423    73.9902
  702.0000    21.7175    21.5628    26.5794  -102.7502    72.1687
  702.5000    22.0164    21.5555    27.1695  -102.7547    73.6705
  703.0000    21.8597    20.5208    27.8534  -102.7591    74.5781
  703.5000    21.4043    19.7759    27.5495  -102.7635    75.1635
  704.0000    21.1052    19.0091    24.5707  -102.4644    76.3609
  704.5000    20.6665    18.8726    22.2754  -102.4689    77.5606
  705.0000    20.2369    19.0001    21.2286  -102.4734    79.3645
  705.5000    19.9541    19.3931    21.0771  -102.4788    81.1683
  706.0000    19.6752    19.5228    21.8731  -102.4833    81.4639
  706.5000    19.6712    19.5175    22.8920  -102.4877    79.9423
  707.0000    19.5304    19.5122    23.3670  -102.3404    78.1208
  707.5000    19.2575    19.3720    23.7152  -102.1919    76.9033
  708.0000    19.1205    18.9669    24.2282  -101.8929    78.1032
  708.5000    18.5936    18.1889    23.8158  -100.9879    78.3965
  709.0000    17.9563    17.0837    21.9284  -100.0744    77.4791
  709.5000    16.8663    15.9347    21.0261   -99.3080    77.1682
  710.0000    15.8426    15.0706    19.5339   -97.8153    78.0657
  710.5000    15.1658    14.6543    17.3076   -96.3023    81.0781
  711.0000    14.4701    14.2495    15.0622   -95.3962    83.7883
  711.5000    14.0714    13.9432    14.6462   -95.2489    85.2901
  712.0000    13.7788    13.7555    16.3649   -95.5650    84.0323
  712.5000    13.6808    13.5624    17.8473   -96.0420    82.8533
  713.0000    13.6781    13.5587    17.8584   -96.9325    82.8445
  713.5000    13.7705    13.5551    15.5720   -97.5439    84.0442
  714.0000    13.9600    13.7416    14.9954   -98.1553    85.5460
  714.5000    14.0544    13.8335    14.7619   -98.7667    85.2350
  715.0000    14.1486    14.0221    15.1411   -99.0746    84.0178
  715.5000    14.2449    14.1210    15.7718   -99.3826    82.1963
  716.0000    14.3412    14.2102    16.1089   -99.3870    81.8853
  716.5000    14.3376    14.2055    16.2071   -99.2286    83.9891
  717.0000    14.3481    14.2016    16.0781   -98.7900    83.6782
  717.5000    14.3318    14.0997    15.8638   -98.4898    82.4610
  718.0000    14.2167    14.0959    15.8497   -98.1285    82.1500
  718.5000    14.0303    13.9947    15.5004   -97.7139    83.0476
  719.0000    14.0275    13.9909    15.4176   -97.2902    83.6430
  719.5000    13.9278    13.8905    15.4931   -96.9912    84.2384
  720.0000    13.8287    13.8866    15.4090   -96.8438    84.5317
  720.5000    13.8259    13.7861    15.2526   -96.8483    83.5810
  721.0000    13.7276    13.7824    14.9792   -96.8528    82.0950
  721.5000    13.7248    13.7787    15.1195   -96.8582    81.7863
  722.0000    13.7214    13.7750    15.3918   -96.7098    85.0985
  722.5000    13.6238    13.6761    15.3877   -96.5636    87.5066
  723.0000    13.6211    13.6724    15.3407   -96.4163    88.1043
  723.5000    13.6183    13.5743    15.0719   -96.4207    83.8636
  724.0000    13.6156    13.4767    14.5447   -96.1205    83.8149
  724.5000    13.5188    13.3792    14.0992   -95.9742    86.5950
  725.0000    13.3298    13.1913    13.9158   -95.6753    88.7210
  725.5000    13.2350    13.0061    14.1528   -95.4155    88.3579
  726.0000    12.8697    12.7348    14.2298   -94.9254    88.0492
  726.5000    12.7782    12.6434    14.1157   -94.6274    89.2467
  727.0000    12.5996    12.4659    13.8719   -94.1766    89.8443
  727.5000    12.4235    12.3764    13.6826   -93.7247    90.4397
  728.0000    12.2499    12.3731    13.5397   -93.7302    88.6160
  728.5000    12.1628    12.5425    13.4431   -94.3417    86.1903
  729.0000    12.0763    12.2801    13.4394   -95.2566    85.2749
  729.5000    11.8247    12.1077    13.3908   -95.5645    85.2641
  730.0000    11.8223    11.9377    13.2727   -95.8928    85.5596
  730.5000    11.8199    11.9345    12.9704   -95.8768    84.9444
  731.0000    11.8175    11.9313    12.5952   -95.8823    84.3314
  731.5000    11.8152    12.1788    12.5215   -95.8868    84.3226
  732.0000    11.8951    12.2614    12.6348   -95.8912    86.7307
  732.5000    11.8104    12.4396    13.2283   -96.1002    87.0242
