~VERSION INFORMATION
 VERS.                2.0:   CWLS LOG ASCII STANDARD - VERSION 2.0
 WRAP.                 NO:   ONE LINE PER DEPTH STEP
~WELL INFORMATION
#MNEM.UNIT      DATA TYPE    INFORMATION
#----------   ------------   ------------------------------
 STRT.F           40.0000:   START DEPTH
 STOP.F          462.0000:   STOP DEPTH
 STEP.F            0.5000:   STEP LENGTH
 NULL.          -999.2500:   NO VALUE
 COMP.    FENIX & SCISSON:   COMPANY
 WELL.        NPR #68-S-3:   WELL
 FLD .             TEAPOT:   FIELD
 LOC .       S3 T38N R78W:   LOCATION
 CNTY.            NATRONA:   COUNTY
 STAT.            WYOMING:   STATE
 CTRY. UNITED STATES OF AMERICA:   COUNTRY
 SRVC.      Dresser Atlas:   SERVICE COMPANY
 DATE.        28-MAR-1977:   LOGDATE
 API .       490251031900:   API NUMBER
~CURVE INFORMATION
#MNEM.UNIT       API CODE    CURVE DESCRIPTION
#----------   ------------   ------------------------------
 DEPT.F                  :   
 SPR .MV     07 010 01 00:   SPONTANEOUS POTENTIAL
 ILD .OHMM   07 120 46 00:   INDUCTION LOG DEEP
 ILM .OHMM   07 120 44 00:   INDUCTION LOG MEDIUM
 SFL .OHMM   07 220 01 00:   SHALLOW FOCUSED LOG RESISTIVITY
 CALD.IN     45 280 60 00:   CALIPER FROM DENSITY LOG
 GRD .GAPI   45 310 01 00:   GAMMA RAY FROM DENSITY LOG
 CORR.G/C3   45 356 01 00:   DENSITY CORRECTION
 RHOB.G/C3   45 350 01 00:   BULK DENSITY
 DPHI.DEC    45 890 12 00:   DENSITY POROSITY SANDSTONE
~PARAMETER INFORMATION
#MNEM.UNIT          VALUE    DESCRIPTION
#----------   ------------   ------------------------------
 PD  .                 GL:   PERMANENT DATUM
 EPD .F              5162:   ELEVATION PERMANENT DATUM
 LMF .                 KB:   LOG MEASURED FROM
 DAPD.F                 5:   FEET ABOVE PERMANENT DATUM
 DMF .                 KB:   DRILLING MEASURED FROM
 EKB .F              5167:   KELLING BUSHING
 EGL .F              5162:   GROUND LEVEL
 DATE.        28-MAR-1977:   RUN DATE
 RUN .                  1:   RUN NUMBER
 DD  .F               452:   DEPTH DRILLER
 DL  .F               464:   DEPTH LOGGER
 BLI .F               462:   BOTTOM LOG INTERVAL
 TLI .F                40:   TOP LOG INTERVAL
 CS  .IN               10:   CASING SIZE
 CBD .F                40:   CASING BOTTOM DRILLER
 CBL .F                40:   CASING BOTTOM LOGGER
 BS  .IN            7.875:   BIT SIZE
 BSD .F               452:   BIT SIZE AT DEPTH
 DFT .           CHEM GEL:   DRILLING FLUID TYPE
 DFD .                8.9:   DRILLING FLUID DENSITY
 DFV .                 34:   DRILLING FLUID VISCOSITY
 DFPH.                8.0:   DRILLING FLUID PH
 DFL .                8.2:   DRILLING FLUID LOSS
 MSS .         CIRCULATED:   MUD SAMPLE SOURCE
 RMS .OHMM           .223:   RESISTIVITY MUD SAMPLE
 MST .F                51:   MUD SAMPLE TEMPERATURE
 RMF .OHMM           .161:   RESISTIVITY MUD FILTRATE SAMPLE
 MFST.F                51:   MUD FILTRATE SAMPLE TEMPERATURE
 RMC .OHMM           .285:   RESISTIVITY MUD CAKE
 MCST.F                51:   MUD CAKE SAMPLE TEMPERATURE
 MFSS.               MEAS:   MUD FILTRATE SAMPLE SOURCE
 MCSS.               MEAS:   MUD CAKE SAMPLE SOURCE
 RMB .OHMM           .186:   RESISTIVITY MUD AT BHT
 BHT .F                61:   BOTTOM HOLE TEMPERATURE
 TCS .HRS            0500:   TIME CURCULATED STOPPED
 MRT .F                61:   MAXIMUM RECORDED TEMPERATURE
 LUN .               6145:   LOGGING UNIT NUMBER
 LUL .              GLTTE:   LOGGING UNIT LOCATION
 ENGI.              GOULD:   RECORDING ENGINEER
 WITN.               LYON:   WITNESSED BY
 CLNT.            A2DTECH:   CLIENT CODE
 ORIG.           5" PRINT:   ORIGIN OF DATA
 UWI .       490251031900:   UNIQUE WELL ID
 DICO. A2D Technologies, Inc.:   DIGITIZING COMPANY
~OTHER INFORMATION
~A   DEPT      SPR        ILD        ILM        SFL       CALD        GRD       CORR       RHOB       DPHI   
# ...
  368.5000   -11.0917    13.7731    18.0245    20.1527     7.7665    74.7508     0.0178     2.4055     0.1503
  369.0000   -10.9250    13.5887    17.7811    19.6105     7.7688    76.2771     0.0089     2.4048     0.1488
  369.5000   -10.9072    13.4101    17.5454    19.0874     7.7857    74.6469     0.0000     2.4011     0.1521
  370.0000   -11.3691    13.2305    17.1935    19.0966     7.7728    73.0104     0.0002     2.4012     0.1511
  370.5000   -12.0664    13.0566    16.9656    19.5060     7.7749    71.5703     0.0048     2.4036     0.1496
  371.0000   -12.6716    12.8818    16.6351    19.6507     7.7770    72.8197     0.0080     2.4059     0.1484
  371.5000   -13.4256    12.7991    16.2919    19.9338     7.7791    74.1897     0.0096     2.4067     0.1486
  372.0000   -14.4206    12.6293    15.9651    18.7410     7.7812    75.1128     0.0052     2.4075     0.1501
  372.5000   -15.1736    12.4618    15.5372    18.1111     7.7687    76.7255     0.0023     2.4037     0.1516
  373.0000   -15.8720    12.2116    15.2255    17.6281     7.7559    78.5346    -0.0020     2.4032     0.1503
  373.5000   -16.3001    12.0511    14.7015    17.0377     7.7579    78.6991    -0.0049     2.4070     0.1485
  374.0000   -16.4055    11.8909    14.2221    16.5812     7.7445    76.1915    -0.0063     2.4063     0.1500
  374.5000   -15.9152    11.7334    13.7600    16.2469     7.7471    76.5103    -0.0107     2.4019     0.1521
  375.0000   -15.4514    11.5775    13.3920    15.7047     7.7492    76.6749    -0.0120     2.3989     0.1532
  375.5000   -15.1364    11.4239    13.0339    15.3881     7.7513    75.8066    -0.0134     2.4028     0.1460
  376.0000   -14.9948    11.2723    12.6693    15.0815     7.7379    78.0628    -0.0042     2.4126     0.1324
  376.5000   -15.5947    11.1230    12.3461    15.0888     7.7405    80.6170     0.0034     2.4210     0.1258
  377.0000   -16.1716    10.9754    11.9347    14.9903     7.7426    80.9358     0.0081     2.4233     0.1239
  377.5000   -16.5997    10.9807    11.5355    14.8961     7.7447    81.7017     0.0097     2.4211     0.1245
  378.0000   -17.0278    10.9101    11.2270    14.6987     7.7468    82.1644     0.0083     2.4347     0.1260
  378.5000   -17.1582    10.7655    11.0011    14.6028     7.7488    77.5703     0.0068     2.4120     0.1284
  379.0000   -17.1190    10.6963    10.7812    14.4093     7.7354    76.5426     0.0009     2.4045     0.1301
  379.5000   -16.7832    10.6277    10.4943    14.2184     7.7380    78.9530    -0.0048     2.4038     0.1307
  380.0000   -16.6369    10.4145    10.4263    14.2270     7.7401    80.6131    -0.0106     2.4024     0.1304
  380.5000   -16.7684    10.3476    10.2193    14.1359     7.7422    80.9267    -0.0105     2.4047     0.1297
  381.0000   -16.8994    10.2104    10.1531    13.8509     7.7592    82.7410    -0.0104     2.4228     0.1273
  381.5000   -16.8815    10.1448    10.0192    13.5749     7.7613    82.0166    -0.0118     2.4462     0.1231
  382.0000   -17.1613    10.0102     9.9556    13.3951     7.7634    82.6334    -0.0161     2.4507     0.1218
  382.5000   -17.4410     9.8774     9.8925    13.1250     7.7500    81.4619    -0.0160     2.4268     0.1278
  383.0000   -17.5719     9.7464     9.7620    12.9527     7.7526    83.2710    -0.0174     2.4321     0.1266
  383.5000   -17.5536     9.6171     9.7001    12.7796     7.7392    83.7336    -0.0172     2.4450     0.1202
  384.0000   -17.5357     9.6217     9.7068    12.6977     7.7418    79.5867    -0.0201     2.4540     0.1182
  384.5000   -17.5179     9.5600     9.7121    12.6164     7.7439    77.8190    -0.0260     2.4316     0.1229
  385.0000   -17.6493     9.4332     9.7175    12.6240     7.7460    75.9023    -0.0319     2.4189     0.1256
  385.5000   -17.6310     9.3726     9.7229    12.6301     7.7330    73.9856    -0.0333     2.4258     0.1258
  386.0000   -17.6131     9.3772     9.7282    12.6362     7.7501    76.9870    -0.0241     2.4521     0.1192
  386.5000   -17.5956     9.3170     9.7336    12.6422     7.7522    79.0942    -0.0119     2.4664     0.1140
  387.0000   -17.8754     9.3863     9.8065    12.7360     7.7543    80.1581     0.0018     2.4725     0.1104
  387.5000   -18.0063     9.3909     9.8800    12.8305     7.7414    80.3279     0.0064     2.4786     0.1080
  388.0000   -17.9881     9.4015     9.9541    12.8367     7.7439    80.1958     0.0110     2.4794     0.1086
  388.5000   -18.1194     9.5310    10.0287    12.8429     7.7605    80.0637     0.0112     2.4758     0.1098
  389.0000   -18.2503     9.6018    10.0342    12.8491     7.7626    79.7939     0.0113     2.4728     0.1112
  389.5000   -18.2321     9.6732    10.0398    12.7653     7.7647    79.9643     0.0099     2.4684     0.1127
  390.0000   -18.2146     9.6778    10.0453    12.5094     7.7668    80.1539     0.0101     2.4752     0.1120
  390.5000   -18.4943     9.6825    10.0508    12.1758     7.7689    80.8228     0.0117     2.4896     0.1069
  391.0000   -18.4762     9.6872    10.0564    12.1816     7.7709    83.6772     0.0194     2.4994     0.0981
  391.5000   -18.7562     9.6919     9.9912    12.1875     7.7580    88.8446     0.0271     2.5092     0.0897
  392.0000   -19.0360     9.6966     9.9279    12.1934     7.7606    91.3937     0.0332     2.5153     0.0842
  392.5000   -19.1741     9.6342     9.7983    12.1865     7.7627    88.1409     0.0348     2.5155     0.0830
  393.0000   -19.4534     9.6262     9.8037    12.1211     7.7493    86.2242     0.0317     2.5080     0.0884
  393.5000   -19.5838     9.5110     9.8091    11.9605     7.7519    86.5430     0.0288     2.5013     0.0935
  394.0000   -19.8573     9.4499     9.7455    11.7208     7.7540    85.8186     0.0247     2.4968     0.0967
  394.5000   -20.1371     9.3904     9.7522    11.5654     7.7406    84.7909     0.0233     2.4931     0.0991
  395.0000   -20.2680     9.3302     9.7576    11.6514     7.7432    84.6678     0.0235     2.4894     0.1018
  395.5000   -20.2501     9.3347     9.7630    11.8192     7.7453    84.2414     0.0251     2.4873     0.1015
  396.0000   -20.3811     9.2109     9.7684    11.9069     7.7474    83.5118     0.0283     2.4944     0.0996
  396.5000   -20.5120     9.2153     9.8416    11.5879     7.7494    91.2873     0.0314     2.5036     0.0912
  397.0000   -20.4940     9.2198     9.8470    11.2774     7.7515    93.5435     0.0376     2.5120     0.0845
  397.5000   -20.6251     9.2242     9.9208    11.5192     7.7536    96.0926     0.0422     2.5237     0.0800
  398.0000   -20.6071     9.1639    10.0645    11.6851     7.7706    93.5850     0.0468     2.5327     0.0740
  398.5000   -20.5893     9.1695    10.2103    11.6932     7.7727    91.9612     0.0515     2.5403     0.0691
  399.0000   -20.5714     9.1739    10.3582    11.6159     7.7748    91.8381     0.0501     2.5366     0.0687
  399.5000   -20.7024     9.1783    10.5083    11.4620     7.7769    90.8156     0.0427     2.5292     0.0736
  400.0000   -20.6845     9.1841    10.6644    11.3886     7.7784    90.2181     0.0355     2.5128     0.0832
  400.5000   -20.8612     9.2134    10.6972    11.3473     7.7662    92.2036     0.0265     2.5039     0.0912
  401.0000   -21.0379     9.2428    10.7299    11.3179     7.7540    93.1216     0.0282     2.5017     0.0927
  401.5000   -21.0850     9.2592    10.7456    11.3219     7.7564    92.5493     0.0314     2.5026     0.0920
  402.0000   -21.0647     9.2637    10.5286    11.3258     7.7433    93.9144     0.0316     2.5027     0.0905
  402.5000   -21.1979     9.2041    10.4587    11.2515     7.7462    92.2989     0.0332     2.5021     0.0920
  403.0000   -21.4792     8.9981    10.1769    11.1779     7.7636    86.9575     0.0319     2.5052     0.0892
  403.5000   -21.6116     8.9781     9.9027    11.1047     7.7659    88.4716     0.0321     2.5038     0.0896
  404.0000   -21.7439     8.9580     9.7700    11.0321     7.7683    88.6385     0.0292     2.5024     0.0919
  404.5000   -21.7277     8.9380     9.8420    10.8853     7.7552    88.0662     0.0295     2.5034     0.0921
