~VERSION INFORMATION
 VERS.                2.0:   CWLS LOG ASCII STANDARD - VERSION 2.0
 WRAP.                 NO:   ONE LINE PER DEPTH STEP
~WELL INFORMATION
#MNEM.UNIT      DATA TYPE    INFORMATION
#----------   ------------   ------------------------------
 STRT.F           24.0000:   START DEPTH
 STOP.F          464.0000:   STOP DEPTH
 STEP.F            0.5000:   STEP LENGTH
 NULL.          -999.2500:   NO VALUE
 COMP.    FENIX & SCISSON:   COMPANY
 WELL.       NPR #62-S-10:   WELL
 FLD .             TEAPOT:   FIELD
 LOC .      S10 T38N R78W:   LOCATION
 CNTY.            NATRONA:   COUNTY
 STAT.            WYOMING:   STATE
 CTRY. UNITED STATES OF AMERICA:   COUNTRY
 SRVC.              Welex:   SERVICE COMPANY
 DATE.        12-APR-1977:   LOGDATE
 API .       490251033300:   API NUMBER
~CURVE INFORMATION
#MNEM.UNIT       API CODE    CURVE DESCRIPTION
#----------   ------------   ------------------------------
 DEPT.F                  :   
 SPR .MV     07 010 01 00:   SPONTANEOUS POTENTIAL
 ILD .OHMM   07 120 46 00:   INDUCTION LOG DEEP
 ILM .OHMM   07 120 44 00:   INDUCTION LOG MEDIUM
 SGRD.OHMM   07 221 05 00:   SHALLOW SHORT GUARD RESISTIVITY
 GRD .GAPI   45 310 01 00:   GAMMA RAY FROM DENSITY LOG
 CALD.IN     45 280 60 00:   CALIPER FROM DENSITY LOG
 CORR.G/C3   45 356 01 00:   DENSITY CORRECTION
 RHOB.G/C3   45 350 01 00:   BULK DENSITY
 DPHI.DEC    45 890 12 00:   DENSITY POROSITY SANDSTONE
~PARAMETER INFORMATION
#MNEM.UNIT          VALUE    DESCRIPTION
#----------   ------------   ------------------------------
 PD  .                 GL:   PERMANENT DATUM
 EPD .F              5155:   ELEVATION PERMANENT DATUM
 LMF .                 GL:   LOG MEASURED FROM
 DMF .                 GL:   DRILLING MEASURED FROM
 EGL .F              5155:   GROUND LEVEL
 DATE.        12-APR-1977:   RUN DATE
 RUN .                  1:   RUN NUMBER
 DD  .F               460:   DEPTH DRILLER
 DL  .F               464:   DEPTH LOGGER
 BLI .F               462:   BOTTOM LOG INTERVAL
 TLI .F                30:   TOP LOG INTERVAL
 CS  .IN            8.625:   CASING SIZE
 BS  .IN            7.875:   BIT SIZE
 BSD .F               460:   BIT SIZE AT DEPTH
 DFT .            KCL GEL:   DRILLING FLUID TYPE
 DFD .                8.8:   DRILLING FLUID DENSITY
 TCS .HRS            0100:   TIME CURCULATED STOPPED
 MRT .F                65:   MAXIMUM RECORDED TEMPERATURE
 ENGI.        E. CALLAHAN:   RECORDING ENGINEER
 WITN.            R. LYON:   WITNESSED BY
 CLNT.            A2DTECH:   CLIENT CODE
 ORIG.           5" PRINT:   ORIGIN OF DATA
 UWI .       490251033300:   UNIQUE WELL ID
 DICO. A2D Technologies, Inc.:   DIGITIZING COMPANY
~OTHER INFORMATION
~A   DEPT      SPR        ILD        ILM       SGRD        GRD       CALD       CORR       RHOB       DPHI   
# ...
  243.0000   -29.1828    24.1321    34.5551    48.7618    73.3933     7.9510     0.0382     2.3401     0.1969
  243.5000   -29.1664    24.3096    37.6259    49.1203    72.0525     7.9678     0.0398     2.3612     0.1872
  244.0000   -29.1501    24.4883    34.1783    44.0060    70.4138     7.9696     0.0399     2.3786     0.1773
  244.5000   -29.1337    24.8396    33.4917    42.5281    69.7087     8.0013     0.0400     2.3960     0.1643
  245.0000   -29.1174    25.0223    36.1686    50.9392    70.3448     8.0330     0.0386     2.3946     0.1537
  245.5000   -29.2544    25.2064    40.7091    66.7433    71.5872     8.0647     0.0343     2.3803     0.1583
  246.0000   -29.2339    25.2332    44.2613    73.0509    73.6302     8.0815     0.0284     2.3706     0.1630
  246.5000   -29.2176    25.4023    41.6147    57.3877    75.8411     8.0683     0.0195     2.3708     0.1690
  247.0000   -29.2012    25.2111    32.9107    49.3164    77.6682     8.0701     0.0121     2.3648     0.1738
  247.5000   -29.3341    24.7294    33.1598    43.8712    79.8841     8.0719     0.0017     2.3535     0.1801
  248.0000   -29.3178    24.2142    33.8712    40.0623    80.8046     8.0587    -0.0072     2.3273     0.1879
  248.5000   -29.3014    23.5772    31.8508    37.4617    81.7250     8.0605    -0.0132     2.3213     0.1996
  249.0000   -29.4384    22.9402    29.5347    36.4598    83.0952     8.0473    -0.0145     2.3229     0.1984
  249.5000   -29.4180    22.3033    28.5436    34.9973    84.0156     8.0341    -0.0099     2.3282     0.1957
  250.0000   -29.4016    21.6663    29.1784    34.7039    84.0629     8.0359    -0.0030     2.3351     0.1926
  250.5000   -29.5173    21.1534    29.3943    34.3183    84.5054     8.0202     0.0085     2.3675     0.1785
  251.0000   -29.6434    20.7336    29.6093    32.7104    85.4243     8.0090     0.0236     2.3894     0.1688
  251.5000   -29.7696    20.1820    29.6296    33.4192    85.7435     8.0105     0.0298     2.3865     0.1592
  252.0000   -29.7910    19.6451    28.1802    35.8317    84.5635     8.0269     0.0254     2.3775     0.1646
  252.5000   -29.6267    19.2551    26.7453    34.1576    84.7328     8.0284     0.0226     2.3745     0.1660
  253.0000   -29.6117    19.0039    27.7178    31.6735    85.0520     8.0299     0.0227     2.3754     0.1654
  253.5000   -29.4475    18.7559    27.4816    30.8266    85.8210     8.0314     0.0229     2.3777     0.1642
  254.0000   -29.4325    18.3836    25.5197    30.8437    87.1897     8.0482     0.0245     2.3808     0.1626
  254.5000   -29.4176    18.1406    24.8385    31.2906    88.2586     8.0497     0.0277     2.3846     0.1611
  255.0000   -29.4026    17.6610    24.3597    31.9642    89.0276     8.0512     0.0308     2.3899     0.1590
  255.5000   -29.2384    17.4276    24.0237    31.3254    89.7966     8.0373     0.0325     2.3930     0.1562
  256.0000   -29.2234    17.4427    23.7083    30.2777    90.1158     8.0092     0.0372     2.3961     0.1520
  256.5000   -29.0592    17.5759    23.0754    30.5047    90.4350     7.9954     0.0388     2.3991     0.1541
  257.0000   -29.0443    17.5882    22.6154    30.9467    90.7543     7.9972     0.0390     2.4022     0.1523
  257.5000   -29.0293    17.6004    22.1646    30.9639    90.9236     7.9834     0.0376     2.4045     0.1477
  258.0000   -29.1642    17.7348    22.0492    30.3450    90.9429     7.9852     0.0378     2.4031     0.1489
  258.5000   -29.1486    17.9943    23.5107    30.3619    90.8076     7.9867     0.0364     2.3994     0.1528
  259.0000   -29.2836    18.1317    23.3082    30.5895    90.6770     7.9583     0.0335     2.3933     0.1543
  259.5000   -29.4179    18.0162    22.6860    31.2437    89.9516     7.9444     0.0337     2.3843     0.1576
  260.0000   -29.5522    17.9045    22.1101    30.4083    88.6217     7.9309     0.0338     2.3761     0.1624
  260.5000   -29.6895    17.9200    23.3888    30.4294    87.8906     7.9478     0.0340     2.3709     0.1660
  261.0000   -29.8201    17.9325    22.7660    30.6576    88.0607     7.9639     0.0311     2.3695     0.1695
  261.5000   -29.8051    18.0695    22.7817    30.4590    88.6798     7.9504     0.0297     2.3705     0.1698
  262.0000   -29.9394    18.2049    23.6000    29.6487    90.3483     7.9822     0.0269     2.3719     0.1691
  262.5000   -29.7752    18.3439    23.9413    29.0521    90.5298     7.9986     0.0210     2.3704     0.1685
  263.0000   -29.9132    18.3566    22.8289    28.8679    90.5370     8.0151     0.0137     2.3668     0.1703
  263.5000   -30.0438    18.4964    20.4504    28.6849    90.7063     8.0315     0.0048     2.3601     0.1729
  264.0000   -30.0288    18.3817    20.6066    28.3067    91.6253     8.0480    -0.0025     2.3496     0.1801
  264.5000   -30.1668    18.2677    21.7946    27.8988    92.6957     8.0794    -0.0129     2.3391     0.1852
  265.0000   -30.2974    18.1463    22.8921    27.1248    93.4733     8.0959    -0.0143     2.3324     0.1918
  265.5000   -30.4317    18.0362    23.3884    26.6431    94.0910     8.0974    -0.0036     2.3370     0.1897
  266.0000   -30.4167    17.9300    22.1441    27.0547    94.2519     8.0989     0.0086     2.3604     0.1812
  266.5000   -30.4018    17.8188    20.8214    27.2323    93.9560     8.1003     0.0147     2.3642     0.1728
  267.0000   -30.3868    17.8312    20.5459    27.0592    93.5406     8.1168     0.0119     2.3590     0.1761
  267.5000   -30.3718    17.5985    19.8643    26.8877    93.2384     8.1033     0.0180     2.3523     0.1776
  268.0000   -30.3569    17.3688    19.7375    26.7172    92.8046     8.1048     0.0302     2.3734     0.1721
  268.5000   -30.1926    17.5016    20.0299    26.5479    91.8045     8.1063     0.0349     2.3840     0.1642
  269.0000   -30.1777    17.6353    20.3230    26.1919    91.2193     8.1078     0.0365     2.3878     0.1606
  269.5000   -30.1627    17.4052    20.6205    25.8494    90.1941     8.1093     0.0382     2.3894     0.1585
  270.0000   -30.1478    17.0593    20.4889    25.6885    89.4590     8.1108     0.0383     2.3917     0.1570
  270.5000   -30.1328    16.7206    20.3616    26.0607    88.2838     8.1123     0.0385     2.3910     0.1563
  271.0000   -30.1178    16.5029    20.6632    26.6217    86.8039     8.1287     0.0356     2.3888     0.1563
  271.5000   -30.1029    16.5143    21.2578    27.3835    84.7243     8.1302     0.0327     2.3919     0.1595
  272.0000   -30.0879    16.5258    21.8695    27.3987    83.9893     8.1142     0.0284     2.3980     0.1550
  272.5000   -30.0729    16.5373    21.1404    27.0375    84.4633     8.0882     0.0256     2.4033     0.1523
  273.0000   -30.0580    16.6636    20.5739    26.8657    84.7825     8.0751     0.0242     2.4132     0.1493
  273.5000   -30.1960    16.7909    20.4462    26.6953    83.4525     8.0617     0.0229     2.4260     0.1444
  274.0000   -30.1773    16.9192    20.6059    26.1622    82.4176     8.0631     0.0230     2.4336     0.1378
  274.5000   -30.1623    17.0484    20.9075    25.8172    84.2409     8.0796     0.0216     2.4397     0.1302
  275.0000   -30.3004    17.2978    21.0672    25.4762    85.9095     8.0508     0.0203     2.4480     0.1239
  275.5000   -30.2817    17.4300    21.3755    25.3147    87.1283     8.0526     0.0205     2.4571     0.1170
  276.0000   -30.5652    17.6850    21.8390    24.9815    88.3470     8.0541     0.0206     2.4760     0.1106
  276.5000   -30.7033    17.8201    22.1586    24.9954    87.4669     8.0706     0.0238     2.4942     0.0974
  277.0000   -30.9831    17.7065    22.9672    25.0093    85.6871     8.0721     0.0269     2.5063     0.0895
  277.5000   -30.9681    17.2384    23.9946    25.9034    83.4576     8.0736     0.0331     2.5086     0.0862
  278.0000   -30.9531    16.8933    24.9751    30.1762    84.5265     8.0750     0.0408     2.5041     0.0871
  278.5000   -30.9382    17.0253    24.4788    36.3904    86.0451     8.0915     0.0454     2.4906     0.0936
  279.0000   -30.7739    17.1554    23.4995    37.4266    87.8636     8.0930     0.0456     2.4681     0.1038
