~VERSION INFORMATION
 VERS.                2.0:   CWLS LOG ASCII STANDARD - VERSION 2.0
 WRAP.                 NO:   ONE LINE PER DEPTH STEP
~WELL INFORMATION
#MNEM.UNIT      DATA TYPE    INFORMATION
#----------   ------------   ------------------------------
 STRT.F           90.0000:   START DEPTH
 STOP.F          799.0000:   STOP DEPTH
 STEP.F            0.5000:   STEP LENGTH
 NULL.          -999.2500:   NO VALUE
 COMP. U S NAVY-INTEX OIL:   COMPANY
 WELL. RES 3 TEAPOT DOM #83S-34:   WELL
 FLD .             TEAPOT:   FIELD
 LOC .      S34 T39N R78W:   LOCATION
 CNTY.            NATRONA:   COUNTY
 STAT.            WYOMING:   STATE
 CTRY. UNITED STATES OF AMERICA:   COUNTRY
 SRVC.       Schlumberger:   SERVICE COMPANY
 DATE.        15-FEB-1961:   LOGDATE
 API .       490250655100:   API NUMBER
~CURVE INFORMATION
#MNEM.UNIT       API CODE    CURVE DESCRIPTION
#----------   ------------   ------------------------------
 DEPT.F                  :   
 ASN .OHMM   05 041 16 00:   AMPLIFIED SHORT NORMAL 16"
 ILD .OHMM   05 120 46 00:   INDUCTION LOG DEEP RESISTIVITY.
 CILD.MMHO   05 110 46 00:   CONDUCTIVITY INDUCTION LOG DEEP
 SPR .MV     05 010 01 00:   SPONTANEOUS POTENTIAL FROM RES.
 GR  .GAPI   30 310 01 00:   GAMMA RAY
~PARAMETER INFORMATION
#MNEM.UNIT          VALUE    DESCRIPTION
#----------   ------------   ------------------------------
 PD  .                 GL:   PERMANENT DATUM
 EPD .F              5090:   ELEVATION PERMANENT DATUM
 LMF .                 KB:   LOG MEASURED FROM
 DAPD.F                 4:   FEET ABOVE PERMANENT DATUM
 DMF .                 KB:   DRILLING MEASURED FROM
 EKB .F              5094:   KELLING BUSHING
 EGL .F              5090:   GROUND LEVEL
 DATE.        15-FEB-1961:   RUN DATE
 RUN .                  1:   RUN NUMBER
 DD  .F               800:   DEPTH DRILLER
 DL  .F               800:   DEPTH LOGGER
 BLI .F               799:   BOTTOM LOG INTERVAL
 TLI .F               100:   TOP LOG INTERVAL
 CBD .F                12:   CASING BOTTOM DRILLER
 BS  .IN            7.875:   BIT SIZE
 BSD .F               800:   BIT SIZE AT DEPTH
 DFT .       OIL EMULSION:   DRILLING FLUID TYPE
 DFD .                9.5:   DRILLING FLUID DENSITY
 DFV .                 50:   DRILLING FLUID VISCOSITY
 RMS .OHMM           1.25:   RESISTIVITY MUD SAMPLE
 MST .F                57:   MUD SAMPLE TEMPERATURE
 RMB .OHMM           0.98:   RESISTIVITY MUD AT BHT
 BHT .F                73:   BOTTOM HOLE TEMPERATURE
 TCS .HRS               1:   TIME CURCULATED STOPPED
 LUN .               2572:   LOGGING UNIT NUMBER
 LUL .                 NC:   LOGGING UNIT LOCATION
 ENGI.            EARNEST:   RECORDING ENGINEER
 WITN.          JORGENSEN:   WITNESSED BY
 CLNT.            A2DTECH:   CLIENT CODE
 ORIG.       2" ,5" PRINT:   ORIGIN OF DATA
 UWI .       490250655100:   UNIQUE WELL ID
 DICO. A2D Technologies, Inc.:   DIGITIZING COMPANY
~OTHER INFORMATION
~A   DEPT        ASN        ILD      CILD       SPR         GR   
# ...
  700.0000    16.6068    13.6090    72.8228   -29.7297    44.4281
  700.5000    16.6582    13.6842    72.0553   -29.7122    43.9793
  701.0000    16.6699    13.9850    72.0408   -29.6866    44.2834
  701.5000    16.7468    13.8346    72.0264   -29.6610    46.6959
  702.0000    16.7482    13.7594    72.0120   -29.6353    48.5061
  702.5000    16.7497    13.7594    71.2432   -29.6097    46.2500
  703.0000    16.8266    13.9098    70.4781   -29.5796    47.6090
  703.5000    17.0543    14.0602    70.4637   -29.5796    48.2136
  704.0000    17.2069    14.2857    69.6985   -29.7297    46.1088
  704.5000    17.4346    14.5865    69.6841   -29.7297    51.5327
  705.0000    17.3606    14.8120    68.9189   -29.8799    47.9218
  705.5000    17.2109    14.5865    68.9039   -30.0300    42.3284
  706.0000    17.0618    14.2857    67.3850   -30.0300    45.2168
  706.5000    16.8371    13.9850    67.3706   -30.0300    42.2077
  707.0000    16.6126    13.8346    66.6054   -30.0300    43.2648
  707.5000    16.4629    13.4586    66.5910   -29.7297    42.3641
  708.0000    16.3135    13.3043    67.3273   -29.7297    41.9159
  708.5000    16.3153    13.1579    67.3093   -29.5796    36.9482
  709.0000    16.2413    13.1579    68.8000   -29.5796    39.9639
  709.5000    16.1674    13.0827    70.2835   -29.5796    40.5873
  710.0000    16.0180    13.0827    71.0198   -29.5796    41.6263
  710.5000    15.9440    12.9323    71.7568   -29.5796    42.3830
  711.0000    15.7947    12.8571    73.2432   -29.5796    38.0184
  711.5000    15.7207    12.7820    73.2282   -29.7297    41.1839
  712.0000    15.6471    12.7068    73.2108   -29.7297    48.5664
  712.5000    15.5669    12.7068    73.1964   -29.7297    50.3765
  713.0000    15.4237    12.7068    74.6871   -29.8799    56.4920
  713.5000    15.3501    12.7820    75.4234   -30.0300    57.6120
  714.0000    15.3516    12.7820    76.1562   -30.0300    60.0238
  714.5000    15.2022    12.7068    77.6396   -30.1802    55.5093
  715.0000    15.1282    12.5564    78.3760   -30.3303    53.4031
  715.5000    14.9789    12.4812    78.3616   -30.3303    58.6778
  716.0000    14.8295    12.4060    79.1015   -30.3303    57.4600
  716.5000    14.8313    12.4060    79.0835   -30.3303    53.4132
  717.0000    14.7570    12.2556    79.0691   -30.3303    49.6511
  717.5000    14.7588    12.1053    79.0511   -30.3303    47.2444
  718.0000    14.6848    11.9549    79.0366   -30.3303    44.8376
  718.5000    14.6863    11.9549    79.0222   -30.3303    41.5266
  719.0000    14.6881    11.9549    79.7622   -30.3303    45.5965
  719.5000    14.6895    11.9549    80.4985   -30.3303    44.9250
  720.0000    14.6910    12.0301    80.4805   -30.3303    40.0307
  720.5000    14.6170    11.9549    80.4655   -30.3303    37.1722
  721.0000    14.5430    11.9549    80.4480   -30.3303    38.5305
  721.5000    14.4691    11.8045    80.4336   -30.3303    39.7375
  722.0000    14.3951    11.7293    80.4192   -30.3303    38.3850
  722.5000    14.3211    11.6541    80.4048   -30.4805    41.1095
  723.0000    14.3229    11.5038    80.3904   -30.6306    39.7469
  723.5000    14.3244    11.4286    80.3724   -30.6306    43.9674
  724.0000    14.2504    11.3534    81.1087   -30.7808    51.0486
  724.5000    14.2519    11.2782    81.0943   -30.7808    52.8581
  725.0000    14.2534    11.2030    81.8342   -30.9309    50.6019
  725.5000    14.2551    11.2782    81.8162   -30.9309    53.7682
  726.0000    14.2566    11.3534    81.8018   -30.9309    51.8133
  726.5000    14.2580    11.3534    81.7868   -31.0811    48.1053
  727.0000    14.2595    11.4286    81.7694   -31.2312    43.0849
  727.5000    14.2609    11.5038    81.7550   -31.2312    41.7316
  728.0000    14.1870    11.3534    81.7405   -31.2312    48.3618
  728.5000    14.1134    11.2764    81.7261   -31.2312    52.1297
  729.0000    14.1148    11.1278    81.7117   -31.2312    54.0905
  729.5000    14.1163    11.0526    82.4481   -31.2312    56.2058
  730.0000    14.0419    11.2030    83.1844   -30.9309    62.4094
  730.5000    14.0438    11.3534    83.1664   -30.9309    67.2016
  731.0000    13.9698    11.3534    83.9063   -30.9239    65.6992
  731.5000    13.9716    11.2749    84.6396   -30.7808    63.4431
  732.0000    13.9731    11.1278    84.6246   -30.6306    60.4332
  732.5000    13.8987    11.0526    84.6096   -30.7808    65.1055
  733.0000    13.8065    11.0526    84.5922   -30.7808    63.5942
  733.5000    13.7088    11.0526    86.0793   -30.9309    59.1959
  734.0000    13.6019    11.0526    86.0649   -30.9309    54.5721
  734.5000    13.6033    11.1278    86.8048   -30.9309    56.2316
  735.0000    13.6802    11.0526    86.7868   -31.0811    53.6750
  735.5000    13.8328    11.0526    86.0180   -31.2312    51.1177
  736.0000    13.9097    10.9774    86.0036   -31.2312    49.2972
  736.5000    13.9866    10.9023    85.9892   -31.2312    50.9849
  737.0000    13.9880    10.9023    85.9748   -30.9309    52.6331
  737.5000    13.9895    10.9023    85.9604   -31.0936    53.2384
  738.0000    13.9910    10.9774    85.1952   -31.2312    53.2413
  738.5000    13.9170    10.9774    84.4264   -31.5315    52.6418
  739.0000    13.7679    10.9774    84.4120   -31.5315    49.9332
  739.5000    13.6936    10.9023    84.3976   -31.3814    56.7139
  740.0000    13.6196    10.9023    84.3832   -31.2312    55.0602
  740.5000    13.6215    10.9023    84.3688   -31.0811    57.1723
  741.0000    13.5430    10.8271    84.3544   -30.9309    55.8197
  741.5000    13.3981    10.7519    84.3393   -30.9309    49.3467
  742.0000    13.3241    10.7519    84.3219   -30.9309    46.9393
  742.5000    13.2502    10.6015    84.3075   -30.9309    56.2803
  743.0000    13.1762    10.6015    85.0438   -30.9309    60.0562
  743.5000    13.1026    10.6767    85.7838   -31.2312    55.6697
  744.0000    13.1041    10.7519    85.7658   -31.2312    58.0962
  744.5000    13.1059    10.6767    87.2492   -31.3814    55.5389
  745.0000    13.1073    10.6767    87.2348   -31.3814    56.5960
  745.5000    13.1088    10.6015    87.2204   -31.5315    57.0514
  746.0000    13.1102    10.6015    87.9604   -31.5315    58.5218
  746.5000    13.1117    10.6015    88.6937   -31.8318    60.0778
  747.0000    13.1885    10.6767    88.6787   -31.8318    53.9186
  747.5000    13.3412    10.6767    88.6637   -31.8318    50.3126
  748.0000    13.4180    10.6767    88.6462   -31.8318    50.2702
  748.5000    13.5703    10.7519    88.6318   -31.8318    50.9085
  749.0000    13.7226    10.7519    87.1159   -31.8318    50.6052
  749.5000    13.7995    10.7642    86.3508   -31.8318    48.6508
  750.0000    14.0817    10.9208    85.5852   -31.8318    45.4953
  750.5000    14.3104    11.1524    82.0168   -31.5349    44.5488
  751.0000    14.7861    11.3840    78.7388   -31.5377    45.8298
  751.5000    15.1654    11.8090    75.0513   -31.5406    42.3344
  752.0000    15.6954    12.5627    72.0412   -31.5435    39.4791
  752.5000    16.3159    13.3912    69.7818   -31.2467    36.4737
  753.0000    17.2085    14.2197    66.0210   -31.0987    34.9704
  753.5000    18.0402    14.8978    62.2583   -30.6511    38.8714
  754.0000    18.5703    15.7283    59.2482   -30.0541    36.4666
  754.5000    19.0249    16.2544    56.9888   -30.0571    34.5116
  755.0000    19.1779    16.3310    55.4802   -30.0606    28.0528
  755.5000    18.8789    16.1069    53.9715   -30.0634    23.5459
  756.0000    18.6543    15.7324    55.4659   -30.2164    22.9228
  756.5000    18.4302    15.4331    56.9585   -30.3694    23.7646
  757.0000    18.2066    15.2093    58.4529   -30.0722    31.9465
  757.5000    17.9831    15.0603    59.9473   -29.9250    34.4967
  758.0000    17.8344    14.9110    61.4417   -29.7777    38.9988
  758.5000    17.6103    14.6872    62.9361   -29.7813    42.7502
  759.0000    17.4616    14.5383    63.6797   -29.9343    45.7508
  759.5000    17.3129    14.2393    64.0417   -29.9371    42.2943
  760.0000    17.1648    14.2408    64.4150   -30.0901    39.8902
  760.5000    17.0161    14.2422    65.1586   -30.0931    43.3412
