~VERSION INFORMATION
 VERS.                2.0:   CWLS LOG ASCII STANDARD - VERSION 2.0
 WRAP.                 NO:   ONE LINE PER DEPTH STEP
~WELL INFORMATION
#MNEM.UNIT      DATA TYPE    INFORMATION
#----------   ------------   ------------------------------
 STRT.F           28.5000:   START DEPTH
 STOP.F          781.0000:   STOP DEPTH
 STEP.F            0.5000:   STEP LENGTH
 NULL.          -999.2500:   NO VALUE
 COMP. FENIX & SCISSON INC:   COMPANY
 WELL. NPR 3 23 SX 14 #23-14:   WELL
 FLD .        TEAPOT DOME:   FIELD
 LOC .      S14 T38N R78W:   LOCATION
 CNTY.            NATRONA:   COUNTY
 STAT.            WYOMING:   STATE
 CTRY. UNITED STATES OF AMERICA:   COUNTRY
 SRVC.            Unknown:   SERVICE COMPANY
 DATE.        13-MAY-1978:   LOGDATE
 API .       490251063400:   API NUMBER
~CURVE INFORMATION
#MNEM.UNIT       API CODE    CURVE DESCRIPTION
#----------   ------------   ------------------------------
 DEPT.F                  :   
 RHOB.G/C3   45 350 01 00:   BULK DENSITY
 DPHI.DEC    45 890 12 00:   DENSITY POROSITY SANDSTONE
 GRD .GAPI   45 310 01 00:   GAMMA RAY FROM DENSITY LOG
 CALD.IN     45 280 60 00:   CALIPER FROM DENSITY LOG
 CORR.G/C3   45 356 01 00:   DENSITY CORRECTION
 SN  .OHMM   05 040 16 00:   SHORT NORMAL 16"
 SPR .MV     05 010 01 00:   SPONTANEOUS POTENTIAL FROM RES.
 ILD .OHMM   05 120 46 00:   INDUCTION LOG DEEP
~PARAMETER INFORMATION
#MNEM.UNIT          VALUE    DESCRIPTION
#----------   ------------   ------------------------------
 PD  .                 GL:   PERMANENT DATUM
 EPD .F              5202:   ELEVATION PERMANENT DATUM
 LMF .                 KB:   LOG MEASURED FROM
 DMF .                 KB:   DRILLING MEASURED FROM
 EKB .F              5206:   KELLING BUSHING
 EGL .F              5202:   GROUND LEVEL
 DATE.          5-13-1978:   RUN DATE
 RUN .                  1:   RUN NUMBER
 DD  .F               785:   DEPTH DRILLER
 DL  .F               776:   DEPTH LOGGER
 BLI .F               770:   BOTTOM LOG INTERVAL
 TLI .F                50:   TOP LOG INTERVAL
 CS  .IN            8.625:   CASING SIZE
 CBD .F                40:   CASING BOTTOM DRILLER
 CBL .F                40:   CASING BOTTOM LOGGER
 BS  .IN            7.875:   BIT SIZE
 BSD .F               785:   BIT SIZE AT DEPTH
 DFT .                KCL:   DRILLING FLUID TYPE
 DFD .                8.6:   DRILLING FLUID DENSITY
 DFV .                 30:   DRILLING FLUID VISCOSITY
 DFPH.                 10:   DRILLING FLUID PH
 DFL .                 14:   DRILLING FLUID LOSS
 MSS .           FLOWLINE:   MUD SAMPLE SOURCE
 RMS .OHMM             .4:   RESISTIVITY MUD SAMPLE
 MST .F                69:   MUD SAMPLE TEMPERATURE
 RMF .OHMM            .36:   RESISTIVITY MUD FILTRATE SAMPLE
 MFST.F                72:   MUD FILTRATE SAMPLE TEMPERATURE
 RMC .OHMM            .56:   RESISTIVITY MUD CAKE
 MCST.F                73:   MUD CAKE SAMPLE TEMPERATURE
 MFSS.               MEAS:   MUD FILTRATE SAMPLE SOURCE
 RMB .OHMM            .35:   RESISTIVITY MUD AT BHT
 BHT .F                79:   BOTTOM HOLE TEMPERATURE
 TCS .HRS               2:   TIME CURCULATED STOPPED
 MRT .F                79:   MAXIMUM RECORDED TEMPERATURE
 LUN .               3006:   LOGGING UNIT NUMBER
 LUL .              CASP.:   LOGGING UNIT LOCATION
 ENGI.             MILLER:   RECORDING ENGINEER
 WITN.           MCGINLEY:   WITNESSED BY
 CLNT.            A2DTECH:   CLIENT CODE
 ORIG.           5" PRINT:   ORIGIN OF DATA
 UWI .       490251063400:   UNIQUE WELL ID
 DICO. A2D Technologies, Inc.:   DIGITIZING COMPANY
~OTHER INFORMATION
~A   DEPT     RHOB       DPHI         GRD      CALD       CORR         SN        SPR        ILD   
# ...
  109.5000     2.4151     0.1570    57.7679     6.8833     0.0242    10.0664   -64.1890     8.2398
  110.0000     2.3866     0.1689    57.7008     6.7056     0.0254    10.0664   -64.9964     7.4618
  110.5000     2.3636     0.1756    58.0069     6.5451     0.0292     9.1224   -65.2403     6.7572
  111.0000     2.3606     0.1903    59.0304     6.5498     0.0361     8.2827   -65.3899     6.1187
  111.5000     2.3385     0.2061    59.9405     6.5818     0.0381     7.5203   -65.5390     5.5404
  112.0000     2.3092     0.2219    60.8746     6.6160     0.0381     6.8280   -65.6881     4.9600
  112.5000     2.2800     0.2385    65.5984     6.6499     0.0455     6.1995   -65.8417     4.9601
  113.0000     2.2608     0.2385    74.4857     6.6819     0.0591     5.8004   -65.6969     5.0058
  113.5000     2.2739     0.2076    85.8138     6.7136     0.0715     5.8004   -65.2851     5.0552
  114.0000     2.3057     0.1835    87.9231     6.7434     0.0761     6.2081   -63.9317     5.1051
  114.5000     2.3375     0.1694    79.3922     6.8318     0.0708     6.9730   -62.5302     5.2710
  115.0000     2.3691     0.1553    72.7269     6.9270     0.0761     7.9548   -61.6339     6.1058
  115.5000     2.4010     0.1475    66.7211     7.0269     0.0720     8.8367   -61.4315     7.0729
  116.0000     2.4047     0.1487    66.7383     7.2044     0.0629     9.4406   -61.2221     8.1931
  116.5000     2.4015     0.1506    66.6697     7.4078     0.0579     9.6850   -61.0146     9.2673
  117.0000     2.3984     0.1525    68.1830     7.6277     0.0574     9.9304   -60.8064     9.6536
  117.5000     2.3953     0.1579    70.0645     7.6993     0.0568    10.1834   -60.5984     9.8848
  118.0000     2.3874     0.1634    67.8885     7.7188     0.0564    10.4431   -60.3910     9.8385
  118.5000     2.3810     0.1688    64.2991     7.7389     0.0530    10.7095   -59.9864     9.7928
  119.0000     2.3735     0.1743    62.2677     7.7594     0.0475    10.9827   -59.5200     9.9560
  119.5000     2.3628     0.1761    63.1028     7.7687     0.0431    11.2629   -59.0522    10.2906
  120.0000     2.3564     0.1797    64.0560     7.7400     0.0405    11.5502   -58.5855    10.6365
  120.5000     2.3499     0.1852    63.5276     7.7117     0.0380    11.8448   -58.1133    10.9941
  121.0000     2.3433     0.1871    60.9357     7.6836     0.0360    12.1470   -57.9872    11.3636
  121.5000     2.3412     0.1870    58.3888     7.6556     0.0361    12.4569   -58.0346    11.4898
  122.0000     2.3412     0.1869    59.0316     7.6275     0.0361    12.7746   -58.0857    11.5435
  122.5000     2.3412     0.1851    61.5380     7.5995     0.0361    12.9007   -58.1367    11.5975
  123.0000     2.3494     0.1795    61.7820     7.5719     0.0361    12.9404   -58.1873    11.6518
  123.5000     2.3613     0.1761    61.6319     7.5471     0.0361    12.9888   -58.2380    11.7063
  124.0000     2.3638     0.1737    61.5605     7.4835     0.0346    13.0373   -58.2896    11.7611
  124.5000     2.3665     0.1712    62.9696     7.4187     0.0319    13.0861   -58.3467    11.9993
  125.0000     2.3692     0.1687    63.8059     7.3542     0.0293    13.1351   -58.1197    12.2613
  125.5000     2.3710     0.1766    64.7846     7.2898     0.0266    13.1842   -57.6519    12.5473
  126.0000     2.3618     0.1797    67.0929     7.2253     0.0241    13.2336   -56.9141    12.7194
  126.5000     2.3525     0.1800    68.0056     7.1610     0.0240    13.2831   -56.3493    12.9553
  127.0000     2.3500     0.1812    67.3278     7.0962     0.0240    13.3325   -56.3607    13.1968
  127.5000     2.3485     0.1833    63.7933     7.0617     0.0240    13.3836   -56.3615    13.4429
  128.0000     2.3444     0.1882    61.6926     7.0468     0.0250    13.5176   -56.3618    13.6936
  128.5000     2.3405     0.1901    61.5131     7.0323     0.0270    13.6563   -56.3618    13.9489
  129.0000     2.3368     0.1911    61.6399     7.0172     0.0289    13.7960   -56.3618    14.2091
  129.5000     2.3352     0.1937    61.7536     6.9765     0.0309    13.9373   -56.3618    14.4740
  130.0000     2.3337     0.1890    61.8719     6.9050     0.0350    14.0799   -56.3619    14.7439
  130.5000     2.3428     0.1788    61.6118     6.8337     0.0430    14.2240   -56.3618    14.9902
  131.0000     2.3664     0.1707    61.0493     6.7626     0.0466    14.3696   -56.3593    15.1628
  131.5000     2.3748     0.1659    60.7588     6.6023     0.0478    14.5167   -56.3457    15.3374
  132.0000     2.3778     0.1674    63.7266     6.3725     0.0397    14.6653   -56.3324    15.5140
  132.5000     2.3769     0.1677    65.7246     6.2327     0.0402    14.8154   -56.3191    15.6926
  133.0000     2.3765     0.1674    65.6962     6.2422     0.0435    14.9670   -56.3057    15.8733
  133.5000     2.3776     0.1671    65.2341     6.4679     0.0498    15.1202   -56.2924    16.0561
  134.0000     2.3786     0.1668    62.8999     6.7338     0.0557    15.2750   -56.2791    16.2409
  134.5000     2.3795     0.1638    61.6469     6.9977     0.0617    15.4313   -56.2658    16.4279
  135.0000     2.3805     0.1581    63.2822     7.0712     0.0677    15.5893   -56.2525    16.6171
  135.5000     2.3934     0.1525    65.0781     7.1169     0.0737    15.7488   -56.2392    16.8084
  136.0000     2.4071     0.1469    66.8937     7.1627     0.0750    15.9101   -56.2259    16.8589
  136.5000     2.4155     0.1447    67.6867     7.2088     0.0731    16.0729   -56.2125    16.8823
  137.0000     2.4126     0.1457    67.7020     7.1426     0.0712    16.2374   -56.1991    16.9053
  137.5000     2.4084     0.1479    67.7023     7.0234     0.0713    16.4036   -56.1848    16.9285
  138.0000     2.4044     0.1543    67.7035     6.9197     0.0743    16.5715   -56.1729    16.9513
  138.5000     2.3918     0.1630    67.6825     7.1159     0.0554    16.6855   -56.2441    16.9763
  139.0000     2.3814     0.1652    67.2218     7.3213     0.0354    16.2654   -56.5955    16.9950
  139.5000     2.3783     0.1717    66.7550     7.4312     0.0265    15.9558   -56.9293    16.5466
  140.0000     2.3574     0.1843    66.2905     7.4457     0.0295    15.6462   -57.1766    16.1649
  140.5000     2.3479     0.1832    65.8091     7.4604     0.0334    15.5141   -57.2224    15.7906
  141.0000     2.3514     0.1810    65.7011     7.4668     0.0373    15.3806   -57.2725    15.6896
  141.5000     2.3552     0.1789    65.7025     7.4411     0.0384    15.2483   -57.3216    15.5890
  142.0000     2.3589     0.1772    65.6848     7.4160     0.0388    15.1170   -57.3710    15.4889
  142.5000     2.3626     0.1772    65.0721     7.3900     0.0392    14.9869   -57.4202    15.3895
  143.0000     2.3638     0.1735    64.4241     7.3343     0.0396    14.8078   -57.4684    15.2908
  143.5000     2.3646     0.1703    63.7857     7.1504     0.0400    14.6059   -57.5194    15.0779
  144.0000     2.3653     0.1760    63.2322     7.0767     0.0398    14.4067   -57.6610    14.5658
  144.5000     2.3659     0.1688    63.5417     7.2034     0.0394    14.1750   -58.1203    14.0788
  145.0000     2.3718     0.1640    64.1784     7.2906     0.0390    13.8729   -58.5628    13.6070
  145.5000     2.3801     0.1591    65.3953     7.2714     0.0386    13.5769   -59.0609    13.1507
  146.0000     2.3944     0.1517    67.1444     7.2544     0.0382    13.2071   -59.8441    12.6110
  146.5000     2.4094     0.1433    68.2830     7.2887     0.0378    12.8193   -60.6373    11.6296
  147.0000     2.4245     0.1349    68.1743     7.4010     0.0374    12.3192   -61.4296    10.7251
  147.5000     2.4376     0.1267    68.1258     7.4713     0.0369    11.5698   -62.2240     9.8916
  148.0000     2.4423     0.1276    70.5338     7.4054     0.0365    10.6210   -62.8366     9.1229
  148.5000     2.4420     0.1291    76.0059     7.2996     0.0361     9.7904   -63.3470     8.4139
  149.0000     2.4416     0.1271    80.3139     7.1924     0.0366     9.3239   -63.6228     7.8303
  149.5000     2.4451     0.1252    79.9746     7.0857     0.0373     8.9312   -63.7839     7.4730
