~VERSION INFORMATION
 VERS.                2.0:   CWLS LOG ASCII STANDARD - VERSION 2.0
 WRAP.                 NO:   ONE LINE PER DEPTH STEP
~WELL INFORMATION
#MNEM.UNIT      DATA TYPE    INFORMATION
#----------   ------------   ------------------------------
 STRT.F            0.0000:   START DEPTH
 STOP.F          530.0000:   STOP DEPTH
 STEP.F            0.5000:   STEP LENGTH
 NULL.          -999.2500:   NO VALUE
 COMP.   LAWRENCE-ALLISON:   COMPANY
 WELL. NPR 3 #51-56SX10 OB3:   WELL
 FLD .             TEAPOT:   FIELD
 LOC .      S10 T38N R78W:   LOCATION
 CNTY.            NATRONA:   COUNTY
 STAT.            WYOMING:   STATE
 CTRY. UNITED STATES OF AMERICA:   COUNTRY
 SRVC.           Gearhart:   SERVICE COMPANY
 DATE.        28-JUN-1987:   LOGDATE
 API .       490251100800:   API NUMBER
~CURVE INFORMATION
#MNEM.UNIT       API CODE    CURVE DESCRIPTION
#----------   ------------   ------------------------------
 DEPT.F                  :   
 CALD.IN     45 280 60 00:   CALIPER ROM DENSITY LOG
 CNC .DEC    45 890 03 00:   NEUTRON POROSITY SANDSTONE
 CORR.G/C3   45 356 01 00:   DENSITY CORRECTION
 DEN .G/C3   45 350 01 00:   COMPENSATED BULK DENSTIY
 PORD.DEC    45 890 12 00:   POROSITY DENSITY SANDSTONE
 GRR .GAPI   07 310 01 00:   GAMMA RAY
 ILD .OHMM   07 120 46 00:   INDUCTION LOG DEEP
 ILM .OHMM   07 120 44 00:   INDUCTION LOG MEDIUM
 LL  .OHMM   07 220 00 00:   LATEROLOG RESISTIVITY
 SPR .MV     07 010 01 00:   SPONTANEOUS POTENTIAL
 DT  .US/F   60 520 00 00:   INTERVAL TRANSIT TIME
~PARAMETER INFORMATION
#MNEM.UNIT          VALUE    DESCRIPTION
#----------   ------------   ------------------------------
 PD  .                 GL:   PERMANENT DATUM
 EPD .F              5198:   ELEVATION PERMANENT DATUM
 LMF .                 KB:   LOG MEASURED FROM
 DAPD.F                 8:   FEET ABOVE PERMANENT DATUM
 DMF .                 KB:   DRILLING MEASURED FROM
 EKB .F              5206:   KELLING BUSHING
 EDF .F              5204:   DRILLING FLOOR
 EGL .F              5198:   GROUND LEVEL
 DATE.        28-JUN-1987:   RUN DATE
 RUN .                  1:   RUN NUMBER
 DD  .F               535:   DEPTH DRILLER
 DL  .F               536:   DEPTH LOGGER
 BLI .F               533:   BOTTOM LOG INTERVAL
 BS  .IN             7.87:   BIT SIZE
 BSD .F               535:   BIT SIZE AT DEPTH
 DFT .                MUD:   DRILLING FLUID TYPE
 RMS .OHMM           0.84:   RESISTIVITY MUD SAMPLE
 MST .F                57:   MUD SAMPLE TEMPERATURE
 RMF .OHMM           0.63:   RESISTIVITY MUD FILTRATE SAMPLE
 MFST.F                57:   MUD FILTRATE SAMPLE TEMPERATURE
 RMC .OHMM           1.05:   RESISTIVITY MUD CAKE
 MCST.F                57:   MUD CAKE SAMPLE TEMPERATURE
 MFSS.               CALC:   MUD FILTRATE SAMPLE SOURCE
 MCSS.               CALC:   MUD CAKE SAMPLE SOURCE
 RMB .OHMM           0.59:   RESISTIVITY MUD AT BHT
 BHT .F                80:   BOTTOM HOLE TEMPERATURE
 TCS .HRS            1200:   TIME CURCULATED STOPPED
 TLAB.HRS            1322:   TIME LOGGER AT BOTTOM
 LUN .               7650:   LOGGING UNIT NUMBER
 LUL .           GILLETTE:   LOGGING UNIT LOCATION
 ENGI. JOHNSTON/HUCKFELDT:   RECORDING ENGINEER
 WITN.             STRONG:   WITNESSED BY
 CLNT.            A2DTECH:   CLIENT CODE
 ORIG.      2.5" 5" PRINT:   ORIGIN OF DATA
 UWI .       490251100800:   UNIQUE WELL ID
 DICO. A2D Technologies, Inc.:   DIGITIZING COMPANY
~OTHER INFORMATION
~A    DEPT    CALD        CNC       CORR        DEN       PORD         GRR         ILD        ILM       LL        SPR         DT   
    0.0000  -999.2500  -999.2500  -999.2500  -999.2500  -999.2500    29.4294     1.4565     1.7912  1941.4525   -13.8138  -999.2500
    0.5000  -999.2500  -999.2500  -999.2500  -999.2500  -999.2500    32.6797     1.7191     1.9106  1941.4525   -12.7019  -999.2500
    1.0000  -999.2500  -999.2500  -999.2500  -999.2500  -999.2500    34.8168     2.3940     2.4495  1941.4525   -15.4491  -999.2500
    1.5000  -999.2500  -999.2500  -999.2500  -999.2500  -999.2500    37.3103     3.4271     2.3059  1941.4525   -16.2820  -999.2500
    2.0000  -999.2500  -999.2500  -999.2500  -999.2500  -999.2500    41.4540    10.4731     2.0732  1941.4525   -12.0426  -999.2500
    2.5000  -999.2500  -999.2500  -999.2500  -999.2500  -999.2500    39.0545    13.3800     2.0488  1941.4525   -14.7713  -999.2500
    3.0000  -999.2500  -999.2500  -999.2500  -999.2500  -999.2500    37.8562    30.6845     2.1953  1941.4525   -13.8656  -999.2500
    3.5000  -999.2500  -999.2500  -999.2500  -999.2500  -999.2500    37.1662    38.0348     3.1490  1941.4525   -14.4212  -999.2500
    4.0000  -999.2500  -999.2500  -999.2500  -999.2500  -999.2500    37.8620    39.9383     5.3573  1941.4525   -15.8283  -999.2500
    4.5000  -999.2500  -999.2500  -999.2500  -999.2500  -999.2500    40.2673    37.9472    14.3297  1941.4525   -18.3355  -999.2500
    5.0000  -999.2500  -999.2500  -999.2500  -999.2500  -999.2500    45.2352    26.2449    18.2809  1941.4525   -22.2213  -999.2500
    5.5000  -999.2500  -999.2500  -999.2500  -999.2500  -999.2500    48.8498    10.5231    20.5164  1941.4525   -25.5084  -999.2500
    6.0000  -999.2500  -999.2500  -999.2500  -999.2500  -999.2500    52.8008     8.5418    10.0193  1941.4525   -29.0949  -999.2500
    6.5000  -999.2500  -999.2500  -999.2500  -999.2500  -999.2500    57.3564     7.8596     4.9607  1748.7534   -34.1933  -999.2500
    7.0000  -999.2500  -999.2500  -999.2500  -999.2500  -999.2500    63.4174     7.8237     4.1364  1222.2372   -40.3992  -999.2500
    7.5000  -999.2500  -999.2500  -999.2500  -999.2500  -999.2500    69.5546     8.0841     3.9805   572.7033   -44.9584  -999.2500
    8.0000  -999.2500  -999.2500  -999.2500  -999.2500  -999.2500    75.1391     8.5448     3.9814   411.4648   -48.3380  -999.2500
    8.5000  -999.2500  -999.2500  -999.2500  -999.2500  -999.2500    78.9219     9.4131     4.0961    45.9571   -50.3195  -999.2500
    9.0000  -999.2500  -999.2500  -999.2500  -999.2500  -999.2500    96.1507    10.6596     4.3613    44.7189   -47.6436  -999.2500
    9.5000  -999.2500  -999.2500  -999.2500  -999.2500  -999.2500   100.3577    13.2943     5.3588   445.2100   -43.6654  -999.2500
   10.0000  -999.2500  -999.2500  -999.2500  -999.2500  -999.2500    99.7600    19.7983     7.2693  1084.1620   -40.7186  -999.2500
   10.5000  -999.2500  -999.2500  -999.2500  -999.2500  -999.2500    99.7629    25.3387    10.9065  1585.3175   -38.8307  -999.2500
   11.0000  -999.2500  -999.2500  -999.2500  -999.2500  -999.2500    98.5646    42.2885    15.6800  1863.5573   -37.4376  -999.2500
   11.5000  -999.2500  -999.2500  -999.2500  -999.2500  -999.2500    95.5645    64.4590    21.5129  2000.0000   -36.3336  -999.2500
   12.0000  -999.2500  -999.2500  -999.2500  -999.2500  -999.2500    96.8809    71.0037    29.2887  -999.2500   -35.6012  -999.2500
   12.5000  -999.2500  -999.2500  -999.2500  -999.2500  -999.2500    97.9730    79.6145    34.2597  -999.2500   -39.8013  -999.2500
   13.0000  -999.2500  -999.2500  -999.2500  -999.2500  -999.2500    95.5732    88.6564    37.8486  -999.2500   -51.4122  -999.2500
   13.5000  -999.2500  -999.2500  -999.2500  -999.2500  -999.2500    94.7878    97.3686    39.2061  -999.2500   -71.2109  -999.2500
   14.0000  -999.2500  -999.2500  -999.2500  -999.2500  -999.2500    93.1766   103.9872    40.4789  -999.2500   -92.4610  -999.2500
   14.5000  -999.2500  -999.2500  -999.2500  -999.2500  -999.2500    93.4565   102.5906    39.9328  -999.2500   -95.6038  -999.2500
   15.0000  -999.2500  -999.2500  -999.2500  -999.2500  -999.2500    95.3453    88.1769    39.9217  -999.2500   -96.3394  -999.2500
   15.5000  -999.2500  -999.2500  -999.2500  -999.2500  -999.2500    99.1928    75.7883    42.3221  -999.2500   -95.4349  -999.2500
   16.0000  -999.2500     0.0297  -999.2500  -999.2500  -999.2500    96.7933    65.1403    45.3707  -999.2500   -93.0333  -999.2500
   16.5000  -999.2500     0.0306  -999.2500  -999.2500  -999.2500    94.9944    60.8171    47.8181  -999.2500   -96.0210  -999.2500
   17.0000  -999.2500     0.0330  -999.2500  -999.2500  -999.2500    94.9973    59.1786    46.5277  -999.2500   -97.2122  -999.2500
   17.5000  -999.2500     0.0336  -999.2500  -999.2500  -999.2500    95.0001    58.1087    43.4377  -999.2500   -96.9054  -999.2500
   18.0000  -999.2500     0.0323  -999.2500  -999.2500  -999.2500    95.0030    53.4909    40.5529  -999.2500   -86.7194    40.1966
   18.5000  -999.2500     0.0287  -999.2500  -999.2500  -999.2500    95.6066    49.8457    37.3413  -999.2500   -78.6292    42.6228
   19.0000  -999.2500     0.0294  -999.2500  -999.2500  -999.2500    95.6096    48.4103    35.3133  -999.2500   -77.0616    49.4407
   19.5000  -999.2500     0.0341  -999.2500  -999.2500  -999.2500    94.8959    47.5264    34.3915  -999.2500   -75.9208    65.6601
   20.0000     6.3930     0.0413     0.2287     2.0464     0.4075    93.2128    47.5421    33.8085  -999.2500   -74.1181   116.3291
   20.5000     6.3794     0.0482     0.2093     1.9981     0.4125    91.6066    47.5552    33.3091  -999.2500   -71.4171   119.0717
   21.0000     6.3510     0.0527     0.0994     2.0313     0.3553    89.0144    43.7937    31.9244  -999.2500   -64.8436   125.0505
   21.5000     6.3377     0.0538     0.0136     2.2175     0.2996    93.1742    42.0304    30.5972  -999.2500   -57.6115   131.1048
   22.0000     6.3238     0.0532     0.0073     2.3698     0.2860    95.6276    38.7036    29.5874  -999.2500   -49.8401   165.1234
   22.5000     6.3103     0.0526     0.0636     2.3962     0.1687    95.6312    34.6707    28.7890  -999.2500   -65.1043   164.5654
   23.0000     6.3119     0.0520     0.0576     2.4046     0.1665    95.6341    32.3697    28.0121  -999.2500   -62.5499   156.1098
   23.5000     6.3280     0.0519     0.0300     2.4114     0.1617    95.6370    28.5997    27.2561  -999.2500   -59.3413   141.3002
   24.0000     6.3293     0.0498     0.0132     2.4175     0.1563    95.6399    28.1952    25.7484  -999.2500   -57.5970   133.1079
   24.5000     6.3454     0.0507     0.0265     2.4153     0.1596    95.0420    26.5040    21.9878  -999.2500   -57.6744   125.1788
   25.0000     6.3615     0.0519     0.0448     2.4040     0.1628    95.0450    22.7514    18.9426  -999.2500   -57.8848   123.5990
   25.5000     6.3777     0.0518     0.0585     2.4056     0.1619    93.8028    19.9021    17.6381  -999.2500   -58.6327   120.9609
   26.0000     6.3938     0.0515     0.0692     2.4102     0.1604    93.2490    15.9698    16.4666  -999.2500   -59.5808   116.9623
   26.5000     6.4100     0.0506     0.0723     2.4164     0.1555    94.4535    12.4211    14.5723  -999.2500   -60.3942   116.7411
   27.0000     6.3964     0.0493     0.0664     2.4234     0.1519    93.6797    10.5078    12.1028  -999.2500   -60.5522   116.3707
   27.5000     6.3828     0.0487     0.0545     2.4330     0.1445    93.2577     9.6389    10.5463  -999.2500   -60.5444   113.0542
   28.0000     6.3692     0.0508     0.0516     2.4458     0.1361    91.8679     7.9538     9.0641  -999.2500   -59.9393   110.5673
   28.5000     6.3705     0.0601     0.0442     2.4512     0.1373    86.9179     6.9312     7.0736  -999.2500   -58.7353   111.6330
   29.0000     6.3721     0.0941     0.0203     2.4482     0.1385    80.0547     6.3826     5.4445  -999.2500   -55.7350   112.7742
   29.5000     6.3731     0.1662     0.0068     2.4460     0.1399    76.4539     6.0417     4.9155  -999.2500   -51.8114   112.7817
   30.0000     6.3747     0.2974     0.0100     2.4468     0.1408    75.8559     5.8790     4.2661  -999.2500   -48.7026   112.7135
