~VERSION INFORMATION
 VERS.                2.0:   CWLS LOG ASCII STANDARD - VERSION 2.0
 WRAP.                 NO:   ONE LINE PER DEPTH STEP
~WELL INFORMATION
#MNEM.UNIT      DATA TYPE    INFORMATION
#----------   ------------   ------------------------------
 STRT.F           27.0000:   START DEPTH
 STOP.F          760.0000:   STOP DEPTH
 STEP.F            0.5000:   STEP LENGTH
 NULL.          -999.2500:   NO VALUE
 COMP. FENIX & SCISSON INC:   COMPANY
 WELL.    NPR #3 #33-S-14:   WELL
 FLD .             TEAPOT:   FIELD
 LOC .      S14 T38N R78W:   LOCATION
 CNTY.            NATRONA:   COUNTY
 STAT.            WYOMING:   STATE
 CTRY. UNITED STATES OF AMERICA:   COUNTRY
 SRVC.              Welex:   SERVICE COMPANY
 DATE.        02-FEB-1977:   LOGDATE
 API .       490251027700:   API NUMBER
~CURVE INFORMATION
#MNEM.UNIT       API CODE    CURVE DESCRIPTION
#----------   ------------   ------------------------------
 DEPT.F                  :   
 SPR .MV     07 010 01 00:   SPONTANEOUS POTENTIAL
 SGRD.OHMM   07 220 05 00:   SHALLOW RESISTIVITY
 ILD .OHMM   07 120 46 00:   INDUCTION LOG DEEP
 ILM .OHMM   07 120 44 00:   INDUCTION LOG MEDIUM
 GRD .GAPI   45 310 01 00:   GAMMA RAY FROM DENSITY LOG
 CALD.IN     45 280 60 00:   CALIPER
 RHOB.G/C3   45 350 01 00:   BULK DENSITY
 CORR.G/C3   45 356 01 00:   DENSITY CORRECTION
 DPHI.DEC    45 890 00 00:   DENSITY POROSITY
~PARAMETER INFORMATION
#MNEM.UNIT          VALUE    DESCRIPTION
#----------   ------------   ------------------------------
 PD  .                 GL:   PERMANENT DATUM
 EPD .F              5219:   ELEVATION PERMANENT DATUM
 LMF .                 GL:   LOG MEASURED FROM
 DMF .                 GL:   DRILLING MEASURED FROM
 EKB .F              5224:   KELLING BUSHING
 EGL .F              5219:   GROUND LEVEL
 DATE.           2-2-1977:   RUN DATE
 RUN .                  1:   RUN NUMBER
 DD  .F               761:   DEPTH DRILLER
 DL  .F               762:   DEPTH LOGGER
 BLI .F               760:   BOTTOM LOG INTERVAL
 TLI .F                25:   TOP LOG INTERVAL
 CS  .IN            8.625:   CASING SIZE
 CBD .F              42.5:   CASING BOTTOM DRILLER
 CBL .F                46:   CASING BOTTOM LOGGER
 BS  .IN            7.875:   BIT SIZE
 BSD .F               761:   BIT SIZE AT DEPTH
 DFT .           CHEM-GEL:   DRILLING FLUID TYPE
 DFD .                8.9:   DRILLING FLUID DENSITY
 DFV .                 37:   DRILLING FLUID VISCOSITY
 DFPH.                  7:   DRILLING FLUID PH
 DFL .                8.4:   DRILLING FLUID LOSS
 MSS .          FLOW LINE:   MUD SAMPLE SOURCE
 RMS .OHMM           .231:   RESISTIVITY MUD SAMPLE
 MST .F                45:   MUD SAMPLE TEMPERATURE
 RMF .OHMM           .322:   RESISTIVITY MUD FILTRATE SAMPLE
 MFST.F                45:   MUD FILTRATE SAMPLE TEMPERATURE
 RMC .OHMM           .439:   RESISTIVITY MUD CAKE
 MCST.F                45:   MUD CAKE SAMPLE TEMPERATURE
 MFSS.           MEASURED:   MUD FILTRATE SAMPLE SOURCE
 MCSS.           MEASURED:   MUD CAKE SAMPLE SOURCE
 RMB .OHMM           .182:   RESISTIVITY MUD AT BHT
 BHT .F                57:   BOTTOM HOLE TEMPERATURE
 TCS .HRS             5.5:   TIME CURCULATED STOPPED
 MRT .F                57:   MAXIMUM RECORDED TEMPERATURE
 LUN .               8611:   LOGGING UNIT NUMBER
 LUL .           GILLETTE:   LOGGING UNIT LOCATION
 ENGI.             LAWSON:   RECORDING ENGINEER
 WITN. VOORHEES/RHOADES/JAPP/PETTINGILL/STUEBINGER:   WITNESSED BY
 CLNT.            A2DTECH:   CLIENT CODE
 ORIG.     1", 2.5" PRINT:   ORIGIN OF DATA
 UWI .       490251027700:   UNIQUE WELL ID
 DICO. A2D Technologies, Inc.:   DIGITIZING COMPANY
~OTHER INFORMATION
~A   DEPT      SPR       SGRD        ILD        ILM        GRD       CALD         RHOB      CORR      DPHI   
# ...
  684.0000   -15.6266    13.8028    14.4323    14.9899    79.3376     7.4985     2.3738     0.1066     0.1673
  684.5000   -15.3623    14.0667    14.7282    15.3234    80.9864     7.4957     2.3819     0.1044     0.1619
  685.0000   -15.0956    14.3500    15.0300    15.9852    82.6061     7.4960     2.3889     0.1022     0.1565
  685.5000   -14.8319    14.6389    15.3380    16.6757    84.6327     7.4961     2.3998     0.0999     0.1510
  686.0000   -14.5695    14.9337    15.6553    17.3960    86.7099     7.4960     2.4106     0.0977     0.1454
  686.5000   -14.4221    15.1178    16.0122    18.2301    88.4553     7.5508     2.4165     0.0955     0.1395
  687.0000   -14.3300    15.0205    16.0122    17.7632    87.4840     7.6579     2.4103     0.0933     0.1418
  687.5000   -14.2402    14.9238    16.0122    17.2542    86.5555     7.7653     2.4114     0.0911     0.1434
  688.0000   -14.1496    14.8277    16.0122    16.7598    86.7269     7.8563     2.4173     0.0888     0.1412
  688.5000   -14.0591    14.7322    15.9598    16.9276    87.9867     7.9223     2.4160     0.0866     0.1391
  689.0000   -13.9687    14.6373    15.8857    16.9276    89.1162     7.9209     2.4135     0.0844     0.1416
  689.5000   -13.8781    14.5430    15.8120    16.8839    87.6401     7.9209     2.4109     0.0822     0.1447
  690.0000   -13.7875    14.4494    15.7382    16.7459    86.0208     7.9208     2.4077     0.0803     0.1462
  690.5000   -13.6973    14.3563    15.6653    16.6090    85.4057     7.9208     2.3985     0.0798     0.1504
  691.0000   -13.6059    14.2639    15.5925    16.4732    84.9016     7.9208     2.3893     0.0792     0.1562
  691.5000   -13.5159    14.1720    15.5201    16.3386    85.0709     7.9208     2.3801     0.0787     0.1625
  692.0000   -13.4265    14.0808    15.4478    16.2050    86.8162     7.9208     2.3705     0.0781     0.1593
  692.5000   -13.3292    13.9901    15.3757    16.0725    88.4466     7.9208     2.3746     0.0775     0.1556
  693.0000   -13.3157    13.9000    15.3040    16.0122    88.9880     7.9208     2.3825     0.0769     0.1547
  693.5000   -13.3751    13.8059    15.2344    16.5063    87.6270     7.9208     2.3830     0.0764     0.1581
  694.0000   -13.4271    14.0855    15.1637    17.2442    86.4195     7.9208     2.3722     0.0758     0.1614
  694.5000   -13.4786    14.3864    14.9034    17.0557    86.7776     7.9208     2.3669     0.0752     0.1636
  695.0000   -13.5316    14.6938    14.5869    16.5472    87.0101     7.9208     2.3772     0.0746     0.1546
  695.5000   -13.5854    15.0078    14.2770    16.0191    85.8669     7.9208     2.3871     0.0759     0.1558
  696.0000   -13.6356    15.3285    13.9738    16.0131    84.7478     7.9208     2.3979     0.0785     0.1555
  696.5000   -13.6858    15.6561    13.6770    16.0073    83.7039     7.9208     2.4080     0.0811     0.1481
  697.0000   -13.6479    15.9906    13.5524    16.0028    83.9352     7.9208     2.4187     0.0838     0.1408
  697.5000   -13.6065    16.3323    13.3684    16.3002    84.9539     7.9208     2.4296     0.0864     0.1345
  698.0000   -13.5616    16.6168    13.2139    16.0669    85.9587     7.9208     2.4278     0.0890     0.1368
  698.5000   -13.5182    16.4653    13.0611    15.8347    86.9750     7.9208     2.4246     0.0917     0.1387
  699.0000   -13.4753    16.3383    12.9101    15.6115    88.3149     7.9208     2.4219     0.0944     0.1364
  699.5000   -13.4318    16.2123    12.7608    15.3833    89.6707     7.9208     2.4158     0.0958     0.1374
  700.0000   -13.3859    16.0873    12.5841    15.1585    90.7995     7.9208     2.4084     0.0838     0.1447
  700.5000   -13.3481    15.9541    12.5379    14.9369    91.3853     7.9208     2.4056     0.0718     0.1506
  701.0000   -13.3059    15.8082    12.4804    14.7186    91.9636     7.9208     2.4133     0.0676     0.1421
  701.5000   -13.5292    15.6635    12.4242    14.5035    92.5510     7.9208     2.4207     0.0694     0.1383
  702.0000   -13.8359    15.4296    12.3668    14.3272    92.7585     7.9208     2.4286     0.0714     0.1371
  702.5000   -14.1424    15.8016    12.3098    13.9086    92.4002     7.9208     2.4474     0.0733     0.1302
  703.0000   -14.4452    16.8739    12.2533    13.5650    90.7839     7.9208     2.4510     0.0752     0.1261
  703.5000   -14.7506    18.5711    12.1972    13.2302    89.2218     7.9208     2.4389     0.0772     0.1291
  704.0000   -15.0537    17.2773    12.1413    12.8412    87.5851     7.9208     2.4331     0.0791     0.1321
  704.5000   -15.3618    16.2675    12.0178    12.8910    89.4356     7.9208     2.4405     0.0810     0.1306
  705.0000   -15.6617    14.8617    11.8712    12.9908    92.0558     7.9208     2.4477     0.0830     0.1280
  705.5000   -15.9653    14.8933    11.7267    13.0910    94.8059     7.9208     2.4550     0.0849     0.1254
  706.0000   -16.2971    14.9639    11.5838    13.1918    95.1947     7.9208     2.4621     0.0868     0.1236
  706.5000   -16.4347    15.0388    11.4427    13.3035    95.1633     7.9208     2.4638     0.0887     0.1236
  707.0000   -16.2533    15.1168    11.2599    13.5801    97.6271     7.9208     2.4436     0.0892     0.1297
  707.5000   -16.1026    15.1960    11.2922    13.8957    95.7394     7.9208     2.4236     0.0826     0.1376
  708.0000   -15.9485    15.2772    11.3394    14.2187    92.5380     7.9208     2.4028     0.0761     0.1455
  708.5000   -15.7886    15.3554    11.3869    14.3531    89.7907     7.9208     2.4076     0.0702     0.1494
  709.0000   -15.6327    15.4340    11.4346    14.3920    91.7360     7.9209     2.4086     0.0720     0.1447
  709.5000   -15.4798    15.5130    11.4825    14.4310    93.6464     7.9228     2.4048     0.0743     0.1478
  710.0000   -15.3205    15.5925    11.5305    14.4700    95.1752     7.9248     2.4185     0.0765     0.1403
  710.5000   -15.3642    15.7182    11.5788    14.5092    93.7807     7.9268     2.4334     0.0787     0.1332
  711.0000   -15.4982    15.6893    11.6273    14.5485    92.0884     7.9289     2.4357     0.0790     0.1369
  711.5000   -15.6280    15.6218    11.6850    14.5952    90.7345     7.9309     2.4196     0.0727     0.1413
  712.0000   -15.7552    15.5547    11.6269    14.5611    91.9453     7.9329     2.4085     0.0668     0.1457
  712.5000   -15.8856    15.4872    11.5558    14.5193    93.1258     7.9349     2.3975     0.0608     0.1510
  713.0000   -16.0131    15.4206    11.4852    14.4776    94.3025     7.9370     2.4057     0.0591     0.1456
  713.5000   -16.1431    15.3546    11.4151    14.4361    95.4778     7.9390     2.4185     0.0599     0.1402
  714.0000   -16.2734    15.2887    11.3453    14.3947    96.6331     7.9410     2.4320     0.0608     0.1385
  714.5000   -16.3936    15.2231    11.2760    14.3534    95.9574     7.9430     2.4300     0.0616     0.1367
  715.0000   -16.6196    15.1577    11.3483    13.9344    92.0821     7.9451     2.4230     0.0625     0.1373
  715.5000   -16.9576    15.0925    11.4648    13.0593    88.3455     7.9471     2.4213     0.0633     0.1385
  716.0000   -17.2856    15.0276    11.5825    13.5173    87.5072     7.9491     2.4240     0.0642     0.1378
  716.5000   -17.6152    14.9630    11.6850    14.1530    88.2543     7.9511     2.4268     0.0636     0.1357
  717.0000   -17.9444    14.8987    11.5793    13.6204    89.0350     7.9532     2.4271     0.0624     0.1366
  717.5000   -18.2748    14.8346    11.4871    12.8195    89.8231     7.9552     2.4229     0.0611     0.1381
  718.0000   -18.6082    14.7708    11.3957    13.3034    90.4290     7.9572     2.4183     0.0598     0.1397
  718.5000   -18.8621    14.7073    11.3049    12.9340    89.2522     7.9593     2.4137     0.0585     0.1403
  719.0000   -18.9126    14.6441    11.2149    12.3573    88.0361     7.9613     2.4129     0.0572     0.1382
  719.5000   -18.9685    14.5811    11.1257    12.4692    87.1841     7.9633     2.4232     0.0559     0.1330
  720.0000   -19.0192    14.5185    11.0371    12.7190    89.2039     7.9653     2.4352     0.0547     0.1270
