~VERSION INFORMATION
 VERS.                2.0:   CWLS LOG ASCII STANDARD - VERSION 2.0
 WRAP.                 NO:   ONE LINE PER DEPTH STEP
~WELL INFORMATION
#MNEM.UNIT      DATA TYPE    INFORMATION
#----------   ------------   ------------------------------
 STRT.F           25.0000:   START DEPTH
 STOP.F          867.0000:   STOP DEPTH
 STEP.F            0.5000:   STEP LENGTH
 NULL.          -999.2500:   NO VALUE
 COMP. LAWRENCE/ALLISON INC:   COMPANY
 WELL.    38-11 SX #35-35:   WELL
 FLD .             TEAPOT:   FIELD
 LOC .      S35 T39N R78W:   LOCATION
 CNTY.            NATRONA:   COUNTY
 STAT.            WYOMING:   STATE
 CTRY. UNITED STATES OF AMERICA:   COUNTRY
 SRVC.      Dresser Atlas:   SERVICE COMPANY
 DATE.        07-AUG-1985:   LOGDATE
 API .       490251104100:   API NUMBER
~CURVE INFORMATION
#MNEM.UNIT       API CODE    CURVE DESCRIPTION
#----------   ------------   ------------------------------
 DEPT.F                  :   
 SPR .MV     07 010 01 00:   SPONTANEOUS POTENTIAL
 RILD.OHMM   07 120 46 00:   INDUCTION LOG DEEP RESISTIVITY
 RILM.OHMM   07 120 44 00:   INDUCTION LOG MEDIUM RESISTIVITY
 RFOC.OHMM   07 220 04 00:   RESISTIVITY FOCUSED LOG
 PORD.DEC    45 890 12 00:   POROSITY DENSITY SANDSTONE
 CNC .DEC    42 890 03 00:   NEUTRON POROSITY SANDSTONE
 GRD .GAPI   45 310 01 00:   GAMMA RAY FROM DENSITY LOG
 CALD.IN     45 280 60 00:   CALIPER FROM DENSITY LOG
 CORR.G/C3   45 356 01 00:   DENSITY CORRECTION
 DEN .G/C3   45 350 01 00:   COMPENSATED BULK DENSTIY
~PARAMETER INFORMATION
#MNEM.UNIT          VALUE    DESCRIPTION
#----------   ------------   ------------------------------
 PD  .                 GL:   PERMANENT DATUM
 EPD .F              5110:   ELEVATION PERMANENT DATUM
 LMF .                 GL:   LOG MEASURED FROM
 DMF .                 GL:   DRILLING MEASURED FROM
 EGL .F              5110:   GROUND LEVEL
 DATE.             8-7-85:   RUN DATE
 RUN .                  1:   RUN NUMBER
 DD  .F               900:   DEPTH DRILLER
 DL  .F               869:   DEPTH LOGGER
 BLI .F               867:   BOTTOM LOG INTERVAL
 TLI .F                40:   TOP LOG INTERVAL
 CS  .IN            8.625:   CASING SIZE
 CBD .F                40:   CASING BOTTOM DRILLER
 CBL .F                40:   CASING BOTTOM LOGGER
 BS  .IN            7.875:   BIT SIZE
 BSD .F               900:   BIT SIZE AT DEPTH
 DFT .             4% KCL:   DRILLING FLUID TYPE
 MSS .           FLOWLINE:   MUD SAMPLE SOURCE
 RMS .OHMM           .222:   RESISTIVITY MUD SAMPLE
 MST .F                71:   MUD SAMPLE TEMPERATURE
 TCS .HRS               2:   TIME CURCULATED STOPPED
 MRT .F               100:   MAXIMUM RECORDED TEMPERATURE
 LUN .               6264:   LOGGING UNIT NUMBER
 LUL .               GLTE:   LOGGING UNIT LOCATION
 ENGI.           FAHLSING:   RECORDING ENGINEER
 WITN.              FIVAS:   WITNESSED BY
 CLNT.            A2DTECH:   CLIENT CODE
 ORIG.       2", 5" PRINT:   ORIGIN OF DATA
 UWI .       490251104100:   UNIQUE WELL ID
 DICO. A2D Technologies, Inc.:   DIGITIZING COMPANY
~OTHER INFORMATION
~A   DEPT      SPR       RILD       RILM       RFOC       PORD          CNC      GRD       CALD       CORR        DEN   
# ...
  393.5000   -65.6366     6.4133     6.5417     6.9792     0.1438     0.3330    94.4585     8.1202     0.0430     2.4387
  394.0000   -65.4907     6.3233     6.4950     6.8343     0.1411     0.3373    96.2759     8.1210     0.0236     2.4417
  394.5000   -65.4981     6.2345     6.4043     6.8324     0.1411     0.3458    98.0933     8.1217     0.0160     2.4455
  395.0000   -65.5041     6.1047     6.3148     6.8306     0.1390     0.3521    99.3128     8.1376     0.0281     2.4463
  395.5000   -65.5100     6.0607     6.2210     6.8287     0.1381     0.3312   100.5323     8.1383     0.0418     2.4471
  396.0000   -65.5159     6.0170     6.1316     6.7799     0.1374     0.3132   103.5494     8.1390     0.0295     2.4485
  396.5000   -65.5219     6.0149     6.0534     6.6851     0.1362     0.3045   105.0640     8.1245     0.0252     2.4501
  397.0000   -65.5278     6.0545     6.0936     6.6373     0.1333     0.3042   102.9676     8.1254     0.0462     2.4523
  397.5000   -65.5338     6.1811     6.2624     6.5445     0.1308     0.3087   101.4848     8.1262     0.0627     2.4576
  398.0000   -65.5399     6.3984     6.5705     6.5426     0.1268     0.3225   100.6507     8.1116     0.0717     2.4644
  398.5000   -65.5459     6.6233     6.8463     6.7316     0.1228     0.3374   102.7730     8.1277     0.0613     2.4711
  399.0000   -65.5530     6.8925     7.0847     7.0061     0.1201     0.3461   103.0956     8.1284     0.0523     2.4779
  399.5000   -65.5590     7.0830     7.2314     7.2003     0.1180     0.3482   103.1193     8.1292     0.0359     2.4854
  400.0000   -65.5664     7.1825     7.3368     7.3029     0.1174     0.3503   103.5238     8.1299     0.0256     2.4806
  400.5000   -65.6033     7.2176     7.3788     7.3520     0.1224     0.3490   104.0625     8.1197     0.0180     2.4740
  401.0000   -65.6401     7.2281     7.2178     7.4156     0.1248     0.3423   103.4912     8.1148     0.0565     2.4735
  401.5000   -65.6770     7.1285     7.0763     7.7115     0.1185     0.3282   103.1779     8.1148     0.0880     2.4829
  402.0000   -65.7138     6.9820     6.9779     7.6053     0.1155     0.2988   101.6960     8.1299     0.1021     2.4860
  402.5000   -65.7371     6.8835     6.8809     7.3976     0.1212     0.2892    99.3922     8.1148     0.0737     2.4743
  403.0000   -65.7415     6.7911     6.6923     7.1956     0.1263     0.3018    98.5153     8.1148     0.0409     2.4661
  403.5000   -65.7460     6.6056     6.5538     6.9991     0.1313     0.3203    98.5486     8.1148     0.0379     2.4609
  404.0000   -65.9007     6.4699     6.4183     6.8552     0.1319     0.3489    98.5752     8.0846     0.0425     2.4593
  404.5000   -65.9053     6.3369     6.2855     6.7142     0.1335     0.3653    98.9007     8.0846     0.0381     2.4554
  405.0000   -65.9098     6.2067     6.1555     6.6217     0.1362     0.3692    98.0305     8.0695     0.0352     2.4497
  405.5000   -65.9151     6.0792     6.0282     6.5304     0.1376     0.3749    95.6654     8.0846     0.0547     2.4520
  406.0000   -65.9195     6.0787     5.9856     6.4851     0.1331     0.3830    91.2077     8.1148     0.0668     2.4610
  406.5000   -65.9240     6.0365     5.9843     6.5296     0.1309     0.3733    93.6259     8.1148     0.0728     2.4595
  407.0000   -65.9284     6.0361     6.0732     6.5743     0.1306     0.3454    96.9410     8.0997     0.0714     2.4633
  407.5000   -66.0832     6.2046     6.2344     6.7114     0.1300     0.3257    98.7613     8.1148     0.0640     2.4671
  408.0000   -66.0876     6.3339     6.3638     6.8988     0.1285     0.3116    99.9837     8.0846     0.0401     2.4693
  408.5000   -66.0920     6.4660     6.4953     7.0917     0.1264     0.3083    99.7047     8.1000     0.0267     2.4701
  409.0000   -66.0964     6.6007     6.5842     7.1898     0.1258     0.3119    96.4495     8.1148     0.0253     2.4709
  409.5000   -66.2512     6.6517     6.6288     7.1892     0.1258     0.3131    93.1876     8.1148     0.0222     2.4701
  410.0000   -66.1053     6.7379     6.6733     7.1887     0.1255     0.3047    95.0079     8.1148     0.0210     2.4687
  410.5000   -66.1098     6.7840     6.7181     7.1882     0.1341     0.2993    98.0240     8.1148     0.0660     2.4597
  411.0000   -66.2647     6.8304     6.8098     7.1877     0.1446     0.3023    98.3498     8.1148     0.1079     2.4485
  411.5000   -66.2700     6.8774     6.8555     7.3885     0.1509     0.3044    97.4578     8.1148     0.1245     2.4283
  412.0000   -66.2744     6.9725     6.9016     7.4392     0.1454     0.3023    96.2751     8.1299     0.1350     2.4276
  412.5000   -66.2788     7.0689     6.9041     7.4902     0.1287     0.3278    95.0922     8.1148     0.1246     2.4772
  413.0000   -65.9814     7.1173     6.9465     7.4856     0.1077     0.3445    93.9717     8.1148     0.1052     2.4974
  413.5000   -65.8354     7.1167     6.9448     7.3783     0.1062     0.3477    94.3039     8.1148     0.0664     2.5002
  414.0000   -65.8410     7.1162     6.8956     7.2344     0.1119     0.3328    95.2273     8.0846     0.0380     2.4920
  414.5000   -65.8454     7.0668     6.8942     7.2340     0.1124     0.3352    95.2539     8.0695     0.0291     2.4898
  415.0000   -66.0002     7.0663     6.8928     7.2837     0.1136     0.3295    95.2805     8.0846     0.0337     2.4883
  415.5000   -66.0046     7.0173     6.8440     7.3845     0.1155     0.3193    95.3071     8.0846     0.0412     2.4839
  416.0000   -66.1594     6.9686     6.8427     7.5384     0.1186     0.3127    96.2306     8.0846     0.0428     2.4779
  416.5000   -66.3143     6.8725     6.7942     7.4345     0.1235     0.3210    97.7519     8.1148     0.0429     2.4734
  417.0000   -66.4692     6.8248     6.7462     7.3321     0.1237     0.3296    95.6859     8.1148     0.0415     2.4727
  417.5000   -66.6249     6.7774     6.6984     7.1813     0.1240     0.3330    95.4069     8.1299     0.0131     2.4705
  418.0000   -66.7797     6.7303     6.6510     7.0336     0.1264     0.3294    97.8317     8.1299    -0.0063     2.4653
  418.5000   -66.9345     6.6836     6.6001     6.9847     0.1273     0.3279    99.0475     8.1299     0.0364     2.4675
  419.0000   -66.9389     6.6372     6.5121     6.8885     0.1231     0.3303    98.1839     8.1299     0.0649     2.4765
  419.5000   -66.9433     6.6368     6.5105     6.8880     0.1201     0.3372    97.2587     8.1148     0.0718     2.4743
  420.0000   -66.7963     6.5907     6.4644     6.9833     0.1237     0.3429    98.8350     8.1148     0.0584     2.4721
  420.5000   -66.6503     6.5902     6.4631     6.9347     0.1206     0.3450    99.4848     8.1148     0.1019     2.4766
  421.0000   -66.5052     6.5898     6.5068     6.8391     0.1188     0.3288    97.6923     8.1148     0.1499     2.4804
  421.5000   -66.5099     6.5893     6.5052     6.7916     0.1275     0.3108    94.4286     8.1148     0.1739     2.4652
  422.0000   -66.8150     6.5889     6.5039     6.8855     0.1257     0.3066    93.2612     8.1148     0.1561     2.4685
  422.5000   -66.9699     6.5885     6.5026     6.9809     0.1194     0.3189    95.4111     8.1299     0.0917     2.4827
  423.0000   -67.1248     6.5879     6.5012     7.1758     0.1179     0.3380    97.8435     8.1299     0.0154     2.4730
  423.5000   -67.2805     6.5875     6.5449     7.2751     0.1238     0.3356   100.2236     8.1299    -0.0055     2.4768
  424.0000   -67.2850     6.5870     6.6345     7.2245     0.1202     0.3288   101.4460     8.1299     0.0306     2.4798
  424.5000   -67.4397     6.5866     6.6791     7.1250     0.1199     0.2865    99.3799     8.1299     0.0441     2.4790
  425.0000   -67.4442     6.5861     6.7240     6.9784     0.1190     0.2841    99.1009     8.1299     0.0546     2.4835
  425.5000   -67.4486     6.5857     6.7691     6.8349     0.1181     0.2985   100.3300     8.1148     0.0682     2.4843
  426.0000   -67.4530     6.5852     6.7674     6.9372     0.1175     0.3102   101.5524     8.1148     0.0862     2.4799
  426.5000   -67.4574     6.5848     6.7661     7.1723     0.1196     0.3221   100.9811     8.1148     0.0953     2.4776
