~VERSION INFORMATION
 VERS.                2.0:   CWLS LOG ASCII STANDARD - VERSION 2.0
 WRAP.                 NO:   ONE LINE PER DEPTH STEP
~WELL INFORMATION
#MNEM.UNIT      DATA TYPE    INFORMATION
#----------   ------------   ------------------------------
 STRT.F           47.0000:   START DEPTH
 STOP.F          790.0000:   STOP DEPTH
 STEP.F            0.5000:   STEP LENGTH
 NULL.          -999.2500:   NO VALUE
 COMP. LAWRENCE/ALLISON INC:   COMPANY
 WELL. NPR #3 #21-16 SX 2:   WELL
 FLD .             NPR #3:   FIELD
 LOC .       S2 T38N R78W:   LOCATION
 CNTY.            NATRONA:   COUNTY
 STAT.            WYOMING:   STATE
 CTRY. UNITED STATES OF AMERICA:   COUNTRY
 SRVC.           Gearhart:   SERVICE COMPANY
 DATE.        16-MAY-1986:   LOGDATE
 API .       490251106700:   API NUMBER
~CURVE INFORMATION
#MNEM.UNIT       API CODE    CURVE DESCRIPTION
#----------   ------------   ------------------------------
 DEPT.F                  :   
 CNS .DEC    42 890 00 00:   NEUTRON POROSITY
 GRD .GAPI   45 310 01 00:   GAMMA RAY FROM DENSITY LOG
~PARAMETER INFORMATION
#MNEM.UNIT          VALUE    DESCRIPTION
#----------   ------------   ------------------------------
 PD  .                 GL:   PERMANENT DATUM
 LMF .                 GL:   LOG MEASURED FROM
 DATE.        16-MAY-1986:   RUN DATE
 RUN .                  1:   RUN NUMBER
 DD  .F               835:   DEPTH DRILLER
 DL  .F               835:   DEPTH LOGGER
 BLI .F               835:   BOTTOM LOG INTERVAL
 TLI .F                70:   TOP LOG INTERVAL
 CS  .IN              4.5:   CASING SIZE
 DFT .              WATER:   DRILLING FLUID TYPE
 LUN .               6084:   LOGGING UNIT NUMBER
 LUL .           GILLETTE:   LOGGING UNIT LOCATION
 ENGI.                COX:   RECORDING ENGINEER
 WITN.             STRONG:   WITNESSED BY
 CLNT.            A2DTECH:   CLIENT CODE
 ORIG.           5" PRINT:   ORIGIN OF DATA
 UWI .       490251106700:   UNIQUE WELL ID
 DICO. A2D Technologies, Inc.:   DIGITIZING COMPANY
 R1  .                 NE:   REMARKS 1
~OTHER INFORMATION
~A   DEPT        CNS       GRD  
# ...
  654.5000     0.2676   106.7027
  655.0000     0.2588   104.4786
  655.5000     0.2539   101.5088
  656.0000     0.2538    98.7459
  656.5000     0.3068   100.2578
  657.0000     0.3107   102.3803
  657.5000     0.3025   105.1136
  658.0000     0.2889   103.2667
  658.5000     0.2802   100.1984
  659.0000     0.2801    97.3439
  659.5000     0.2801    93.4475
  660.0000     0.2738    94.9239
  660.5000     0.2578    95.5415
  661.0000     0.2484    98.9115
  661.5000     0.2450   101.9757
  662.0000     0.2435   104.1225
  662.5000     0.2577   104.1286
  663.0000     0.2619   101.6882
  663.5000     0.2553    99.8594
  664.0000     0.2483    98.6422
  664.5000     0.2465    98.9571
  665.0000     0.2483   100.5100
  665.5000     0.2486   102.6535
  666.0000     0.2362   104.1712
  666.5000     0.2132   105.4007
  667.0000     0.2117   106.0184
  667.5000     0.2313   105.6727
  668.0000     0.2533   104.7545
  668.5000     0.2557   102.9798
  669.0000     0.2461   100.2336
  669.5000     0.2322    98.0990
  670.0000     0.2255    97.1861
  670.5000     0.2249    99.0286
  671.0000     0.2357    99.3405
  671.5000     0.2523    99.3466
  672.0000     0.2708    98.1294
  672.5000     0.3037    94.4658
  673.0000     0.3049    90.8021
  673.5000     0.3003    86.5269
  674.0000     0.2746    87.4504
  674.5000     0.2462    89.9029
  675.0000     0.2250    92.3555
  675.5000     0.2204    93.5848
  676.0000     0.2234    94.8141
  676.5000     0.2305    95.1260
  677.0000     0.2290    95.7437
  677.5000     0.2283    94.8324
  678.0000     0.2277    90.8629
  678.5000     0.1999    83.2238
  679.0000     0.1936    74.3613
  679.5000     0.1941    68.8628
  680.0000     0.2029    63.9759
  680.5000     0.2159    60.6181
  681.0000     0.2243    59.4009
  681.5000     0.2282    59.7128
  682.0000     0.2297    61.5538
  682.5000     0.2198    65.2296
  683.0000     0.2098    68.9054
  683.5000     0.2070    71.0521
  684.0000     0.1889    70.7523
  684.5000     0.1828    70.4526
  685.0000     0.1856    70.4588
  685.5000     0.1982    70.7707
  686.0000     0.2215    71.0826
  686.5000     0.2169    71.4057
  687.0000     0.2070    73.9016
  687.5000     0.2069    77.2937
  688.0000     0.2320    80.9903
  688.5000     0.2402    82.4281
  689.0000     0.2359    81.4701
  689.5000     0.2265    79.8857
  690.0000     0.1974    77.2489
  690.5000     0.1824    75.7260
  691.0000     0.1706    76.0378
  691.5000     0.1609    76.6555
  692.0000     0.1512    77.5791
  692.5000     0.1477    78.5026
  693.0000     0.1496    79.1203
  693.5000     0.1573    79.7380
  694.0000     0.1751    80.0499
  694.5000     0.1992    80.6676
  695.0000     0.2164    80.9795
  695.5000     0.2243    80.9855
  696.0000     0.2294    81.2974
  696.5000     0.2179    80.6919
  697.0000     0.2131    80.0848
  697.5000     0.2089    78.2576
  698.0000     0.2059    76.1230
  698.5000     0.2032    76.4349
  699.0000     0.1992    77.6642
  699.5000     0.2017    79.5051
  700.0000     0.2071    78.1351
  700.5000     0.2136    74.0160
  701.0000     0.2136    72.8019
  701.5000     0.2100    72.8110
  702.0000     0.2048    75.5724
  702.5000     0.2021    78.6396
  703.0000     0.2054    78.6488
  703.5000     0.2084    79.2695
  704.0000     0.2121    79.6289
  704.5000     0.2158    79.5556
  705.0000     0.2160    81.1317
  705.5000     0.2099    83.8931
  706.0000     0.2039    86.6546
  706.5000     0.2033    87.5811
  707.0000     0.2099    88.2019
  707.5000     0.2142    89.1335
  708.0000     0.2151    89.7492
  708.5000     0.2108    88.5158
  709.0000     0.2078    86.6832
  709.5000     0.2042    85.1223
  710.0000     0.2105    82.0590
  710.5000     0.2114    80.8308
  711.0000     0.2063    79.0461
  711.5000     0.2048    77.5806
  712.0000     0.2054    78.8152
  712.5000     0.2250    80.9650
  713.0000     0.2268    83.7264
  713.5000     0.2223    85.8762
  714.0000     0.2096    87.1086
  714.5000     0.2002    86.8096
  715.0000     0.2067    85.9036
  715.5000     0.2176    83.7720
  716.0000     0.2198    81.6405
  716.5000     0.2153    81.0357
  717.0000     0.2213    81.6587
  717.5000     0.2259    82.8911
  718.0000     0.2250    84.7351
  718.5000     0.2174    84.4361
  719.0000     0.2068    84.7533
  719.5000     0.2047    85.3741
  720.0000     0.2108    86.3006
  720.5000     0.2020    87.5330
  721.0000     0.1981    88.1537
  721.5000     0.1993    86.9396
  722.0000     0.2065    85.4197
  722.5000     0.2113    83.5939
  723.0000     0.2112    82.0740
  723.5000     0.2116    80.5541
  724.0000     0.2150    79.0341
  724.5000     0.2213    77.2084
  725.0000     0.2273    75.9943
  725.5000     0.2316    74.7801
  726.0000     0.2335    74.4832
  726.5000     0.2330    74.4926
  727.0000     0.2303    73.8901
  727.5000     0.2237    71.4527
  728.0000     0.2053    71.1559
  728.5000     0.1938    72.3884
  729.0000     0.1896    74.8564
  729.5000     0.1889    77.9377
  730.0000     0.2004    81.0194
  730.5000     0.2240    84.0735
  731.0000     0.2303    85.5838
  731.5000     0.2324    84.5920
  732.0000     0.2358    82.1406
  732.5000     0.2424    81.0240
  733.0000     0.2493    81.6471
  733.5000     0.2584    82.5736
  734.0000     0.2626    81.3595
  734.5000     0.2548    79.8396
  735.0000     0.2466    78.6255
  735.5000     0.2418    77.1055
  736.0000     0.2420    75.5856
  736.5000     0.2581    73.7598
  737.0000     0.2587    72.5457
  737.5000     0.2549    71.3316
  738.0000     0.2493    71.6465
  738.5000     0.2358    72.5731
  739.0000     0.2076    73.8055
  739.5000     0.1955    75.6494
  740.0000     0.1922    77.4934
  740.5000     0.2131    79.0316
  741.0000     0.2108    79.3465
  741.5000     0.2100    78.4382
  742.0000     0.2100    76.3067
  742.5000     0.2236    75.7019
  743.0000     0.2272    76.0191
  743.5000     0.2281    77.5573
  744.0000     0.2212    79.4012
  744.5000     0.2085    79.7162
  745.0000     0.2027    79.4195
  745.5000     0.2024    79.1205
  746.0000     0.2076    78.2145
  746.5000     0.2200    77.9174
  747.0000     0.2284    78.8444
  747.5000     0.2242    77.6302
  748.0000     0.2187    79.1684
  748.5000     0.2178    81.0124
  749.0000     0.2196    82.8564
  749.5000     0.2281    85.0062
  750.0000     0.2372    87.4630
  750.5000     0.2414    87.1648
  751.0000     0.2435    86.2530
  751.5000     0.2411    85.0392
  752.0000     0.2368    83.8235
  752.5000     0.2308    83.5233
  753.0000     0.2265    82.9211
  753.5000     0.2247    82.6210
  754.0000     0.2262    81.4072
  754.5000     0.2268    79.8857
  755.0000     0.2282    78.3642
  755.5000     0.2383    76.8425
  756.0000     0.2436    77.1560
  756.5000     0.2412    79.6328
  757.0000     0.2337    82.4261
  757.5000     0.2215    84.8686
  758.0000     0.2074    87.5856
  758.5000     0.1992    87.2873
  759.0000     0.2004    86.3756
  759.5000     0.2101    86.3850
  760.0000     0.2046    85.7809
  760.5000     0.2016    84.2594
  761.0000     0.2031    82.1263
  761.5000     0.2046    80.6048
  762.0000     0.2055    81.5297
  762.5000     0.2033    86.1244
  763.0000     0.2015    88.2727
  763.5000     0.1991    88.8918
  764.0000     0.1973    86.7587
  764.5000     0.1966    84.9314
  765.0000     0.1966    84.0214
  765.5000     0.1960    84.3462
  766.0000     0.1960    87.7267
  766.5000     0.2002    89.6233
  767.0000     0.2044    90.7798
  767.5000     0.2039    89.8715
  768.0000     0.1933    88.3500
  768.5000     0.1884    89.2750
  769.0000     0.1996    91.1174
  769.5000     0.2092    90.2075
  770.0000     0.1962    89.2957
  770.5000     0.1844    90.8342
  771.0000     0.1826    92.6766
  771.5000     0.1859    95.1306
  772.0000     0.2001    95.4421
  772.5000     0.2110    92.6992
  773.0000     0.2155    92.0948
  773.5000     0.2176    92.7143
  774.0000     0.2179    93.9451
  774.5000     0.2139    95.4817
  775.0000     0.2073    96.4068
  775.5000     0.2027    95.7443
