~VERSION INFORMATION
 VERS.                2.0:   CWLS LOG ASCII STANDARD - VERSION 2.0
 WRAP.                 NO:   ONE LINE PER DEPTH STEP
~WELL INFORMATION
#MNEM.UNIT      DATA TYPE    INFORMATION
#----------   ------------   ------------------------------
 STRT.F            2.0000:   START DEPTH
 STOP.F          595.0000:   STOP DEPTH
 STEP.F            0.5000:   STEP LENGTH
 NULL.          -999.2500:   NO VALUE
 COMP.       F D SERV INC:   COMPANY
 WELL.    73-5 SX-3 #73-3:   WELL
 FLD .             TEAPOT:   FIELD
 LOC .       S3 T38N R78W:   LOCATION
 CNTY.            NATRONA:   COUNTY
 STAT.            WYOMING:   STATE
 CTRY. UNITED STATES OF AMERICA:   COUNTRY
 SRVC.     Atlas Wireline:   SERVICE COMPANY
 DATE.        01-MAY-1992:   LOGDATE
 API .       490252252200:   API NUMBER
~CURVE INFORMATION
#MNEM.UNIT       API CODE    CURVE DESCRIPTION
#----------   ------------   ------------------------------
 DEPT.F                  :   
 CALD.IN     45 280 60 00:   CALIPER FROM DENSITY
 CORR.G/C3   45 356 01 00:   DENSITY CORRECTION
 DEN .G/C3   45 350 01 00:   COMPENSATED BULK DENSTIY
 GRD .GAPI   45 310 01 00:   GAMMA RAY FROM DENSITY LOG
 RILD.OHMM   07 120 46 00:   INDUCTION LOG DEEP RESISTIVITY
 RILM.OHMM   07 120 44 00:   INDUCTION LOG MEDIUM RESISTIVITY
 PORD.DEC    45 890 12 00:   POROSITY DENSITY SANDSTONE
~PARAMETER INFORMATION
#MNEM.UNIT          VALUE    DESCRIPTION
#----------   ------------   ------------------------------
 PD  .                 GL:   PERMANENT DATUM
 EPD .F              5147:   ELEVATION PERMANENT DATUM
 LMF .                 KB:   LOG MEASURED FROM
 DAPD.F                 5:   FEET ABOVE PERMANENT DATUM
 DMF .                 KB:   DRILLING MEASURED FROM
 EKB .F              5152:   KELLING BUSHING
 EGL .F              5147:   GROUND LEVEL
 DATE.        01-MAY-1992:   RUN DATE
 RUN .                  1:   RUN NUMBER
 DD  .F               600:   DEPTH DRILLER
 DL  .F               603:   DEPTH LOGGER
 BLI .F               601:   BOTTOM LOG INTERVAL
 TLI .F                 2:   TOP LOG INTERVAL
 CS  .IN            8.625:   CASING SIZE
 CBD .F                46:   CASING BOTTOM DRILLER
 CBL .F                53:   CASING BOTTOM LOGGER
 BS  .IN            7.875:   BIT SIZE
 BSD .F               600:   BIT SIZE AT DEPTH
 DFT .                AIR:   DRILLING FLUID TYPE
 TCS .HRS               1:   TIME CURCULATED STOPPED
 LUN .            HL-6274:   LOGGING UNIT NUMBER
 LUL .             CASPER:   LOGGING UNIT LOCATION
 ENGI.             ZIEGER:   RECORDING ENGINEER
 WITN.             STRONG:   WITNESSED BY
 CLNT.            A2DTECH:   CLIENT CODE
 ORIG.           5" PRINT:   ORIGIN OF DATA
 UWI .       490252252200:   UNIQUE WELL ID
 DICO. A2D Technologies, Inc.:   DIGITIZING COMPANY
~OTHER INFORMATION
~A    DEPT    CALD       CORR        DEN         GRD      RILD       RILM       PORD   
# ...
  457.0000     8.2247    -0.0169     2.2995   103.0316    28.2395    29.2425     0.2132
  457.5000     8.2244    -0.0171     2.2844   103.9447    28.6285    29.4392     0.2189
  458.0000     8.2241    -0.0173     2.2662   104.5175    28.4196    29.0211     0.2319
  458.5000     8.2238    -0.0144     2.2434    98.6795    27.8232    28.6111     0.2413
  459.0000     8.2235    -0.0146     2.2343    95.9740    26.8619    28.2068     0.2458
  459.5000     8.2232    -0.0148     2.2599    94.2629    26.2982    27.8082     0.2462
  460.0000     8.2229    -0.0180     2.2885    99.3668    25.5673    27.0353     0.2330
  460.5000     8.2226    -0.0182     2.3247   105.0722    24.6839    26.1011     0.2173
  461.0000     8.2072    -0.0153     2.3443   108.6723    23.9978    25.1993     0.1862
  461.5000     8.2069    -0.0156     2.3532   110.4678    22.8476    24.1594     0.1791
  462.0000     8.2066    -0.0127     2.3547   108.6544    22.0581    23.1624     0.1770
  462.5000     8.2063    -0.0098     2.3470   105.9387    21.5953    22.2066     0.1798
  463.0000     8.2211    -0.0100     2.3392   104.7268    21.1421    21.7406     0.1852
  463.5000     8.2359    -0.0072     2.3318   105.9209    20.8433    21.2843     0.1898
  464.0000     8.2506    -0.0043     2.3302   108.0172    20.5488    20.9836     0.1919
  464.5000     8.2503    -0.0045     2.3316   110.1136    20.2585    20.9777     0.1913
  465.0000     8.2349    -0.0016     2.3361   111.3077    20.2528    20.9718     0.1892
  465.5000     8.2195    -0.0019     2.3406   110.3965    20.2471    20.9660     0.1871
  466.0000     8.2192    -0.0020     2.3450   109.1846    20.3834    20.9601     0.1859
  466.5000     8.2189    -0.0052     2.3419   109.7772    20.3764    20.9531     0.1886
  467.0000     8.2186    -0.0054     2.3343   111.5728    20.3708    20.9473     0.1920
  467.5000     8.2033    -0.0056     2.3327   112.1654    20.3652    20.9415     0.1914
  468.0000     8.2030    -0.0058     2.3462   108.8327    20.5035    20.9357     0.1796
  468.5000     8.2178    -0.0060     2.3643   105.1761    20.4964    20.9300     0.1739
  469.0000     8.2174    -0.0062     2.3733   104.6198    20.4908    20.9242     0.1718
  469.5000     8.2172    -0.0093     2.3641   106.4613    20.4851    20.7729     0.1728
  470.0000     8.2169    -0.0126     2.3459   107.0080    20.4795    20.6228     0.1789
  470.5000     8.2166    -0.0158     2.3428   104.5908    20.3315    20.3314     0.1825
  471.0000     8.2163    -0.0129     2.3489   104.2834    20.0442    20.1844     0.1836
  471.5000     8.2160    -0.0101     2.3565   107.2797    20.0387    20.0385     0.1779
  472.0000     8.2157    -0.0072     2.3609   110.5791    19.7555    19.7554     0.1746
  472.5000     8.2003    -0.0044     2.3682   112.9762    19.6127    19.6126     0.1724
  473.0000     8.2000    -0.0046     2.3711   113.5710    19.6073    19.6072     0.1719
  473.5000     8.1846    -0.0078     2.3605   113.2591    19.6019    19.4654     0.1761
  474.0000     8.1693    -0.0110     2.3513   113.5532    19.4603    19.1904     0.1794
  474.5000     8.1690    -0.0081     2.3498   112.6398    19.3196    18.9192     0.1803
  475.0000     8.1687    -0.0083     2.3618   111.1271    19.1800    18.5222     0.1737
  475.5000     8.1683    -0.0054     2.3723   109.9151    18.6408    18.1335     0.1701
  476.0000     8.1680    -0.0057     2.3843   113.2145    18.1168    17.7529     0.1650
  476.5000     8.1677    -0.0058     2.3948   117.4161    17.7308    17.1395     0.1571
  477.0000     8.1524    -0.0091     2.4023   119.5125    17.2323    16.6631     0.1511
  477.5000     8.1521    -0.0092     2.4052   124.3156    16.7743    16.4257     0.1484
  478.0000     8.1367    -0.0124     2.4051   131.5247    16.5372    16.1954     0.1520
  478.5000     8.1364    -0.0126     2.3990   133.6210    16.4177    16.1910     0.1554
  479.0000     8.1512    -0.0131     2.3914   133.9129    16.1857    16.1865     0.1575
  479.5000     8.1509    -0.0160     2.3853   131.4456    16.0688    16.1819     0.1591
  480.0000     8.1506    -0.0162     2.3775   128.3615    15.9526    16.1765     0.1657
  480.5000     8.1654    -0.0194     2.3681   124.1301    15.9482    16.1720     0.1742
  481.0000     8.1650    -0.0166     2.3606   116.1306    15.9438    16.0551     0.1757
  481.5000     8.1497    -0.0168     2.3683   112.8134    15.8286    16.0507     0.1639
  482.0000     8.1494    -0.0169     2.3758   111.6030    15.7142    15.8239     0.1621
  482.5000     8.1491    -0.0171     2.3818   115.8444    15.6006    15.4918     0.1624
  483.0000     8.1488    -0.0142     2.3787   120.6797    15.3802    15.2729     0.1633
  483.5000     8.1334    -0.0084     2.3741   123.0048    15.0574    14.9524     0.1670
  484.0000     8.1331    -0.0055     2.3695   119.1260    14.7415    14.7411     0.1700
  484.5000     8.1178     0.0003     2.3679   112.4584    14.4321    14.5328     0.1712
  485.0000     8.1175     0.0093     2.3814   111.8502    13.7403    14.3274     0.1670
  485.5000     8.1021     0.0151     2.4055   114.2451    13.4520    14.0268     0.1616
  486.0000     8.1018     0.0028     2.4205   112.4317    13.1672    13.6369     0.1477
  486.5000     8.0864    -0.0064     2.4235   111.5205    12.9835    13.3507     0.1380
  487.0000     8.0711     0.0085     2.4219   114.2183    12.8001    13.0706     0.1381
  487.5000     8.0708     0.0204     2.4248   116.6154    12.6045    12.8859     0.1387
  488.0000     8.0705     0.0295     2.4308   117.8095    12.3536    12.6154     0.1365
  488.5000     8.0725     0.0412     2.4369   119.3044    12.1791    12.4372     0.1288
  489.0000     8.0999     0.0285     2.4461   121.4007    12.0070    12.3473     0.1222
  489.5000     8.0996     0.0106     2.4612   121.6948    11.8373    12.1728     0.1133
  490.0000     8.1145    -0.0017     2.4743   121.0821    11.6700    12.0008     0.1070
  490.5000     8.1292    -0.0170     2.4833   120.7724    11.4251    11.8312     0.1040
  491.0000     8.1440    -0.0141     2.4878   122.2673    11.3426    11.6640     0.1025
  491.5000     8.1588    -0.0113     2.4907   126.7696    11.3394    11.6572     0.1013
  492.0000     8.1584    -0.0145     2.4967   131.8735    11.3363    11.5764     0.1004
  492.5000     8.1732    -0.0207     2.4890   132.7669    11.3332    11.5732     0.1013
  493.0000     8.2030    -0.0209     2.4814   129.4381    11.3301    11.4896     0.1022
  493.5000     8.2178    -0.0211     2.4708   126.0784    11.3269    11.4862     0.1041
  494.0000     8.2476    -0.0243     2.4601   125.5220    11.4039    11.4825     0.1080
  494.5000     8.2624    -0.0275     2.4510   128.6128    11.4799    11.4793     0.1126
  495.0000     8.2921    -0.0216     2.4494   126.1035    11.5570    11.4762     0.1213
  495.5000     8.3069    -0.0188     2.4569   121.5833    11.5538    11.4730     0.1195
  496.0000     8.2313    -0.0159     2.4628   120.6721    11.6315    11.4698     0.1180
  496.5000     8.1256    -0.0101     2.4522   124.8737    11.6283    11.4666     0.1214
  497.0000     8.0500    -0.0042     2.4415   130.2783    11.6251    11.5445     0.1256
  497.5000     7.9744    -0.0044     2.4400   132.9762    11.6218    11.6214     0.1281
  498.0000     7.9289    -0.0046     2.4405   133.2702    11.6185    11.6181     0.1251
  498.5000     7.8985    -0.0078     2.4566   133.5599    11.5339    11.6149     0.1176
  499.0000     7.8982    -0.0080     2.4609   133.8539    11.4505    11.6117     0.1148
  499.5000     7.8979    -0.0051     2.4593   134.7450    11.3678    11.4476     0.1178
  500.0000     7.8976    -0.0053     2.4547   133.7038    11.2676    11.3064     0.1208
  500.5000     7.8973    -0.0056     2.4562   129.2057    11.0390    10.8948     0.1199
  501.0000     7.8970    -0.0058     2.4637   123.9038    10.7401    10.8153     0.1135
  501.5000     7.8966    -0.0030     2.4710   129.6144    10.6618    10.8116     0.1058
  502.0000     7.9115    -0.0032     2.4784   132.3182    10.5840    10.6581     0.1046
