~VERSION INFORMATION
 VERS.                2.0:   CWLS LOG ASCII STANDARD - VERSION 2.0
 WRAP.                 NO:   ONE LINE PER DEPTH STEP
~WELL INFORMATION
#MNEM.UNIT      DATA TYPE    INFORMATION
#----------   ------------   ------------------------------
 STRT.F          149.5000:   START DEPTH
 STOP.F          864.5000:   STOP DEPTH
 STEP.F            0.5000:   STEP LENGTH
 NULL.          -999.2500:   NO VALUE
 COMP. U S NAVY/INTEX OIL CO:   COMPANY
 WELL.    NPR #3 #78-S-27:   WELL
 FLD .             TEAPOT:   FIELD
 LOC .      S27 T39N R78W:   LOCATION
 CNTY.            NATRONA:   COUNTY
 STAT.            WYOMING:   STATE
 CTRY. UNITED STATES OF AMERICA:   COUNTRY
 SRVC. Schlumberger Well Surveying Corp:   SERVICE COMPANY
 DATE.        25-FEB-1961:   LOGDATE
 API .       490250657800:   API NUMBER
~CURVE INFORMATION
#MNEM.UNIT       API CODE    CURVE DESCRIPTION
#----------   ------------   ------------------------------
 DEPT.F                  :   
 SPR .MV     05 010 01 00:   SPONTANEOUS POTENTIAL FROM RES.
 CILD.MMHO   05 110 46 00:   CONDUCTIVITY INDUCTION LOG DEEP
 ASN .OHMM   05 041 16 00:   AMPLIFIED SHORT NORMAL 16"
 ILD .OHMM   05 120 46 00:   INDUCTION LOG DEEP
 GR  .GAPI   81 310 01 00:   GAMMA RAY
~PARAMETER INFORMATION
#MNEM.UNIT          VALUE    DESCRIPTION
#----------   ------------   ------------------------------
 PD  .                 GL:   PERMANENT DATUM
 EPD .F              5038:   ELEVATION PERMANENT DATUM
 LMF .                 KB:   LOG MEASURED FROM
 DAPD.F                 4:   FEET ABOVE PERMANENT DATUM
 DMF .                 KB:   DRILLING MEASURED FROM
 EKB .F              5042:   KELLING BUSHING
 EGL .F              5038:   GROUND LEVEL
 DATE.            2-25-61:   RUN DATE
 RUN .                  1:   RUN NUMBER
 DD  .F               865:   DEPTH DRILLER
 DL  .F               869:   DEPTH LOGGER
 BLI .F               864:   BOTTOM LOG INTERVAL
 TLI .F               150:   TOP LOG INTERVAL
 CBD .F                12:   CASING BOTTOM DRILLER
 BS  .IN            7.875:   BIT SIZE
 BSD .F               865:   BIT SIZE AT DEPTH
 DFT .       OIL EMULSION:   DRILLING FLUID TYPE
 DFD .               10.2:   DRILLING FLUID DENSITY
 DFV .                 48:   DRILLING FLUID VISCOSITY
 DFPH.                8.5:   DRILLING FLUID PH
 DFL .               10.2:   DRILLING FLUID LOSS
 RMS .OHMM            1.7:   RESISTIVITY MUD SAMPLE
 MST .F                57:   MUD SAMPLE TEMPERATURE
 MFSS.                  C:   MUD FILTRATE SAMPLE SOURCE
 MCSS.                  C:   MUD CAKE SAMPLE SOURCE
 RMB .OHMM            1.3:   RESISTIVITY MUD AT BHT
 BHT .F                75:   BOTTOM HOLE TEMPERATURE
 TCS .HRS               1:   TIME CURCULATED STOPPED
 MRT .F                75:   MAXIMUM RECORDED TEMPERATURE
 LUN .               2572:   LOGGING UNIT NUMBER
 LUL .                 NC:   LOGGING UNIT LOCATION
 ENGI.             ROUSER:   RECORDING ENGINEER
 WITN.          JORGENSEN:   WITNESSED BY
 CLNT.            A2DTECH:   CLIENT CODE
 ORIG.       2", 5" PRINT:   ORIGIN OF DATA
 UWI .       490250657800:   UNIQUE WELL ID
 DICO. A2D Technologies, Inc.:   DIGITIZING COMPANY
~OTHER INFORMATION
~A   DEPT      SPR       CILD        ASN        ILD         GR   
# ...
  393.5000   -56.1935   148.4257     8.0067     6.7829  -999.2500
  394.0000   -56.2775   149.1984     7.9408     6.7754  -999.2500
  394.5000   -56.3021   149.7996     7.9152     6.7779  -999.2500
  395.0000   -56.2470   149.7996     7.9565     6.7740  -999.2500
  395.5000   -56.1732   148.3417     8.0842     6.7990  -999.2500
  396.0000   -56.1000   146.3327     8.2143     6.8817  -999.2500
  396.5000   -56.0284   144.3237     8.3458     6.9650  -999.2500
  397.0000   -55.9524   142.3146     8.4756     7.0493  -999.2500
  397.5000   -55.9015   140.3056     8.6083     7.1329  -999.2500
  398.0000   -55.8996   138.3032     8.7250     7.2171  -999.2500
  398.5000   -55.9008   136.2997     8.8051     7.3008  -999.2500
  399.0000   -55.8880   135.7916     8.8885     7.3856  -999.2500
  399.5000   -55.8439   135.7968     8.9640     7.4683  -999.2500
  400.0000   -55.7995   134.6166     9.0567     7.5548  -999.2500
  400.5000   -55.7549   133.0299     9.1120     7.6340  -999.2500
  401.0000   -55.7060   131.4384     9.1022     7.7300  -999.2500
  401.5000   -55.6986   129.8509     9.0038     7.7869  -999.2500
  402.0000   -55.7004   128.7575     8.8540     7.7761  -999.2500
  402.5000   -55.6996   129.4005     8.7033     7.6759  -999.2500
  403.0000   -55.7000   131.7502     8.6171     7.5267  -999.2500
  403.5000   -55.6998   134.0999     8.5429     7.3879  -999.2500
  404.0000   -55.7000   136.4496     8.4504     7.2443  -999.2500
  404.5000   -55.6999   138.7993     8.3976     7.0950  -999.2500
  405.0000   -55.7001   141.1490     8.4047     7.0732  -999.2500
  405.5000   -55.7002   142.7856     8.4021     7.0843  -999.2500
  406.0000   -55.7004   141.9451     8.4627     7.2055  -999.2500
  406.5000   -55.7005   139.2202     8.5757     7.3719  -999.2500
  407.0000   -55.7007   136.4953     8.6933     7.5292  -999.2500
  407.5000   -55.7007   133.7705     8.8354     7.6906  -999.2500
  408.0000   -55.7015   131.0456     9.0149     7.8511  -999.2500
  408.5000   -55.6930   128.3208     9.2009     8.0097  -999.2500
  409.0000   -55.5678   125.5959     9.3857     8.1734  -999.2500
  409.5000   -55.4072   122.8710     9.5748     8.3266  -999.2500
  410.0000   -55.2555   119.7395     9.6646     8.5031  -999.2500
  410.5000   -55.0956   119.7395     9.7428     8.5852  -999.2500
  411.0000   -54.9471   119.7395     9.7470     8.4366  -999.2500
  411.5000   -54.7774   120.7404     9.6698     8.2743  -999.2500
  412.0000   -54.6916   123.4965     9.5605     8.1088  -999.2500
  412.5000   -54.7009   126.2525     9.3091     7.9452  -999.2500
  413.0000   -54.7109   129.0085     9.0192     7.7809  -999.2500
  413.5000   -54.8883   131.7646     8.7410     7.6161  -999.2500
  414.0000   -55.0928   134.5206     8.5870     7.4529  -999.2500
  414.5000   -55.2943   137.2767     8.4463     7.2867  -999.2500
  415.0000   -55.4870   140.0327     8.3136     7.1264  -999.2500
  415.5000   -55.4783   142.7887     8.2861     6.9541  -999.2500
  416.0000   -55.1727   145.7916     8.2798     6.8640  -999.2500
  416.5000   -54.8325   145.7916     8.3633     6.9497  -999.2500
  417.0000   -54.5168   143.8394     8.5018     7.0324  -999.2500
  417.5000   -54.5876   141.7069     8.6322     7.1458  -999.2500
  418.0000   -54.8096   139.5744     8.7657     7.2582  -999.2500
  418.5000   -55.0009   137.4419     8.8996     7.3709  -999.2500
  419.0000   -55.2102   135.3094     9.0190     7.4839  -999.2500
  419.5000   -55.4048   133.1769     9.0482     7.5959  -999.2500
  420.0000   -55.6169   131.0444     9.0677     7.7097  -999.2500
  420.5000   -55.7117   128.9119     9.0871     7.8200  -999.2500
  421.0000   -55.6860   127.7555     9.1091     7.9361  -999.2500
  421.5000   -55.5705   127.7555     9.1322     7.9886  -999.2500
  422.0000   -55.4395   127.7555     9.1865     7.9770  -999.2500
  422.5000   -55.3153   127.7555     9.2680     8.0186  -999.2500
  423.0000   -55.1874   126.7736     9.3412     8.0902  -999.2500
  423.5000   -55.0624   125.7665     9.4187     8.1567  -999.2500
  424.0000   -54.9339   124.7595     9.4718     8.2242  -999.2500
  424.5000   -54.8105   123.7525     9.5151     8.2843  -999.2500
  425.0000   -54.6960   122.7455     9.5288     8.2436  -999.2500
  425.5000   -54.7874   123.3238     9.5323     8.1608  -999.2500
  426.0000   -54.9657   124.4747     9.4997     8.0895  -999.2500
  426.5000   -55.1221   125.6255     9.3648     8.0131  -999.2500
  427.0000   -55.2845   126.7764     9.2403     7.9391  -999.2500
  427.5000   -55.4476   127.9273     9.1148     7.8643  -999.2500
  428.0000   -55.5054   129.0782     8.9867     7.7891  -999.2500
  428.5000   -55.5019   130.2290     8.8853     7.7155  -999.2500
  429.0000   -55.4978   131.3799     8.8471     7.6384  -999.2500
  429.5000   -55.5126   132.5308     8.8145     7.5822  -999.2500
  430.0000   -55.3805   133.6817     8.8035     7.5799  -999.2500
  430.5000   -55.1522   134.7695     8.8052     7.5797  -999.2500
  431.0000   -54.9603   134.7695     8.8043     7.5801  -999.2500
  431.5000   -54.7530   134.7695     8.8053     7.5797  -999.2500
  432.0000   -54.5540   134.7695     8.8041     7.5806  -999.2500
  432.5000   -54.3509   134.7695     8.8091     7.5789  -999.2500
  433.0000   -54.1548   134.5112     8.8416     7.5859  -999.2500
  433.5000   -54.0973   134.0637     8.8708     7.6306  -999.2500
  434.0000   -54.2982   133.6161     8.9006     7.6752  -999.2500
  434.5000   -54.5722   133.1686     8.9298     7.6912  -999.2500
  435.0000   -54.8596   132.7655     8.9619     7.7027  -999.2500
  435.5000   -54.7904   132.7655     8.9666     7.7159  -999.2500
  436.0000   -54.6157   132.7655     8.9654     7.7282  -999.2500
  436.5000   -54.4661   132.3547     8.9659     7.7410  -999.2500
  437.0000   -54.3041   131.6834     8.9653     7.7535  -999.2500
  437.5000   -54.1482   131.0120     8.9656     7.7660  -999.2500
  438.0000   -53.9892   130.3407     8.9683     7.7793  -999.2500
  438.5000   -53.8303   129.7595     9.0393     7.7810  -999.2500
  439.0000   -53.6739   129.7595     9.1326     7.7804  -999.2500
  439.5000   -53.5121   129.7595     9.2264     7.7845  -999.2500
  440.0000   -53.3612   128.9997     9.3131     7.8568  -999.2500
  440.5000   -53.1855   127.8248     9.4182     7.9525  -999.2500
  441.0000   -53.0977   126.6500     9.4675     8.0440  -999.2500
  441.5000   -53.2534   125.4751     9.5172     8.1375  -999.2500
  442.0000   -53.4321   124.3003     9.6728     8.2299  -999.2500
  442.5000   -53.6129   123.1254     9.8118     8.3230  -999.2500
  443.0000   -53.7919   121.9506     9.9691     8.4159  -999.2500
  443.5000   -53.9726   120.7757    10.1033     8.5087  -999.2500
  444.0000   -54.1505   119.6009    10.2215     8.6016  -999.2500
  444.5000   -54.3327   118.4260    10.3219     8.6940  -999.2500
  445.0000   -54.5069   117.2512    10.3985     8.7876  -999.2500
  445.5000   -54.6926   116.0763    10.3837     8.8766  -999.2500
  446.0000   -54.6099   115.7315    10.4176     8.8872  -999.2500
  446.5000   -54.3641   115.7315    10.4976     8.8844  -999.2500
  447.0000   -54.1424   115.7315    10.4892     8.8860  -999.2500
  447.5000   -53.9128   115.7315    10.4911     8.8830  -999.2500
  448.0000   -53.9360   113.7436    10.5031     8.8973  -999.2500
  448.5000   -54.3592   112.1194    10.6635     9.0495  -999.2500
  449.0000   -54.8700   110.4952    10.8462     9.2252  -999.2500
  449.5000   -55.1423   108.8710    11.0250     9.3962  -999.2500
  450.0000   -54.8882   107.2467    11.2056     9.5695  -999.2500
  450.5000   -54.4269   105.6225    11.3852     9.7415  -999.2500
  451.0000   -53.9820   103.9983    11.5654     9.9143  -999.2500
  451.5000   -53.5328   102.3741    11.7459    10.0869  -999.2500
  452.0000   -53.1157   100.7499    11.9253    10.2596  -999.2500
  452.5000   -53.2520    99.1257    12.1039    10.4325  -999.2500
  453.0000   -53.6130    97.5014    12.2847    10.6046  -999.2500
  453.5000   -53.9301    95.8772    12.4649    10.7780  -999.2500
  454.0000   -54.2669    94.2530    12.6388    10.9492  -999.2500
