~VERSION INFORMATION
 VERS.                2.0:   CWLS LOG ASCII STANDARD - VERSION 2.0
 WRAP.                 NO:   ONE LINE PER DEPTH STEP
~WELL INFORMATION
#MNEM.UNIT      DATA TYPE    INFORMATION
#----------   ------------   ------------------------------
 STRT.F           95.0000:   START DEPTH
 STOP.F          862.0000:   STOP DEPTH
 STEP.F            0.5000:   STEP LENGTH
 NULL.          -999.2500:   NO VALUE
 COMP. U S NAVY INTEX OIL:   COMPANY
 WELL. RES 3 TEAMPT DOME #13-S-35:   WELL
 FLD .        TEAPOT DOME:   FIELD
 LOC .      S35 T39N R78W:   LOCATION
 CNTY.            NATRONA:   COUNTY
 STAT.            WYOMING:   STATE
 CTRY. UNITED STATES OF AMERICA:   COUNTRY
 SRVC.       Schlumberger:   SERVICE COMPANY
 DATE.        27-JUL-1963:   LOGDATE
 API .       490250655000:   API NUMBER
~CURVE INFORMATION
#MNEM.UNIT       API CODE    CURVE DESCRIPTION
#----------   ------------   ------------------------------
 DEPT.F                  :   
 SPR .MV     05 010 01 00:   SPONTANEOUS POTENTIAL FROM RES.
 ILD .OHMM   05 120 46 00:   INDUCTION LOG DEEP
 ASN .OHMM   05 041 18 00:   AMPLIFIED SHORT NORMAL 18"
 CILD.MMHO   05 110 46 00:   CONDUCTIVITY INDUCTION LOG DEEP
 GR  .GAPI   30 310 01 00:   GAMMA RAY
~PARAMETER INFORMATION
#MNEM.UNIT          VALUE    DESCRIPTION
#----------   ------------   ------------------------------
 PD  .                 GL:   PERMANENT DATUM
 EPD .F              5100:   ELEVATION PERMANENT DATUM
 LMF .                 KB:   LOG MEASURED FROM
 DAPD.F               5.0:   FEET ABOVE PERMANENT DATUM
 DMF .                 KB:   DRILLING MEASURED FROM
 EKB .F              5105:   KELLING BUSHING
 EGL .F              5100:   GROUND LEVEL
 DATE.        27-JUL-1963:   RUN DATE
 RUN .                  1:   RUN NUMBER
 DD  .F               862:   DEPTH DRILLER
 DL  .F               863:   DEPTH LOGGER
 BLI .F               862:   BOTTOM LOG INTERVAL
 TLI .F               100:   TOP LOG INTERVAL
 CS  .IN            8.625:   CASING SIZE
 CBD .F                10:   CASING BOTTOM DRILLER
 BS  .IN             6.75:   BIT SIZE
 BSD .F               862:   BIT SIZE AT DEPTH
 DFT . NATURAL- GEL ADDED:   DRILLING FLUID TYPE
 DFD .                9.0:   DRILLING FLUID DENSITY
 DFV .                 38:   DRILLING FLUID VISCOSITY
 DFPH.                8.5:   DRILLING FLUID PH
 DFL .                5.6:   DRILLING FLUID LOSS
 MSS .           FLOWLINE:   MUD SAMPLE SOURCE
 RMS .OHMM            4.6:   RESISTIVITY MUD SAMPLE
 MST .F                83:   MUD SAMPLE TEMPERATURE
 RMF .OHMM            3.8:   RESISTIVITY MUD FILTRATE SAMPLE
 MFST.F                83:   MUD FILTRATE SAMPLE TEMPERATURE
 RMC .OHMM            4.8:   RESISTIVITY MUD CAKE
 MCST.F                83:   MUD CAKE SAMPLE TEMPERATURE
 MFSS.                 FP:   MUD FILTRATE SAMPLE SOURCE
 MCSS.                 FP:   MUD CAKE SAMPLE SOURCE
 TCS .HRS               1:   TIME CURCULATED STOPPED
 LUN .               2523:   LOGGING UNIT NUMBER
 LUL .               CSPR:   LOGGING UNIT LOCATION
 ENGI.            GIFFORD:   RECORDING ENGINEER
 WITN.          JORGENSON:   WITNESSED BY
 CLNT.            A2DTECH:   CLIENT CODE
 ORIG.           5" PRINT:   ORIGIN OF DATA
 UWI .       490250655000:   UNIQUE WELL ID
 DICO. A2D Technologies, Inc.:   DIGITIZING COMPANY
~OTHER INFORMATION
~A   DEPT      SPR        ILD        ASN       CILD         GR   
# ...
  461.0000   -34.2342     6.4518     7.8445   148.2282  -999.2500
  461.5000   -33.7838     6.3720     7.7384   149.7447  -999.2500
  462.0000   -33.3333     6.2914     7.7523   151.2637  -999.2500
  462.5000   -32.7327     6.2871     7.8111   151.2781  -999.2500
  463.0000   -31.9580     6.2075     7.8562   151.2925  -999.2500
  463.5000   -31.3814     6.2031     7.8085   152.0577  -999.2500
  464.0000   -31.8318     6.1235     7.7474   151.3213  -999.2500
  464.5000   -32.8829     6.1190     7.7012   150.5850  -999.2500
  465.0000   -33.0330     6.1137     7.7154   150.6030  -999.2500
  465.5000   -32.5826     6.1094     7.7589   150.6174  -999.2500
  466.0000   -32.7687     6.1051     7.8359   150.6318  -999.2500
  466.5000   -34.0841     6.1007     7.9662   150.6462  -999.2500
  467.0000   -34.6847     6.0964     7.9803   150.6607  -999.2500
  467.5000   -34.8348     6.0918     7.9454   149.9243  -999.2500
  468.0000   -34.2342     6.1630     7.9299   149.1880  -999.2500
  468.5000   -33.9339     6.1576     7.9294   147.7045  -999.2500
  469.0000   -33.6336     6.2296     7.9139   146.2138  -999.2500
  469.5000   -33.6336     6.2995     7.9154   145.4805  -999.2500
  470.0000   -33.9339     6.2952     7.9579   145.4955  -999.2500
  470.5000   -33.7838     6.3661     8.0024   145.5105  -999.2500
  471.0000   -33.6336     6.5113     8.0470   144.7772  -999.2500
  471.5000   -33.0330     6.5834     8.1066   143.2865  -999.2500
  472.0000   -32.4324     6.6543     8.1682   141.8030  -999.2500
  472.5000   -32.2823     6.7242     8.2407   141.0667  -999.2500
  473.0000   -32.7327     6.7952     8.3002   141.0811  -999.2500
  473.5000   -33.0330     6.8785     8.4049   140.2202  -999.2500
  474.0000   -33.1832     7.0124     8.4795   135.1075  -999.2500
  474.5000   -33.1832     7.1587     8.5110   133.6168  -999.2500
  475.0000   -33.1832     7.2296     8.5985   131.3826  -999.2500
  475.5000   -33.2072     7.2997     8.7182   130.6457  -999.2500
  476.0000   -33.3333     7.3705     8.9129   129.9099  -999.2500
  476.5000   -33.6336     7.4414     9.0776   129.1736  -999.2500
  477.0000   -33.6336     7.4360     9.1822   129.1916  -999.2500
  477.5000   -33.6336     7.5081     9.1816   129.2060  -999.2500
  478.0000   -33.3333     7.5027     9.1511   129.9712  -999.2500
  478.5000   -33.0150     7.4983     9.1206   129.9856  -999.2500
  479.0000   -32.4324     7.4940     9.0901   129.2492  -999.2500
  479.5000   -32.5826     7.4894     9.0275   129.1392  -999.2500
  480.0000   -33.0330     7.4842     9.0590   127.7766  -999.2500
  480.5000   -33.7838     7.5563     9.2687   125.5423  -999.2500
  481.0000   -34.3844     7.7025     9.4334   123.3045  -999.2500
  481.5000   -34.2342     7.9230     9.5234   121.0667  -999.2500
  482.0000   -33.9339     8.0693     9.5890   119.5796  -999.2500
  482.5000   -33.4835     8.2908     9.6546   117.2172  -999.2500
  483.0000   -33.0330     8.5113     9.7201   114.3568  -999.2500
  483.5000   -32.8829     8.8082     9.7857   112.8661  -999.2500
  484.0000   -33.7838     9.0298     9.8208   110.6318  -999.2500
  484.5000   -34.0841     9.1762     9.8954   109.1447  -999.2500
  485.0000   -33.4835     9.2470     9.9700   107.6577  -999.2500
  485.5000   -32.8829     9.3304     9.8945   105.2953  -999.2500
  486.0000   -32.2823     9.3889    10.0441   103.9327  -999.2500
  486.5000   -32.4324     9.3835    10.1937   103.9508  -999.2500
  487.0000   -33.1832     9.3792    10.3434   103.9652  -999.2500
  487.5000   -33.7838     9.3748    10.4180   104.7303  -999.2500
  488.0000   -34.0841     9.2952    10.4924   104.7448  -999.2500
  488.5000   -33.7838     9.2153    10.4920   104.7598  -999.2500
  489.0000   -33.6336     9.1348    10.4164   107.0294  -999.2500
  489.5000   -33.3333     9.0552    10.3309   108.5453  -999.2500
  490.0000   -33.1832     8.9002    10.1901   109.3105  -999.2500
  490.5000   -33.0330     8.8959    10.1146   110.0757  -999.2500
  491.0000   -33.0150     8.8916    10.0390   110.0901  -999.2500
  491.5000   -32.7327     8.8870     9.9635   110.1051  -999.2500
  492.0000   -32.5826     8.8818     9.9630   110.1225  -999.2500
  492.5000   -32.5826     8.8775    10.0376   110.8877  -999.2500
  493.0000   -32.5826     8.7978    10.0370   110.9021  -999.2500
  493.5000   -32.5826     8.7935     9.9614   110.9165  -999.2500
  494.0000   -32.5826     8.7139     9.8859   110.9309  -999.2500
  494.5000   -32.5826     8.7093     9.8854   110.9460  -999.2500
  495.0000   -32.7327     8.7041     9.8848   110.9634  -999.2500
  495.5000   -32.8829     8.6245     9.8843   110.9778  -999.2500
  496.0000   -33.0330     8.5448     9.9590   110.9922  -999.2500
  496.5000   -33.0330     8.5405     9.9585   111.0066  -999.2500
  497.0000   -32.8769     8.5361     9.8829   111.7718  -999.2500
  497.5000   -32.4324     8.4563     9.8823   113.2883  -999.2500
  498.0000   -31.9820     8.4511     9.8818   114.8072  -999.2500
  498.5000   -31.6817     8.4467     9.9565   114.8216  -999.2500
  499.0000   -31.3814     8.3671     9.9435   114.8360  -999.2500
  499.5000   -31.2312     8.2875     9.9253   114.8504  -999.2500
  500.0000   -31.6817     8.2078     9.9099   114.8649  -999.2500
  500.5000   -32.1337     8.2818     9.9099   116.3742  -999.2500
  501.0000   -32.4355     8.2800     9.9081   116.3815  -999.2500
  501.5000   -32.5871     8.2032     9.7598   116.3889  -999.2500
  502.0000   -32.4387     8.2018     9.6096   116.3979  -999.2500
  502.5000   -32.1395     8.1250     9.6895   116.4051  -999.2500
  503.0000   -31.2404     8.1232     9.7626   116.4124  -999.2500
  503.5000   -30.6409     8.1217     9.8061   116.4197  -999.2500
  504.0000   -31.0932     8.1203     9.7297   116.4270  -999.2500
  504.5000   -31.5451     8.1188     9.7748   117.1850  -999.2500
  505.0000   -31.6967     8.0421     9.7898   117.1923  -999.2500
  505.5000   -31.5480     7.8900     9.7748   119.4520  -999.2500
  506.0000   -31.0994     7.5854     9.6547   121.7131  -999.2500
  506.5000   -30.8002     7.2846     9.4294   125.4741  -999.2500
  507.0000   -30.9521     7.0570     9.1043   131.4874  -999.2500
  507.5000   -31.4040     6.8296     8.7312   139.0022  -999.2500
  508.0000   -31.8559     6.6776     8.4304   146.5170  -999.2500
  508.5000   -32.1577     6.4502     8.2647   149.5273  -999.2500
  509.0000   -32.4595     6.4487     8.1592   149.5345  -999.2500
  509.5000   -32.6111     6.4473     8.0366   149.4396  -999.2500
  510.0000   -32.4624     6.5964     8.0080   147.2968  -999.2500
  510.5000   -32.1635     6.7452     8.0676   145.0524  -999.2500
  511.0000   -31.5647     6.8191     8.2472   142.8087  -999.2500
  511.5000   -31.2659     6.9682     8.5734   140.5619  -999.2500
  512.0000   -31.2673     7.1174     8.7526   138.3169  -999.2500
  512.5000   -31.1186     7.2665     8.8868   136.0737  -999.2500
  513.0000   -31.2703     7.2651     8.8861   134.5795  -999.2500
  513.5000   -31.2721     7.2636     8.8702   133.0871  -999.2500
  514.0000   -31.1230     7.2618     8.8994   133.0944  -999.2500
  514.5000   -31.2750     7.1850     8.9737   133.8524  -999.2500
  515.0000   -32.0272     7.2592     9.0479   133.8596  -999.2500
  515.5000   -32.6292     7.3327     9.0022   133.8669  -999.2500
  516.0000   -32.6307     7.4066     8.8815   133.8742  -999.2500
  516.5000   -32.1817     7.4051     8.8039   133.8815  -999.2500
  517.0000   -31.8829     7.4036     8.8051   133.8889  -999.2500
  517.5000   -31.5840     7.4018     8.8644   134.6486  -999.2500
  518.0000   -31.5858     7.3251     8.8936   134.6558  -999.2500
  518.5000   -31.5873     7.3236     8.9079   134.6631  -999.2500
  519.0000   -31.4382     7.3222     8.9370   132.4181  -999.2500
  519.5000   -31.4400     7.3964     9.0262   129.4224  -999.2500
  520.0000   -31.4415     7.4699     9.0405   127.9279  -999.2500
  520.5000   -31.2928     7.5437     9.0867   126.4339  -999.2500
  521.0000   -31.2943     7.6175     9.1590   126.4414  -999.2500
  521.5000   -31.2961     7.6157     9.2480   127.2010  -999.2500
