~VERSION INFORMATION
 VERS.                2.0:   CWLS LOG ASCII STANDARD - VERSION 2.0
 WRAP.                 NO:   ONE LINE PER DEPTH STEP
~WELL INFORMATION
#MNEM.UNIT      DATA TYPE    INFORMATION
#----------   ------------   ------------------------------
 STRT.F            6.0000:   START DEPTH
 STOP.F         4020.0000:   STOP DEPTH
 STEP.F            0.5000:   STEP LENGTH
 NULL.          -999.2500:   NO VALUE
 COMP. LAWRENCE/ALLISON INC:   COMPANY
 WELL.       66 JX #33-33:   WELL
 FLD .              NPR-3:   FIELD
 LOC .      S33 T39N R78W:   LOCATION
 CNTY.            NATRONA:   COUNTY
 STAT.            WYOMING:   STATE
 CTRY. UNITED STATES OF AMERICA:   COUNTRY
 SRVC.      Dresser Atlas:   SERVICE COMPANY
 DATE.        02-DEC-1983:   LOGDATE
 API .       490251095100:   API NUMBER
~CURVE INFORMATION
#MNEM.UNIT       API CODE    CURVE DESCRIPTION
#----------   ------------   ------------------------------
 DEPT.F                  :   
 CALD.IN     45 280 60 00:   CALIPER
 CNC .DEC    42 890 03 00:   NEUTRON POROSITY SANDSTONE
 PORD.DEC    45 890 12 00:   POROSITY DENSITY SANDSTONE
 DEN .G/C3   45 350 01 00:   COMPENSATED BULK DENSTIY
 CORR.G/C3   45 356 01 00:   DENSITY CORRECTION
 RFOC.OHMM   07 220 04 00:   RESISTIVITY FOCUSED LOG
 RILD.OHMM   07 120 46 00:   INDUCTION LOG DEEP RESISTIVITY
 RILM.OHMM   07 120 44 00:   INDUCTION LOG MEDIUM RESISTIVITY
 GRR .GAPI   07 310 01 00:   GAMMA RAY FROM RES. LOG.
 DT  .US/F   60 520 00 00:   INTERVAL TRANSIT TIME
 SPR .MV     07 010 01 00:   SPONTANEOUS POTENTIAL
~PARAMETER INFORMATION
#MNEM.UNIT          VALUE    DESCRIPTION
#----------   ------------   ------------------------------
 PD  .                 GL:   PERMANENT DATUM
 EPD .F              5141:   ELEVATION PERMANENT DATUM
 LMF .                 KB:   LOG MEASURED FROM
 DAPD.F                10:   FEET ABOVE PERMANENT DATUM
 DMF .                 KB:   DRILLING MEASURED FROM
 EKB .F              5151:   KELLING BUSHING
 EGL .F              5141:   GROUND LEVEL
 DATE.            12-2-83:   RUN DATE
 RUN .                  1:   RUN NUMBER
 DD  .F              4025:   DEPTH DRILLER
 DL  .F              4020:   DEPTH LOGGER
 BLI .F              4018:   BOTTOM LOG INTERVAL
 TLI .F                10:   TOP LOG INTERVAL
 CS  .IN            8.625:   CASING SIZE
 CBD .F               718:   CASING BOTTOM DRILLER
 CBL .F               722:   CASING BOTTOM LOGGER
 BS  .IN            7.875:   BIT SIZE
 BSD .F              4025:   BIT SIZE AT DEPTH
 DFT .            GEL/KCL:   DRILLING FLUID TYPE
 DFD .                  9:   DRILLING FLUID DENSITY
 DFV .                 45:   DRILLING FLUID VISCOSITY
 DFPH.                8.5:   DRILLING FLUID PH
 DFL .                 12:   DRILLING FLUID LOSS
 MSS .           FLOWLINE:   MUD SAMPLE SOURCE
 RMS .OHMM            .37:   RESISTIVITY MUD SAMPLE
 MST .F                88:   MUD SAMPLE TEMPERATURE
 RMF .OHMM            .29:   RESISTIVITY MUD FILTRATE SAMPLE
 MFST.F                88:   MUD FILTRATE SAMPLE TEMPERATURE
 RMC .OHMM            .46:   RESISTIVITY MUD CAKE
 MCST.F                88:   MUD CAKE SAMPLE TEMPERATURE
 MFSS.               MEAS:   MUD FILTRATE SAMPLE SOURCE
 MCSS.               CALC:   MUD CAKE SAMPLE SOURCE
 RMB .OHMM            .26:   RESISTIVITY MUD AT BHT
 BHT .F               127:   BOTTOM HOLE TEMPERATURE
 TCS .HRS               4:   TIME CURCULATED STOPPED
 MRT .F               127:   MAXIMUM RECORDED TEMPERATURE
 LUN .               6264:   LOGGING UNIT NUMBER
 LUL .              WLSTN:   LOGGING UNIT LOCATION
 ENGI.            PANASUK:   RECORDING ENGINEER
 WITN.              SCOTT:   WITNESSED BY
 CLNT.            A2DTECH:   CLIENT CODE
 ORIG.       2", 5" PRINT:   ORIGIN OF DATA
 UWI .       490251095100:   UNIQUE WELL ID
 DICO. A2D Technologies, Inc.:   DIGITIZING COMPANY
~OTHER INFORMATION
~A    DEPT    CALD        CNC       PORD        DEN       CORR       RFOC       RILD       RILM          GRR       DT        SPR   
# ...
 2446.0000     8.8332     0.2571     0.0486     2.5615     0.0211     7.3502     6.4464     6.7591   120.6767    80.4309   -36.3881
 2446.5000     8.8752     0.2498     0.0584     2.5492     0.0233     7.0714     6.2756     6.6912   123.8944    81.3377   -36.0481
 2447.0000     8.9151     0.2503     0.0640     2.5398     0.0254     6.6509     6.1469     6.5767   125.9773    82.6584   -35.7105
 2447.5000     8.9374     0.2453     0.0697     2.5305     0.0234     6.2569     6.0410     6.4438   123.2836    83.9898   -35.9197
 2448.0000     8.9052     0.2373     0.0747     2.5215     0.0067     5.9847     5.9370     6.3136   119.1280    84.6393   -36.1296
 2448.5000     8.8746     0.2292     0.0778     2.5192    -0.0095     6.1974     5.8347     6.1859   117.6885    84.0701   -36.3373
 2449.0000     8.8441     0.2274     0.0758     2.5261    -0.0054     6.7495     5.7342     6.0609   121.5853    83.3709   -36.5481
 2449.5000     8.8132     0.2306     0.0707     2.5338     0.0268     6.6985     5.6354     5.9384   127.4128    82.7355   -36.7532
 2450.0000     8.8045     0.2345     0.0658     2.5393     0.0555     6.3694     5.5383     5.8184   132.6348    83.3102   -36.9646
 2450.5000     8.8046     0.2390     0.0654     2.5375     0.0288     6.0542     5.4429     5.7008   135.1383    84.2669   -37.0191
 2451.0000     8.8055     0.2445     0.0751     2.5263    -0.0084     6.0932     5.3492     5.5856   136.6214    84.9270   -36.9831
 2451.5000     8.8064     0.2586     0.0838     2.5080    -0.0422     6.1523     5.2570     5.4727   138.0437    85.2977   -36.9647
 2452.0000     8.8073     0.2726     0.0910     2.4998    -0.0299     6.0221     5.1665     5.3621   139.4552    85.6683   -36.9382
 2452.5000     8.8082     0.2850     0.0906     2.5081    -0.0143     5.5972     5.1241     5.2676   137.9912    86.0389   -36.9150
 2453.0000     8.8090     0.2768     0.0763     2.5279     0.0015     5.1571     5.2193     5.4254   129.0056    86.0063   -36.8916
 2453.5000     8.8099     0.2611     0.0655     2.5450    -0.0037     5.4078     5.3654     5.6004   121.0256    85.6849   -36.8650
 2454.0000     8.8108     0.2455     0.0630     2.5392    -0.0288     6.1142     5.5157     5.7809   115.7573    84.4554   -36.8459
 2454.5000     8.8117     0.2298     0.0741     2.5266    -0.0458     6.6299     5.7054     5.9666   112.7817    83.3848   -36.7610
 2455.0000     8.8125     0.2192     0.0806     2.5163    -0.0326     6.6299     5.9017     6.1583   114.5721    82.6275   -36.5531
 2455.5000     8.8134     0.2185     0.0783     2.5200    -0.0076     6.6299     6.1047     6.3563   115.0925    81.8807   -36.3668
 2456.0000     8.8143     0.2185     0.0759     2.5236    -0.0005     6.9107     6.3147     6.5667   115.0131    80.8357   -36.1354
 2456.5000     8.8152     0.2195     0.0739     2.5262     0.0060     7.2689     6.4494     6.6516   114.7424    80.1005   -36.0570
 2457.0000     8.8160     0.2239     0.0747     2.5247     0.0111     7.1961     6.4830     6.7489   113.4406    79.6105   -36.1903
 2457.5000     8.8169     0.2344     0.0733     2.5297     0.0092     7.0722     6.5116     6.7382   112.2188    79.5925   -36.3037
 2458.0000     8.8178     0.2493     0.0673     2.5401    -0.0019     6.8785     6.5404     6.7295   113.6554    79.7705   -36.4128
 2458.5000     8.8187     0.2442     0.0604     2.5506    -0.0237     6.9149     6.6299     6.7207   116.4330    80.0220   -36.4352
 2459.0000     8.8195     0.2347     0.0542     2.5589    -0.0213     7.0070     6.6199     6.7114   118.3864    80.2736   -36.4087
 2459.5000     8.8204     0.2266     0.0532     2.5598    -0.0068     7.1003     6.5951     6.7019   119.3882    80.3764   -36.6019
 2460.0000     8.8213     0.2270     0.0529     2.5608     0.0067     7.1948     6.5704     6.6921   120.8186    80.4357   -36.8760
 2460.5000     8.8222     0.2394     0.0527     2.5629     0.0082     7.2689     6.5458     6.6823   121.0066    80.4940   -37.0574
 2461.0000     8.8230     0.2366     0.0510     2.5691     0.0116     7.1464     6.5212     6.6725   119.4208    80.6131   -37.2699
 2461.5000     8.8238     0.2318     0.0468     2.5751     0.0218     7.0710     6.4968     6.6627   118.7624    80.8247   -37.4260
 2462.0000     8.8207     0.2270     0.0431     2.5805     0.0320     6.7546     6.4725     6.6540   120.3509    81.0365   -37.3549
 2462.5000     8.8130     0.2304     0.0414     2.5810     0.0391     6.5692     6.4494     6.6445   119.4296    81.2483   -37.1530
 2463.0000     8.8055     0.2346     0.0446     2.5710     0.0197     6.7632     6.5946     6.6299   116.2170    81.2030   -36.9640
 2463.5000     8.7979     0.2320     0.0523     2.5607    -0.0020     6.9986     6.7694     6.6919   113.8253    80.8477   -36.7653
 2464.0000     8.7903     0.2277     0.0609     2.5409    -0.0240     7.2421     6.9488     6.8288   111.9328    79.9578   -36.5756
 2464.5000     8.7827     0.2234     0.0695     2.5232    -0.0202     7.4942     7.1330     6.9684   110.3724    79.0678   -36.3729
 2465.0000     8.7751     0.2234     0.0762     2.5269    -0.0108     7.6815     7.2689     7.1364   108.6838    78.4268   -36.2332
 2465.5000     8.7675     0.2234     0.0735     2.5291    -0.0015     7.7586     7.3698     7.1646   107.1807    78.1988   -36.2467
 2466.0000     8.7599     0.2239     0.0710     2.5304    -0.0009     7.8308     7.4675     7.2062   105.3344    77.9753   -36.2658
 2466.5000     8.7523     0.2252     0.0717     2.5292    -0.0171     7.8965     7.3467     7.2689   106.7577    77.7517   -36.2859
 2467.0000     8.7448     0.2289     0.0725     2.5272    -0.0312     7.7163     7.1568     7.1983   110.9283    77.6738   -36.3058
 2467.5000     8.7444     0.2330     0.0743     2.5236    -0.0266     7.5556     6.9721     7.0594   114.7399    77.7856   -36.3246
 2468.0000     8.7461     0.2379     0.0771     2.5200    -0.0217     7.3983     6.7924     6.9231   118.8736    78.2264   -36.3465
 2468.5000     8.7557     0.2454     0.0789     2.5164    -0.0271     7.2443     6.6176     6.7895   118.9609    79.1715   -36.3619
 2469.0000     8.7651     0.2528     0.0803     2.5127    -0.0349     7.0658     6.5261     6.7101   118.6098    80.0770   -36.3895
 2469.5000     8.7746     0.2537     0.0836     2.5086    -0.0412     6.9279     6.4652     6.6520   120.7999    80.9824   -36.3930
 2470.0000     8.7840     0.2512     0.0876     2.5046    -0.0387     6.8853     6.4057     6.5932   122.2245    81.8337   -36.4694
 2470.5000     8.7933     0.2534     0.0890     2.5070    -0.0364     6.8155     6.3467     6.5347   121.0332    82.4689   -36.6825
 2471.0000     8.8042     0.2526     0.0800     2.5234    -0.0069     6.8285     6.2882     6.4766   115.3087    82.1480   -36.8124
 2471.5000     8.7822     0.2481     0.0697     2.5401     0.0364     6.8658     6.2164     6.4186   110.2088    81.4703   -36.9755
 2472.0000     8.7788     0.2435     0.0624     2.5528     0.0437     6.9033     6.2164     6.3610   107.3601    80.1289   -37.1189
 2472.5000     8.7740     0.2390     0.0590     2.5476     0.0102     6.9421     6.2164     6.2778   108.2737    78.7876   -37.2808
 2473.0000     8.7693     0.2344     0.0622     2.5388    -0.0182     6.7122     6.2164     6.3275   113.2212    78.4501   -37.4185
 2473.5000     8.7646     0.2334     0.0671     2.5316    -0.0289     6.3975     6.2164     6.3186   117.6408    78.8844   -37.5943
 2474.0000     8.7599     0.2369     0.0721     2.5304    -0.0302     6.5001     6.2164     6.3074   119.8685    79.6196   -37.4734
 2474.5000     8.7552     0.2329     0.0722     2.5347    -0.0093     6.6541     6.2164     6.2962   121.8194    80.3547   -37.1697
 2475.0000     8.7506     0.2213     0.0670     2.5420     0.0110     6.8119     6.1284     6.2849   122.1147    80.3839   -36.9202
 2475.5000     8.7459     0.2114     0.0632     2.5489     0.0314     6.9403     6.0557     6.2738   121.3197    80.2907   -36.6507
 2476.0000     8.7412     0.2240     0.0634     2.5453     0.0520     6.8776     5.9838     6.2252   117.2118    80.1861   -36.6232
