~VERSION INFORMATION
 VERS.                2.0:   CWLS LOG ASCII STANDARD - VERSION 2.0
 WRAP.                 NO:   ONE LINE PER DEPTH STEP
~WELL INFORMATION
#MNEM.UNIT      DATA TYPE    INFORMATION
#----------   ------------   ------------------------------
 STRT.F           80.0000:   START DEPTH
 STOP.F          660.0000:   STOP DEPTH
 STEP.F            0.5000:   STEP LENGTH
 NULL.          -999.2500:   NO VALUE
 COMP. U S NAVY-INTEX OIL:   COMPANY
 WELL.    NPR #3 #34 S-11:   WELL
 FLD .             TEAPOT:   FIELD
 LOC .      S11 T38N R78W:   LOCATION
 CNTY.            NATRONA:   COUNTY
 STAT.            WYOMING:   STATE
 CTRY. UNITED STATES OF AMERICA:   COUNTRY
 SRVC.       Schlumberger:   SERVICE COMPANY
 DATE.        10-JUL-1962:   LOGDATE
 API .       490250635000:   API NUMBER
~CURVE INFORMATION
#MNEM.UNIT       API CODE    CURVE DESCRIPTION
#----------   ------------   ------------------------------
 DEPT.F                  :   
 SPR .MV     05 010 01 00:   SPONTANEOUS POTENTIAL FROM RES.
 ASN .OHMM   05 041 16 00:   AMPLIFIED SHORT NORMAL 16"
 ILD .OHMM   05 120 46 00:   INDUCTION LOG DEEP
 GR  .GAPI   30 310 01 00:   GAMMA RAY
 CALM.IN     15 280 01 00:   CALIPER FROM MICRO LOG
 CILD.MMHO   05 110 46 00:   CONDUCTIVITY INDUCTION LOG DEEP
~PARAMETER INFORMATION
#MNEM.UNIT          VALUE    DESCRIPTION
#----------   ------------   ------------------------------
 CLNT.            A2DTECH:   CLIENT CODE
 UWI .       490250635000:   UNIQUE WELL ID
 DICO. A2D Technologies, Inc.:   DIGITIZING COMPANY
~OTHER INFORMATION
~A   DEPT      SPR        ASN        ILD         GR       CALM        CILD  
# ...
  340.0000   -67.7370    12.0151    11.1178  -999.2500  -999.2500    78.6171
  340.5000   -67.7370    12.0145    10.9622  -999.2500  -999.2500    79.3923
  341.0000   -67.7370    12.0139    10.8822  -999.2500  -999.2500    80.1676
  341.5000   -67.7370    11.9374    10.8768  -999.2500  -999.2500    80.9429
  342.0000   -67.8899    11.9368    10.7212  -999.2500  -999.2500    82.4712
  342.5000   -68.1957    11.7845    10.5657  -999.2500  -999.2500    83.9995
  343.0000   -68.3486    11.7080    10.4102  -999.2500  -999.2500    85.5278
  343.5000   -68.5015    11.4798    10.2547  -999.2500  -999.2500    87.0561
  344.0000   -68.3486    11.4033    10.1747  -999.2500  -999.2500    88.5844
  344.5000   -68.1957    11.3269    10.0192  -999.2500  -999.2500    88.6069
  345.0000   -67.7370    11.0986     9.9392  -999.2500  -999.2500    89.3826
  345.5000   -67.5841    11.0980     9.9347  -999.2500  -999.2500    89.4051
  346.0000   -66.0550    11.0974     9.9303  -999.2500  -999.2500    88.6735
  346.5000   -67.4312    11.1727    10.0015  -999.2500  -999.2500    87.9428
  347.0000   -67.2783    11.3239    10.2236  -999.2500  -999.2500    86.4646
  347.5000   -67.2783    11.4749    10.3701  -999.2500  -999.2500    84.9808
  348.0000   -67.1254    11.7019    10.5167  -999.2500  -999.2500    84.2445
  348.5000   -67.1254    11.7773    10.5222  -999.2500  -999.2500    83.5138
  349.0000   -67.1254    11.6248    10.5067  -999.2500  -999.2500    83.5416
  349.5000   -66.9725    11.3207    10.4267  -999.2500  -999.2500    83.5639
  350.0000   -66.9489    11.6995    10.3252  -999.2500  -999.2500    83.8764
  350.5000   -66.6652    11.2231    10.0492  -999.2500  -999.2500    85.6753
  351.0000   -67.6004    10.9135     9.7732  -999.2500  -999.2500    88.1149
  351.5000   -67.5792    10.7715     9.5022  -999.2500  -999.2500    91.3408
  352.0000   -67.2719    10.5431     9.2711  -999.2500  -999.2500    94.3146
  352.5000   -67.1175    10.2389     9.1911  -999.2500  -999.2500    97.3709
  353.0000   -66.9631    10.1623     9.0356  -999.2500  -999.2500    99.6742
  353.5000   -66.6558    10.1615     8.9557  -999.2500  -999.2500   101.2245
  354.0000   -66.5013    10.0090     8.9512  -999.2500  -999.2500   102.7748
  354.5000   -66.4998     9.7048     8.8712  -999.2500  -999.2500   103.5720
  355.0000   -66.4983     9.9317     8.7157  -999.2500  -999.2500   104.3693
  355.5000   -66.4968     9.8232     8.6357  -999.2500  -999.2500   105.1666
  356.0000   -66.6486     9.7277     8.6313  -999.2500  -999.2500   105.2108
  356.5000   -66.7997     9.6562     8.6268  -999.2500  -999.2500   105.2560
  357.0000   -67.2568     9.7009     8.5468  -999.2500  -999.2500   105.3012
  357.5000   -67.7140     9.7609     8.4592  -999.2500  -999.2500   105.3547
  358.0000   -68.1713     9.5629     8.4624  -999.2500  -999.2500   105.3989
  358.5000   -68.0168     9.3952     8.4569  -999.2500  -999.2500   105.4432
  359.0000   -67.8410     9.4400     8.3769  -999.2500  -999.2500   105.4875
  359.5000   -67.5547     9.4698     8.5235  -999.2500  -999.2500   105.5317
  360.0000   -67.4003     9.4235     8.5190  -999.2500  -999.2500   104.8119
  360.5000   -67.2459     9.4683     8.5146  -999.2500  -999.2500   104.8672
  361.0000   -67.0915     9.3611     8.5101  -999.2500  -999.2500   104.1567
  361.5000   -67.0900     9.3140     8.5057  -999.2500  -999.2500   103.4488
  362.0000   -67.2414     9.3900     8.5012  -999.2500  -999.2500   102.7410
  362.5000   -67.3928     9.2982     8.4213  -999.2500  -999.2500   102.7861
  363.0000   -67.5446     9.3149     8.4168  -999.2500  -999.2500   104.3373
  363.5000   -67.3898     9.3574     8.3368  -999.2500  -999.2500   106.6499
  364.0000   -67.2354     9.3109     8.2528  -999.2500  -999.2500   108.9532
  364.5000   -67.0810     9.1585     8.0161  -999.2500  -999.2500   111.2565
  365.0000   -66.6208     8.8846     7.7181  -999.2500  -999.2500   114.3128
  365.5000   -66.3134     8.6866     7.5626  -999.2500  -999.2500   118.1221
  366.0000   -66.3079     8.5037     7.3316  -999.2500  -999.2500   121.9314
  366.5000   -66.3104     8.2450     7.1761  -999.2500  -999.2500   125.7407
  367.0000   -66.3089     8.0318     7.0206  -999.2500  -999.2500   128.7970
  367.5000   -66.1541     7.8490     6.9406  -999.2500  -999.2500   131.1003
  368.0000   -65.6939     7.7117     6.8606  -999.2500  -999.2500   132.6506
  368.5000   -65.3866     7.6654     6.7806  -999.2500  -999.2500   135.0175
  369.0000   -65.6913     7.8012     6.8517  -999.2500  -999.2500   136.5060
  369.5000   -65.9956     8.0452     6.9230  -999.2500  -999.2500   135.8065
  370.0000   -65.9937     8.1184     6.9940  -999.2500  -999.2500   131.3327
  370.5000   -65.9922     8.1478     7.2165  -999.2500  -999.2500   123.8468
  371.0000   -65.8378     8.1471     7.2871  -999.2500  -999.2500   120.8680
  371.5000   -65.8363     8.1767     7.2825  -999.2500  -999.2500   121.6763
  372.0000   -65.6819     8.2063     7.3526  -999.2500  -999.2500   121.7206
  372.5000   -65.5275     8.2209     7.4237  -999.2500  -999.2500   121.0007
  373.0000   -65.5260     8.2655     7.5703  -999.2500  -999.2500   119.5500
  373.5000   -65.6774     8.3254     7.6425  -999.2500  -999.2500   118.0874
  374.0000   -65.8348     8.3702     7.7880  -999.2500  -999.2500   115.8735
  374.5000   -66.4389     8.4757     7.7835  -999.2500  -999.2500   113.5969
  375.0000   -66.5903     8.6267     7.8557  -999.2500  -999.2500   111.3204
  375.5000   -66.5884     8.8080     7.8502  -999.2500  -999.2500   109.2292
  376.0000   -66.4340     8.8983     7.9212  -999.2500  -999.2500   107.7785
  376.5000   -66.4325     8.9128     7.9168  -999.2500  -999.2500   108.5757
  377.0000   -66.1252     8.8816     7.9879  -999.2500  -999.2500   109.3730
  377.5000   -65.8178     8.8657     8.0589  -999.2500  -999.2500   110.9233
  378.0000   -65.8163     8.8193     8.0544  -999.2500  -999.2500   112.4736
  378.5000   -65.8148     8.7882     7.8988  -999.2500  -999.2500   113.2708
  379.0000   -65.8133     8.7267     7.8179  -999.2500  -999.2500   115.5741
  379.5000   -65.8118     8.6653     7.7379  -999.2500  -999.2500   117.1244
  380.0000   -66.2690     8.6190     7.6579  -999.2500  -999.2500   118.6747
  380.5000   -66.5733     8.5272     7.5780  -999.2500     7.7583   118.7199
  381.0000   -66.2660     8.4203     7.5735  -999.2500     7.7566   118.7650
  381.5000   -65.8058     8.3740     7.5691  -999.2500     7.7552   118.8185
  382.0000   -65.3456     8.3733     7.5646  -999.2500     7.7691   118.8628
  382.5000   -65.3797     8.4484     7.5602  -999.2500     7.7677   118.9071
  383.0000   -65.8013     8.5539     7.5557  -999.2500     7.7664   118.9513
  383.5000   -66.1052     8.6138     7.5513  -999.2500     7.7650   118.2315
  384.0000   -66.5628     8.6131     7.4713  -999.2500     7.7636   118.2868
  384.5000   -66.8671     8.5795     7.4668  -999.2500     7.7778   118.3311
  385.0000   -66.8652     8.5203     7.4622  -999.2500     7.7609   118.3753
  385.5000   -66.7108     8.4286     7.4568  -999.2500     7.7596   119.1726
  386.0000   -66.5564     8.3975     7.5290  -999.2500     7.7582   119.2169
  386.5000   -66.5549     8.4272     7.5234  -999.2500     7.7568   119.2620
  387.0000   -66.8592     8.4263     7.5190  -999.2500     7.7403   119.3072
  387.5000   -67.4693     8.3193     7.5145  -999.2500     7.7542   120.1137
  388.0000   -67.4678     8.2427     7.4346  -999.2500     7.7528   120.1580
  388.5000   -67.4663     8.1813     7.4301  -999.2500     7.7514   121.7083
  389.0000   -67.4648     8.1350     7.4257  -999.2500     7.7501   123.2585
  389.5000   -67.4633     8.1191     7.3457  -999.2500     7.7335   126.3149
  390.0000   -67.4618     8.1032     7.2657  -999.2500     7.7473   128.6181
  390.5000   -67.4603     8.0265     7.1857  -999.2500     7.7460   129.4154
  391.0000   -67.6113     7.8707     7.1057  -999.2500     7.7446   129.4597
  391.5000   -68.0685     7.7432     7.0257  -999.2500     7.7432   127.9979
