~VERSION INFORMATION
 VERS.                2.0:   CWLS LOG ASCII STANDARD - VERSION 2.0
 WRAP.                 NO:   ONE LINE PER DEPTH STEP
~WELL INFORMATION
#MNEM.UNIT      DATA TYPE    INFORMATION
#----------   ------------   ------------------------------
 STRT.F           31.0000:   START DEPTH
 STOP.F          662.0000:   STOP DEPTH
 STEP.F            0.5000:   STEP LENGTH
 NULL.          -999.2500:   NO VALUE
 COMP. FENIX & SCISSON INC:   COMPANY
 WELL.   NPR-3 #83SX15-15:   WELL
 FLD .             TEAPOT:   FIELD
 LOC .      S15 T38N R78W:   LOCATION
 CNTY.            NATRONA:   COUNTY
 STAT.            WYOMING:   STATE
 CTRY. UNITED STATES OF AMERICA:   COUNTRY
 SRVC.            Unknown:   SERVICE COMPANY
 DATE.        17-MAY-1978:   LOGDATE
 API .       490251062500:   API NUMBER
~CURVE INFORMATION
#MNEM.UNIT       API CODE    CURVE DESCRIPTION
#----------   ------------   ------------------------------
 DEPT.F                  :   
 SN  .OHMM   07 040 16 00:   SHORT NORMAL 16'
 ILD .OHMM   07 120 46 00:   INDUCTION LOG DEEP
 CALD.IN     45 280 60 00:   CALIPER
 GRD .GAPI   45 310 01 00:   GAMMA RAY FROM DENSITY LOG
 RHOB.G/C3   45 350 01 00:   BULK DENSITY
 DPHI.DEC    45 890 10 00:   DENSITY POROSITY SANDSTONE
 CORR.G/C3   45 356 01 00:   DENSITY CORRECTION
~PARAMETER INFORMATION
#MNEM.UNIT          VALUE    DESCRIPTION
#----------   ------------   ------------------------------
 PD  .                 GL:   PERMANENT DATUM
 EPD .F              5265:   ELEVATION PERMANENT DATUM
 LMF .                 KB:   LOG MEASURED FROM
 DMF .                 KB:   DRILLING MEASURED FROM
 EKB .F              5269:   KELLING BUSHING
 EGL .F              5265:   GROUND LEVEL
 DATE.          5-17-1978:   RUN DATE
 RUN .                  1:   RUN NUMBER
 DD  .F               670:   DEPTH DRILLER
 DL  .F               668:   DEPTH LOGGER
 BLI .F               662:   BOTTOM LOG INTERVAL
 TLI .F                40:   TOP LOG INTERVAL
 CS  .IN            8.625:   CASING SIZE
 CBD .F                40:   CASING BOTTOM DRILLER
 BS  .IN            7.875:   BIT SIZE
 BSD .F               670:   BIT SIZE AT DEPTH
 DFT .                KCL:   DRILLING FLUID TYPE
 DFD .                8.6:   DRILLING FLUID DENSITY
 DFV .                 31:   DRILLING FLUID VISCOSITY
 DFPH.                 10:   DRILLING FLUID PH
 BHT .F                75:   BOTTOM HOLE TEMPERATURE
 TCS .HRS               2:   TIME CURCULATED STOPPED
 MRT .F                75:   MAXIMUM RECORDED TEMPERATURE
 LUN .               3006:   LOGGING UNIT NUMBER
 LUL .                CPR:   LOGGING UNIT LOCATION
 ENGI.             MILLER:   RECORDING ENGINEER
 WITN.           MCGINLEY:   WITNESSED BY
 CLNT.            A2DTECH:   CLIENT CODE
 ORIG.      2" & 5" PRINT:   ORIGIN OF DATA
 UWI .       490251062500:   UNIQUE WELL ID
 DICO. A2D Technologies, Inc.:   DIGITIZING COMPANY
~OTHER INFORMATION
~A   DEPT       SN        ILD       CALD         GRD      RHOB       DPHI       CORR   
# ...
  258.5000     6.7772     7.0829     7.5120    83.6341     2.4871     0.1151     0.0386
  259.0000     6.8072     6.9668     7.5153    82.6750     2.4952     0.1096     0.0441
  259.5000     6.8675     6.9668     7.5187    81.8681     2.5042     0.1031     0.0496
  260.0000     6.9285     7.0641     7.5142    82.6128     2.5101     0.0978     0.0529
  260.5000     6.9899     7.1654     7.5050    82.9311     2.5086     0.1023     0.0453
  261.0000     7.0519     7.2681     7.4956    81.0450     2.4994     0.1081     0.0374
  261.5000     7.1145     7.3723     7.4866    80.1603     2.4916     0.1139     0.0330
  262.0000     7.1776     7.4779     7.4897    80.2789     2.4900     0.1174     0.0330
  262.5000     7.2413     7.5851     7.5226    79.5893     2.4890     0.1182     0.0330
  263.0000     7.3055     7.6938     7.5548    76.7657     2.4890     0.1182     0.0333
  263.5000     7.3703     7.8041     7.5874    74.0455     2.4904     0.1182     0.0362
  264.0000     7.4357     7.8529     7.5993    74.7825     2.4947     0.1128     0.0438
  264.5000     7.4995     7.8454     7.5990    76.4540     2.4989     0.1085     0.0514
  265.0000     7.4878     7.8359     7.5788    77.4332     2.5013     0.1100     0.0529
  265.5000     7.4766     7.8265     7.5644    78.2902     2.5035     0.1066     0.0545
  266.0000     7.4653     7.8171     7.5477    78.6971     2.5070     0.0994     0.0552
  266.5000     7.4541     7.8077     7.5306    78.0160     2.5060     0.1046     0.0491
  267.0000     7.4428     7.7982     7.5135    76.7625     2.5031     0.1058     0.0422
  267.5000     7.4310     7.7888     7.4965    75.5019     2.5002     0.1091     0.0352
  268.0000     7.4767     7.7803     7.4801    74.3377     2.4972     0.1145     0.0299
  268.5000     7.5272     7.7795     7.5023    75.0575     2.4960     0.1162     0.0318
  269.0000     7.5782     7.8756     7.5361    76.7938     2.4982     0.1117     0.0355
  269.5000     7.6294     7.9559     7.5715    77.6120     2.5036     0.1089     0.0392
  270.0000     7.6811     8.0370     7.5782    78.9432     2.5162     0.1011     0.0429
  270.5000     7.7330     8.1189     7.5739    82.2251     2.5287     0.0934     0.0466
  271.0000     7.7854     8.2017     7.5694    85.5483     2.5414     0.0850     0.0455
  271.5000     7.8381     8.2852     7.5650    85.7235     2.5414     0.0850     0.0395
  272.0000     7.8911     8.3759     7.5606    76.7952     2.5375     0.0959     0.0319
  272.5000     7.9256     8.3759     7.5563    68.4566     2.5200     0.1056     0.0262
  273.0000     7.9256     8.3482     7.5518    66.4088     2.5025     0.1153     0.0253
  273.5000     7.9256     8.2151     7.5475    68.5754     2.4879     0.1198     0.0262
  274.0000     7.7813     8.0844     7.5431    74.1392     2.4880     0.1169     0.0270
  274.5000     7.6475     7.9555     7.5387    78.2348     2.4884     0.1175     0.0279
  275.0000     7.5161     7.8288     7.5343    79.3631     2.4888     0.1128     0.0288
  275.5000     7.3868     7.7041     7.5299    79.5786     2.4894     0.1163     0.0273
  276.0000     7.2923     7.6318     7.5255    79.8002     2.4843     0.1221     0.0250
  276.5000     7.2839     7.6167     7.5211    80.0373     2.4799     0.1231     0.0231
  277.0000     7.2753     7.6016     7.5167    79.8016     2.4817     0.1210     0.0238
  277.5000     7.2668     7.5866     7.5123    79.3747     2.4818     0.1232     0.0245
  278.0000     7.2582     7.5716     7.5079    78.5598     2.4815     0.1232     0.0252
  278.5000     7.2496     7.5566     7.5035    77.7204     2.4812     0.1232     0.0259
  279.0000     7.2410     7.5417     7.5003    78.7200     2.4822     0.1238     0.0267
  279.5000     7.2325     7.5268     7.5023    80.9344     2.4860     0.1186     0.0296
  280.0000     7.2239     7.5119     7.5043    80.7246     2.4938     0.1138     0.0347
  280.5000     7.2153     7.4970     7.5063    77.9859     2.5016     0.1090     0.0386
  281.0000     7.2068     7.4822     7.5083    75.7591     2.5029     0.1042     0.0351
  281.5000     7.1983     7.4674     7.5102    74.8483     2.5023     0.1068     0.0316
  282.0000     7.1897     7.4526     7.5122    75.0506     2.5018     0.1111     0.0289
  282.5000     7.1812     7.4379     7.5142    77.4550     2.5013     0.1122     0.0325
  283.0000     7.1727     7.4232     7.5161    78.9135     2.5010     0.1116     0.0378
  283.5000     7.1642     7.4085     7.5182    78.9033     2.5018     0.1096     0.0432
  284.0000     7.1558     7.3938     7.5205    79.1575     2.5048     0.1075     0.0486
  284.5000     7.1473     7.3792     7.4998    79.7094     2.5077     0.1052     0.0497
  285.0000     7.1388     7.3646     7.4765    79.9931     2.5106     0.1019     0.0474
  285.5000     7.1304     7.3501     7.4533    79.6152     2.5135     0.0991     0.0448
  286.0000     7.1219     7.3355     7.4299    77.9444     2.5141     0.1006     0.0347
  286.5000     7.1135     7.3210     7.4205    76.6861     2.5106     0.1090     0.0245
  287.0000     7.1051     7.3065     7.4203    77.7204     2.5064     0.1134     0.0216
  287.5000     7.0971     7.2921     7.4203    80.9770     2.5110     0.1062     0.0334
  288.0000     7.1029     7.2777     7.4203    83.2865     2.5162     0.1002     0.0391
  288.5000     7.1099     7.2633     7.4203    83.2250     2.5163     0.0998     0.0397
  289.0000     7.1169     7.2488     7.4203    83.1201     2.5166     0.1006     0.0401
  289.5000     7.1239     7.2283     7.4204    84.3319     2.5168     0.1017     0.0405
  290.0000     7.1309     7.2422     7.4204    84.0542     2.5169     0.1028     0.0412
  290.5000     7.1379     7.2681     7.4139    82.6049     2.5212     0.0968     0.0474
  291.0000     7.1449     7.2939     7.3774    81.1335     2.5338     0.0834     0.0537
  291.5000     7.1520     7.3198     7.3415    80.6409     2.5546     0.0699     0.0566
  292.0000     7.1590     7.3457     7.3062    80.3211     2.5748     0.0502     0.0556
  292.5000     7.1660     7.3718     7.2783    79.3381     2.5914     0.0560     0.0510
  293.0000     7.1731     7.3980     7.2715    76.4251     2.5612     0.0671     0.0383
  293.5000     7.1801     7.4242     7.2641    74.5223     2.5503     0.0782     0.0353
  294.0000     7.1872     7.4506     7.2608    74.8333     2.5361     0.0887     0.0388
  294.5000     7.1943     7.4770     7.2590    76.8153     2.5200     0.0972     0.0378
  295.0000     7.2014     7.5035     7.2651    78.6644     2.5102     0.1022     0.0366
  295.5000     7.2084     7.5301     7.2660    78.9436     2.5100     0.1005     0.0354
  296.0000     7.2156     7.5689     7.2749    80.0348     2.5100     0.0999     0.0342
  296.5000     7.2227     7.5528     7.2835    78.8504     2.5066     0.1084     0.0331
  297.0000     7.2277     7.5239     7.2920    76.7467     2.5029     0.1114     0.0362
  297.5000     7.2087     7.4951     7.3005    76.5671     2.5010     0.1093     0.0396
  298.0000     7.1928     7.4664     7.3091    78.3093     2.5010     0.1097     0.0429
  298.5000     7.1769     7.4378     7.3176    80.0595     2.5010     0.1126     0.0436
  299.0000     7.1610     7.4093     7.3260    81.6814     2.5010     0.1097     0.0443
  299.5000     7.1451     7.3810     7.3346    81.6431     2.5009     0.1096     0.0449
  300.0000     7.1293     7.3527     7.3456    80.2640     2.5020     0.1103     0.0455
  300.5000     7.1135     7.3246     7.3657    79.2827     2.5027     0.1046     0.0461
  301.0000     7.0977     7.2965     7.3851    80.0495     2.5034     0.1045     0.0467
  301.5000     7.0820     7.2686     7.4045    81.4197     2.5041     0.1060     0.0456
  302.0000     7.0663     7.2408     7.4232    81.9929     2.5027     0.1048     0.0430
  302.5000     7.0507     7.2131     7.4373    81.1119     2.4985     0.1093     0.0405
  303.0000     7.0351     7.1854     7.4517    80.3047     2.4926     0.1147     0.0399
  303.5000     7.0195     7.1579     7.4661    80.4855     2.4869     0.1202     0.0422
