~VERSION INFORMATION
 VERS.                2.0:   CWLS LOG ASCII STANDARD - VERSION 2.0
 WRAP.                 NO:   ONE LINE PER DEPTH STEP
~WELL INFORMATION
#MNEM.UNIT      DATA TYPE    INFORMATION
#----------   ------------   ------------------------------
 STRT.F           15.0000:   START DEPTH
 STOP.F          557.0000:   STOP DEPTH
 STEP.F            0.5000:   STEP LENGTH
 NULL.          -999.2500:   NO VALUE
 COMP. FENIX & SICISSOR INC.:   COMPANY
 WELL.       NPR #85-S-10:   WELL
 FLD .             TEAPOT:   FIELD
 LOC .      S10 T38N R78W:   LOCATION
 CNTY.            NATRONA:   COUNTY
 STAT.            WYOMING:   STATE
 CTRY. UNITED STATES OF AMERICA:   COUNTRY
 SRVC.           BIRDWELL:   SERVICE COMPANY
 DATE.        27-NOV-1978:   LOGDATE
 API .       490251075300:   API NUMBER
~CURVE INFORMATION
#MNEM.UNIT       API CODE    CURVE DESCRIPTION
#----------   ------------   ------------------------------
 DEPT.F                  :   
 CALD.IN     45 280 60 00:   CALIPER FROM DENSITY LOG
 DPHI.DEC    45 890 12 00:   DENSITY POROSITY SANDSTONE
 GRD .GAPI   45 310 01 00:   GAMMA RAY FROM DENSITY LOG
 RHOB.G/C3   45 350 01 00:   BULK DENSITY
 CORR.G/C3   45 356 01 00:   DENSITY CORRECTION
 ILD .OHMM   05 120 46 00:   INDUCTION LOG DEEP
 SN  .OHMM   05 040 00 00:   SHORT NORMAL
 SPR .MV     05 010 01 00:   SPONTANEOUS POTENTIAL
~PARAMETER INFORMATION
#MNEM.UNIT          VALUE    DESCRIPTION
#----------   ------------   ------------------------------
 PD  .                 GL:   PERMANENT DATUM
 EPD .F              5196:   ELEVATION PERMANENT DATUM
 LMF .                 KB:   LOG MEASURED FROM
 DAPD.F                 4:   FEET ABOVE PERMANENT DATUM
 DMF .                 KB:   DRILLING MEASURED FROM
 EKB .F              5200:   KELLING BUSHING
 EGL .F              5196:   GROUND LEVEL
 DATE.        27-NOV-1978:   RUN DATE
 RUN .                  1:   RUN NUMBER
 DD  .F               557:   DEPTH DRILLER
 DL  .F               551:   DEPTH LOGGER
 BLI .F               545:   BOTTOM LOG INTERVAL
 TLI .F                48:   TOP LOG INTERVAL
 CS  .IN            8.625:   CASING SIZE
 CBD .F                40:   CASING BOTTOM DRILLER
 CBL .F                35:   CASING BOTTOM LOGGER
 BS  .IN            7.875:   BIT SIZE
 BSD .F               557:   BIT SIZE AT DEPTH
 DFT .                KCL:   DRILLING FLUID TYPE
 DFD .                8.8:   DRILLING FLUID DENSITY
 DFV .                 38:   DRILLING FLUID VISCOSITY
 DFPH.               11.1:   DRILLING FLUID PH
 DFL .                 14:   DRILLING FLUID LOSS
 MSS .           FLOWLINE:   MUD SAMPLE SOURCE
 RMS .OHMM           0.32:   RESISTIVITY MUD SAMPLE
 MST .F                58:   MUD SAMPLE TEMPERATURE
 RMF .OHMM           0.31:   RESISTIVITY MUD FILTRATE SAMPLE
 MFST.F                74:   MUD FILTRATE SAMPLE TEMPERATURE
 RMC .OHMM           0.53:   RESISTIVITY MUD CAKE
 MCST.F                75:   MUD CAKE SAMPLE TEMPERATURE
 MFSS.               MEAS:   MUD FILTRATE SAMPLE SOURCE
 MCSS.               MEAS:   MUD CAKE SAMPLE SOURCE
 RMB .OHMM           0.31:   RESISTIVITY MUD AT BHT
 BHT .F                59:   BOTTOM HOLE TEMPERATURE
 TCS .HRS               2:   TIME CURCULATED STOPPED
 MRT .F                59:   MAXIMUM RECORDED TEMPERATURE
 LUN .               2958:   LOGGING UNIT NUMBER
 LUL .             CASPER:   LOGGING UNIT LOCATION
 ENGI.             MILLER:   RECORDING ENGINEER
 WITN.           DINSMORE:   WITNESSED BY
 CLNT.            A2DTECH:   CLIENT CODE
 ORIG.         2.5" PRINT:   ORIGIN OF DATA
 UWI .       490251075300:   UNIQUE WELL ID
 DICO. A2D Technologies, Inc.:   DIGITIZING COMPANY
~OTHER INFORMATION
~A   DEPT     CALD       DPHI         GRD      RHOB       CORR        ILD         SN        SPR   
# ...
  177.0000     8.3583     0.1403   113.4815     2.4352    -0.0067     7.9076     8.8179    -2.6494
  177.5000     8.3897     0.1427   113.7963     2.4261    -0.0067     7.9093     8.9448    -2.6439
  178.0000     8.3903     0.1463   113.8035     2.4261    -0.0067     7.9110     8.9472    -2.6395
  178.5000     8.3909     0.1415   115.0440     2.4420    -0.0097     8.0243     8.9497    -2.6351
  179.0000     8.3914     0.1445   118.7536     2.4450    -0.0097     8.0608     8.9522    -2.6307
  179.5000     8.3920     0.1433   119.9941     2.4451    -0.0097     8.1410     8.9547    -2.6263
  180.0000     8.3926     0.1433   120.6173     2.4375    -0.0096     8.1428     8.9572    -2.6220
  180.5000     8.3933     0.1438   120.6235     2.4391    -0.0096     8.1445     8.9597    -2.6174
  181.0000     8.3909     0.1509   120.6296     2.4391    -0.0096     8.1465     8.9622    -2.6128
  181.5000     8.3866     0.1571   118.9383     2.4334    -0.0096     8.1481     8.9647    -2.6082
  182.0000     8.3823     0.1559   114.5720     2.4237    -0.0096     8.1498     8.9672    -2.6037
  182.5000     8.3779     0.1632   112.5463     2.4216    -0.0096     8.1514     9.0968    -2.5991
  183.0000     8.3736     0.1589   109.2346     2.4169    -0.0095     8.1531     9.0993    -2.5945
  183.5000     8.3692     0.1583   118.6543     2.4060    -0.0095     8.1547     9.1017    -2.5890
  184.0000     8.3649     0.1601   125.6049     2.4092    -0.0065     8.1565     9.1042    -2.5846
  184.5000     8.3606     0.1607   125.4825     2.4136    -0.0035     8.1582     9.2352    -2.5802
  185.0000     8.3562     0.1552   124.6914     2.4136    -0.0035     8.1599     9.2377    -2.2710
  185.5000     8.3519     0.1459   123.4115     2.4288    -0.0033     8.1616     9.2403    -2.2666
  186.0000     8.3475     0.1407   120.6923     2.4439     0.0026     8.1633     9.2429    -2.2622
  186.5000     8.3432     0.1374   116.3773     2.4485     0.0026     8.1650     9.2455    -2.2322
  187.0000     8.3388     0.1408   112.9882     2.4480     0.0026     8.1671     9.2481    -1.9482
  187.5000     8.3345     0.1455   114.2286     2.4407     0.0026     8.2841     9.3051    -1.9436
  188.0000     8.3302     0.1437   116.3951     2.4395     0.0040     8.2858     9.4493    -1.9390
  188.5000     8.3258     0.1407   111.3601     2.4395     0.0057     8.4044     9.5957    -1.8074
  189.0000     8.3215     0.1431   109.8745     2.4383     0.0087     8.4061     9.7930    -1.6250
  189.5000     8.3171     0.1497   108.6975     2.4305     0.0087     8.5265     9.9339    -1.3155
  190.0000     8.3129     0.1509   106.1317     2.4230     0.0117     8.7708    10.0769    -1.3102
  190.5000     8.3100     0.1502   103.1543     2.4291     0.0178     8.9149    10.3662    -1.3059
  191.0000     8.2527     0.1471   104.8580     2.4352     0.0208     9.1807    10.3690    -1.3015
  191.5000     8.2534     0.1455   108.2592     2.4352     0.0269     9.4136    10.6667    -0.9922
  192.0000     8.2540     0.1487   109.9640     2.4331     0.0269     9.6006    10.6858    -0.6829
  192.5000     8.2853     0.1526   109.6612     2.4276     0.0269     9.8868    10.9762    -0.6784
  193.0000     8.3166     0.1548   109.6672     2.4247     0.0299    10.0397    11.0196    -0.6738
  193.5000     8.3173     0.1557   109.6731     2.4232     0.0329    10.3933    11.2946    -0.5930
  194.0000     8.3179     0.1545   109.6790     2.4213     0.0330    10.6910    11.2978    -0.3598
  194.5000     8.2878     0.1403   109.3508     2.4187     0.0374    10.8441    11.3791    -0.0503
  195.0000     8.1964     0.1181   109.0736     2.4408     0.0500    11.1547    11.4637    -0.0457
  195.5000     8.1049     0.1155   109.0031     2.4743     0.0688    11.3145    11.4675    -0.0412
  196.0000     7.9517     0.1182   102.7078     2.4753     0.0876    11.4766    11.4706     0.2690
  196.5000     7.8914     0.1212    98.9588     2.4779     0.0949    11.4790    11.6357     0.2734
  197.0000     7.9588     0.1224   100.9198     2.4824     0.0841    11.4814    11.6388     0.5827
  197.5000     8.0153     0.1200   105.8127     2.4840     0.0662    11.6459    11.6419     0.2822
  198.0000     8.0465     0.1188   107.8775     2.4840     0.0511    11.8128    11.6451    -0.0183
  198.5000     7.9423     0.1195   108.5007     2.4757     0.0301    11.8153    11.8128    -0.0137
  199.0000     7.9252     0.1259   107.8894     2.4519     0.0180    11.8178    11.8161    -0.0091
  199.5000     8.0486     0.1484   105.1175     2.4236     0.0090    11.6557    11.8195    -0.0046
  200.0000     8.1546     0.1691   102.9630     2.4012     0.0030    11.5770    11.8394    -0.0002
  200.5000     8.2028     0.1695   100.7315     2.3873    -0.0017    11.4978    11.9466     0.0028
  201.0000     8.2031     0.1671    99.5798     2.3858    -0.0030    11.3406    11.9964     0.0059
  201.5000     8.2034     0.1643    99.2770     2.3994    -0.0013    11.0982    11.7965     0.0090
  202.0000     8.2037     0.1610    99.1811     2.4176     0.0031    10.8786    11.6708     0.0121
  202.5000     8.2347     0.1577    97.0525     2.4191     0.0031    10.5799    11.4533     0.0152
  203.0000     8.2350     0.1562    95.2479     2.4176     0.0031    10.4345    11.1969     0.0183
  203.5000     8.2353     0.1577    95.3493     2.4174     0.0031    10.1483    11.0441    -0.3313
  204.0000     8.2356     0.1623    96.3045     2.4121    -0.0029    10.1504    11.0478    -0.5857
  204.5000     8.2359     0.1700    96.8457     2.3988    -0.0029    10.1524    11.0508    -0.5823
  205.0000     8.2362     0.1756    97.4691     2.3858    -0.0029    10.1546    11.0538    -0.5793
  205.5000     8.2365     0.1784    97.9357     2.3771    -0.0028    10.1794    11.0568    -0.4431
  206.0000     8.2368     0.1778    98.2737     2.3731     0.0015    10.3023    11.0598    -0.2683
  206.5000     8.2064     0.1670    98.7233     2.3724     0.0110    10.4499    11.2189     0.0396
  207.0000     8.2068     0.1504    99.3465     2.3830     0.0194    10.4521    11.2220     0.0432
  207.5000     8.1457     0.1339    99.3525     2.4344     0.0226    10.5219    11.3836     0.0461
  208.0000     8.0847     0.1229    98.7411     2.4617     0.0213    10.6041    11.3868     0.0491
  208.5000     8.0236     0.1156    94.7347     2.4632     0.0183    10.6068    11.3900     0.0520
  209.0000     8.0853     0.1504    93.1975     2.4511     0.0153    10.6089    11.5541     0.0550
  209.5000     8.2398     0.1601    93.2037     2.4330     0.0153    10.4631    11.5573     0.0579
  210.0000     8.2699     0.1589    94.1872     2.4142     0.0395    10.4655    11.5605     0.0610
  210.5000     8.2343     0.1561    97.9100     2.4118     0.0636    10.1782    11.5638     0.0223
  211.0000     8.1711     0.1583   101.0205     2.4209     0.0817    10.0385    11.5676    -0.2381
  211.5000     8.1078     0.1567   102.9172     2.4149     0.0877     9.8849    11.5708    -0.3191
  212.0000     8.0564     0.1506   103.1111     2.4236     0.0937     9.5936    11.0972    -0.5371
  212.5000     8.2216     0.1497   102.4035     2.4349     0.0937     9.3377    10.3488    -0.5335
  213.0000     8.3187     0.1536    98.4950     2.4256     0.0834     9.2000    10.0654    -0.5305
  213.5000     8.3335     0.1566    97.5741     2.4171     0.0499     9.1095    10.2103    -1.0020
  214.0000     8.3337     0.1591    97.5809     2.4180     0.0229     9.1117    10.2131    -1.7434
  214.5000     8.3341     0.1609   100.0560     2.4150     0.0067     9.1136    10.2160    -1.7404
  215.0000     8.3344     0.1602   101.9138     2.4089     0.0019     9.1155    10.0763    -1.8089
  215.5000     8.3347     0.1610   102.5371     2.4029    -0.0007     9.1178     9.9387    -1.7345
  216.0000     8.3350     0.1620   102.8724     2.4029     0.0035     9.1196     9.9419    -1.7316
  216.5000     8.3353     0.1592   103.8714     2.4105     0.0065     9.1215     9.7489    -1.7286
  217.0000     8.3356     0.1569   104.4743     2.4135     0.0095     9.1233     9.6724    -1.7256
