~VERSION INFORMATION
 VERS.                2.0:   CWLS LOG ASCII STANDARD - VERSION 2.0
 WRAP.                 NO:   ONE LINE PER DEPTH STEP
~WELL INFORMATION
#MNEM.UNIT      DATA TYPE    INFORMATION
#----------   ------------   ------------------------------
 STRT.F          148.5000:   START DEPTH
 STOP.F          882.5000:   STOP DEPTH
 STEP.F            0.5000:   STEP LENGTH
 NULL.          -999.2500:   NO VALUE
 COMP.               NAVY:   COMPANY
 WELL. RES 3 TEAPOT DOM #55S-11:   WELL
 FLD .             TEAPOT:   FIELD
 LOC .      S11 T38N R78W:   LOCATION
 CNTY.            NATRONA:   COUNTY
 STAT.            WYOMING:   STATE
 CTRY. UNITED STATES OF AMERICA:   COUNTRY
 SRVC.       Schlumberger:   SERVICE COMPANY
 DATE.        05-AUG-1961:   LOGDATE
 API .       490250634000:   API NUMBER
~CURVE INFORMATION
#MNEM.UNIT       API CODE    CURVE DESCRIPTION
#----------   ------------   ------------------------------
 DEPT.F                  :   
 GR  .GAPI   30 310 01 00:   GAMMA RAY
 SPR .MV     05 010 01 00:   SPONTANEOUS POTENTIAL FROM RES.
 CILD.MMHO   05 110 46 00:   CONDUCTIVITY INDUCTION LOG DEEP
 ASN .OHMM   05 041 16 00:   AMPLIFIED SHORT NORMAL 16"
 ILD .OHMM   05 120 46 00:   INDUCTION LOG DEEP
~PARAMETER INFORMATION
#MNEM.UNIT          VALUE    DESCRIPTION
#----------   ------------   ------------------------------
 PD  .                 GL:   PERMANENT DATUM
 EPD .F              5201:   ELEVATION PERMANENT DATUM
 LMF .                 KB:   LOG MEASURED FROM
 DAPD.F                 6:   FEET ABOVE PERMANENT DATUM
 DMF .                 KB:   DRILLING MEASURED FROM
 EKB .F              5207:   KELLING BUSHING
 EGL .F              5201:   GROUND LEVEL
 DATE.             8-5-61:   RUN DATE
 RUN .                  1:   RUN NUMBER
 DD  .F               880:   DEPTH DRILLER
 DL  .F               882:   DEPTH LOGGER
 BLI .F               881:   BOTTOM LOG INTERVAL
 TLI .F               150:   TOP LOG INTERVAL
 BS  .IN            7.875:   BIT SIZE
 BSD .F               880:   BIT SIZE AT DEPTH
 DFT .       OIL EMULSION:   DRILLING FLUID TYPE
 DFV .                 40:   DRILLING FLUID VISCOSITY
 MSS .           FLOWLINE:   MUD SAMPLE SOURCE
 RMS .OHMM            .96:   RESISTIVITY MUD SAMPLE
 MST .F                74:   MUD SAMPLE TEMPERATURE
 TCS .HRS               1:   TIME CURCULATED STOPPED
 LUN .               2544:   LOGGING UNIT NUMBER
 LUL .                 NC:   LOGGING UNIT LOCATION
 ENGI.            EARNEST:   RECORDING ENGINEER
 WITN.          JORGENSEN:   WITNESSED BY
 CLNT.            A2DTECH:   CLIENT CODE
 ORIG.       2", 5" PRINT:   ORIGIN OF DATA
 UWI .       490250634000:   UNIQUE WELL ID
 DICO. A2D Technologies, Inc.:   DIGITIZING COMPANY
~OTHER INFORMATION
~A   DEPT       GR        SPR       CILD        ASN        ILD   
# ...
  758.5000    28.1315   -47.5991    95.1620    13.3493    11.8323
  759.0000    29.0438   -47.7896    93.1577    13.3039    11.8457
  759.5000    28.3384   -48.0050    93.1923    13.2637    12.0014
  760.0000    25.1800   -48.0829    88.4675    13.2147    12.2124
  760.5000    27.6371   -48.1914    84.5766    13.2199    12.5100
  761.0000    31.1566   -48.3080    80.7541    13.2701    12.7598
  761.5000    31.5701   -48.4236    79.8511    13.3210    12.9878
  762.0000    24.9468   -48.4956    80.6928    13.3619    12.9935
  762.5000    23.9310   -48.6104    81.5345    13.4497    12.9632
  763.0000    27.9799   -48.7378    82.3762    13.4952    12.9370
  763.5000    30.2306   -48.8519    83.3333    13.4530    12.9090
  764.0000    23.5949   -48.9832    83.3333    13.4337    12.8818
  764.5000    17.7810   -49.0869    82.3957    13.4000    12.8542
  765.0000    14.7293   -49.2434    81.5174    13.4452    12.8264
  765.5000    12.2426   -49.1284    80.6391    13.5166    12.7997
  766.0000    12.2752   -48.8909    79.7608    13.5867    12.7450
  766.5000    21.3797   -48.7270    79.3173    13.5720    12.6787
  767.0000    24.7242   -48.5431    81.1773    13.4864    12.6145
  767.5000    24.8636   -48.3682    83.8353    13.4107    12.5491
  768.0000    28.2617   -48.1585    86.4933    13.3347    12.4844
  768.5000    30.6616   -47.9922    89.3574    13.2477    12.4187
  769.0000    23.0461   -47.7660    88.7608    13.2056    12.3543
  769.5000    17.6865   -47.7294    87.9362    13.2366    12.2974
  770.0000    17.3000   -48.0125    87.1117    13.2568    12.3035
  770.5000    18.5000   -48.2714    86.2872    13.2830    12.2862
  771.0000    20.8324   -48.5447    85.4627    13.3042    12.4016
  771.5000    24.5583   -48.8057    84.6381    13.3425    12.6228
  772.0000    27.9836   -48.8956    83.8136    13.3856    12.7873
  772.5000    30.9768   -48.8611    82.9891    13.4275    13.1388
  773.0000    29.1331   -48.6945    82.1646    13.4701    13.5831
  773.5000    25.9276   -48.5251    81.3253    13.5074    13.4696
  774.0000    25.1706   -48.3578    81.6933    13.5708    13.0551
  774.5000    28.6999   -48.1927    82.1631    13.6764    12.8148
  775.0000    31.0249   -48.0210    82.6329    13.6599    12.8005
  775.5000    28.9567   -47.8618    83.1026    13.5541    12.8015
  776.0000    29.0314   -47.6708    83.5724    13.4672    12.8026
  776.5000    32.3746   -47.7656    84.0422    13.3713    12.7993
  777.0000    32.8767   -47.9924    84.5120    13.2803    12.8211
  777.5000    31.8315   -48.1776    84.9818    13.1870    12.8612
  778.0000    35.6218   -48.3885    85.3414    13.0943    12.8917
  778.5000    38.9221   -48.5741    85.3414    13.0025    12.7762
  779.0000    40.0400   -48.7968    85.3414    12.9081    12.6128
  779.5000    36.6062   -48.8374    87.3011    12.8191    12.4590
  780.0000    35.6143   -48.6925    89.1715    12.7201    12.3003
  780.5000    27.9108   -48.5780    91.0419    12.6425    12.1447
  781.0000    25.7455   -48.4477    92.9124    12.4839    11.9896
  781.5000    27.1005   -48.3260    94.7828    12.2701    11.7975
  782.0000    26.5857   -48.1991    95.7855    12.0805    11.6103
  782.5000    26.0778   -48.0801    96.3796    11.8828    11.4225
  783.0000    26.9525   -48.0643    96.9738    11.6854    11.2358
  783.5000    24.7549   -47.9782    97.5679    11.4952    11.0516
  784.0000    27.8297   -47.8496    98.1621    11.2857    10.9636
  784.5000    31.4926   -47.7280    98.7562    11.1829    10.9311
  785.0000    33.0089   -47.6039    99.3503    11.1993    10.8894
  785.5000    29.7752   -47.4784    99.9445    11.1871    10.8578
  786.0000    30.4433   -47.5709   100.5386    11.2366    10.8100
  786.5000    29.2055   -47.7273   101.1328    11.3104    10.8297
  787.0000    30.7412   -47.8704   101.1325    11.3750    10.9548
  787.5000    33.3669   -48.0198   100.6275    11.4426    11.0688
  788.0000    35.4018   -48.1661   100.1225    11.5099    11.1900
  788.5000    31.1680   -48.3152    99.6175    11.5747    11.1599
  789.0000    32.5696   -48.4506    99.1124    11.6463    11.0596
  789.5000    32.6367   -48.2721    98.6074    11.6843    10.9502
  790.0000    31.9116   -48.0219    98.1024    11.5937    10.8864
  790.5000    30.8874   -47.7814    97.5974    11.5029    10.8398
  791.0000    28.0438   -47.5311    97.3896    11.4110    10.7565
  791.5000    25.7992   -47.0957    97.3896    11.3608    10.6847
  792.0000    27.5481   -46.7501    97.3896    11.2722    10.6056
  792.5000    25.8103   -46.5507    98.9081    11.1844    10.5331
  793.0000    29.0305   -46.3115   100.1707    11.0950    10.4525
  793.5000    33.5357   -46.0703   101.4332    11.0075    10.3856
  794.0000    38.1451   -46.0916   102.6958    10.9176    10.2764
  794.5000    38.5027   -46.1910   103.9583    10.8316    10.1688
  795.0000    41.7386   -46.2704   105.2209    10.7376    10.1470
  795.5000    45.2635   -46.3614   106.4834    10.6757    10.1095
  796.0000    47.0614   -46.4276   107.4297    10.6510    10.0789
  796.5000    32.5786   -46.2703   106.9641    10.6186    10.0467
  797.0000    32.8731   -46.0354   106.4181    10.5908    10.0099
  797.5000    34.0409   -45.8585   105.8721    10.5592     9.9907
  798.0000    31.5421   -45.9331   105.3262    10.5318    10.0053
  798.5000    28.9732   -46.0353   104.7802    10.4987    10.0153
  799.0000    28.0958   -46.1328   104.2342    10.5131    10.0277
  799.5000    31.1330   -46.2196   103.6883    10.5687    10.0391
  800.0000    33.6275   -46.0635   103.4137    10.6165    10.0503
  800.5000    33.8088   -45.8513   103.8871    10.6698    10.0628
  801.0000    32.6074   -45.6504   104.3178    10.7173    10.0725
  801.5000    33.3973   -45.4428   104.7484    10.7738    10.0880
  802.0000    27.5982   -45.2430   105.1791    10.7854    10.0683
  802.5000    27.3274   -45.2229   105.6097    10.6838    10.0158
  803.0000    30.7585   -45.2811   106.0404    10.5893     9.9695
  803.5000    33.3893   -45.3452   106.4710    10.4900     9.9202
  804.0000    33.7008   -45.4057   106.9017    10.4013     9.8725
  804.5000    36.1677   -45.4502   107.4297    10.3847     9.8239
  805.0000    38.7153   -45.4980   108.9960    10.3380     9.7758
  805.5000    32.6472   -45.5446   111.0201    10.2916     9.7274
  806.0000    28.2606   -45.5914   113.4538    10.2449     9.6793
  806.5000    28.3741   -45.6407   113.4538    10.1980     9.6308
  807.0000    31.8039   -45.7739   113.2455    10.1733     9.5830
  807.5000    29.6645   -45.8819   112.9025    10.1415     9.5337
  808.0000    36.8796   -46.0374   112.5594    10.1118     9.4917
  808.5000    33.0455   -45.8882   112.2163    10.0809     9.4952
  809.0000    28.3986   -45.5617   111.8733    10.0508     9.5038
  809.5000    30.2579   -45.2651   111.5302    10.0200     9.5116
  810.0000    29.8178   -45.0224   111.1871     9.9903     9.5196
  810.5000    32.3866   -44.9473   110.8440     9.9588     9.5275
  811.0000    29.8325   -44.8693   110.5010     9.9305     9.5356
  811.5000    28.1372   -44.7924   110.1579     9.8967     9.5435
  812.0000    30.1057   -44.7213   109.8148     9.9152     9.5515
  812.5000    32.0272   -44.6351   109.4378     9.9704     9.5593
  813.0000    30.5486   -44.6659   109.7254    10.0098     9.5675
  813.5000    31.7216   -44.8204   110.6668    10.0661     9.5748
  814.0000    29.5470   -44.9623   111.6083    10.0691     9.5842
  814.5000    27.3421   -45.0498   112.5497     9.9870     9.5855
  815.0000    29.9820   -45.0809   113.4912     9.9174     9.5741
  815.5000    32.5995   -45.1284   114.4326     9.8307     9.5641
  816.0000    35.2122   -45.1571   115.3740     9.7885     9.5532
  816.5000    37.7917   -45.2168   116.3155     9.8401     9.5428
  817.0000    35.4152   -45.1129   117.4699     9.8911     9.5321
  817.5000    35.8674   -44.8113   115.4619     9.9449     9.5213
  818.0000    36.4625   -44.5384   116.7398     9.9968     9.5113
  818.5000    32.2373   -44.2351   117.8242    10.0500     9.4994
  819.0000    32.8707   -44.2079   118.9085    10.1023     9.4904
