~VERSION INFORMATION
 VERS.                2.0:   CWLS LOG ASCII STANDARD - VERSION 2.0
 WRAP.                 NO:   ONE LINE PER DEPTH STEP
~WELL INFORMATION
#MNEM.UNIT      DATA TYPE    INFORMATION
#----------   ------------   ------------------------------
 STRT.F           18.0000:   START DEPTH
 STOP.F          449.0000:   STOP DEPTH
 STEP.F            0.5000:   STEP LENGTH
 NULL.          -999.2500:   NO VALUE
 COMP.   LAWRENCE-ALLISON:   COMPANY
 WELL. NPR 3 #52-51SX10OB5:   WELL
 FLD .             TEAPOT:   FIELD
 LOC .      S10 T38N R78W:   LOCATION
 CNTY.            NATRONA:   COUNTY
 STAT.            WYOMING:   STATE
 CTRY. UNITED STATES OF AMERICA:   COUNTRY
 SRVC.      Dresser Atlas:   SERVICE COMPANY
 DATE.        20-DEC-1984:   LOGDATE
 API .       490251101000:   API NUMBER
~CURVE INFORMATION
#MNEM.UNIT       API CODE    CURVE DESCRIPTION
#----------   ------------   ------------------------------
 DEPT.F                  :   
 CALD.IN     45 280 60 00:   CALIPER FROM DENSITY LOG
 CNC .DEC    42 890 03 00:   NEUTRON POROSITY SANDSTONE
 CORR.G/C3   45 356 01 00:   DENSITY CORRECTION
 DEN .G/C3   45 350 01 00:   COMPENSATED BULK DENSTIY
 GRD .GAPI   45 310 01 00:   GAMMA RAY FROM DENSITY LOG
 PORD.DEC    45 890 12 00:   POROSITY DENSITY SANDSTONE
 DT  .US/F   60 520 00 00:   INTERVAL TRANSIT TIME
~PARAMETER INFORMATION
#MNEM.UNIT          VALUE    DESCRIPTION
#----------   ------------   ------------------------------
 PD  .                 GL:   PERMANENT DATUM
 EPD .F              5159:   ELEVATION PERMANENT DATUM
 LMF .                 GL:   LOG MEASURED FROM
 DMF .                 GL:   DRILLING MEASURED FROM
 EGL .F              5159:   GROUND LEVEL
 DATE.        20-DEC-1984:   RUN DATE
 RUN .                  1:   RUN NUMBER
 DD  .F               451:   DEPTH DRILLER
 DL  .F               451:   DEPTH LOGGER
 BLI .F               449:   BOTTOM LOG INTERVAL
 TLI .F                20:   TOP LOG INTERVAL
 CS  .IN            8.625:   CASING SIZE
 CBD .F                20:   CASING BOTTOM DRILLER
 CBL .F                20:   CASING BOTTOM LOGGER
 BS  .IN             6.25:   BIT SIZE
 BSD .F               451:   BIT SIZE AT DEPTH
 DFT .          KCL/WATER:   DRILLING FLUID TYPE
 MSS .            MUDTANK:   MUD SAMPLE SOURCE
 RMS .OHMM           .141:   RESISTIVITY MUD SAMPLE
 MST .F                54:   MUD SAMPLE TEMPERATURE
 RMF .OHMM           .106:   RESISTIVITY MUD FILTRATE SAMPLE
 MFST.F                54:   MUD FILTRATE SAMPLE TEMPERATURE
 RMC .OHMM           .176:   RESISTIVITY MUD CAKE
 MCST.F                54:   MUD CAKE SAMPLE TEMPERATURE
 MFSS.               CALC:   MUD FILTRATE SAMPLE SOURCE
 MCSS.               CALC:   MUD CAKE SAMPLE SOURCE
 TCS .HRS               2:   TIME CURCULATED STOPPED
 MRT .F               100:   MAXIMUM RECORDED TEMPERATURE
 LUN .               6270:   LOGGING UNIT NUMBER
 LUL .                 FM:   LOGGING UNIT LOCATION
 ENGI.        TOM GAUGHAN:   RECORDING ENGINEER
 WITN.              LUERS:   WITNESSED BY
 CLNT.            A2DTECH:   CLIENT CODE
 ORIG.           5" PRINT:   ORIGIN OF DATA
 UWI .       490251101000:   UNIQUE WELL ID
 DICO. A2D Technologies, Inc.:   DIGITIZING COMPANY
~OTHER INFORMATION
~A   DEPT     CALD         CNC      CORR        DEN         GRD      PORD         DT   
# ...
  154.5000     6.3103     0.4116     0.0248     2.2781   103.9551     0.2504   131.0992
  155.0000     6.3112     0.4059     0.0190     2.2219    91.7772     0.2701   134.4538
  155.5000     6.3119     0.4498     0.0296     2.2076    86.6139     0.2806   136.3135
  156.0000     6.3126     0.4465     0.0478     2.2174    85.1454     0.2734   135.4080
  156.5000     6.3133     0.3956     0.0449     2.2624    94.0389     0.2563   129.5546
  157.0000     6.3141     0.3583     0.0044     2.3104   105.3117     0.2150   123.7293
  157.5000     6.3149     0.3349    -0.0160     2.3674   111.3166     0.1788   120.4321
  158.0000     6.3157     0.3298    -0.0083     2.4004   112.4286     0.1536   114.7434
  158.5000     6.3164     0.3253     0.0292     2.4230   115.1056     0.1476   111.5209
  159.0000     6.3171     0.3184     0.0399     2.4575   116.4512     0.1380   110.1670
  159.5000     6.3178     0.3028     0.0430     2.4688   113.6548     0.1257   109.0372
  160.0000     6.3185     0.2926     0.0327     2.4689   110.5626     0.1236   108.4306
  160.5000     6.3193     0.2936     0.0207     2.4690   110.1317     0.1260   109.0199
  161.0000     6.3201     0.3037     0.0166     2.4690   109.3402     0.1254   109.4575
  161.5000     6.3208     0.3183     0.0228     2.4714   107.6469     0.1208   109.8225
  162.0000     6.3216     0.3273     0.0439     2.4950   108.4044     0.1041   110.1897
  162.5000     6.3223     0.3299     0.0591     2.5120   107.8269     0.0995   109.1325
  163.0000     6.3230     0.3323     0.0518     2.5091   106.0661     0.1043   108.5259
  163.5000     6.3237     0.3334     0.0474     2.5032   105.6361     0.1049   108.0688
  164.0000     6.3246     0.3337     0.0523     2.5033   106.6923     0.1043   107.9103
  164.5000     6.3253     0.3346     0.0822     2.5034   109.8452     0.1082   109.2451
  165.0000     6.3260     0.3387     0.0839     2.4915   114.7066     0.1192   111.6281
  165.5000     6.3119     0.3468     0.0646     2.4496   117.9754     0.1437   115.2068
  166.0000     6.3274     0.3453     0.0424     2.4164   119.7648     0.1580   116.7677
  166.5000     6.3282     0.3333     0.0067     2.4139   116.2288     0.1556   116.9836
  167.0000     6.3289     0.3233     0.0023     2.4237   107.3673     0.1523   116.8251
  167.5000     6.3148     0.3105     0.0138     2.4230   102.4975     0.1544   115.7001
  168.0000     6.3157     0.3081     0.0431     2.4209   103.1123     0.1510   111.7981
  168.5000     6.3164     0.3165     0.0433     2.4322   113.3309     0.1459   111.2662
  169.0000     6.3021     0.3403     0.0405     2.4443   115.7120     0.1411   110.6597
  169.5000     6.3030     0.3514     0.0107     2.4381   115.7263     0.1454   110.3520
  170.0000     6.3185     0.3247    -0.0100     2.4318   112.7820     0.1471   110.0444
  170.5000     6.3341     0.3086    -0.0278     2.4408   109.2456     0.1408   108.8399
  171.0000     6.3199     0.2990    -0.0147     2.4559   109.2603     0.1273   107.2925
  171.5000     6.3241     0.2826     0.0145     2.4657   107.3067     0.1231   104.7098
  172.0000     6.3364     0.2619     0.0386     2.4808   101.6001     0.1155   104.1032
  172.5000     6.3371     0.2660     0.0327     2.4928    99.8357     0.1089   103.9451
  173.0000     6.3378     0.2792     0.0269     2.4990   103.2559     0.1086   103.7869
  173.5000     6.3385     0.2941     0.0286     2.4982   109.3353     0.1122   103.7783
  174.0000     6.3394     0.3030     0.0333     2.4901   110.5330     0.1149   103.7696
  174.5000     6.3105     0.3114     0.0275     2.4872   110.1001     0.1157   103.9126
  175.0000     6.3112     0.3090     0.0277     2.4888   109.2801     0.1145   104.6238
  175.5000     6.3119     0.3013     0.0308     2.4904   108.2125     0.1130   105.5351
  176.0000     6.2976     0.2916     0.0430     2.4934   107.6351     0.1109   106.1243
  176.5000     6.2985     0.2963     0.0701     2.4996   108.2411     0.1064   106.6410
  177.0000     6.2844     0.2993     0.0702     2.5079   112.6932     0.1030   107.2281
  177.5000     6.2852     0.2939     0.0672     2.5087   115.3702     0.1024   107.8173
  178.0000     6.2860     0.2927     0.0512     2.5043   114.7771     0.1063   108.1076
  178.5000     6.3016     0.3124     0.0289     2.4991   111.2568     0.1084   108.3979
  179.0000     6.2873     0.3177     0.0231     2.4970   111.5705     0.1059   108.3870
  179.5000     6.2882     0.3204     0.0412     2.5038   109.5138     0.1023   108.4553
  180.0000     6.2889     0.3243     0.0414     2.5076   106.5695     0.1053   108.5939
  180.5000     6.2896     0.3338     0.0479     2.5047   104.8050     0.1154   110.1547
  181.0000     6.2905     0.3380     0.0298     2.4899   107.7815     0.1250   110.8187
  181.5000     6.2912     0.3314     0.0360     2.4690   111.3462     0.1369   111.8564
  182.0000     6.2919     0.3158     0.0526     2.4436   109.5888     0.1490   112.6129
  182.5000     6.2926     0.3242     0.0543     2.4258   104.8657     0.1536   112.3600
  183.0000     6.2934     0.3277     0.0425     2.4235   105.6232     0.1506   111.3050
  183.5000     6.2941     0.3223     0.0188     2.4275   106.2257     0.1440   109.8016
  184.0000     6.2950     0.2948     0.0040     2.4440   105.2080     0.1335   107.4013
  184.5000     6.3251     0.2960     0.0077     2.4591   105.9619     0.1189   106.1968
  185.0000     6.2962     0.3128     0.0133     2.4771   109.7141     0.1158   105.2913
  185.5000     6.2971     0.3195     0.0135     2.4862   112.0592     0.1158   104.9836
  186.0000     6.2978     0.3096     0.0137     2.4863   111.4817     0.1191   105.0475
  186.5000     6.2985     0.3075     0.0378     2.4811   112.0877     0.1235   105.8610
  187.0000     6.2993     0.3117     0.0439     2.4715   114.4689     0.1260   105.9292
  187.5000     6.3000     0.3257     0.0321     2.4654   113.8914     0.1307   105.6194
  188.0000     6.3008     0.3167     0.0075     2.4619   112.7223     0.1306   105.2371
  188.5000     6.3016     0.3005    -0.0079     2.4605   113.6241     0.1318   104.9294
  189.0000     6.3023     0.3008     0.0028     2.4569   112.7544     0.1345   104.9208
  189.5000     6.3030     0.3226     0.0000     2.4532   110.9935     0.1379   104.9118
  190.0000     6.3037     0.3352    -0.0029     2.4481   109.8208     0.1401   104.9013
  190.5000     6.3044     0.3214    -0.0027     2.4481   111.6138     0.1395   104.7431
  191.0000     6.3053     0.3049    -0.0055     2.4516   113.2553     0.1341   104.5850
  191.5000     6.3060     0.2968    -0.0083     2.4708   114.8968     0.1206   104.5763
  192.0000     6.3067     0.3022    -0.0096     2.4873   117.6273     0.1164   104.5676
  192.5000     6.2926     0.3060    -0.0124     2.4874   120.6982     0.1173   104.5589
  193.0000     6.2934     0.3090    -0.0137     2.4845   120.8604     0.1184   104.6313
  193.5000     6.2941     0.3111     0.0044     2.4816   118.8037     0.1196   105.6605
  194.0000     6.2950     0.3133     0.0165     2.4817   115.2677     0.1196   106.2497
  194.5000     6.2957     0.3188     0.0213     2.4835   115.1304     0.1182   106.4653
  195.0000     6.2964     0.3292     0.0408     2.4909   116.3317     0.1147   106.4566
  195.5000     6.2821     0.3522     0.0649     2.4970   118.2884     0.1111   106.2985
  196.0000     6.2830     0.3531     0.0711     2.4993   116.5118     0.1099   106.0656
  196.5000     6.2837     0.3414     0.0503     2.4994   115.3391     0.1087   106.1348
  197.0000     6.2844     0.3139     0.0251     2.4995   114.4693     0.1066   106.2724
  197.5000     6.2853     0.3031     0.0417     2.5063   113.3002     0.1000   106.2616
  198.0000     6.2860     0.3031     0.0479     2.5174   112.4233     0.0970   105.9540
  198.5000     6.2718     0.3043     0.0361     2.5185   111.8491     0.0990   105.6463
  199.0000     6.2726     0.3090     0.0243     2.5155   112.1598     0.1014   105.6377
  199.5000     6.2585     0.3177     0.0260     2.5097   113.0650     0.1030   105.9280
