~VERSION INFORMATION
 VERS.                2.0:   CWLS LOG ASCII STANDARD - VERSION 2.0
 WRAP.                 NO:   ONE LINE PER DEPTH STEP
~WELL INFORMATION
#MNEM.UNIT      DATA TYPE    INFORMATION
#----------   ------------   ------------------------------
 STRT.F            0.0000:   START DEPTH
 STOP.F         1283.5000:   STOP DEPTH
 STEP.F            0.5000:   STEP LENGTH
 NULL.          -999.2500:   NO VALUE
 COMP.      U.S. NAVY NPR:   COMPANY
 WELL. NAVAL PETROLEUM RESERVE 3 ST-11 #88-11:   WELL
 FLD .             TEAPOT:   FIELD
 LOC .      S11 T38N R78W:   LOCATION
 CNTY.            NATRONA:   COUNTY
 STAT.            WYOMING:   STATE
 CTRY. UNITED STATES OF AMERICA:   COUNTRY
 SRVC.       Schlumberger:   SERVICE COMPANY
 DATE.        01-NOV-1958:   LOGDATE
 API .       490250632600:   API NUMBER
~CURVE INFORMATION
#MNEM.UNIT       API CODE    CURVE DESCRIPTION
#----------   ------------   ------------------------------
 DEPT.F                  :   
 GRN .GAPI   35 310 01 00:   GAMMA RAY
 NEUT.NAPI   35 330 01 00:   NEUTRON
 ASN .OHMM   01 041 16 00:   AMPLIFIED SHORT NORMAL
 LAT .OHMM   01 070 18 00:   LATERAL 18"
 LN  .OHMM   01 060 64 00:   LONG NORMAL 64"
 SPR .MV     01 010 01 00:   SPONTANEOUS POTENTIAL
 CALM.IN     15 280 01 00:   CALIPER FROM MICRO LOG
~PARAMETER INFORMATION
#MNEM.UNIT          VALUE    DESCRIPTION
#----------   ------------   ------------------------------
 LMF .                 KB:   LOG MEASURED FROM
 DMF .                 KB:   DRILLING MEASURED FROM
 EKB .F              5289:   KELLING BUSHING
 EGL .F              5279:   GROUND LEVEL
 DATE.        01-NOV-1958:   RUN DATE
 RUN .                  1:   RUN NUMBER
 DD  .F              1280:   DEPTH DRILLER
 DL  .F              1283:   DEPTH LOGGER
 BLI .F              1282:   BOTTOM LOG INTERVAL
 TLI .F               150:   TOP LOG INTERVAL
 CBD .F                45:   CASING BOTTOM DRILLER
 BS  .IN            7.875:   BIT SIZE
 BSD .F              1280:   BIT SIZE AT DEPTH
 DFT .                GEL:   DRILLING FLUID TYPE
 DFD .                9.1:   DRILLING FLUID DENSITY
 DFV .                 63:   DRILLING FLUID VISCOSITY
 DFL .                2.1:   DRILLING FLUID LOSS
 RMS .OHMM            2.4:   RESISTIVITY MUD SAMPLE
 MST .F                56:   MUD SAMPLE TEMPERATURE
 RMF .OHMM           1.45:   RESISTIVITY MUD FILTRATE SAMPLE
 MFST.F                79:   MUD FILTRATE SAMPLE TEMPERATURE
 RMC .OHMM            1.7:   RESISTIVITY MUD CAKE
 MCST.F                79:   MUD CAKE SAMPLE TEMPERATURE
 MFSS.               MEAS:   MUD FILTRATE SAMPLE SOURCE
 MCSS.               MEAS:   MUD CAKE SAMPLE SOURCE
 RMB .OHMM            1.6:   RESISTIVITY MUD AT BHT
 BHT .F                79:   BOTTOM HOLE TEMPERATURE
 TCS .HRS               1:   TIME CURCULATED STOPPED
 MRT .F                79:   MAXIMUM RECORDED TEMPERATURE
 LUN .               2544:   LOGGING UNIT NUMBER
 LUL .                 NC:   LOGGING UNIT LOCATION
 ENGI.            EARNEST:   RECORDING ENGINEER
 WITN.             MARTIN:   WITNESSED BY
 CLNT.            A2DTECH:   CLIENT CODE
 ORIG.         2.5" PRINT:   ORIGIN OF DATA
 UWI .       490250632600:   UNIQUE WELL ID
 DICO. A2D Technologies, Inc.:   DIGITIZING COMPANY
~OTHER INFORMATION
~A    DEPT       GRN     NEUT        ASN        LAT         LN        SPR       CALM   
# ...
  637.0000     5.2689   275.7941     4.7245     5.1279     3.3986   -12.2498     8.2366
  637.5000     5.1150   262.8055     4.7486     5.2651     3.4024   -12.3670     8.2372
  638.0000     4.9496   275.6022     4.7489     5.4023     3.4058   -12.5070     8.2377
  638.5000     5.0628   291.5460     4.7421     5.5395     3.4092   -12.4988     8.2382
  639.0000     5.1819   291.8577     4.7140     5.5408     3.3607   -12.3310     8.2660
  639.5000     5.0409   286.8766     4.6586     5.5422     3.2793   -11.9338     8.2778
  640.0000     4.9999   280.3010     4.6033     5.6793     3.2188   -11.9257     8.2816
  640.5000     4.8790   273.3290     4.5236     5.6807     3.0125   -11.6441     8.2676
  641.0000     4.7972   271.0515     4.3437     5.6821     3.0160   -11.6361     8.2682
  641.5000     4.7370   273.6760     4.0649     5.6834     3.0201   -11.6280     8.2688
  642.0000     4.7961   269.8854     3.6884     5.6576     3.0234   -11.6200     8.2965
  642.5000     4.5610   264.6105     3.2840     5.5163     3.1635   -11.3384     8.2971
  643.0000     4.4340   264.4711     2.8223     5.1033     3.4404   -11.0568     8.2703
  643.5000     4.4882   257.0461     2.5509     4.5543     3.5806   -11.0488     8.2709
  644.0000     4.5792   248.7858     2.5783     4.1413     3.4471   -11.0407     8.2715
  644.5000     4.6415   253.7591     2.6057     3.7283     3.3137   -11.0325     8.2720
  645.0000     4.6298   266.2945     2.6332     3.4511     3.3170   -11.2982     8.2453
  645.5000     4.6688   272.4174     2.7150     3.3098     3.1835   -11.3238     8.2177
  646.0000     4.7079   276.0865     2.9870     3.2500     3.0502   -11.5557     8.1920
  646.5000     4.7270   282.4230     3.4499     3.3875     2.7800   -11.8212     8.2198
  647.0000     4.7659   289.1777     3.6741     3.6605     2.7734   -11.8805     8.2203
  647.5000     4.8050   294.6681     3.8927     3.9336     2.6341   -12.1573     8.2480
  648.0000     4.8840   305.4474     4.0366     4.0708     2.5164   -12.4341     8.2566
  648.5000     4.6607   318.4620     4.2111     4.2080     2.5201   -12.6097     8.2857
  649.0000     4.5871   323.6359     4.0962     4.3452     2.6941   -12.6000     8.3040
  649.5000     4.4210   318.3610     4.1108     4.4824     2.8402   -12.5918     8.3318
  650.0000     4.6267   318.1902     4.1938     4.4837     2.9863   -12.5836     8.3323
  650.5000     4.7671   335.4258     4.2497     4.4851     3.0809   -12.3018     8.3329
  651.0000     4.8180   339.1302     4.2668     4.4864     3.0843   -12.2936     8.3335
  651.5000     4.8170   335.6995     4.2142     4.6236     3.0244   -12.0103     8.3340
  652.0000     4.9358   293.9332     4.1033     4.5978     2.8176   -12.0023     8.3346
  652.5000     4.7549   281.3521     3.9380     4.4903     2.6843   -11.7207     8.3351
  653.0000     4.9339   279.7563     3.7517     4.3558     2.6884   -11.7127     8.3356
  653.5000     5.0329   289.8206     3.6433     4.1739     2.6917   -11.4311     8.3362
  654.0000     4.9720   287.6551     3.4805     3.8967     2.8318   -11.4230     8.3367
  654.5000     4.9310   280.8620     3.3449     3.6196     2.8352   -11.4150     8.3100
  655.0000     4.8673   283.4605     3.1549     3.4783     2.9753   -11.4070     8.3106
  655.5000     4.7891   278.2400     2.9106     3.3369     3.1154   -11.3989     8.3093
  656.0000     5.2481   244.5375     2.6935     3.1416     3.1188   -11.6644     8.2844
  656.5000     5.2013   252.6967     2.5851     3.0070     3.1221   -11.6562     8.2850
  657.0000     4.8172   270.5584     2.6940     2.8725     3.1255   -11.6480     8.2795
  657.5000     4.6817   265.2835     2.8048     3.0097     2.9920   -11.9139     8.2588
  658.0000     4.5243   271.2037     2.9163     3.4186     2.8586   -11.9052     8.2322
  658.5000     4.6178   288.3190     3.0825     3.6917     2.8621   -12.1714     8.2328
  659.0000     4.8618   304.8756     3.6745     3.8289     2.7132   -12.2308     8.2334
  659.5000     4.7409   306.8765     4.1834     4.1019     2.5951   -12.4288     8.2339
  660.0000     4.8599   288.1675     4.4221     4.2391     2.5988   -12.4195     8.2073
  660.5000     5.0989   296.3267     4.5251     4.3832     2.5689   -12.4112     8.2078
  661.0000     5.1380   290.7847     4.5810     4.5272     2.6056   -12.4030     8.2084
  661.5000     5.0758   284.8415     4.6369     4.6712     2.6090   -12.3948     8.2090
  662.0000     4.9704   274.9919     4.6928     4.9511     2.8003   -12.3866     8.2095
  662.5000     4.8284   273.3787     4.6943     5.0610     2.8894   -12.3784     8.2100
  663.0000     4.7741   281.8684     4.6810     4.7500     2.8929   -12.3702     8.2377
  663.5000     5.0332   279.5789     4.5998     4.4728     2.8963   -12.3605     8.2383
  664.0000     4.7533   279.1565     4.4914     4.3315     2.8997   -12.3525     8.2388
  664.5000     4.7986   284.7022     4.3286     4.1155     2.9031   -12.3444     8.2393
  665.0000     5.0687   289.1297     3.6495     3.9810     2.9071   -12.3364     8.2399
  665.5000     5.4488   283.1085     3.2965     3.7718     3.0473   -12.0548     8.2404
  666.0000     5.6078   265.1453     2.9435     3.4405     3.0506   -12.0467     8.2410
  666.5000     5.6469   274.3780     2.7535     3.3059     3.1907   -12.0387     8.2687
  667.0000     5.8659   278.4789     2.6723     3.5790     3.1941   -11.7571     8.2762
  667.5000     5.4250   272.8438     2.8084     3.7162     3.1974   -11.4755     8.2970
  668.0000     5.0440   262.7047     2.8362     3.7175     3.0638   -11.4675     8.2975
  668.5000     4.6964   275.6665     2.8649     3.8547     2.9305   -11.7442     8.2981
  669.0000     4.4421   280.4004     2.9712     3.9919     2.7971   -12.0210     8.2986
  669.5000     4.7211   276.3589     3.3467     4.1291     2.6637   -12.5376     8.2992
  670.0000     4.4747   270.1632     3.5924     4.2663     2.5303   -12.8480     8.2997
  670.5000     4.4254   277.3537     3.7813     4.5394     2.5338   -13.1247     8.3003
  671.0000     4.3582   287.7519     3.9835     4.6902     2.5372   -13.6077     8.3009
  671.5000     4.8257   272.0282     4.2242     4.9497     2.6774   -13.5187     8.3014
  672.0000     4.9608   260.0363     4.3159     4.9511     2.7137   -13.3167     8.3019
  672.5000     4.9548   263.7175     4.3990     4.8164     2.8210   -13.3085     8.3025
  673.0000     4.9539   273.3694     4.4549     4.8179     2.9612   -13.0267     8.3030
  673.5000     4.9729   270.9101     4.4693     4.7717     2.9647   -13.0185     8.3035
  674.0000     4.9719   265.0586     4.3957     4.6845     2.9681   -12.7368     8.3041
  674.5000     4.9110   275.9255     4.2525     4.6250     2.9715   -12.3068     8.3046
  675.0000     5.0500   289.3936     4.1169     4.4837     2.8381   -12.1733     8.3051
  675.5000     5.0890   285.8971     4.0085     4.2065     2.8416   -12.1635     8.3057
  676.0000     4.8221   288.3423     3.8457     4.0111     2.9252   -11.8819     8.3062
  676.5000     4.7670   300.7572     3.7373     3.6049     2.9858   -11.8739     8.3003
  677.0000     4.7919   305.3658     3.6288     3.4703     2.9891   -11.9353     8.2722
  677.5000     4.8470   283.3382     3.4932     3.4716     2.9925   -11.8578     8.2442
  678.0000     4.9904   272.8389     3.3576     3.4730     2.9958   -12.1233     8.2267
  678.5000     4.9241   273.5347     3.1948     3.3384     2.9992   -12.1153     8.1881
  679.0000     5.0620   272.5913     3.1136     3.3397     2.8655   -12.1073     8.1463
  679.5000     4.9608   280.1508     3.0843     3.3411     2.7323   -12.3728     8.1346
  680.0000     4.8599   296.5198     3.0326     3.4783     2.5989   -12.6383     8.1747
  680.5000     4.6789   292.7098     3.0008     3.7582     2.4655   -12.6301     8.2024
  681.0000     4.6379   269.2355     2.9516     4.0245     2.3320   -12.3255     8.2302
  681.5000     4.7570   259.2777     2.9247     4.1617     2.1986   -12.0324     8.2307
  682.0000     5.0160   264.1160     2.8620     4.0270     2.2021   -11.7392     8.2584
