~VERSION INFORMATION
 VERS.                2.0:   CWLS LOG ASCII STANDARD - VERSION 2.0
 WRAP.                 NO:   ONE LINE PER DEPTH STEP
~WELL INFORMATION
#MNEM.UNIT      DATA TYPE    INFORMATION
#----------   ------------   ------------------------------
 STRT.F           30.0000:   START DEPTH
 STOP.F          602.0000:   STOP DEPTH
 STEP.F            0.5000:   STEP LENGTH
 NULL.          -999.2500:   NO VALUE
 COMP. FENIX & SCISSON U.S NAVY:   COMPANY
 WELL.   S-3 NPR #3 #51-3:   WELL
 FLD .             TEAPOT:   FIELD
 LOC .       S3 T38N R78W:   LOCATION
 CNTY.            NATRONA:   COUNTY
 STAT.            WYOMING:   STATE
 CTRY. UNITED STATES OF AMERICA:   COUNTRY
 SRVC.              Welex:   SERVICE COMPANY
 DATE.        08-MAR-1977:   LOGDATE
 API .       490251030800:   API NUMBER
~CURVE INFORMATION
#MNEM.UNIT       API CODE    CURVE DESCRIPTION
#----------   ------------   ------------------------------
 DEPT.F                  :   
 SPR .MV     07 010 01 00:   SPONTANEOUS POTENTIAL
 ILD .OHMM   07 120 46 00:   INDUCTION LOG DEEP
 ILM .OHMM   07 120 44 00:   INDUCTION LOG MEDIUM
 SGRD.OHMM   07 221 05 00:   SHALLOW SHORT GUARD RESISTIVITY
 CALD.IN     45 280 60 00:   CALIPER FROM DENSITY LOG
 CORR.G/C3   45 356 01 00:   DENSITY CORRECTION
 RHOB.G/C3   45 350 01 00:   BULK DENSITY
 DPHI.DEC    45 890 12 00:   DENSITY POROSITY SANDSTONE
 GRD .GAPI   45 310 01 00:   GAMMA RAY FROM DENSITY LOG
~PARAMETER INFORMATION
#MNEM.UNIT          VALUE    DESCRIPTION
#----------   ------------   ------------------------------
 PD  .                 GL:   PERMANENT DATUM
 EPD .F              5140:   ELEVATION PERMANENT DATUM
 LMF .                 GL:   LOG MEASURED FROM
 DAPD.F                  :   FEET ABOVE PERMANENT DATUM
 DMF .                 GL:   DRILLING MEASURED FROM
 EKB .F                  :   KELLING BUSHING
 EDF .F                  :   DRILLING FLOOR
 EGL .F              5140:   GROUND LEVEL
 DATE.             3-8-77:   RUN DATE
 RUN .                  1:   RUN NUMBER
 DD  .F               611:   DEPTH DRILLER
 DL  .F               555:   DEPTH LOGGER
 BLI .F               553:   BOTTOM LOG INTERVAL
 TLI .F                40:   TOP LOG INTERVAL
 CS  .IN            8.625:   CASING SIZE
 CBD .F                40:   CASING BOTTOM DRILLER
 CBL .F                40:   CASING BOTTOM LOGGER
 BS  .IN            7.875:   BIT SIZE
 BSD .F               611:   BIT SIZE AT DEPTH
 DFT .           CHEM GEL:   DRILLING FLUID TYPE
 DFD .                8.6:   DRILLING FLUID DENSITY
 DFV .                 42:   DRILLING FLUID VISCOSITY
 DFPH.                  8:   DRILLING FLUID PH
 DFL .                3.2:   DRILLING FLUID LOSS
 MSS .           FLOWLINE:   MUD SAMPLE SOURCE
 RMS .OHMM           1.49:   RESISTIVITY MUD SAMPLE
 MST .F                48:   MUD SAMPLE TEMPERATURE
 RMF .OHMM           1.07:   RESISTIVITY MUD FILTRATE SAMPLE
 MFST.F                48:   MUD FILTRATE SAMPLE TEMPERATURE
 RMC .OHMM           2.34:   RESISTIVITY MUD CAKE
 MCST.F                48:   MUD CAKE SAMPLE TEMPERATURE
 MFSS.           MEASURED:   MUD FILTRATE SAMPLE SOURCE
 MCSS.           MEASURED:   MUD CAKE SAMPLE SOURCE
 RMB .OHMM           1.19:   RESISTIVITY MUD AT BHT
 BHT .F                60:   BOTTOM HOLE TEMPERATURE
 TCS .HRS               2:   TIME CURCULATED STOPPED
 TLAB.HRS                :   TIME LOGGER AT BOTTOM
 MRT .F                60:   MAXIMUM RECORDED TEMPERATURE
 LUN .               0716:   LOGGING UNIT NUMBER
 LUL .             VERNAL:   LOGGING UNIT LOCATION
 ENGI.           CALLAHAN:   RECORDING ENGINEER
 WITN.         STUEBINGER:   WITNESSED BY
 CLNT.            A2DTECH:   CLIENT CODE
 ORIG.       2", 5" PRINT:   ORIGIN OF DATA
 UWI .       490251030800:   UNIQUE WELL ID
 DICO. A2D Technologies, Inc.:   DIGITIZING COMPANY
 OS  .                   :   OTHER SERVICES
 PWI .                   :   PRIMARY WELL IDENTIFIER
 R1  .                   :   REMARKS 1
 R2  .                   :   REMARKS 2
 LSRV.                   :   LOG MNEMONIC
~OTHER INFORMATION
~A   DEPT      SPR        ILD        ILM       SGRD       CALD       CORR       RHOB       DPHI        GRD   
# ...
  322.0000   -37.9524     4.9647     4.8700     6.2454     7.8216     0.0094     2.4187     0.1369   129.5360
  322.5000   -37.9581     5.6219     5.4444     7.6831     7.8211    -0.0042     2.4089     0.1405   130.7430
  323.0000   -37.9639     6.5449     6.4619     9.1357     7.8206    -0.0058     2.4066     0.1459   129.6802
  323.5000   -37.8194     6.8677     6.9702     9.3832     7.8202     0.0017     2.4133     0.1447   129.2262
  324.0000   -38.2771     7.1567     7.2628     9.4440     7.8047     0.0107     2.4230     0.1369   130.2768
  324.5000   -38.4315     7.4215     7.5155     9.4386     7.8043     0.0181     2.4237     0.1349   130.4246
  325.0000   -37.8366     7.7174     7.7234     9.4342     7.7889     0.0120     2.4184     0.1379   130.4217
  325.5000   -37.5435     7.8768     7.9362     9.4299     7.7585     0.0348     2.4229     0.1381   130.7200
  326.0000   -37.5507     7.9840     7.9881     9.2948     7.7132     0.0526     2.4416     0.1253   130.7164
  326.5000   -37.1045     8.1489     8.1525     9.1627     7.6827     0.0676     2.4559     0.1175   130.8649
  327.0000   -36.9601     8.1462     8.2636     9.6133     7.6523     0.0419     2.4144     0.1190   131.3131
  327.5000   -36.8157     7.9204     8.0341     9.8788     7.6669     0.0178     2.4024     0.1481   131.7620
  328.0000   -36.6727     7.5956     7.6872     9.9428     7.7263     0.0057     2.3978     0.1508   132.2350
  328.5000   -36.5283     7.3856     7.3363     9.9371     7.8174    -0.0004     2.3917     0.1578   132.5093
  329.0000   -36.6856     7.1814     7.0352     9.7959     7.8452     0.0010     2.3716     0.1698   132.6570
  329.5000   -36.6913     6.6060     6.6537     8.6438     7.8598     0.0130     2.3578     0.1731   132.6534
  330.0000   -36.8472     6.1195     6.2064     6.4594     7.8593     0.0175     2.3720     0.1674   131.8975
  330.5000   -37.0031     5.6688     5.8191     4.9944     7.8588     0.0084     2.3787     0.1662   130.8213
  331.0000   -37.0090     5.7068     5.6674     6.3547     7.8584    -0.0007     2.3734     0.1626   128.8790
  331.5000   -36.8644     5.7445     5.7045     7.7757     7.8579     0.0173     2.4019     0.1446   127.8219
  332.0000   -36.5713     5.9034     5.7817     7.6123     7.8574     0.0338     2.4297     0.1350   128.8733
  332.5000   -36.7272     6.0672     5.9829     5.8483     7.8720     0.0320     2.4349     0.1269   129.6234
  333.0000   -36.8831     6.3220     6.2380     7.1954     7.8716     0.0171     2.4356     0.1299   130.0724
  333.5000   -37.1987     6.6799     6.5856     8.6109     7.8710     0.0231     2.4419     0.1260   129.7676
  334.0000   -37.3464     6.9610     6.9097     8.3130     7.8706     0.0215     2.4581     0.1194   129.0117
  334.5000   -37.3521     7.2039     7.1501     7.7006     7.8702     0.0109     2.4512     0.1191   126.7498
  335.0000   -37.2063     7.4621     7.4503     8.9009     7.8697     0.0018     2.4407     0.1213   127.1987
  335.5000   -36.9132     7.9314     7.7663    10.0083     7.8693     0.0002     2.4316     0.1299   128.4007
  336.0000   -36.7688     8.2088     8.1443    10.2146     7.8538     0.0017     2.4308     0.1306   128.2472
  336.5000   -37.3765     8.4359     8.3119    10.4220     7.8534     0.0107     2.4240     0.1372   129.1472
  337.0000   -37.9828     8.5507     8.4244    10.5637     7.8530     0.0121     2.4156     0.1426   130.8009
  337.5000   -38.7393     8.6073     8.5392    10.5576     7.8376     0.0105     2.4066     0.1462   133.0571
  338.0000   -38.5949     8.6037     8.5943     9.8467     7.8072     0.0165     2.4142     0.1384   133.3554
  338.5000   -37.8499     8.4825     8.4720     8.4513     7.7767     0.0044     2.4170     0.1414   132.4482
  339.0000   -37.0821     8.3631     8.2374     9.4471     7.7613     0.0043     2.3876     0.1528   131.8429
  339.5000   -36.8103     8.0201     7.8448     9.3666     7.7609     0.0043     2.3891     0.1580   131.6895
  340.0000   -36.9676     7.6381     7.4709     8.9813     7.7605    -0.0169     2.3868     0.1541   130.7830
  340.5000   -37.2737     7.2622     7.0658     8.6716     7.7761    -0.0199     2.3779     0.1619   131.5331
  341.0000   -37.4296     6.6452     6.4547     8.4894     7.8194    -0.0200     2.3596     0.1709   131.9821
  341.5000   -37.4510     6.1985     5.9380     8.1227     7.8489    -0.0201     2.3535     0.1739   130.6238
  342.0000   -37.7428     5.7819     5.8953     6.9857     7.8485    -0.0186     2.3512     0.1752   133.3310
  342.5000   -37.5969     5.8607     6.1848     5.2931     7.8480    -0.0202     2.3542     0.1763   131.3703
  343.0000   -37.4539     6.0696     6.4000     4.9716     7.8476    -0.0263     2.3601     0.1737   131.9698
  343.5000   -37.4597     6.3637     6.6687     6.4198     7.8471    -0.0399     2.3811     0.1701   133.8665
  344.0000   -37.4659     6.6315     6.9962     8.8437     7.8467    -0.0184     2.4112     0.1339   136.6320
  344.5000   -37.7719     6.8155     7.2404     9.9207     7.8612    -0.0009     2.4314     0.1256   136.9311
  345.0000   -38.0931     7.0533     7.4916    10.2654     7.8608     0.0006     2.4408     0.1220   135.5721
  345.5000   -38.2353     7.3501     7.7522    10.6222     7.8603     0.0111     2.4584     0.1172   135.5692
  346.0000   -38.0894     7.8739     7.9732    10.7666     7.8598     0.0187     2.4576     0.1154   135.7169
  346.5000   -37.9464     8.2622     8.3003    10.4659     7.8745    -0.0106     2.4319     0.1210   135.2616
  347.0000   -37.8020     8.5505     8.5298    10.3177     7.8590    -0.0087     2.4387     0.1235   135.5599
  347.5000   -37.6576     8.7877     8.7666    10.8991     7.8585    -0.0027     2.4469     0.1184   136.0095
  348.0000   -37.8149     8.8459     8.9461    11.2013     7.8430    -0.0028     2.4566     0.1160   133.2951
  348.5000   -38.1209     8.8429     9.0047    11.1948     7.8426    -0.0013     2.4505     0.1185   133.6064
  349.0000   -38.4270     8.9633     9.1256    11.1897     7.8272     0.0046     2.4467     0.1197   133.4392
  349.5000   -38.1324     9.0846     9.1220    11.3405     7.8268     0.0121     2.4530     0.1158   132.0809
  350.0000   -37.9880     9.1505     9.1094    11.4140     7.8263     0.0113     2.4662     0.1137   131.7776
  350.5000   -37.7011     9.1825     9.0483    11.3949     7.8497     0.0064     2.4612     0.1140   132.9214
  351.0000   -37.4095     9.1958     9.0424    11.4786     7.8731    -0.0001     2.4526     0.1190   134.0461
  351.5000   -37.8743     9.1248     9.0364    11.3123     7.8849    -0.0046     2.4428     0.1233   134.5023
  352.0000   -38.0360     9.1188     9.0304    11.2276     7.8844    -0.0031     2.4331     0.1293   134.9585
  352.5000   -37.4469     9.1127     9.0244    11.2209     7.8839     0.0089     2.4497     0.1185   135.8665
  353.0000   -38.0619     9.1067     9.0183    11.2142     7.8835     0.0209     2.4533     0.1182   137.6781
  353.5000   -38.6740     9.1007     9.0110    11.1302     7.8830     0.0269     2.4646     0.1140   139.0380
  354.0000   -38.5353     8.9681     8.7592    11.0343     7.8826     0.0073     2.4729     0.1113   137.8376
  354.5000   -38.0964     8.8389     8.7534    10.8116     7.8672    -0.0124     2.4548     0.1153   135.7334
  355.0000   -38.1081     8.8331     8.8086    10.8052     7.8667    -0.0106     2.4330     0.1273   136.7922
  355.5000   -38.1223     8.9518     8.9285    10.9493     7.8663     0.0027     2.4420     0.1222   138.1520
  356.0000   -37.9837     9.0067     8.9813    11.2502     7.8657     0.0207     2.4518     0.1192   138.9105
  356.5000   -37.8422     9.0632     8.9120    11.2290     7.8504     0.0237     2.4631     0.1147   136.6559
  357.0000   -38.1568     8.8083     8.6630    10.7779     7.8499     0.0086     2.4548     0.1185   135.7556
  357.5000   -38.1684     8.5029     8.3628    10.7714     7.8495     0.0026     2.4450     0.1225   137.2671
  358.0000   -38.0297     8.3226     8.1856    10.7650     7.8490     0.0101     2.4336     0.1319   139.2294
