~VERSION INFORMATION
 VERS.                2.0:   CWLS LOG ASCII STANDARD - VERSION 2.0
 WRAP.                 NO:   ONE LINE PER DEPTH STEP
~WELL INFORMATION
#MNEM.UNIT      DATA TYPE    INFORMATION
#----------   ------------   ------------------------------
 STRT.F          714.0000:   START DEPTH
 STOP.F         1640.0000:   STOP DEPTH
 STEP.F            0.5000:   STEP LENGTH
 NULL.          -999.2500:   NO VALUE
 COMP. BROWN JOHN E&C INC:   COMPANY
 WELL. NPR 3 STX-15 #83-15:   WELL
 FLD .             TEAPOT:   FIELD
 LOC .      S15 T38N R78W:   LOCATION
 CNTY.            NATRONA:   COUNTY
 STAT.            WYOMING:   STATE
 CTRY. UNITED STATES OF AMERICA:   COUNTRY
 SRVC.            Unknown:   SERVICE COMPANY
 DATE.        30-AUG-1991:   LOGDATE
 API .       490251111300:   API NUMBER
~CURVE INFORMATION
#MNEM.UNIT       API CODE    CURVE DESCRIPTION
#----------   ------------   ------------------------------
 DEPT.F                  :   
 TGAS.UNITS  91 830 01 00:   TOTAL GAS FROM HOTWIRE
 C1  .VF     91 831 01 00:   METHANE
 C2  .VF     91 832 01 00:   ETHANE
 C3  .VF     91 833 01 00:   PROPANE
 C4  .VF     91 834 01 00:   BUTANE
 ROP .MIN/FT 91 810 01 00:   RAT OF DRILLING PENETRATION
~PARAMETER INFORMATION
#MNEM.UNIT          VALUE    DESCRIPTION
#----------   ------------   ------------------------------
 EKB .F              5265:   KELLING BUSHING
 EGL .F              5255:   GROUND LEVEL
 DATE.            5-30-91:   RUN DATE
 DD  .F              1626:   DEPTH DRILLER
 TCS .HRS            1200:   TIME CURCULATED STOPPED
 TLAB.HRS            1815:   TIME LOGGER AT BOTTOM
 ENGI.               HUSK:   RECORDING ENGINEER
 WITN.              TOWER:   WITNESSED BY
 CLNT.            A2DTECH:   CLIENT CODE
 ORIG.           5" PRINT:   ORIGIN OF DATA
 UWI .       490251111300:   UNIQUE WELL ID
 DICO. A2D Technologies, Inc.:   DIGITIZING COMPANY
~OTHER INFORMATION
~A   DEPT     TGAS         C1         C2         C3         C4          ROP 
# ...
 1390.0000    49.7807     7.6453     0.8747     0.3509     0.2381     0.4927
 1390.5000    49.5696     7.6365     0.7714     0.4406     0.2381     0.4983
 1391.0000    49.3584     7.6277     0.6678     0.5290     0.2381     0.5047
 1391.5000    49.1474     7.6189     0.5986     0.6099     0.2331     0.5049
 1392.0000    48.9362     7.6100     0.6089     0.6443     0.2232     0.5057
 1392.5000    48.7250     7.6013     0.6195     0.6835     0.2132     0.5064
 1393.0000    48.5139     7.5924     0.6297     0.7218     0.2033     0.5072
 1393.5000    48.3027     7.5837     0.6403     0.7611     0.1933     0.5079
 1394.0000    48.0916     7.5747     0.6506     0.7990     0.1834     0.5087
 1394.5000    47.8805     7.5660     0.6611     0.8385     0.1735     0.5094
 1395.0000    47.6694     7.5580     0.6714     0.8761     0.1635     0.5102
 1395.5000    47.4582     7.5269     0.6819     0.9160     0.1536     0.5109
 1396.0000    47.2472     7.4984     0.6923     0.9533     0.1436     0.5117
 1396.5000    47.0359     7.4701     0.7027     0.9937     0.1337     0.5124
 1397.0000    46.8249     7.4417     0.7131     1.0306     0.1238     0.5132
 1397.5000    46.6136     7.4134     0.7235     1.0713     0.1138     0.5139
 1398.0000    46.4027     7.3850     0.7339     0.8037     0.1039     0.5147
 1398.5000    46.1913     7.3567     0.7443     0.1429     0.0940     0.5154
 1399.0000    45.9804     7.3254     0.7547     0.2063     0.0840     0.5162
 1399.5000    45.6901     7.2725     0.7651     0.2740     0.0741     0.5171
 1400.0000    45.2161     7.2136     0.7756     0.3374     0.0641     0.5162
 1400.5000    44.7416     7.1548     0.7860     0.4050     0.0542     0.5151
 1401.0000    44.2676     7.0960     0.7964     0.4686     0.0443     0.5138
 1401.5000    43.7931     7.0371     0.8068     0.5359     0.0343     0.5128
 1402.0000    43.3190     6.9783     0.8173     0.6091     0.0244     0.5115
 1402.5000    42.8446     6.9194     0.8277     0.6275     0.0144     0.5104
 1403.0000    42.3705     6.8606     0.8381     0.6522     0.0045     0.5091
 1403.5000    41.8961     6.8018     0.8485     0.6790     0.0000     0.5081
 1404.0000    41.4219     6.7429     0.8590     0.7042     0.0000     0.5067
 1404.5000    40.9476     6.6841     0.8694     0.7306     0.0000     0.5058
 1405.0000    40.4734     6.6253     0.8798     0.7560     0.0000     0.5046
 1405.5000    39.9991     6.5664     0.8902     0.7822     0.0000     0.4674
 1406.0000    39.5248     6.5076     0.9007     0.8077     0.0000     0.4678
 1406.5000    39.0505     6.4487     0.9111     0.8337     0.0000     0.4686
 1407.0000    38.5763     6.3900     0.9215     0.8595     0.0000     0.4689
 1407.5000    38.1020     6.3311     0.9319     0.8854     0.0000     0.4697
 1408.0000    37.6277     6.2723     0.9423     0.9113     0.0000     0.4701
 1408.5000    37.1534     6.2134     0.9528     0.9372     0.0000     0.4707
 1409.0000    36.6791     6.1547     0.9632     0.9630     0.0000     0.4712
 1409.5000    36.2048     6.0957     0.9736     0.9888     0.0000     0.4718
 1410.0000    35.7303     6.0369     0.9840     1.0147     0.0000     0.4723
 1410.5000    35.2561     5.9779     0.9944     1.0405     0.0000     0.4729
 1411.0000    34.7815     5.9305     1.0049     1.0663     0.0000     0.4734
 1411.5000    34.3074     5.9536     1.0153     1.0922     0.0000     0.4740
 1412.0000    33.8326     5.9733     1.0257     1.1181     0.0000     0.4745
 1412.5000    33.3588     5.9928     1.0361     1.1439     0.0000     0.4751
 1413.0000    32.8837     6.0125     1.0466     1.1698     0.0000     0.4756
 1413.5000    32.4102     6.0319     1.0570     1.1956     0.0000     0.4762
 1414.0000    31.9348     6.0516     1.0674     1.2215     0.0000     0.4767
 1414.5000    31.4618     6.0711     1.0714     1.2474     0.0000     0.4773
 1415.0000    30.9862     6.0907     1.0714     1.2732     0.0000     0.4778
 1415.5000    30.5135     6.1103     1.0714     1.2991     0.0000     0.4783
 1416.0000    30.0376     6.1298     1.0714     1.3249     0.0000     0.4789
 1416.5000    29.5652     6.1494     1.0714     1.2628     0.0000     0.4794
 1417.0000    29.1658     6.1310     1.0714     1.0528     0.0441     0.4849
 1417.5000    28.2999     6.0363     1.0714     0.8430     0.1231     0.4972
 1418.0000    27.5511     5.9415     1.0714     0.6330     0.2013     0.5095
 1418.5000    26.8060     5.8468     1.0714     0.4232     0.0000     0.5219
 1419.0000    26.0571     5.7520     1.0714     0.3607     0.0000     0.5303
 1419.5000    25.3119     5.6574     1.0714     0.3510     0.0000     0.5323
 1420.0000    24.5633     5.5626     1.0714     0.3410     0.0000     0.5343
 1420.5000    23.8178     5.4679     1.0714     0.3312     0.0000     0.5362
 1421.0000    23.0695     5.3731     1.0714     0.3212     0.0000     0.5382
 1421.5000    22.3237     5.2784     1.0714     0.3115     0.0000     0.5402
 1422.0000    22.0253     5.1836     1.0714     0.3015     0.0000     0.5422
 1422.5000    22.0260     5.0890     1.0714     0.2917     0.0000     0.5442
 1423.0000    22.0252     4.9942     1.0714     0.2818     0.0000     0.5461
 1423.5000    22.0257     4.8995     1.0714     0.2720     0.0000     0.5481
 1424.0000    22.0251     4.8047     1.0715     0.2621     0.0000     0.5501
 1424.5000    22.0254     4.7101     1.0715     0.2522     0.0000     0.5521
 1425.0000    22.0250     4.6153     1.0715     0.2423     0.0000     0.5540
 1425.5000    22.0250     4.5206     1.0715     0.2324     0.0000     0.5559
 1426.0000    22.0247     4.4257     1.0715     0.2225     0.0000     0.5576
 1426.5000    22.0247     4.3311     1.0715     0.2125     0.0000     0.5594
 1427.0000    22.0244     4.2906     1.0715     0.2027     0.0000     0.5611
 1427.5000    22.0243     4.2737     1.0715     0.1928     0.0000     0.5629
 1428.0000    22.0240     4.2567     1.0715     0.1830     0.0000     0.5647
 1428.5000    22.0240     4.2397     1.0844     0.1730     0.0000     0.5664
 1429.0000    22.0237     4.2227     1.1050     0.1632     0.0000     0.5813
 1429.5000    22.0237     4.2057     1.1255     0.1533     0.0049     0.6025
 1430.0000    22.0235     4.1887     1.1461     0.1435     0.0384     0.6236
 1430.5000    22.0237     4.1718     1.1667     0.1336     0.0721     0.6417
 1431.0000    22.0235     4.1547     1.1872     0.1221     0.1055     0.6491
 1431.5000    21.9441     4.1378     1.2078     0.1444     0.1386     0.6555
 1432.0000    21.8750     4.1208     1.2284     0.1714     0.1721     0.6619
 1432.5000    21.8084     4.1038     1.2492     0.1982     0.2055     0.6684
 1433.0000    21.7406     4.0869     1.2698     0.2253     0.2391     0.6748
 1433.5000    21.6744     4.0700     1.2906     0.2523     0.1751     0.6812
 1434.0000    21.6060     4.0531     1.3099     0.2793     0.1143     0.6877
 1434.5000    21.5405     4.0368     1.3102     0.3064     0.0506     0.6941
 1435.0000    21.4715     4.0201     1.3101     0.3333     0.0000     0.7006
 1435.5000    21.4066     4.0044     1.3105     0.3604     0.0000     0.7070
 1436.0000    21.3362     3.9875     1.3104     0.3873     0.0000     0.7134
 1436.5000    21.2709     3.9720     1.3109     0.4146     0.0000     0.7124
 1437.0000    21.1998     3.9536     1.3105     0.4412     0.0673     0.7046
 1437.5000    21.1350     3.9387     1.3110     0.4686     0.8726     0.6968
 1438.0000    21.0621     3.9196     1.3105     0.4949     1.6861     0.6891
 1438.5000    20.9975     3.9055     1.3110     0.5226     2.6176     0.6813
 1439.0000    20.9242     3.8850     1.3104     0.5487     1.8782     0.6735
 1439.5000    20.8514     3.8722     1.4634     0.5766     0.9904     0.6657
 1440.0000    25.7917     3.8505     2.0178     0.6024     1.7539     0.6579
 1440.5000    34.6055     3.9934     2.5734     0.8554     3.2574     0.6501
 1441.0000    43.4075     4.5354     3.1279     1.5198     4.7711     0.6418
 1441.5000    52.2222     5.0649     3.6834     2.2561     6.4257     0.6492
