~VERSION INFORMATION
 VERS.                2.0:   CWLS LOG ASCII STANDARD - VERSION 2.0
 WRAP.                 NO:   ONE LINE PER DEPTH STEP
~WELL INFORMATION
#MNEM.UNIT      DATA TYPE    INFORMATION
#----------   ------------   ------------------------------
 STRT.F           66.0000:   START DEPTH
 STOP.F          814.0000:   STOP DEPTH
 STEP.F            0.5000:   STEP LENGTH
 NULL.          -999.2500:   NO VALUE
 COMP.   FLUOR DANIEL INC:   COMPANY
 WELL. NAVAL PETROLEUM RESERVE 3 SX-2 #32-11-2:   WELL
 FLD .        N.P.R NO. 3:   FIELD
 LOC .       S2 T38N R78W:   LOCATION
 CNTY.            NATRONA:   COUNTY
 STAT.            WYOMING:   STATE
 CTRY. UNITED STATES OF AMERICA:   COUNTRY
 SRVC.      Dresser Atlas:   SERVICE COMPANY
 DATE.        15-AUG-1985:   LOGDATE
 API .       490251104000:   API NUMBER
~CURVE INFORMATION
#MNEM.UNIT       API CODE    CURVE DESCRIPTION
#----------   ------------   ------------------------------
 DEPT.F                  :   
 SPR .MV     07 010 01 00:   SPONTANEOUS POTENTIAL
 RILD.OHMM   07 120 46 00:   INDUCTION LOG DEEP RESISTIVITY
 RILM.OHMM   07 120 44 00:   INDUCTION LOG MEDIUM RESISTIVITY
 RFOC.OHMM   07 220 04 00:   RESISTIVITY FOCUSED LOG
 PORD.DEC    45 890 12 00:   POROSITY DENSITY SANDSTONE
 CNC .DEC    42 890 03 00:   NEUTRON POROSITY SANDSTONE
 GRD .GAPI   45 310 01 00:   GAMMA RAY FROM DENSITY LOG
 CALD.IN     45 280 60 00:   CALIPER FROM DENSITY LOG
 CORR.G/C3   45 356 01 00:   DENSITY CORRECTION
 DEN .G/C3   45 350 01 00:   COMPENSATED BULK DENSTIY
~PARAMETER INFORMATION
#MNEM.UNIT          VALUE    DESCRIPTION
#----------   ------------   ------------------------------
 PD  .                 GL:   PERMANENT DATUM
 EPD .F              5113:   ELEVATION PERMANENT DATUM
 LMF .                 GL:   LOG MEASURED FROM
 DMF .                 GL:   DRILLING MEASURED FROM
 EGL .F              5113:   GROUND LEVEL
 DATE.            8-15-85:   RUN DATE
 RUN .                  1:   RUN NUMBER
 DD  .F               817:   DEPTH DRILLER
 DL  .F               817:   DEPTH LOGGER
 BLI .F               814:   BOTTOM LOG INTERVAL
 CS  .IN            8.625:   CASING SIZE
 CBD .F                79:   CASING BOTTOM DRILLER
 CBL .F                79:   CASING BOTTOM LOGGER
 BS  .IN            7.875:   BIT SIZE
 BSD .F               817:   BIT SIZE AT DEPTH
 DFT .          KCL WATER:   DRILLING FLUID TYPE
 MSS .               TANK:   MUD SAMPLE SOURCE
 RMS .OHMM            .25:   RESISTIVITY MUD SAMPLE
 MST .F                70:   MUD SAMPLE TEMPERATURE
 BHT .F               100:   BOTTOM HOLE TEMPERATURE
 TCS .HRS               2:   TIME CURCULATED STOPPED
 MRT .F               100:   MAXIMUM RECORDED TEMPERATURE
 LUN .            HL-6274:   LOGGING UNIT NUMBER
 LUL .           GILLETTE:   LOGGING UNIT LOCATION
 ENGI.             RAUTIO:   RECORDING ENGINEER
 WITN.           JENNINGS:   WITNESSED BY
 CLNT.            A2DTECH:   CLIENT CODE
 ORIG.       2", 5" PRINT:   ORIGIN OF DATA
 UWI .       490251104000:   UNIQUE WELL ID
 DICO. A2D Technologies, Inc.:   DIGITIZING COMPANY
~OTHER INFORMATION
~A   DEPT      SPR       RILD       RILM       RFOC       PORD        CNC        GRD       CALD       CORR        DEN   
# ...
  334.0000   -38.6241     8.5026     8.5974     9.5873     0.1216     0.2971    99.5912     8.3789     0.0121     2.4751
  334.5000   -38.4636     8.8672     8.9032     9.7294     0.1198     0.2916    99.2773     8.3936     0.0151     2.4743
  335.0000   -38.3016     9.1192     9.1560     9.9323     0.1168     0.2913   101.0799     8.4081     0.0211     2.4773
  335.5000   -38.2929     9.3133     9.4822     9.9349     0.1159     0.2919   101.9766     8.4077     0.0466     2.4811
  336.0000   -38.2843     9.5116     9.6839     9.8003     0.1168     0.2856   102.5715     8.4072     0.0782     2.4833
  336.5000   -38.4273     9.6508     9.8214     9.8029     0.1247     0.2798   100.7626     8.4067     0.0421     2.4773
  337.0000   -38.5700     9.8526     9.8919    10.0826     0.1271     0.2789    97.9581     8.4063    -0.0210     2.4698
  337.5000   -38.7107     9.8546     9.9634    10.7364     0.1299     0.2850    95.3444     8.3758    -0.0301     2.4660
  338.0000   -38.8557     9.8565     9.8963    11.1966     0.1323     0.2959    96.5399     8.3150    -0.0159     2.4577
  338.5000   -38.9964     9.8626     9.8292    11.2777     0.1335     0.2983    99.5372     8.3146     0.0045     2.4577
  339.0000   -39.2893     9.8604     9.7631    11.1116     0.1317     0.2911    98.9269     8.3443     0.0090     2.4600
  339.5000   -39.2807     9.6592     9.5609    10.1670     0.1311     0.2768    97.7226     8.3739     0.0075     2.4600
  340.0000   -39.2720     9.4616     9.3035     9.9592     0.1333     0.2726    96.8161     8.3735     0.0228     2.4568
  340.5000   -39.2633     9.2680     9.1138     9.8249     0.1360     0.2799    97.7113     8.3730     0.0360     2.4524
  341.0000   -39.2545     9.0775     8.9274     9.5639     0.1363     0.2875   101.6095     8.3725     0.0375     2.4517
  341.5000   -39.0924     8.9881     8.8673     9.4286     0.1336     0.2887   103.7498     8.3721     0.0239     2.4547
  342.0000   -38.7807     8.8947     8.8077     9.4251     0.1303     0.2772   104.5997     8.3717     0.0089     2.4615
  342.5000   -38.3175     8.8965     8.8098     9.3034     0.1285     0.2754   104.8957     8.3561     0.0134     2.4637
  343.0000   -38.0058     8.8986     8.8730     9.2414     0.1276     0.2699   105.1889     8.3557     0.0344     2.4652
  343.5000   -37.8455     8.9004     8.8748     9.1798     0.1264     0.2708   106.4004     8.3552     0.0404     2.4667
  344.0000   -37.5317     8.7183     8.8766     9.3114     0.1240     0.2775   107.5786     8.3699     0.0058     2.4674
  344.5000   -37.5231     8.5996     8.8168     9.3794     0.1268     0.2763   107.2726     8.3845    -0.0034     2.4629
  345.0000   -37.5144     8.4824     8.6370     9.3819     0.1316     0.2687    99.7594     8.3991     0.0013     2.4576
  345.5000   -37.5058     8.4253     8.5190     9.3188     0.1320     0.2695    96.4504     8.3835     0.0193     2.4569
  346.0000   -37.4970     8.4274     8.4035     9.1931     0.1292     0.2924    98.8457     8.3681     0.0373     2.4606
  346.5000   -37.4863     8.4879     8.4126     9.0686     0.1268     0.2954   101.8430     8.3514     0.0388     2.4637
  347.0000   -37.4776     8.5488     8.4658     9.0716     0.1250     0.2960   103.3388     8.3219     0.0268     2.4659
  347.5000   -37.4690     8.5509     8.4675     9.0105     0.1275     0.2997   102.7325     8.3064     0.0132     2.4651
  348.0000   -37.4603     8.4929     8.4692     9.0135     0.1314     0.3000    99.6957     8.2909     0.0027     2.4606
  348.5000   -37.4515     8.4357     8.4122     8.9534     0.1317     0.2973   101.5186     8.2754    -0.0018     2.4561
  349.0000   -37.4408     8.3793     8.3556     8.8321     0.1257     0.2915   105.7171     8.2749     0.0072     2.4636
  349.5000   -37.4322     8.3229     8.3576     8.8967     0.1209     0.2921   107.5132     8.2745     0.0162     2.4718
  350.0000   -37.4256     8.3249     8.3014     8.9423     0.1197     0.3061   106.0060     8.2730     0.0237     2.4733
  350.5000   -37.4249     8.3470     8.3099     9.2207     0.1224     0.3115   104.7928     8.2656     0.0146     2.4726
  351.0000   -37.4242     8.3258     8.3449     9.3450     0.1209     0.3134   106.5766     8.2575     0.0326     2.4763
  351.5000   -37.4242     8.4466     8.3663     8.9027     0.1161     0.3155   105.2784     8.3019     0.0401     2.4815
  352.0000   -37.4242     8.4486     8.4857     8.8419     0.1137     0.3168   104.1452     8.3012     0.0582     2.4853
  352.5000   -37.2727     8.4503     8.4880     8.7210     0.1191     0.3150   108.6316     8.3155     0.0612     2.4823
  353.0000   -37.2727     8.4520     8.4314     8.7225     0.1267     0.3101   111.0232     8.3146     0.0296     2.4665
  353.5000   -37.2727     8.4537     8.3753     8.7890     0.1367     0.3065   106.5006     8.2988    -0.0014     2.4473
  354.0000   -37.2727     8.3968     8.2619     8.8472     0.1455     0.3329   106.1380     8.2830    -0.0381     2.4274
  354.5000   -37.2727     8.3403     8.2068     8.9101     0.1495     0.3344   111.0450     8.2673    -0.0140     2.4281
  355.0000   -37.1212     8.1697     8.0957     8.9113     0.1446     0.3096   112.4633     8.2515     0.0025     2.4364
  355.5000   -36.9697     7.9475     7.9313     8.9125     0.1394     0.2975   109.7425     8.2357     0.0085     2.4484
  356.0000   -36.8040     7.7849     7.5566     9.1015     0.1364     0.2969   105.2236     8.2349    -0.0006     2.4485
  356.5000   -36.3636     7.4682     7.2389     8.9149     0.1410     0.3054   106.4103     8.2341    -0.0051     2.4423
  357.0000   -36.0606     7.1643     6.8601     8.3500     0.1443     0.3067   110.9004     8.2484     0.0024     2.4352
  357.5000   -35.9091     6.9691     6.7667     7.8688     0.1476     0.3088   113.5985     8.2629     0.0084     2.4273
  358.0000   -35.7576     6.8259     6.6293     7.7072     0.1501     0.3176   116.5736     8.2620     0.0129     2.4243
  358.5000   -35.4545     6.6869     6.6311     7.4971     0.1519     0.3207   119.8624     8.2914     0.0024     2.4235
  359.0000   -35.3030     6.6886     6.6791     7.3431     0.1519     0.3213   118.6468     8.2907    -0.0052     2.4197
  359.5000   -35.1515     6.7366     6.7275     7.2429     0.1568     0.3153   111.7254     8.2898    -0.0157     2.4152
  360.0000   -35.0000     6.8324     6.7763     7.1439     0.1580     0.3007   104.8041     8.3041    -0.0234     2.4168
  360.5000   -35.1515     6.8815     6.9214     7.3978     0.1501     0.2947   102.6875     8.3034    -0.0262     2.4272
  361.0000   -35.1515     7.0771     7.0202     7.6604     0.1465     0.2932   100.8368     8.3026    -0.0157     2.4332
  361.5000   -35.3030     7.2298     7.2704     7.9878     0.1459     0.2984    99.3517     8.3172    -0.0082     2.4339
  362.0000   -35.3030     7.4336     7.4774     8.1007     0.1486     0.3026    98.7367     8.3313    -0.0098     2.4271
  362.5000   -35.6061     7.5393     7.5316     8.2152     0.1544     0.3027    98.7222     8.3456    -0.0158     2.4219
  363.0000   -35.7576     7.5408     7.5862     8.0467     0.1556     0.3024    99.9090     8.3447    -0.0188     2.4203
  363.5000   -36.0606     7.4896     7.5882     8.0478     0.1532     0.3054   101.3960     8.3440    -0.0083     2.4213
  364.0000   -36.5152     7.4915     7.5819     8.1053     0.1469     0.3173   103.1834     8.3433     0.0052     2.4316
  364.5000   -36.8182     7.4930     7.4875     8.1629     0.1381     0.3215   104.3665     8.3426     0.0127     2.4436
  365.0000   -36.9697     7.4911     7.3861     8.2210     0.1337     0.3191   104.6524     8.3418     0.0142     2.4533
  365.5000   -36.9697     7.3925     7.2361     8.1648     0.1324     0.3037   104.6379     8.3411    -0.0023     2.4556
  366.0000   -36.8182     7.2416     7.1879     7.9977     0.1330     0.2958   104.3232     8.3554     0.0067     2.4556
  366.5000   -36.8182     7.1426     7.1399     7.9433     0.1315     0.2928   103.4078     8.3698     0.0292     2.4571
  367.0000   -36.8182     7.0946     7.0925     7.8894     0.1294     0.2895   101.8919     8.3839     0.0397     2.4600
