~VERSION INFORMATION
 VERS.                2.0:   CWLS LOG ASCII STANDARD - VERSION 2.0
 WRAP.                 NO:   ONE LINE PER DEPTH STEP
~WELL INFORMATION
#MNEM.UNIT      DATA TYPE    INFORMATION
#----------   ------------   ------------------------------
 STRT.F           20.0000:   START DEPTH
 STOP.F          600.0000:   STOP DEPTH
 STEP.F            0.5000:   STEP LENGTH
 NULL.          -999.2500:   NO VALUE
 COMP. FENIX & SCISSON INC:   COMPANY
 WELL. TEAPOT DOME #23 SX 3-4:   WELL
 FLD .             TEAPOT:   FIELD
 LOC .       S4 T38N R78W:   LOCATION
 CNTY.            NATRONA:   COUNTY
 STAT.            WYOMING:   STATE
 CTRY. UNITED STATES OF AMERICA:   COUNTRY
 SRVC.            Unknown:   SERVICE COMPANY
 DATE.        31-JUL-1978:   LOGDATE
 API .       490251067600:   API NUMBER
~CURVE INFORMATION
#MNEM.UNIT       API CODE    CURVE DESCRIPTION
#----------   ------------   ------------------------------
 DEPT.F                  :   
 CALD.IN     45 280 60 00:   CALIPER FROM DENSITY LOG
 GRD .GAPI   45 310 01 00:   GAMMA RAY FROM DENSITY LOG
 CORR.G/C3   45 356 01 00:   DENSITY CORRECTION
 DPHI.DEC    45 890 12 00:   DENSITY POROSITY SANDSTONE
 RHOB.G/C3   45 350 01 00:   BULK DENSITY
 SPR .MV     07 010 01 00:   SPONTANEOUS POTENTIAL
 ILD .OHMM   07 120 46 00:   INDUCTION LOG DEEP
 SN  .OHMM   07 040 16 00:   SHORT NORMAL 16"
 CILD.MMHO   07 110 46 00:   CONDUCTIVITY INDUCTION LOG DEEP
~PARAMETER INFORMATION
#MNEM.UNIT          VALUE    DESCRIPTION
#----------   ------------   ------------------------------
 PD  .                 GL:   PERMANENT DATUM
 EPD .F              5181:   ELEVATION PERMANENT DATUM
 LMF .                 KB:   LOG MEASURED FROM
 DAPD.F                 4:   FEET ABOVE PERMANENT DATUM
 DMF .                 KB:   DRILLING MEASURED FROM
 EKB .F              5185:   KELLING BUSHING
 EGL .F              5181:   GROUND LEVEL
 DATE.        31-JUL-1978:   RUN DATE
 RUN .                  1:   RUN NUMBER
 DD  .F               595:   DEPTH DRILLER
 DL  .F               606:   DEPTH LOGGER
 BLI .F               600:   BOTTOM LOG INTERVAL
 TLI .F                40:   TOP LOG INTERVAL
 CBL .F                45:   CASING BOTTOM LOGGER
 BS  .IN            7.875:   BIT SIZE
 BSD .F               595:   BIT SIZE AT DEPTH
 DFT .                KCL:   DRILLING FLUID TYPE
 DFD .                9.0:   DRILLING FLUID DENSITY
 DFV .                 36:   DRILLING FLUID VISCOSITY
 DFPH.                9.0:   DRILLING FLUID PH
 DFL .                8.0:   DRILLING FLUID LOSS
 MSS .           FLOWLINE:   MUD SAMPLE SOURCE
 BHT .F                74:   BOTTOM HOLE TEMPERATURE
 TCS .HRS            0500:   TIME CURCULATED STOPPED
 MRT .F                74:   MAXIMUM RECORDED TEMPERATURE
 LUN .               2958:   LOGGING UNIT NUMBER
 LUL .               CASP:   LOGGING UNIT LOCATION
 ENGI.            POINTER:   RECORDING ENGINEER
 WITN.              AMEND:   WITNESSED BY
 CLNT.            A2DTECH:   CLIENT CODE
 ORIG.           5" PRINT:   ORIGIN OF DATA
 UWI .       490251067600:   UNIQUE WELL ID
 DICO. A2D Technologies, Inc.:   DIGITIZING COMPANY
~OTHER INFORMATION
~A   DEPT     CALD        GRD       CORR       DPHI       RHOB        SPR        ILD         SN       CILD   
# ...
  531.0000     7.5218    87.9213     0.0390     0.1876     2.3372   -20.6954    14.4169    11.4600    64.6510
  531.5000     7.5982    84.1948     0.0398     0.1929     2.3365   -21.1322    13.9364    11.4656    67.5410
  532.0000     7.6298    82.2699     0.0450     0.1920     2.4333   -21.1228    13.3793    11.4712    69.6819
  532.5000     7.5563    79.7470     0.0615     0.0380     2.5891   -21.1138    13.2021    11.4768    71.1003
  533.0000     7.4679    80.2136     0.1004     0.0403     2.5862   -20.9562    13.1215    11.4824    72.4656
  533.5000     7.5294    82.3245     0.1182     0.0457     2.5638   -20.7986    12.8586    11.4880    73.8574
  534.0000     7.5759    84.7343     0.1092     0.0723     2.5250   -21.3840    12.6903    11.4936    73.7511
  534.5000     7.5324    88.0410     0.0754     0.1065     2.4801   -21.9693    12.6109    11.4993    73.6449
  535.0000     7.5186    87.3118     0.0499     0.1094     2.4727   -22.8518    12.6191    11.5049    73.5386
  535.5000     7.2806    84.1910     0.0312     0.1184     2.4596   -22.8428    12.6372    11.5105    73.4323
  536.0000     7.2218    83.1629     0.0192     0.1256     2.4541   -22.6852    12.8993    11.5161    73.3483
  536.5000     7.2083    82.4337     0.0155     0.1122     2.4714   -23.1220    12.9073    11.5218    73.2435
  537.0000     7.3151    82.6014     0.0178     0.1087     2.4685   -23.7074    12.8264    11.5274    73.1386
  537.5000     7.3938    83.2636     0.0209     0.1178     2.4640   -24.4413    12.7461    11.5319    73.0337
  538.0000     7.4243    84.4275     0.0224     0.1203     2.4814   -24.2837    12.7543    11.5374    72.9274
  538.5000     7.4243    84.2890     0.0240     0.1095     2.4957   -24.1261    12.6745    11.5430    72.8211
  539.0000     7.4108    84.3140     0.0256     0.1032     2.4942   -24.1171    12.6825    11.5486    72.7060
  539.5000     7.3973    84.9301     0.0286     0.0966     2.4876   -24.4329    12.5164    11.5542    72.6086
  540.0000     7.3538    86.4431     0.0309     0.0959     2.4779   -24.8638    12.3506    11.5599    72.5023
  540.5000     7.3253    87.8066     0.0279     0.0986     2.4705   -25.2810    12.3603    11.4858    72.3960
  541.0000     7.3869    86.0311     0.0167     0.1022     2.4848   -25.5770    12.8026    11.2558    72.2897
  541.5000     7.4634    84.6994     0.0160     0.1037     2.4909   -25.7088    12.9887    11.1068    72.1834
  542.0000     7.4649    86.0675     0.0168     0.0994     2.4977   -25.6998    12.9055    11.0347    72.0771
  542.5000     7.4664    94.7553     0.0169     0.0988     2.4985   -25.6908    12.8247    11.0414    72.7465
  543.0000     7.4680    94.7735     0.0169     0.0943     2.4971   -25.6818    12.7445    10.9695    73.3893
  543.5000     7.4845    94.5375     0.0177     0.0933     2.4961   -25.6728    12.7545    10.9762    73.2564
  544.0000     7.4860    94.5549     0.0170     0.0954     2.4940   -25.6638    12.7626    10.9815    73.9258
  544.5000     7.5025    93.8392     0.0171     0.1005     2.4909   -25.6548    12.9482    10.9869    74.5685
  545.0000     7.5190    92.4474     0.0147     0.1031     2.4880   -25.7943    13.0440    10.9923    75.2113
  545.5000     7.5052    91.2898     0.0110     0.1049     2.4867   -26.0825    12.8732    10.9977    75.8541
  546.0000     7.4702    89.0510     0.0096     0.0999     2.4905   -26.8165    12.7870    10.9260    76.4969
  546.5000     7.4183    93.2696     0.0096     0.0977     2.4935   -27.1046    12.5369    10.9327    76.3895
  547.0000     7.4202    94.4847     0.0112     0.1033     2.4914   -27.0956    12.3741    10.8614    76.2843
  547.5000     7.4363    93.4475     0.0143     0.1036     2.4914   -27.2375    12.2120    10.8681    76.1780
  548.0000     7.4678    96.3143     0.0166     0.1027     2.4960   -27.2262    12.1355    10.8723    76.0717
  548.5000     7.4843    98.2801     0.0189     0.0869     2.5058   -27.3680    12.1434    10.8026    75.9654
  549.0000     7.4858    99.1082     0.0198     0.0917     2.5120   -27.3568    12.1511    10.8080    75.8591
  549.5000     7.4874    99.9730     0.0199     0.0829     2.5127   -27.3478    12.2429    10.8132    76.5285
  550.0000     7.4738   101.1712     0.0199     0.0853     2.5097   -27.5184    12.2358    10.7294    76.4045
  550.5000     7.4903   106.4403     0.0200     0.0910     2.5031   -27.7772    12.1707    10.6769    75.5567
  551.0000     7.4918   103.1509     0.0201     0.0916     2.5024   -27.7679    12.0929    10.6244    75.4579
  551.5000     7.4934   101.0627     0.0202     0.0951     2.5047   -27.7588    12.0156    10.5719    76.1124
  552.0000     7.4949    98.0736     0.0202     0.0942     2.5078   -27.9006    11.9388    10.5499    76.7831
  552.5000     7.4964    94.4839     0.0203     0.0936     2.5093   -27.8893    11.8625    10.5566    77.4334
  553.0000     7.4980    89.9933     0.0204     0.0851     2.5072   -27.8802    11.7071    10.5632    78.8328
  553.5000     7.4995    91.5087     0.0205     0.0881     2.5042   -28.0220    11.7116    10.5699    80.2321
  554.0000     7.5010    97.2974     0.0205     0.0890     2.5028   -28.1615    11.6365    10.5766    81.6068
  554.5000     7.4872    98.1396     0.0199     0.0881     2.5014   -28.2987    11.6423    10.5833    81.5080
  555.0000     7.4588    96.3517     0.0184     0.0952     2.5014   -28.2896    11.6480    10.6634    81.4092
  555.5000     7.4453    96.3333     0.0177     0.0935     2.5007   -28.2806    11.5733    10.6702    81.3104
  556.0000     7.4468    96.0792     0.0171     0.0937     2.4978   -28.2734    11.4993    10.9004    81.9854
  556.5000     7.4330    95.4890     0.0179     0.0993     2.4986   -28.2645    11.3461    10.9829    83.3601
  557.0000     7.4195    98.5094     0.0180     0.0975     2.5032   -28.4042    11.1203    10.9142    84.7841
  557.5000     7.4061    97.9192     0.0188     0.0945     2.5078   -28.5438    10.8227    10.6956    86.2920
  558.0000     7.3926    99.7349     0.0196     0.0912     2.5108   -29.1290    10.6061    10.5556    87.5828
  558.5000     7.3945    96.8959     0.0205     0.0896     2.5109   -29.4175    10.3938    10.4174    87.4832
  559.0000     7.4111    98.4267     0.0205     0.0893     2.5102   -29.5589    10.2563    10.2811    87.3853
  559.5000     7.5072    96.1730     0.0206     0.0908     2.5103   -29.9933    10.1194    10.1463    87.2865
  560.0000     7.5487    93.0337     0.0207     0.0898     2.5111   -30.4300    10.1106    10.0827    93.9293
  560.5000     7.5203    92.5937     0.0208     0.0862     2.5112   -30.7181    10.0596    10.0200    93.0815
  561.0000     7.4768    97.2657     0.0208     0.0922     2.5105   -30.7090    10.1344    10.0264    92.9827
  561.5000     7.4334   106.2886     0.0209     0.0853     2.5113   -30.7000    10.2096     9.9621    93.6577
  562.0000     7.3895   105.1013     0.0210     0.0862     2.5129   -30.6909    10.2146     9.8999    94.2832
  562.5000     7.4514   102.7128     0.0211     0.0885     2.5114   -31.1276    10.1491     9.7046    94.9335
  563.0000     7.4830   103.0210     0.0211     0.0837     2.5115   -31.4179     9.9461     9.5117    95.6085
  563.5000     7.4845   102.2149     0.0197     0.0897     2.5146   -31.7221     9.3515     9.2584   101.4776
  564.0000     7.4860    97.3453     0.0190     0.0783     2.5148   -32.2972     8.2059     9.0500   120.1054
  564.5000     7.4722   101.5637     0.0168     0.0851     2.5050   -32.5795     7.0044     8.7576   134.2388
  565.0000     7.4737   109.3854     0.0139     0.1052     2.4609   -32.7191     6.3184     8.4765   152.8666
  565.5000     7.4753   111.3513     0.0069     0.1267     2.3726   -32.2641     6.1912     8.2527   151.2697
  566.0000     7.4618   115.4192    -0.0018     0.1798     2.3607   -31.5121     6.1516     8.0886   151.1910
  566.5000     7.4483   117.9857    -0.0069     0.1771     2.3742   -31.0572     6.1554     7.9825   151.0936
  567.0000     7.4199   120.0982     0.0014     0.0835     2.4963   -30.0081     6.1578     7.9878   150.9963
