~VERSION INFORMATION
 VERS.                2.0:   CWLS LOG ASCII STANDARD - VERSION 2.0
 WRAP.                 NO:   ONE LINE PER DEPTH STEP
~WELL INFORMATION
#MNEM.UNIT      DATA TYPE    INFORMATION
#----------   ------------   ------------------------------
 STRT.F            1.0000:   START DEPTH
 STOP.F          520.0000:   STOP DEPTH
 STEP.F            0.5000:   STEP LENGTH
 NULL.          -999.2500:   NO VALUE
 COMP. LAWRENCE/ALLISON INC:   COMPANY
 WELL.      77-13 SX #3-3:   WELL
 FLD .              NPR 3:   FIELD
 LOC .       S3 T38N R78W:   LOCATION
 CNTY.            NATRONA:   COUNTY
 STAT.            WYOMING:   STATE
 CTRY. UNITED STATES OF AMERICA:   COUNTRY
 SRVC.           Gearhart:   SERVICE COMPANY
 DATE.        22-JUN-1988:   LOGDATE
 API .       490251123700:   API NUMBER
~CURVE INFORMATION
#MNEM.UNIT       API CODE    CURVE DESCRIPTION
#----------   ------------   ------------------------------
 DEPT.F                  :   
 GRR .GAPI   07 310 01 00:   GAMMA RAY
 RILD.OHMM   07 120 46 00:   INDUCTION LOG DEEP RESISTIVITY
 RILM.OHMM   07 120 44 00:   INDUCTION LOG MEDIUM RESISTIVITY
~PARAMETER INFORMATION
#MNEM.UNIT          VALUE    DESCRIPTION
#----------   ------------   ------------------------------
 PD  .                 GL:   PERMANENT DATUM
 EPD .F              5166:   ELEVATION PERMANENT DATUM
 LMF .                 KB:   LOG MEASURED FROM
 DAPD.F                10:   FEET ABOVE PERMANENT DATUM
 DMF .                 KB:   DRILLING MEASURED FROM
 EKB .F              5176:   KELLING BUSHING
 EGL .F              5166:   GROUND LEVEL
 DATE.        22-JUN-1988:   RUN DATE
 RUN .                  1:   RUN NUMBER
 DD  .F               530:   DEPTH DRILLER
 DL  .F               528:   DEPTH LOGGER
 BLI .F               520:   BOTTOM LOG INTERVAL
 TLI .F                50:   TOP LOG INTERVAL
 CS  .IN            9.625:   CASING SIZE
 CBD .F                50:   CASING BOTTOM DRILLER
 CBL .F                50:   CASING BOTTOM LOGGER
 BS  .IN             8.75:   BIT SIZE
 BSD .F               530:   BIT SIZE AT DEPTH
 DFT .                AIR:   DRILLING FLUID TYPE
 TLAB.HRS            0908:   TIME LOGGER AT BOTTOM
 MRT .F                70:   MAXIMUM RECORDED TEMPERATURE
 LUN .               7597:   LOGGING UNIT NUMBER
 LUL .           GILLETTE:   LOGGING UNIT LOCATION
 ENGI.           JOHNSTON:   RECORDING ENGINEER
 WITN.             STRONG:   WITNESSED BY
 CLNT.            A2DTECH:   CLIENT CODE
 ORIG.           5" PRINT:   ORIGIN OF DATA
 UWI .       490251123700:   UNIQUE WELL ID
 DICO. A2D Technologies, Inc.:   DIGITIZING COMPANY
~OTHER INFORMATION
~A    DEPT       GRR     RILD       RILM   
# ...
  456.0000   126.5145    14.5197    14.2236
  456.5000   126.2247    14.6185    14.3210
  457.0000   125.8813    14.6147    14.4195
  457.5000   125.0410    14.6116    14.5187
  458.0000   124.7479    14.7117    14.6184
  458.5000   124.4586    14.8118    14.8223
  459.0000   124.7818    15.1214    15.0290
  459.5000   123.5793    15.3317    15.3487
  460.0000   120.5502    15.8723    16.0160
  460.5000   118.7350    16.2058    16.5680
  461.0000   119.3627    16.4303    16.5656
  461.5000   121.5087    16.5420    16.5633
  462.0000   122.4370    16.4227    16.3305
  462.5000   122.1439    16.1915    15.8778
  463.0000   122.1628    15.7423    15.6551
  463.5000   122.4823    15.4127    15.4355
  464.0000   123.7150    15.1958    15.4334
  464.5000   124.6433    15.0870    15.2169
  465.0000   124.9628    14.8747    15.1088
  465.5000   125.2823    14.8716    15.0014
  466.0000   125.9062    14.7650    14.8948
  466.5000   125.0081    14.7520    14.6859
  467.0000   123.8055    14.5541    14.3790
  467.5000   122.6027    14.4499    14.0785
  468.0000   123.8357    14.2459    13.6882
  468.5000   125.9889    14.0454    13.2160
  469.0000   127.8597    13.8477    12.6712
  469.5000   129.9990    13.6528    12.4064
  470.0000   131.2430    13.5550    12.3182
  470.5000   131.8265    13.2713    12.3165
  471.0000   132.1491    13.0845    12.3148
  471.5000   132.1642    12.7215    12.3131
  472.0000   132.4837    12.3685    12.1404
  472.5000   132.4988    12.0253    11.9701
  473.0000   132.5139    11.8561    11.7183
  473.5000   132.5289    11.6079    11.4751
  474.0000   132.8484    11.5247    11.3141
  474.5000   134.0812    11.2835    11.1553
  475.0000   137.1404    11.0473    11.0761
  475.5000   139.8952    10.9681    11.0742
  476.0000   141.7368    10.8896    11.0727
  476.5000   143.2739    10.8873    11.0712
  477.0000   143.5934    10.8850    11.0696
  477.5000   142.3908    10.9590    11.1461
  478.0000   138.4485    10.9567    11.2228
  478.5000   135.4195    10.9544    11.2209
  479.0000   134.8220    10.9521    11.2193
  479.5000   134.2320    10.7975    11.0620
  480.0000   131.8118    10.5715    10.8308
  480.5000   124.5209    10.4958    10.6045
  481.0000   113.5771    10.3481    10.3828
  481.5000   112.6717    10.2024    10.1659
  482.0000   118.2048    10.0589    10.0233
  482.5000   129.8478     9.9173     9.8827
  483.0000   135.3301     9.7777     9.8813
  483.5000   137.7768     9.6401     9.8111
  484.0000   138.9345     9.4383     9.6061
  484.5000   140.7793     9.1765     9.3398
  485.0000   144.1429     8.9844     9.0176
  485.5000   145.6801     8.8579     8.7676
  486.0000   144.7819     8.6725     8.5844
  486.5000   143.2749     8.4910     8.2872
  487.0000   142.6774     8.4301     7.8311
  487.5000   141.7830     8.2536     7.4002
  488.0000   141.4899     8.1945     7.1532
  488.5000   140.5955     8.1928     7.2690
  489.0000   138.1753     8.1911     7.7228
  489.5000   135.7551     8.3098     8.2234
  490.0000   136.3790     8.4945     8.6954
  490.5000   139.1338     8.8505     9.1944
  491.0000   139.4533     9.4105     9.6544
  491.5000   139.1602     9.9491     9.8577
  492.0000   138.5664    10.3726    10.1360
  492.5000   140.7162    10.8142    10.4952
  493.0000   141.9489    11.1182    10.7915
  493.5000   141.9640    11.1944    11.0187
  494.0000   139.8482    11.2705    11.2508
  494.5000   137.1236    11.2676    11.2492
  495.0000   135.6166    11.3448    11.2477
  495.5000   136.5469    11.4219    11.2461
  496.0000   139.9328    11.4189    11.2445
  496.5000   141.4460    11.3371    11.2430
  497.0000   140.5135    11.2559    11.2414
  497.5000   139.2998    11.1753    11.2399
  498.0000   138.4468    11.0952    11.2383
  498.5000   140.2921    11.0929    11.2368
  499.0000   141.2204    11.1684    11.2352
  499.5000   141.5399    11.2442    11.2336
  500.0000   139.4241    11.4000    11.2321
  500.5000   137.3083    11.2718    11.1037
  501.0000   136.1057    11.1436    10.9797
  501.5000   135.8126    11.0860    10.8159
  502.0000   135.5233    10.8562    10.5823
  502.5000   134.3245    10.6311    10.2815
  503.0000   115.1615    10.1949     9.8506
  503.5000    99.0426     9.7086     9.4377
  504.0000    93.5745     9.0538     9.0421
  504.5000  -999.2500     8.1534     8.6631
  505.0000  -999.2500     7.2915     8.3000
  505.5000  -999.2500     6.5664     7.7327
  506.0000  -999.2500     5.7506     7.1042
  506.5000  -999.2500     4.8861     6.2149
  507.0000  -999.2500     4.2991     5.3504
  507.5000  -999.2500     3.8894     4.4246
  508.0000  -999.2500     3.6525     3.4203
  508.5000  -999.2500     3.5768     3.1204
  509.0000  -999.2500     3.5519     2.9687
  509.5000  -999.2500     3.5272     2.9455
  510.0000  -999.2500     3.6019     3.0477
  510.5000  -999.2500     3.6781     3.4295
  511.0000  -999.2500     3.8624     3.9965
  511.5000  -999.2500     4.2889     4.6248
  512.0000  -999.2500     4.9662     5.2041
  512.5000  -999.2500     5.6413     5.8153
  513.0000  -999.2500     6.3342     6.4529
  513.5000  -999.2500     7.2408     7.0155
  514.0000  -999.2500     7.6568     7.5238
  514.5000  -999.2500     7.9844     7.9124
  515.0000  -999.2500     8.2681     8.4455
  515.5000  -999.2500     7.1904     7.8683
  516.0000  -999.2500     6.5664     6.7877
  516.5000  -999.2500  -999.2500     8.0776
  517.0000  -999.2500  -999.2500     9.0282
  517.5000  -999.2500  -999.2500     9.0837
  518.0000  -999.2500  -999.2500     8.9479
  518.5000  -999.2500  -999.2500     8.6936
  519.0000  -999.2500  -999.2500     8.3877
  519.5000  -999.2500  -999.2500     7.9801
  520.0000  -999.2500  -999.2500     7.7583
