~VERSION INFORMATION
 VERS.                2.0:   CWLS LOG ASCII STANDARD - VERSION 2.0
 WRAP.                 NO:   ONE LINE PER DEPTH STEP
~WELL INFORMATION
#MNEM.UNIT      DATA TYPE    INFORMATION
#----------   ------------   ------------------------------
 STRT.F          190.0000:   START DEPTH
 STOP.F         3246.0000:   STOP DEPTH
 STEP.F            0.5000:   STEP LENGTH
 NULL.          -999.2500:   NO VALUE
 COMP. BROWN JOHN E&C INC:   COMPANY
 WELL.      STX-15 #84-15:   WELL
 FLD .             TEAPOT:   FIELD
 LOC .      S15 T38N R78W:   LOCATION
 CNTY.            NATRONA:   COUNTY
 STAT.            WYOMING:   STATE
 CTRY. UNITED STATES OF AMERICA:   COUNTRY
 SRVC.           BIRDWELL:   SERVICE COMPANY
 DATE.        17-MAR-1978:   LOGDATE
 API .       490251111600:   API NUMBER
~CURVE INFORMATION
#MNEM.UNIT       API CODE    CURVE DESCRIPTION
#----------   ------------   ------------------------------
 DEPT.F                  :   
 ILD .OHMM   05 120 46 00:   INDUCTION LOG DEEP
 SN  .OHMM   05 040 16 00:   SHORT NORMAL 16"
 SPR .MV     05 010 01 00:   SPONTANEOUS POTENTIAL FROM RES.
 GRD .GAPI   45 310 01 00:   GAMMA RAY FROM DENSITY LOG
 CALD.IN     45 280 60 00:   CALIPER
 RHOB.G/C3   45 350 01 00:   BULK DENSITY
 CORR.G/C3   45 356 01 00:   DENSITY CORRECTION
 DPHI.DEC    45 890 12 00:   DENSITY POROSITY SANDSTONE
~PARAMETER INFORMATION
#MNEM.UNIT          VALUE    DESCRIPTION
#----------   ------------   ------------------------------
 PD  .                 GL:   PERMANENT DATUM
 EPD .F              5241:   ELEVATION PERMANENT DATUM
 LMF .                 KB:   LOG MEASURED FROM
 DAPD.F                10:   FEET ABOVE PERMANENT DATUM
 DMF .                 KB:   DRILLING MEASURED FROM
 EKB .F              5251:   KELLING BUSHING
 EGL .F              5241:   GROUND LEVEL
 DATE.            3-17-78:   RUN DATE
 RUN .                  1:   RUN NUMBER
 DD  .F              3250:   DEPTH DRILLER
 DL  .F              3250:   DEPTH LOGGER
 BLI .F              3244:   BOTTOM LOG INTERVAL
 TLI .F               224:   TOP LOG INTERVAL
 CS  .IN            8.625:   CASING SIZE
 CBL .F               224:   CASING BOTTOM LOGGER
 BS  .IN            7.875:   BIT SIZE
 BSD .F              3250:   BIT SIZE AT DEPTH
 DFD .                8.9:   DRILLING FLUID DENSITY
 DFV .                 31:   DRILLING FLUID VISCOSITY
 DFPH.               10.5:   DRILLING FLUID PH
 DFL .                  8:   DRILLING FLUID LOSS
 MSS .           FLOWLINE:   MUD SAMPLE SOURCE
 RMS .OHMM            1.3:   RESISTIVITY MUD SAMPLE
 MST .F                70:   MUD SAMPLE TEMPERATURE
 RMF .OHMM            1.1:   RESISTIVITY MUD FILTRATE SAMPLE
 MFST.F                70:   MUD FILTRATE SAMPLE TEMPERATURE
 RMC .OHMM            1.4:   RESISTIVITY MUD CAKE
 MCST.F                70:   MUD CAKE SAMPLE TEMPERATURE
 MFSS.               MEAS:   MUD FILTRATE SAMPLE SOURCE
 MCSS.               MEAS:   MUD CAKE SAMPLE SOURCE
 RMB .OHMM            .77:   RESISTIVITY MUD AT BHT
 BHT .F               118:   BOTTOM HOLE TEMPERATURE
 TCS .HRS               6:   TIME CURCULATED STOPPED
 MRT .F               118:   MAXIMUM RECORDED TEMPERATURE
 LUN .               2958:   LOGGING UNIT NUMBER
 LUL .               CASP:   LOGGING UNIT LOCATION
 ENGI.             MILLER:   RECORDING ENGINEER
 WITN.           MCGINLEY:   WITNESSED BY
 CLNT.            A2DTECH:   CLIENT CODE
 ORIG.     1", 2.5" PRINT:   ORIGIN OF DATA
 UWI .       490251111600:   UNIQUE WELL ID
 DICO. A2D Technologies, Inc.:   DIGITIZING COMPANY
~OTHER INFORMATION
~A   DEPT      ILD         SN        SPR         GRD      CALD       RHOB       CORR       DPHI   
# ...
  635.5000    12.8134     9.4929   -32.3037    59.7165    11.6136     2.4502     0.0164     0.1292
  636.0000    13.0004     9.4682   -32.4776    59.6514    11.6210     2.4513     0.0118     0.1340
  636.5000    13.1010     9.4434   -32.6560    58.3940    11.6303     2.4378     0.0155     0.1389
  637.0000    12.9858     9.4188   -32.8380    57.1576    11.6380     2.4216     0.0213     0.1437
  637.5000    12.8716     9.3942   -33.0161    57.0954    11.6465     2.4114     0.0268     0.1490
  638.0000    12.7584     9.3697   -33.1964    58.6036    11.6507     2.4125     0.0328     0.1489
  638.5000    12.6462     9.3453   -33.3758    60.0792    11.6516     2.4131     0.0356     0.1497
  639.0000    12.5350     9.3210   -33.5565    60.4590    11.6529     2.4110     0.0319     0.1520
  639.5000    12.4247     9.2967   -33.7354    60.0600    11.6541     2.4057     0.0289     0.1546
  640.0000    12.3155     9.2725   -33.9130    59.7321    11.6552     2.4008     0.0258     0.1571
  640.5000    12.1990     9.2465   -34.1006    59.4315    11.6564     2.3946     0.0225     0.1596
  641.0000    12.1940     9.2465   -34.2658    59.5380    11.6576     2.3892     0.0195     0.1618
  641.5000    12.1844     9.2458   -34.4537    59.6281    11.6587     2.3891     0.0163     0.1626
  642.0000    12.1737     9.2466   -34.1661    59.7817    11.6599     2.3912     0.0166     0.1626
  642.5000    12.1647     9.2461   -33.8132    58.7572    11.6611     2.3900     0.0171     0.1622
  643.0000    12.1556     9.2451   -33.4460    57.5112    11.6623     2.3897     0.0177     0.1613
  643.5000    12.1461     9.2296   -33.0917    56.2942    11.6635     2.3936     0.0182     0.1604
  644.0000    12.1365     9.2160   -32.7310    56.8896    11.6646     2.3973     0.0188     0.1594
  644.5000    12.1271     9.2015   -32.3699    57.5091    11.6658     2.3988     0.0194     0.1585
  645.0000    12.1175     9.1872   -32.0569    58.2043    11.6670     2.3960     0.0199     0.1576
  645.5000    12.1080     9.1730   -31.9049    58.8740    11.6682     2.3999     0.0212     0.1570
  646.0000    12.0985     9.1589   -31.7682    59.5205    11.6694     2.4062     0.0226     0.1526
  646.5000    12.0890     9.1447   -31.6341    60.1560    11.6706     2.4123     0.0239     0.1481
  647.0000    12.0795     9.1306   -31.4986    60.0519    11.6717     2.4185     0.0226     0.1436
  647.5000    12.0700     9.1166   -31.3630    59.9157    11.6729     2.4244     0.0211     0.1391
  648.0000    12.0605     9.1026   -31.2278    59.7767    11.6741     2.4305     0.0194     0.1355
  648.5000    12.0511     9.0881   -31.0918    59.6447    11.6753     2.4373     0.0180     0.1366
  649.0000    12.0416     9.0758   -30.9565    59.4062    11.6764     2.4352     0.0165     0.1347
  649.5000    12.0322     9.0574   -30.8227    60.1229    11.6776     2.4347     0.0180     0.1307
  650.0000    12.0229     9.0419   -30.6826    61.9546    11.6788     2.4458     0.0205     0.1267
  650.5000    12.0135     9.0254   -30.5542    63.6218    11.6800     2.4561     0.0232     0.1227
  651.0000    12.0035     9.0094   -30.4531    62.3169    11.6812     2.4661     0.0254     0.1187
  651.5000    11.9955     8.9934   -30.7956    60.9673    11.6824     2.4766     0.0276     0.1147
  652.0000    11.9841     8.9773   -31.2521    59.3709    11.6835     2.4877     0.0215     0.1116
  652.5000    11.9711     8.9614   -31.7027    58.5160    11.6847     2.4897     0.0142     0.1122
  653.0000    11.8804     8.9454   -32.0345    59.8943    11.6859     2.4794     0.0164     0.1139
  653.5000    11.7895     8.9294   -31.8460    60.3816    11.6872     2.4674     0.0256     0.1155
  654.0000    11.6989     8.9135   -31.6943    59.6701    11.6882     2.4743     0.0316     0.1172
  654.5000    11.6090     8.8976   -31.5180    59.1136    11.6891     2.4700     0.0257     0.1189
  655.0000    11.5411     8.8818   -31.3514    60.5172    11.6835     2.4636     0.0214     0.1205
  655.5000    11.5607     8.8660   -31.1844    61.9997    11.6779     2.4570     0.0161     0.1222
  656.0000    11.5841     8.8502   -31.0142    63.4817    11.6719     2.4500     0.0178     0.1235
  656.5000    11.6076     8.8344   -30.8464    64.8578    11.6661     2.4547     0.0209     0.1217
  657.0000    11.6313     8.8186   -30.6798    63.7559    11.6602     2.4612     0.0239     0.1202
  657.5000    11.6545     8.8031   -30.5064    62.6487    11.6544     2.4689     0.0269     0.1187
  658.0000    11.6780     8.7873   -30.4379    61.3727    11.6499     2.4690     0.0280     0.1172
  658.5000    11.7015     8.7715   -30.4438    60.1983    11.6510     2.4644     0.0259     0.1167
  659.0000    11.7252     8.7571   -30.4435    61.2351    11.6519     2.4616     0.0243     0.1177
  659.5000    11.7565     8.7275   -30.4425    64.9753    11.6530     2.4675     0.0225     0.1187
  660.0000    11.5935     8.6818   -30.4435    68.6560    11.6539     2.4719     0.0208     0.1197
  660.5000    11.3570     8.6371   -30.4429    68.6537    11.6549     2.4766     0.0190     0.1200
  661.0000    11.1253     8.5927   -30.4432    68.3351    11.6559     2.4720     0.0173     0.1194
  661.5000    10.9190     8.5484   -30.4434    67.8615    11.6569     2.4673     0.0155     0.1187
  662.0000    10.8501     8.5045   -30.4423    67.4508    11.6579     2.4621     0.0138     0.1179
  662.5000    10.7874     8.4607   -30.4447    67.6139    11.6589     2.4571     0.0120     0.1179
  663.0000    10.7250     8.4172   -30.4452    67.8105    11.6599     2.4534     0.0130     0.1199
  663.5000    10.6630     8.3739   -30.5503    68.0902    11.6609     2.4555     0.0150     0.1219
  664.0000    10.6014     8.3309   -30.6851    68.2973    11.6619     2.4588     0.0168     0.1235
  664.5000    10.5401     8.2879   -30.8197    68.5524    11.6629     2.4578     0.0186     0.1240
  665.0000    10.5010     8.2682   -30.9587    68.7577    11.6638     2.4561     0.0204     0.1243
  665.5000    10.4707     8.2580   -31.0831    68.9511    11.6649     2.4546     0.0223     0.1235
  666.0000    10.4404     8.2478   -31.2358    68.3389    11.6658     2.4534     0.0242     0.1225
  666.5000    10.4100     8.2375   -31.0892    67.6431    11.6668     2.4618     0.0259     0.1215
  667.0000    10.3796     8.2272   -30.8908    67.5840    11.6678     2.4731     0.0279     0.1205
  667.5000    10.3493     8.2169   -30.6848    68.0737    11.6688     2.4835     0.0272     0.1195
  668.0000    10.3193     8.2067   -30.4807    68.0356    11.6698     2.4962     0.0261     0.1187
  668.5000    10.2896     8.1965   -30.2888    67.6558    11.6708     2.4967     0.0250     0.1190
  669.0000    10.2601     8.1863   -30.0553    67.3308    11.6718     2.4918     0.0239     0.1193
  669.5000    10.2304     8.1760   -30.0730    67.0047    11.6728     2.4761     0.0228     0.1196
  670.0000    10.2008     8.1661   -30.1512    66.6578    11.6738     2.4603     0.0216     0.1199
  670.5000    10.1713     8.1562   -30.2374    66.3252    11.6748     2.4652     0.0205     0.1202
  671.0000    10.1409     8.1455   -30.3170    66.2344    11.6757     2.4704     0.0197     0.1201
  671.5000    10.0559     8.1337   -30.3994    67.1108    11.6767     2.4630     0.0192     0.1199
  672.0000     9.9687     8.1239   -30.4815    68.4584    11.6777     2.4652     0.0186     0.1196
  672.5000     9.8823     8.0193   -30.5631    68.1401    11.6787     2.4744     0.0181     0.1193
  673.0000     9.7972     7.9136   -30.6452    67.5360    11.6797     2.4744     0.0175     0.1190
  673.5000     9.7124     7.8093   -30.7273    69.3930    11.6807     2.4680     0.0170     0.1187
  674.0000     9.6283     7.7063   -30.8097    71.2540    11.6817     2.4628     0.0164     0.1187
  674.5000     9.5943     7.6047   -30.8900    70.3997    11.6827     2.4573     0.0158     0.1203
  675.0000     9.5320     7.5441   -30.9750    69.5042    11.6837     2.4598     0.0153     0.1198
  675.5000     9.4801     7.5438   -31.0549    69.6582    11.6846     2.4652     0.0147     0.1193
