~VERSION INFORMATION
 VERS.                2.0:   CWLS LOG ASCII STANDARD - VERSION 2.0
 WRAP.                 NO:   ONE LINE PER DEPTH STEP
~WELL INFORMATION
#MNEM.UNIT      DATA TYPE    INFORMATION
#----------   ------------   ------------------------------
 STRT.F           38.5000:   START DEPTH
 STOP.F          606.0000:   STOP DEPTH
 STEP.F            0.5000:   STEP LENGTH
 NULL.          -999.2500:   NO VALUE
 COMP. FENIX & SCISSON INC:   COMPANY
 WELL.      NPR-X3 #185-2:   WELL
 FLD .             TEAPOT:   FIELD
 LOC .       S2 T38N R78W:   LOCATION
 CNTY.            NATRONA:   COUNTY
 STAT.            WYOMING:   STATE
 CTRY. UNITED STATES OF AMERICA:   COUNTRY
 SRVC.            Unknown:   SERVICE COMPANY
 DATE.        30-JAN-1978:   LOGDATE
 API .       490251056200:   API NUMBER
~CURVE INFORMATION
#MNEM.UNIT       API CODE    CURVE DESCRIPTION
#----------   ------------   ------------------------------
 DEPT.F                  :   
 CALD.IN     45 280 60 00:   CALIPER
 GRD .GAPI   45 310 01 00:   GAMMA RAY FROM DENSITY LOG
 CORR.G/C3   45 356 01 00:   DENSITY CORRECTION
 RHOB.G/C3   45 350 01 00:   BULK DENSITY
 DPHI.DEC    45 890 12 00:   DENSITY POROSITY SANDSTONE
 SPR .MV     05 010 01 00:   SPONTANEOUS POTENTIAL FROM RES.
 SN  .OHMM   05 040 16 00:   SHORT NORMAL 16"
 ILD .OHMM   05 120 46 00:   INDUCTION LOG DEEP
~PARAMETER INFORMATION
#MNEM.UNIT          VALUE    DESCRIPTION
#----------   ------------   ------------------------------
 PD  .                 GL:   PERMANENT DATUM
 EPD .F              5134:   ELEVATION PERMANENT DATUM
 LMF .                 KB:   LOG MEASURED FROM
 DAPD.F                 4:   FEET ABOVE PERMANENT DATUM
 DMF .                 KB:   DRILLING MEASURED FROM
 EKB .F              5138:   KELLING BUSHING
 EGL .F              5134:   GROUND LEVEL
 DATE.            1-30-78:   RUN DATE
 RUN .                  1:   RUN NUMBER
 DD  .F               600:   DEPTH DRILLER
 DL  .F               604:   DEPTH LOGGER
 BLI .F               598:   BOTTOM LOG INTERVAL
 TLI .F                40:   TOP LOG INTERVAL
 CS  .IN            8.625:   CASING SIZE
 CBD .F                40:   CASING BOTTOM DRILLER
 CBL .F                41:   CASING BOTTOM LOGGER
 BS  .IN            7.875:   BIT SIZE
 BSD .F               600:   BIT SIZE AT DEPTH
 DFT .                KCL:   DRILLING FLUID TYPE
 DFD .                8.6:   DRILLING FLUID DENSITY
 DFV .                 34:   DRILLING FLUID VISCOSITY
 DFPH.                 10:   DRILLING FLUID PH
 DFL .                  7:   DRILLING FLUID LOSS
 MSS .                PIT:   MUD SAMPLE SOURCE
 RMS .OHMM            .65:   RESISTIVITY MUD SAMPLE
 MST .F                70:   MUD SAMPLE TEMPERATURE
 RMF .OHMM            1.2:   RESISTIVITY MUD FILTRATE SAMPLE
 MFST.F                64:   MUD FILTRATE SAMPLE TEMPERATURE
 MFSS.               MEAS:   MUD FILTRATE SAMPLE SOURCE
 RMB .OHMM            .64:   RESISTIVITY MUD AT BHT
 BHT .F                71:   BOTTOM HOLE TEMPERATURE
 TCS .HRS               3:   TIME CURCULATED STOPPED
 MRT .F                71:   MAXIMUM RECORDED TEMPERATURE
 LUN .               2958:   LOGGING UNIT NUMBER
 LUL .                CAS:   LOGGING UNIT LOCATION
 ENGI.           REYNOLDS:   RECORDING ENGINEER
 WITN.         HARRINGTON:   WITNESSED BY
 CLNT.            A2DTECH:   CLIENT CODE
 ORIG.        2" 5" PRINT:   ORIGIN OF DATA
 UWI .       490251056200:   UNIQUE WELL ID
 DICO. A2D Technologies, Inc.:   DIGITIZING COMPANY
~OTHER INFORMATION
~A   DEPT     CALD        GRD        CORR      RHOB       DPHI        SPR         SN        ILD   
# ...
   79.0000     8.5809   148.9170     0.1600     2.3578     0.1708   -73.0349     6.2661     5.9513
   79.5000     8.3619   155.3623     0.1713     2.3792     0.1598   -73.3004     6.2311     5.9296
   80.0000     8.4278   157.8247     0.1301     2.3967     0.1438   -73.8300     6.2786     5.8969
   80.5000     8.3756   160.7374     0.0864     2.4025     0.1217   -73.5542     6.3136     5.9197
   81.0000     8.2954   157.2929     0.0874     2.3808     0.1213   -73.2085     6.3464     5.9474
   81.5000     8.4536   154.1287     0.0855     2.3786     0.1334   -72.8674     6.4133     5.9755
   82.0000     8.5452   151.5186     0.0688     2.4128     0.1355   -72.6281     6.4770     6.0062
   82.5000     8.2929   146.3475     0.0521     2.4342     0.1356   -72.5471     6.5413     6.1002
   83.0000     8.2897   142.1889     0.0359     2.4319     0.1400   -72.4454     6.6194     6.2051
   83.5000     8.2859   137.7982     0.0297     2.4275     0.1348   -72.0252     6.7237     6.3119
   84.0000     8.2818   131.0945     0.0376     2.4336     0.1467   -71.6663     6.8297     6.4205
   84.5000     8.2777   129.0035     0.0557     2.4178     0.1467   -71.7267     6.9374     6.5311
   85.0000     8.2735   120.3602     0.0664     2.4179     0.1384   -71.7793     7.0468     6.6434
   85.5000     8.2693   120.4471     0.0705     2.4244     0.1267   -71.8302     7.1578     6.7271
   86.0000     8.2652   118.1867     0.0726     2.4369     0.1221   -71.8692     7.2707     6.8107
   86.5000     8.2610   119.5438     0.0746     2.4469     0.1232   -71.8616     7.2836     6.8953
   87.0000     8.2569   121.8617     0.0764     2.4554     0.1266   -72.2726     7.2836     6.9810
   87.5000     8.2527   124.2955     0.0934     2.4504     0.1288   -72.8378     7.2836     7.0209
   88.0000     8.2485   125.3792     0.1182     2.4462     0.1300   -72.7798     7.2836     7.0209
   88.5000     8.2443   124.0404     0.1419     2.4450     0.1265   -72.6904     7.2834     7.0209
   89.0000     8.2402   122.3825     0.1659     2.4497     0.1215   -72.2852     7.2821     7.0343
   89.5000     8.2376   122.6550     0.1773     2.4548     0.1195   -71.8138     7.3372     7.0673
   90.0000     8.2376   123.0300     0.1906     2.4597     0.1233   -71.7130     7.4030     7.1006
   90.5000     8.2376   122.8825     0.2096     2.4490     0.1340   -71.7703     7.4695     7.1340
   91.0000     8.2376   122.1454     0.2286     2.4368     0.1379   -71.8302     7.5366     7.1675
   91.5000     8.2377   120.5930     0.2377     2.4334     0.1337   -71.8348     7.6193     7.2013
   92.0000     8.2375   119.8102     0.2461     2.4296     0.1280   -71.7403     7.7092     7.2880
   92.5000     8.2284   120.6058     0.2570     2.4391     0.1351   -71.6468     7.8079     7.4222
   93.0000     8.2182   120.1256     0.2670     2.4388     0.1316   -71.5529     7.9214     7.5589
   93.5000     8.2080   119.8605     0.2630     2.4408     0.1269   -71.4926     8.0366     7.6962
   94.0000     8.1979   119.5364     0.2433     2.4495     0.1204   -71.7132     8.1535     7.7051
   94.5000     8.1878   118.8099     0.2252     2.4613     0.1129   -71.9317     8.2723     7.7139
   95.0000     8.1776   122.1903     0.2174     2.4685     0.1174   -72.0597     8.3627     7.7228
   95.5000     8.1674   120.4761     0.2070     2.4616     0.1204   -72.0329     8.3741     7.7316
   96.0000     8.1575   121.1118     0.1884     2.4670     0.1169   -72.0085     8.3855     7.7404
   96.5000     8.1866   116.3509     0.1529     2.4782     0.1123   -71.9834     8.3971     7.7494
   97.0000     8.2261   118.0239     0.1208     2.4836     0.1085   -71.9586     8.4087     7.7586
   97.5000     8.2653   118.1483     0.1169     2.4761     0.1115   -71.9338     8.4203     7.7672
   98.0000     8.2987   119.3472     0.1153     2.4607     0.1185   -71.9089     8.4319     7.8709
   98.5000     8.2138   119.2847     0.1153     2.4586     0.1244   -71.8841     8.5068     7.9771
   99.0000     8.1383   116.0817     0.1153     2.4534     0.1225   -71.8593     8.6216     8.0847
   99.5000     8.1388   113.2996     0.1155     2.4567     0.1193   -71.8344     8.7380     8.1938
  100.0000     8.1385   114.0096     0.1078     2.4625     0.1170   -71.8096     8.9282     8.3043
  100.5000     8.1386   113.0747     0.1016     2.4678     0.1162   -71.7848     9.1326     8.4434
  101.0000     8.1386   112.8678     0.1035     2.4683     0.1153   -71.7599     9.3417     8.6117
  101.5000     8.1386   112.8508     0.1051     2.4689     0.1160   -71.7353     9.5555     8.7834
  102.0000     8.1386   113.4903     0.0997     2.4696     0.1169   -71.7107     9.7744     8.9586
  102.5000     8.1386   114.8960     0.0956     2.4681     0.1185   -71.6841     9.9991     9.1382
  103.0000     8.1386   114.7447     0.1028     2.4645     0.1201   -71.5577    10.1674     9.2491
  103.5000     8.1386   118.4354     0.1099     2.4606     0.1229   -71.2528    10.2473     9.2474
  104.0000     8.1386   121.9135     0.1103     2.4585     0.1197   -70.9505    10.3272     9.2477
  104.5000     8.1386   124.2322     0.1049     2.4645     0.1169   -70.6494    10.4203     9.2477
  105.0000     8.1386   125.7319     0.1028     2.4657     0.1260   -70.4758    10.3633     9.2477
  105.5000     8.1386   129.1555     0.1066     2.4621     0.1308   -70.4772    10.2964     9.2477
  106.0000     8.1386   137.7644     0.1104     2.4445     0.1354   -70.4759    10.2299     9.1989
  106.5000     8.1386   146.2769     0.1142     2.4371     0.1360   -70.4691    10.1638     9.1276
  107.0000     8.1386   161.7788     0.1112     2.4399     0.1288   -70.7378    10.0982     9.0569
  107.5000     8.1386   167.6590     0.1026     2.4475     0.1221   -71.0341    10.0330     8.9868
  108.0000     8.1386   170.7610     0.0934     2.4557     0.1199   -71.3319     9.9682     8.9142
  108.5000     8.1386   173.0828     0.0897     2.4615     0.1176   -71.5760     9.8824     8.8969
  109.0000     8.1386   177.4104     0.0907     2.4657     0.1154   -71.7801     9.7906     8.8789
  109.5000     8.1387   178.6361     0.0859     2.4699     0.1133   -71.9812     9.6997     8.8609
  110.0000     8.1404   178.6311     0.0736     2.4738     0.1123   -72.1843     9.6095     8.8430
  110.5000     8.1422   177.1978     0.0613     2.4765     0.1117   -72.2284     9.5200     8.8250
  111.0000     8.1440   171.6535     0.0554     2.4771     0.1117   -72.1677     9.4905     8.8072
  111.5000     8.1458   157.1958     0.0543     2.4757     0.1113   -72.1001     9.4721     8.7893
  112.0000     8.1476   150.3573     0.0555     2.4765     0.1106   -71.8219     9.4537     8.7715
  112.5000     8.1494   147.4629     0.0601     2.4773     0.1102   -71.2428     9.4354     8.7537
  113.0000     8.1512   145.5887     0.0633     2.4786     0.1108   -70.6635     9.4117     8.6980
  113.5000     8.1530   144.1146     0.0711     2.4767     0.1118   -70.3650     9.3469     8.6386
  114.0000     8.1547   138.6874     0.0795     2.4745     0.1120   -70.2774     9.2825     8.5795
  114.5000     8.1565   133.1680     0.0988     2.4725     0.1161   -70.2781     9.2185     8.5209
  115.0000     8.1583   133.7176     0.1193     2.4691     0.1168   -70.2780     9.1551     8.4626
  115.5000     8.1594   134.6787     0.1388     2.4666     0.1227   -70.2778     9.0916     8.4047
  116.0000     8.1623   132.9938     0.1574     2.4597     0.1248   -70.2795     9.0796     8.3511
  116.5000     8.1651   133.0694     0.1762     2.4535     0.1245   -70.3745     9.0795     8.3122
  117.0000     8.1679   132.9030     0.1976     2.4523     0.1238   -70.6519     9.0794     8.2828
  117.5000     8.1707   131.5640     0.2042     2.4564     0.1205   -70.8852     9.0794     8.2828
  118.0000     8.1736   132.6558     0.2124     2.4651     0.1193   -70.9077     9.0794     8.2658
  118.5000     8.1764   130.3630     0.2328     2.4562     0.1297   -70.9344     9.0795     8.2460
  119.0000     8.1785   124.8372     0.2572     2.4429     0.1400   -70.9616     9.0797     8.2263
