~VERSION INFORMATION
 VERS.                2.0:   CWLS LOG ASCII STANDARD - VERSION 2.0
 WRAP.                 NO:   ONE LINE PER DEPTH STEP
~WELL INFORMATION
#MNEM.UNIT      DATA TYPE    INFORMATION
#----------   ------------   ------------------------------
 STRT.F           57.5000:   START DEPTH
 STOP.F         4049.0000:   STOP DEPTH
 STEP.F            0.5000:   STEP LENGTH
 NULL.          -999.2500:   NO VALUE
 COMP. LAWRENCE/ALLISON INC:   COMPANY
 WELL.     NPR #3` #13-11:   WELL
 FLD .             NPR #3:   FIELD
 LOC .      S11 T38N R78W:   LOCATION
 CNTY.            NATRONA:   COUNTY
 STAT.            WYOMING:   STATE
 CTRY. UNITED STATES OF AMERICA:   COUNTRY
 SRVC.      Dresser Atlas:   SERVICE COMPANY
 DATE.        13-MAR-1986:   LOGDATE
 API .       490251106500:   API NUMBER
~CURVE INFORMATION
#MNEM.UNIT       API CODE    CURVE DESCRIPTION
#----------   ------------   ------------------------------
 DEPT.F                  :   
 CALR.IN     07 280 01 00:   CALIPER FROM RESISTIVITY
 GRR .GAPI   07 310 01 00:   GAMMA RAY FROM RESISTIVITY
 RILD.OHMM   07 120 46 00:   RESISTIVITY INDUCTION LOG DEEP
 RILM.OHMM   07 120 44 00:   RESISTIVITY INDUCTION LOG MEDIUM
 RFOC.OHMM   07 220 04 00:   RESISTIVITY FOCUSED LOG
 SPR .MV     07 010 01 00:   SPONTANEOUS POTENTIAL FROM RES.
 PORD.DEC    45 890 12 00:   POROSITY DENSITY SANDSTONE
 CNC .DEC    42 890 03 00:   COMPENSATED NEUTRON POROSITY SANDSTONE
 CORR.G/C3   45 356 01 00:   DENSITY CORRECTION
 DEN .G/C3   45 350 01 00:   COMPENSATED BULK DENSTIY
 DT  .US/F   60 520 00 00:   INTERVAL TRANSIT TIME
~PARAMETER INFORMATION
#MNEM.UNIT          VALUE    DESCRIPTION
#----------   ------------   ------------------------------
 PD  .                 GL:   PERMANENT DATUM
 EPD .F              5176:   ELEVATION PERMANENT DATUM
 LMF .                 KB:   LOG MEASURED FROM
 DAPD.F              11.8:   FEET ABOVE PERMANENT DATUM
 DMF .                 KB:   DRILLING MEASURED FROM
 EKB .F            5187.8:   KELLING BUSHING
 EGL .F              5176:   GROUND LEVEL
 DATE.        13-MAR-1986:   RUN DATE
 RUN .                  1:   RUN NUMBER
 DD  .F              4051:   DEPTH DRILLER
 DL  .F              4051:   DEPTH LOGGER
 BLI .F              4049:   BOTTOM LOG INTERVAL
 TLI .F               564:   TOP LOG INTERVAL
 CS  .IN            8.625:   CASING SIZE
 CBD .F               564:   CASING BOTTOM DRILLER
 CBL .F               564:   CASING BOTTOM LOGGER
 BS  .IN            7.875:   BIT SIZE
 BSD .F              4051:   BIT SIZE AT DEPTH
 DFT .          POLY- KCL:   DRILLING FLUID TYPE
 DFD .                8.9:   DRILLING FLUID DENSITY
 DFV .                 36:   DRILLING FLUID VISCOSITY
 DFPH.                8.5:   DRILLING FLUID PH
 DFL .               13.5:   DRILLING FLUID LOSS
 MSS .           FLOWLINE:   MUD SAMPLE SOURCE
 RMS .OHMM           .275:   RESISTIVITY MUD SAMPLE
 MST .F                55:   MUD SAMPLE TEMPERATURE
 RMF .OHMM           .206:   RESISTIVITY MUD FILTRATE SAMPLE
 MFST.F                55:   MUD FILTRATE SAMPLE TEMPERATURE
 RMC .OHMM           .344:   RESISTIVITY MUD CAKE
 MCST.F                55:   MUD CAKE SAMPLE TEMPERATURE
 MFSS.               CALC:   MUD FILTRATE SAMPLE SOURCE
 MCSS.               CALC:   MUD CAKE SAMPLE SOURCE
 RMB .OHMM           .092:   RESISTIVITY MUD AT BHT
 BHT .F               164:   BOTTOM HOLE TEMPERATURE
 TCS .HRS            0400:   TIME CURCULATED STOPPED
 MRT .F               164:   MAXIMUM RECORDED TEMPERATURE
 LUN .               6274:   LOGGING UNIT NUMBER
 LUL .           GILLETTE:   LOGGING UNIT LOCATION
 ENGI.             MILLER:   RECORDING ENGINEER
 WITN.             STRONG:   WITNESSED BY
 CLNT.            A2DTECH:   CLIENT CODE
 ORIG.         2.5" PRINT:   ORIGIN OF DATA
 UWI .       490251106500:   UNIQUE WELL ID
 DICO. A2D Technologies, Inc.:   DIGITIZING COMPANY
~OTHER INFORMATION
~A   DEPT     CALR         GRR      RILD       RILM       RFOC        SPR       PORD        CNC       CORR        DEN         DT   
# ...
 1948.5000    11.2933   105.6635     8.6364     8.7958     9.7306   -58.0369  -999.2500  -999.2500  -999.2500  -999.2500  -999.2500
 1949.0000    11.2924   104.0184     8.6940     8.9173     9.7277   -57.9979  -999.2500  -999.2500  -999.2500  -999.2500  -999.2500
 1949.5000    11.2914   104.1064     8.5723     8.7920     9.8608   -57.7084  -999.2500  -999.2500  -999.2500  -999.2500  -999.2500
 1950.0000    11.2905   106.2366     8.4523     8.5288     9.8581   -57.4684  -999.2500  -999.2500  -999.2500  -999.2500  -999.2500
 1950.5000    11.3252   110.7221     8.3339     8.3119     9.9932   -57.7881  -999.2500  -999.2500  -999.2500  -999.2500  -999.2500
 1951.0000    11.3548   109.8914     8.2172     8.3101     9.8526   -57.8018  -999.2500  -999.2500  -999.2500  -999.2500  -999.2500
 1951.5000    11.3796   106.0976     8.1594     8.3084     9.5803   -58.1194  -999.2500  -999.2500  -999.2500  -999.2500  -999.2500
 1952.0000    11.3786   103.9276     8.2138     8.3067     9.3156   -57.8283  -999.2500  -999.2500  -999.2500  -999.2500  -999.2500
 1952.5000    11.4083   109.4337     8.3270     8.3049     9.0582   -57.8430  -999.2500  -999.2500  -999.2500  -999.2500  -999.2500
 1953.0000    11.4073   107.3845     8.4417     8.3032     9.0557   -57.5102  -999.2500  -999.2500  -999.2500  -999.2500  -999.2500
 1953.5000    11.4064   105.7208     8.4399     8.3015     9.3079   -57.2206  -999.2500  -999.2500  -999.2500  -999.2500  -999.2500
 1954.0000    11.4055   107.1206     8.6145     8.2997     9.7007   -56.9309  -999.2500  -999.2500  -999.2500  -999.2500  -999.2500
 1954.5000    11.4046   110.8773     8.8551     8.2980     9.9708   -56.6775  -999.2500  -999.2500  -999.2500  -999.2500  -999.2500
 1955.0000    11.4037   111.8110     9.1025     8.4343     9.9680   -56.6564  -999.2500  -999.2500  -999.2500  -999.2500  -999.2500
 1955.5000    11.3982   107.5011     9.2941     8.6710     9.8280   -56.3668  -999.2500  -999.2500  -999.2500  -999.2500  -999.2500
 1956.0000    11.3713   109.5048     9.3546     8.7911     9.5564   -56.1090  -999.2500  -999.2500  -999.2500  -999.2500  -999.2500
 1956.5000    11.3703   111.1514     9.4202     8.8895     9.4222   -56.1235  -999.2500  -999.2500  -999.2500  -999.2500  -999.2500
 1957.0000    11.3694   110.9595     9.4183     8.8874     9.5511   -56.1372  -999.2500  -999.2500  -999.2500  -999.2500  -999.2500
 1957.5000    11.3685   108.4051     9.4163     8.8856     9.9542   -55.8454  -999.2500  -999.2500  -999.2500  -999.2500  -999.2500
 1958.0000    11.3676   104.7975     9.4143     8.8600    10.2314   -55.8598  -999.2500  -999.2500  -999.2500  -999.2500  -999.2500
 1958.5000    11.3667   103.1146     9.3511     8.7590    10.2285   -55.8735  -999.2500  -999.2500  -999.2500  -999.2500  -999.2500
 1959.0000    11.3699   105.1063     9.2806     8.5893    10.0848   -55.8872  -999.2500  -999.2500  -999.2500  -999.2500  -999.2500
 1959.5000    11.3955   108.3223     9.1507     8.3738     9.9432   -55.9009  -999.2500  -999.2500  -999.2500  -999.2500  -999.2500
 1960.0000    11.3945   111.6575     9.0225     8.1417     9.9404   -55.6093  -999.2500  -999.2500  -999.2500  -999.2500  -999.2500
 1960.5000    11.3936   110.7044     9.0207     7.9162     9.6657   -55.6235  -999.2500  -999.2500  -999.2500  -999.2500  -999.2500
 1961.0000    11.3927   107.1720     8.8944     7.8268     9.2692   -55.6372  -999.2500  -999.2500  -999.2500  -999.2500  -999.2500
 1961.5000    11.3917   105.4754     8.8925     7.8252     9.0131   -55.6509  -999.2500  -999.2500  -999.2500  -999.2500  -999.2500
 1962.0000    11.3908   106.0746     8.7680     7.8463     8.8865   -55.3594  -999.2500  -999.2500  -999.2500  -999.2500  -999.2500
 1962.5000    11.3861   106.7484     8.7662     7.9319     8.8840   -55.0683  -999.2500  -999.2500  -999.2500  -999.2500  -999.2500
 1963.0000    11.3584   107.8844     8.7643     8.0650     9.0058   -55.0823  -999.2500  -999.2500  -999.2500  -999.2500  -999.2500
 1963.5000    11.3575   109.2441     8.8183     8.2670     9.2563   -55.1058  -999.2500  -999.2500  -999.2500  -999.2500  -999.2500
 1964.0000    11.2917   111.7546     8.8832     8.2651     9.5141   -55.7195  -999.2500  -999.2500  -999.2500  -999.2500  -999.2500
 1964.5000    11.2297   116.2492     8.8814     8.2634     9.7793   -56.0381  -999.2500  -999.2500  -999.2500  -999.2500  -999.2500
 1965.0000    11.1407   118.2524     8.8795     8.2616     9.9131   -56.3618  -999.2500  -999.2500  -999.2500  -999.2500  -999.2500
 1965.5000    11.1092   115.7116     8.8777     8.2599     9.9101   -56.9802  -999.2500  -999.2500  -999.2500  -999.2500  -999.2500
 1966.0000    11.1083   115.1534     8.8758     8.1439     9.9073   -56.9939  -999.2500  -999.2500  -999.2500  -999.2500  -999.2500
 1966.5000    11.1073   115.0695     8.8740     8.1422     9.7681   -56.3979  -999.2500  -999.2500  -999.2500  -999.2500  -999.2500
 1967.0000    11.1064   114.4415     8.8721     8.1660     9.7654   -56.1067  -999.2500  -999.2500  -999.2500  -999.2500  -999.2500
 1967.5000    11.1361   113.8804     8.8703     8.2532     9.7627   -56.1205  -999.2500  -999.2500  -999.2500  -999.2500  -999.2500
 1968.0000    11.1690   113.8651     8.8146     8.2513     9.6256   -55.8294  -999.2500  -999.2500  -999.2500  -999.2500  -999.2500
 1968.5000    11.1986   113.9784     8.6914     8.2496     9.3596   -55.8431  -999.2500  -999.2500  -999.2500  -999.2500  -999.2500
 1969.0000    11.2251   115.6756     8.4517     8.2478     9.2281   -55.8569  -999.2500  -999.2500  -999.2500  -999.2500  -999.2500
 1969.5000    11.2548   115.5973     8.3336     8.2461     9.2255   -55.8706  -999.2500  -999.2500  -999.2500  -999.2500  -999.2500
 1970.0000    11.2599   112.9448     8.2665     8.2444     9.2230   -55.8844  -999.2500  -999.2500  -999.2500  -999.2500  -999.2500
 1970.5000    11.3171   107.4729     8.2647     8.2427     9.3492   -55.8981  -999.2500  -999.2500  -999.2500  -999.2500  -999.2500
 1971.0000    11.3467   105.1841     8.2630     8.2409     9.3466   -55.9119  -999.2500  -999.2500  -999.2500  -999.2500  -999.2500
 1971.5000    11.3763   103.9418     8.2613     8.2392     9.2153   -55.9256  -999.2500  -999.2500  -999.2500  -999.2500  -999.2500
 1972.0000    11.4337   105.2108     8.2596     8.2375     9.2127   -55.9394  -999.2500  -999.2500  -999.2500  -999.2500  -999.2500
 1972.5000    11.4633   107.6483     8.2579     8.2358     9.2102   -55.6483  -999.2500  -999.2500  -999.2500  -999.2500  -999.2500
 1973.0000    11.4624   110.0861     8.2561     8.2341     9.3362   -55.0523  -999.2500  -999.2500  -999.2500  -999.2500  -999.2500
 1973.5000    11.4921   112.5777     8.2544     8.1184     9.7302   -55.0660  -999.2500  -999.2500  -999.2500  -999.2500  -999.2500
 1974.0000    11.4938   114.9086     8.0917     8.1167     9.4614   -55.0798  -999.2500  -999.2500  -999.2500  -999.2500  -999.2500
 1974.5000    11.5514   114.7364     7.9142     8.0597     9.3285   -55.0935  -999.2500  -999.2500  -999.2500  -999.2500  -999.2500
 1975.0000    11.5530   110.9917     7.8671     7.7015     9.3259   -55.1073  -999.2500  -999.2500  -999.2500  -999.2500  -999.2500
 1975.5000    11.5802   108.1141     7.7571     7.3578     9.1949   -55.1210  -999.2500  -999.2500  -999.2500  -999.2500  -999.2500
 1976.0000    11.5792   112.6380     7.6925     7.2545     9.1923   -55.4397  -999.2500  -999.2500  -999.2500  -999.2500  -999.2500
 1976.5000    11.5759   120.6402     7.7352     7.2789     8.8152   -55.7583  -999.2500  -999.2500  -999.2500  -999.2500  -999.2500
 1977.0000    11.5468   124.6325     7.7969     7.3797     7.8871   -56.0769  -999.2500  -999.2500  -999.2500  -999.2500  -999.2500
 1977.5000    11.5459   116.8881     7.8398     7.5093     7.5635   -56.0907  -999.2500  -999.2500  -999.2500  -999.2500  -999.2500
 1978.0000    11.5144   109.7875     7.9026     7.7716     8.3325   -56.1044  -999.2500  -999.2500  -999.2500  -999.2500  -999.2500
 1978.5000    11.5135   108.6355     8.0569     7.8790     8.9284   -56.1182  -999.2500  -999.2500  -999.2500  -999.2500  -999.2500
