~VERSION INFORMATION
 VERS.                2.0:   CWLS LOG ASCII STANDARD - VERSION 2.0
 WRAP.                 NO:   ONE LINE PER DEPTH STEP
~WELL INFORMATION
#MNEM.UNIT      DATA TYPE    INFORMATION
#----------   ------------   ------------------------------
 STRT.F            0.0000:   START DEPTH
 STOP.F          678.0000:   STOP DEPTH
 STEP.F            0.5000:   STEP LENGTH
 NULL.          -999.2500:   NO VALUE
 COMP. FENIX & SCISSON INC:   COMPANY
 WELL. 37-21 SX 11 WO #37-11:   WELL
 FLD .             TEAPOT:   FIELD
 LOC .      S11 T38N R78W:   LOCATION
 CNTY.            NATRONA:   COUNTY
 STAT.            WYOMING:   STATE
 CTRY. UNITED STATES OF AMERICA:   COUNTRY
 SRVC.      Dresser Atlas:   SERVICE COMPANY
 DATE.        14-OCT-1983:   LOGDATE
 API .       490251084300:   API NUMBER
~CURVE INFORMATION
#MNEM.UNIT       API CODE    CURVE DESCRIPTION
#----------   ------------   ------------------------------
 DEPT.F                  :   
 SPR .MV     07 010 01 00:   SPONTANEOUS POTENTIAL
 SFLU.OHMM   07 220 01 00:   SPHERICALLY FOCUSED LOG UNAVERAGED RESISTIVITY
 ILM .OHMM   07 120 44 00:   INDUCTION LOG MEDIUM
 ILD .OHMM   07 120 46 00:   INDUCTION LOG DEEP
 NPHI.DEC    42 890 03 00:   NEUTRON POROSITY SANDSTONE
 DPHI.DEC    45 890 12 00:   DENSITY POROSITY SANDSTONE
 RHOB.G/C3   45 350 01 00:   BULK DENSITY
 CORR.G/C3   45 356 01 00:   DENSITY CORRECTION
 GRD .GAPI   45 310 01 00:   GAMMA RAY FROM DENSITY LOG
 CALD.IN     45 280 60 00:   CALIPER
~PARAMETER INFORMATION
#MNEM.UNIT          VALUE    DESCRIPTION
#----------   ------------   ------------------------------
 PD  .                 GL:   PERMANENT DATUM
 EPD .F              5188:   ELEVATION PERMANENT DATUM
 LMF .                 KB:   LOG MEASURED FROM
 DAPD.F                 5:   FEET ABOVE PERMANENT DATUM
 DMF .                 KB:   DRILLING MEASURED FROM
 EKB .F              5193:   KELLING BUSHING
 EGL .F              5188:   GROUND LEVEL
 DATE.           10-14-83:   RUN DATE
 RUN .                  4:   RUN NUMBER
 DD  .F               629:   DEPTH DRILLER
 DL  .F               630:   DEPTH LOGGER
 BLI .F               624:   BOTTOM LOG INTERVAL
 TLI .F               335:   TOP LOG INTERVAL
 BS  .IN             8.75:   BIT SIZE
 BSD .F               629:   BIT SIZE AT DEPTH
 DFT .          KCL WATER:   DRILLING FLUID TYPE
 LUN .               6307:   LOGGING UNIT NUMBER
 LUL .               GLTE:   LOGGING UNIT LOCATION
 ENGI.            DEYOUNG:   RECORDING ENGINEER
 WITN.            SCHULTE:   WITNESSED BY
 CLNT.            A2DTECH:   CLIENT CODE
 ORIG.       2", 5" PRINT:   ORIGIN OF DATA
 UWI .       490251084300:   UNIQUE WELL ID
 DICO. A2D Technologies, Inc.:   DIGITIZING COMPANY
~OTHER INFORMATION
~A    DEPT     SPR       SFLU        ILM        ILD       NPHI       DPHI       RHOB       CORR        GRD       CALD   
# ...
  469.0000   -28.7464     8.3977     7.9774     7.4555     0.2512     0.1177     2.5071     0.0746   101.6909     9.5907
  469.5000   -28.6159     8.4307     8.0016     7.4507     0.2527     0.1239     2.5315     0.0873   104.3657     9.5890
  470.0000   -28.4854     8.4639     8.0258     7.4460     0.2532     0.1118     2.5475     0.0981   103.5635     9.5873
  470.5000   -28.3548     8.4971     8.0501     7.4412     0.2493     0.0967     2.5253     0.0892   102.6623     9.5855
  471.0000   -28.2245     8.5305     8.0745     7.4365     0.2505     0.0800     2.5071     0.0804   101.7580     9.5838
  471.5000   -28.0906     8.5751     8.0989     7.4317     0.2522     0.0878     2.4891     0.0718   102.9021     9.5821
  472.0000   -28.1484     8.5236     8.1167     7.4270     0.2544     0.0975     2.4946     0.0713   104.2902     9.5803
  472.5000   -28.2879     8.4478     7.9987     7.4222     0.2571     0.1071     2.4981     0.0723   106.2129     9.5742
  473.0000   -28.4297     8.3726     7.9073     7.4176     0.2564     0.1162     2.4918     0.0755   108.3622     9.5633
  473.5000   -28.3968     8.2981     7.8170     7.4125     0.2501     0.1100     2.5060     0.0834   110.2240     9.5525
  474.0000   -28.3419     8.2244     7.7277     7.4113     0.2480     0.1117     2.5210     0.0915   110.1626     9.5416
  474.5000   -28.2866     8.1511     7.5834     7.2989     0.2506     0.1131     2.5154     0.0961   111.3211     9.5307
  475.0000   -28.2401     8.0786     7.3910     7.1431     0.2501     0.1055     2.5087     0.0943   112.6275     9.5198
  475.5000   -28.2113     7.8934     7.2009     6.9898     0.2490     0.0995     2.5015     0.0922   110.5511     9.5090
  476.0000   -28.1831     7.6041     7.0162     6.7617     0.2502     0.1015     2.4816     0.0886   108.4414     9.4981
  476.5000   -28.1549     7.3253     6.8208     6.5076     0.2535     0.1042     2.4759     0.0850   108.2378     9.4873
  477.0000   -28.1268     7.1403     6.7699     6.3278     0.2550     0.1157     2.4876     0.0978   109.5270     9.4829
  477.5000   -28.0987     7.3091     6.7146     6.2316     0.2509     0.1244     2.4911     0.0928   109.0833     9.4867
  478.0000   -28.0695     7.4739     6.6597     6.1369     0.2467     0.1200     2.4800     0.0868   108.7319     9.4903
  478.5000   -27.9671     7.2317     6.6052     6.0002     0.2443     0.1156     2.4696     0.0900   110.0878     9.4941
  479.0000   -27.6983     6.9729     6.5512     5.9397     0.2514     0.1193     2.4587     0.1011   109.7899     9.4979
  479.5000   -27.4321     6.6177     6.3850     5.7486     0.2708     0.1250     2.4387     0.1076   111.8482     9.4953
  480.0000   -27.1649     5.6643     6.0104     5.4903     0.2918     0.1338     2.3764     0.1133   110.8898     9.4479
  480.5000   -26.8991     4.8520     5.6560     5.1826     0.2924     0.1461     2.3389     0.1191   109.7147     9.4003
  481.0000   -26.6938     4.1925     5.1842     5.2043     0.2712     0.1703     2.3621     0.1235   107.4900     9.3536
  481.5000   -26.9000     4.1943     5.3829     5.2443     0.2539     0.1945     2.4057     0.1162   104.5558     9.3378
  482.0000   -27.1879     5.1515     5.7791     5.2826     0.2481     0.2076     2.4490     0.1050   104.1543     9.3786
  482.5000   -27.8436     6.1498     6.1999     5.3096     0.2442     0.1685     2.4713     0.1075   104.4498     9.4185
  483.0000   -27.6708     7.1579     6.5996     5.3759     0.2402     0.1324     2.4820     0.1115   104.1709     9.4584
  483.5000   -27.8465     7.1712     6.7490     5.6970     0.2402     0.1273     2.5044     0.1156   102.5359     9.4847
  484.0000   -28.0475     7.2243     6.9019     6.1434     0.2390     0.1221     2.5259     0.1198   102.0579     9.4923
  484.5000   -28.2368     7.2634     7.0581     6.6343     0.2415     0.1088     2.5229     0.1157   103.6190     9.5000
  485.0000   -28.0788     7.4411     7.2179     6.8298     0.2429     0.0967     2.5097     0.1097   104.4515     9.5077
  485.5000   -27.9014     7.6642     7.3814     7.0308     0.2402     0.0942     2.4963     0.1036   103.3104     9.5154
  486.0000   -27.7252     7.8968     7.5485     7.0752     0.2414     0.1030     2.4951     0.1037   106.0718     9.5230
  486.5000   -27.5495     7.3082     7.7194     6.7623     0.2560     0.1111     2.4954     0.1051   106.4821     9.5307
  487.0000   -27.3738     6.7571     7.8226     6.3118     0.2706     0.1130     2.4918     0.1066   109.4152     9.5386
  487.5000   -27.1982     6.2475     6.8435     5.8913     0.2853     0.1139     2.4843     0.1081   107.6287     9.5479
  488.0000   -27.0222     5.5734     6.2133     5.4989     0.2897     0.1148     2.4466     0.1017   106.5330     9.5587
  488.5000   -26.8454     4.8523     5.6431     5.1326     0.2880     0.1200     2.4101     0.0937   107.6304     9.5344
  489.0000   -26.6798     4.3550     5.1826     4.8166     0.2835     0.1400     2.4200     0.1115   107.8852     9.5015
  489.5000   -26.7306     4.2029     5.1826     4.7292     0.2726     0.1601     2.4795     0.1255   106.8109     9.4861
  490.0000   -26.7901     5.0531     5.5299     4.7727     0.2616     0.1637     2.5261     0.1291   109.0827     9.5142
  490.5000   -26.8470     5.8855     5.7798     4.9295     0.2662     0.1336     2.5267     0.1326   107.9514     9.5400
  491.0000   -26.9993     6.8184     6.0028     5.1276     0.2706     0.0988     2.5248     0.1251   106.1924     9.5286
  491.5000   -27.2023     6.6223     6.2336     5.3269     0.2707     0.0933     2.5176     0.1145   104.1838     9.5098
  492.0000   -27.4068     6.5156     6.4734     5.7586     0.2664     0.0949     2.5104     0.0974   101.8451     9.4820
  492.5000   -27.6114     7.1234     6.7225     6.2102     0.2630     0.0987     2.5216     0.0856   101.5812     9.5267
  493.0000   -27.8165     7.5799     6.9819     6.6807     0.2587     0.1025     2.5342     0.0888   102.9790     9.5696
  493.5000   -28.0219     8.0439     7.2119     7.1316     0.2532     0.1021     2.5436     0.0939   101.5995     9.5994
  494.0000   -28.0515     8.3187     7.4304     7.6129     0.2497     0.0938     2.5501     0.1030   100.6625     9.5963
  494.5000   -28.0516     8.5905     7.6543     8.1267     0.2485     0.0853     2.5433     0.1006   101.8521     9.5940
  495.0000   -28.0512     8.8713     7.8248     8.4195     0.2448     0.0813     2.5359     0.0956   103.0391     9.5915
  495.5000   -28.0512     9.1426     7.8248     8.3831     0.2411     0.0808     2.5286     0.0925   102.7032     9.5891
  496.0000   -28.0512     9.1910     7.8250     8.3587     0.2373     0.0859     2.5181     0.0845   101.7078     9.5866
  496.5000   -28.0512     9.2368     7.8248     8.3335     0.2454     0.0921     2.5095     0.0692   100.5247     9.5842
  497.0000   -28.0512     9.2828     7.8250     8.3088     0.2562     0.1000     2.5104     0.0704    99.0797     9.5817
  497.5000   -28.0509     9.3291     7.8256     8.2846     0.2591     0.1067     2.5141     0.0759    98.3036     9.5793
  498.0000   -28.0530     9.3756     7.8233     8.2673     0.2609     0.1047     2.5205     0.0814   100.0410     9.5768
  498.5000   -27.9493     9.4222     8.0268     8.3816     0.2627     0.1007     2.5269     0.0869    99.2069     9.5744
  499.0000   -27.8051     9.4836     8.1668     8.4721     0.2639     0.1006     2.5323     0.0900    98.3049     9.5719
  499.5000   -27.6588     9.2410     8.2879     8.5636     0.2603     0.0967     2.5258     0.0882    97.4055     9.5695
  500.0000   -27.5125     8.9020     8.3604     8.6562     0.2549     0.0916     2.5192     0.0833    96.8155     9.5670
  500.5000   -27.3670     8.5753     8.4335     8.7497     0.2557     0.0937     2.5127     0.0787    97.1694     9.5646
  501.0000   -27.2617     8.2607     8.5073     8.8443     0.2591     0.0969     2.5063     0.0772    98.2638     9.5622
  501.5000   -27.2640     7.9576     8.5751     8.9399     0.2610     0.1000     2.5066     0.0800    99.7762     9.5597
  502.0000   -27.2612     7.6656     8.6628     9.0365     0.2489     0.1061     2.5136     0.0844    99.4142     9.5573
