~VERSION INFORMATION
 VERS.                2.0:   CWLS LOG ASCII STANDARD - VERSION 2.0
 WRAP.                 NO:   ONE LINE PER DEPTH STEP
~WELL INFORMATION
#MNEM.UNIT      DATA TYPE    INFORMATION
#----------   ------------   ------------------------------
 STRT.F           28.0000:   START DEPTH
 STOP.F          494.0000:   STOP DEPTH
 STEP.F            0.5000:   STEP LENGTH
 NULL.          -999.2500:   NO VALUE
 COMP.    FENIX & SCISSON:   COMPANY
 WELL.        67-S-3 #3-3:   WELL
 FLD .             TEAPOT:   FIELD
 LOC .       S3 T38N R78W:   LOCATION
 CNTY.            NATRONA:   COUNTY
 STAT.            WYOMING:   STATE
 CTRY. UNITED STATES OF AMERICA:   COUNTRY
 SRVC.           BIRDWELL:   SERVICE COMPANY
 DATE.        15-OCT-1978:   LOGDATE
 API .       490251072100:   API NUMBER
~CURVE INFORMATION
#MNEM.UNIT       API CODE    CURVE DESCRIPTION
#----------   ------------   ------------------------------
 DEPT.F                  :   
 ILD .OHMM   05 120 46 00:   INDUCTION LOG DEEP
 SN  .OHMM   05 040 16 00:   SHORT NORMAL 16"
 SPR .MV     05 010 01 00:   SPONTANEOUS POTENTIAL FROM RES.
 CALD.IN     45 280 60 00:   CALIPER FROM DENSITY LOG
 CORR.G/C3   45 356 01 00:   DENSITY CORRECTION
 DPHI.DEC    45 890 12 00:   DENSITY POROSITY SANDSTONE
 GRD .GAPI   45 310 01 00:   GAMMA RAY FROM DENSITY LOG
 RHOB.G/C3   45 350 01 00:   BULK DENSITY
~PARAMETER INFORMATION
#MNEM.UNIT          VALUE    DESCRIPTION
#----------   ------------   ------------------------------
 PD  .                 GL:   PERMANENT DATUM
 EPD .F              5173:   ELEVATION PERMANENT DATUM
 LMF .                 KB:   LOG MEASURED FROM
 DAPD.F                 4:   FEET ABOVE PERMANENT DATUM
 DMF .                 KB:   DRILLING MEASURED FROM
 EKB .F              5177:   KELLING BUSHING
 EGL .F              5173:   GROUND LEVEL
 DATE.        15-OCT-1978:   RUN DATE
 RUN .                  1:   RUN NUMBER
 DD  .F               492:   DEPTH DRILLER
 DL  .F               494:   DEPTH LOGGER
 BLI .F               488:   BOTTOM LOG INTERVAL
 TLI .F                46:   TOP LOG INTERVAL
 CS  .IN            8.625:   CASING SIZE
 CBD .F                40:   CASING BOTTOM DRILLER
 BS  .IN            7.875:   BIT SIZE
 BSD .F               492:   BIT SIZE AT DEPTH
 DFT .                KCL:   DRILLING FLUID TYPE
 DFD .                8.7:   DRILLING FLUID DENSITY
 DFV .                 35:   DRILLING FLUID VISCOSITY
 DFPH.                  9:   DRILLING FLUID PH
 LUN .               2958:   LOGGING UNIT NUMBER
 LUL .               CASP:   LOGGING UNIT LOCATION
 ENGI.             MILLER:   RECORDING ENGINEER
 WITN.           DINSMORE:   WITNESSED BY
 CLNT.            A2DTECH:   CLIENT CODE
 ORIG.           5" PRINT:   ORIGIN OF DATA
 UWI .       490251072100:   UNIQUE WELL ID
 DICO. A2D Technologies, Inc.:   DIGITIZING COMPANY
~OTHER INFORMATION
~A   DEPT      ILD         SN        SPR       CALD       CORR       DPHI         GRD      RHOB   
# ...
  392.5000    14.6451    10.2458   -14.3284     7.9530     0.0107     0.1477    82.0896     2.4355
  393.0000    14.4436    10.2476   -14.3284     7.9531     0.0107     0.1477    80.7463     2.4386
  393.5000    14.3440    10.1784   -14.4776     7.9533     0.0107     0.1468    81.1940     2.4378
  394.0000    14.2450    10.1797   -14.4876     7.9535     0.0122     0.1420    80.2985     2.4415
  394.5000    14.0490    10.1814   -14.6269     7.9685     0.0122     0.1384    79.8507     2.4498
  395.0000    13.8558    10.1828   -14.6269     7.9687     0.0122     0.1350    80.4478     2.4550
  395.5000    13.7602    10.1841   -14.6269     7.9837     0.0106     0.1336    81.0448     2.4610
  396.0000    13.6652    10.1855   -14.6269     7.9851     0.0061     0.1333    81.9403     2.4640
  396.5000    13.4773    10.1869   -14.6269     7.9840     0.0016     0.1327    80.0000     2.4655
  397.0000    13.4773    10.2589   -14.6269     7.9991     0.0001     0.1330    78.6567     2.4664
  397.5000    13.4773    10.2602   -14.7761     7.9993     0.0001     0.1333    79.1045     2.4670
  398.0000    13.4773    10.2617   -14.7761     8.0143     0.0001     0.1339    80.1493     2.4648
  398.5000    13.4773    10.2633   -14.9254     8.0145     0.0000     0.1369    84.4776     2.4648
  399.0000    13.4773    10.2647   -14.9254     8.0146     0.0000     0.1396    87.7612     2.4603
  399.5000    13.4773    10.2661   -15.0746     8.0148    -0.0060     0.1399    88.2090     2.4558
  400.0000    13.4773    10.2674   -15.2239     8.0145    -0.0045     0.1399    88.2090     2.4543
  400.5000    13.5179    10.3384   -15.2239     8.0090    -0.0060     0.1404    88.3598     2.4532
  401.0000    13.5709    10.4118   -15.2239     8.0035     0.0000     0.1396    88.0627     2.4513
  401.5000    13.6652    10.4125   -15.2338     8.0009     0.0120     0.1372    87.1676     2.4528
  402.0000    13.6652    10.4132   -15.3731     7.9863     0.0375     0.1336    85.7194     2.4595
  402.5000    13.6652    10.2708   -15.3731     7.9716     0.0480     0.1210    83.2913     2.4835
  403.0000    13.5709    10.2716   -15.5224     7.9720     0.0480     0.1177    81.9495     2.4888
  403.5000    13.3842    10.2016   -15.5224     7.9723     0.0477     0.1156    81.2043     2.4858
  404.0000    13.1091    10.1320   -15.8385     7.9726     0.0419     0.1138    81.8031     2.4948
  404.5000    12.7509    10.0631   -16.1260     7.9729     0.0299     0.1144    84.3419     2.5000
  405.0000    12.5755     9.9943   -17.3064     7.9731     0.0179     0.1177    87.6269     2.4948
  405.5000    12.4026     9.9261   -17.7427     7.9884     0.0088     0.1184    88.3747     2.4858
  406.0000    12.4014     9.8585   -17.7301     8.0036     0.0118     0.1159    88.3761     2.4888
  406.5000    12.3170     9.8593   -17.7200     8.0039     0.0148     0.1144    89.0164     2.4955
  407.0000    12.4026     9.8599   -17.7099     8.0042     0.0103     0.1168    93.6033     2.4963
  407.5000    12.4026     9.7927   -17.8486     8.0045     0.0103     0.1237    95.0969     2.4884
  408.0000    12.5755     9.7934   -17.8385     8.0048     0.0118     0.1276    93.3077     2.4738
  408.5000    12.5755     9.7942   -17.8284     7.9752     0.0118     0.1273    92.2643     2.4700
  409.0000    12.5755     9.7948   -21.0921     7.9605     0.0132     0.1243    91.9669     2.4738
  409.5000    12.2320     9.7955   -21.0490     7.9609     0.0162     0.1213    91.9687     2.4843
  410.0000    12.1475     9.7961   -18.6885     7.9463     0.0192     0.1183    92.4179     2.4903
  410.5000    12.1475     9.7968   -17.6367     7.9466     0.0162     0.1180    93.3358     2.4925
  411.0000    12.2320     9.7300   -17.4778     7.9469     0.0117     0.1198    96.7493     2.4925
  411.5000    12.2320     9.7262   -17.4677     7.9472     0.0070     0.1255    94.3630     2.4880
  412.0000    12.0637     9.5977   -17.6089     7.9475     0.0056     0.1267    88.6928     2.4795
  412.5000    11.9805     9.5324   -17.5963     7.9627     0.0041     0.1264    87.2013     2.4708
  413.0000    11.8978     9.4673   -17.7351     7.9630     0.0056     0.1240    87.9494     2.4715
  413.5000    11.8885     9.4027   -17.7247     7.9633     0.0056     0.1207    91.0852     2.4805
  414.0000    11.7341     9.3386   -17.7123     7.9785     0.0101     0.1180    93.3254     2.4858
  414.5000    11.6532     9.3394   -17.7022     7.9788     0.0146     0.1144    91.9836     2.4918
  415.0000    11.5727     9.3400   -18.7338     7.9791     0.0191     0.1120    88.0546     2.5000
  415.5000    11.4136     9.2678   -20.0630     7.9944     0.0191     0.1075    86.7626     2.5052
  416.0000    11.4136     9.1496   -20.6481     7.9947     0.0188     0.1051    90.9435     2.5098
  416.5000    11.2566     9.0248   -20.9356     8.0099     0.0145     0.1072    91.8405     2.5075
  417.0000    11.2421     8.9015   -21.5208     8.0162     0.0130     0.1120    92.1405     2.4985
  417.5000    10.9490     8.7194   -21.8083     8.0254     0.0160     0.1147    91.5449     2.4918
  418.0000    10.7239     8.6003   -21.7957     8.0257     0.0190     0.1138    89.6061     2.4918
  418.5000    10.5764     8.4245   -21.7856     8.0260     0.0220     0.1114    87.3687     2.4948
  419.0000    10.4309     8.3671   -21.6267     8.0113     0.0250     0.1084    87.2209     2.4993
  419.5000    10.3589     8.3678   -21.6166     8.0117     0.0234     0.1093    88.3318     2.5030
  420.0000    10.1460     8.2534   -22.9458     8.0120     0.0217     0.1111    93.1943     2.5060
  420.5000     9.9373     8.1408   -23.5521     8.0123     0.0174     0.1129    97.5241     2.5075
  421.0000     9.8688     8.0296   -22.3303     7.9976     0.0174     0.1150    97.8241     2.4925
  421.5000     9.8007     7.9199   -22.9856     8.0129     0.0189     0.1168    96.9300     2.4865
  422.0000     9.8007     7.8117   -24.0958     8.0131     0.0204     0.1153    96.0359     2.4910
  422.5000     9.6659     7.7051   -22.2975     8.0134     0.0264     0.1084    93.7986     2.4970
  423.0000     8.8337     7.4818   -22.2874     8.0137     0.0323     0.1069    92.1583     2.5037
  423.5000     8.1858     6.9957   -22.4286     8.0140     0.0353     0.1078    94.2493     2.5090
  424.0000     7.5221     6.5744   -22.2672     8.0144     0.0368     0.1110    96.9692     2.5097
  424.5000     6.6502     6.2212   -22.2571     8.0147     0.0293     0.1225    99.7749     2.5029
  425.0000     6.2052     6.0104   -23.1399     8.0150     0.0248     0.1339   101.7167     2.4864
  425.5000     6.0357     5.9282   -24.6364     8.0153     0.0233     0.1432   101.4196     2.4535
  426.0000     5.9527     5.8473   -25.0517     8.0006     0.0262     0.1504    99.6296     2.4348
  426.5000     5.9527     5.8504   -26.0833     8.0009     0.0307     0.1507   101.2733     2.4325
  427.0000     5.9941     6.0121   -24.2874     7.9791     0.0337     0.1408   106.7971     2.4430
  427.5000     6.2081     6.4426   -23.0894     7.9716     0.0292     0.1030   118.8881     2.4910
  428.0000     6.8370     6.9518   -24.5674     7.9720     0.0246     0.0967   123.0806     2.5135
  428.5000     7.9072     7.5013   -22.7691     7.9573     0.0199     0.0940   122.6938     2.5202
  429.0000     8.7727     7.8736   -22.6102     7.9726     0.0171     0.0940   116.2062     2.5241
  429.5000     9.3369     8.1509   -22.4092     7.9729     0.0126     0.0952   106.2077     2.5277
  430.0000     9.8007     8.3798   -22.1435     7.9582     0.0111     0.0946    94.5674     2.5217
  430.5000    10.0064     8.6232   -23.9166     7.9585     0.0081     0.0928    89.4938     2.5202
  431.0000    10.0759     8.8574   -25.0970     7.9588     0.0066     0.0916    92.0330     2.5247
  431.5000    10.1460     8.9813   -23.5988     7.9591     0.0051     0.0940    96.2135     2.5307
  432.0000    10.1460     9.1068   -20.6125     7.9594     0.0050     0.0985    95.3194     2.5277
  432.5000    10.2165     9.1706   -19.4119     7.9598     0.0050     0.1015    93.6791     2.5157
