~VERSION INFORMATION
 VERS.                2.0:   CWLS LOG ASCII STANDARD - VERSION 2.0
 WRAP.                 NO:   ONE LINE PER DEPTH STEP
~WELL INFORMATION
#MNEM.UNIT      DATA TYPE    INFORMATION
#----------   ------------   ------------------------------
 STRT.F           28.5000:   START DEPTH
 STOP.F          625.0000:   STOP DEPTH
 STEP.F            0.5000:   STEP LENGTH
 NULL.          -999.2500:   NO VALUE
 COMP. FENIX & SCISSON INC:   COMPANY
 WELL.    NPR ##3 13-SX-3:   WELL
 FLD .             TEAPOT:   FIELD
 LOC .       S3 T38N R78W:   LOCATION
 CNTY.            NATRONA:   COUNTY
 STAT.            WYOMING:   STATE
 CTRY. UNITED STATES OF AMERICA:   COUNTRY
 SRVC.       Schlumberger:   SERVICE COMPANY
 DATE.        25-FEB-1977:   LOGDATE
 API .       490251028400:   API NUMBER
~CURVE INFORMATION
#MNEM.UNIT       API CODE    CURVE DESCRIPTION
#----------   ------------   ------------------------------
 DEPT.F                  :   
 SPR .MV     07 010 01 00:   SPONTANEOUS POTENTIAL
 ILD .OHMM   07 120 46 00:   INDUCTION LOG DEEP
 LL8 .OHMM   07 220 08 00:   LATEROLOG-8 RES.
 ILM .OHMM   07 120 44 00:   INDUCTION LOG MEDIUM
 GRD .GAPI   45 310 01 00:   GAMMA RAY FROM DENSITY LOG
 CALD.IN     45 280 60 00:   CALIPER
 RHOB.G/C3   45 350 01 00:   BULK DENSITY
 CORR.G/C3   45 356 01 00:   DENSITY CORRECTION
 DPOR.DEC    45 890 12 00:   DENSITY POROSITY SANDSTONE
~PARAMETER INFORMATION
#MNEM.UNIT          VALUE    DESCRIPTION
#----------   ------------   ------------------------------
 PD  .                 GL:   PERMANENT DATUM
 EPD .F              5227:   ELEVATION PERMANENT DATUM
 LMF .                 GL:   LOG MEASURED FROM
 DMF .                 GL:   DRILLING MEASURED FROM
 EKB .F              5232:   KELLING BUSHING
 EGL .F              5227:   GROUND LEVEL
 DATE.          2-25-1977:   RUN DATE
 RUN .                  1:   RUN NUMBER
 DD  .F               629:   DEPTH DRILLER
 DL  .F               626:   DEPTH LOGGER
 BLI .F               620:   BOTTOM LOG INTERVAL
 TLI .F                40:   TOP LOG INTERVAL
 CS  .IN            8.625:   CASING SIZE
 CBD .F                40:   CASING BOTTOM DRILLER
 CBL .F                40:   CASING BOTTOM LOGGER
 BS  .IN            7.875:   BIT SIZE
 BSD .F               629:   BIT SIZE AT DEPTH
 DFT .                KCL:   DRILLING FLUID TYPE
 DFD .                8.8:   DRILLING FLUID DENSITY
 DFV .                 45:   DRILLING FLUID VISCOSITY
 DFPH.                  8:   DRILLING FLUID PH
 DFL .                8.2:   DRILLING FLUID LOSS
 MSS .                PIT:   MUD SAMPLE SOURCE
 RMS .OHMM           .508:   RESISTIVITY MUD SAMPLE
 MST .F                60:   MUD SAMPLE TEMPERATURE
 RMF .OHMM           .419:   RESISTIVITY MUD FILTRATE SAMPLE
 MFST.F                58:   MUD FILTRATE SAMPLE TEMPERATURE
 MFSS.                  M:   MUD FILTRATE SAMPLE SOURCE
 RMB .OHMM            .41:   RESISTIVITY MUD AT BHT
 BHT .F                75:   BOTTOM HOLE TEMPERATURE
 TCS .HRS            1700:   TIME CURCULATED STOPPED
 TLAB.HRS            2130:   TIME LOGGER AT BOTTOM
 MRT .F                75:   MAXIMUM RECORDED TEMPERATURE
 LUN .               5642:   LOGGING UNIT NUMBER
 LUL .               CSPR:   LOGGING UNIT LOCATION
 ENGI.             MARTIN:   RECORDING ENGINEER
 CLNT.            A2DTECH:   CLIENT CODE
 ORIG.       2", 5" PRINT:   ORIGIN OF DATA
 UWI .       490251028400:   UNIQUE WELL ID
 DICO. A2D Technologies, Inc.:   DIGITIZING COMPANY
~OTHER INFORMATION
~A   DEPT      SPR        ILD        LL8        ILM         GRD      CALD         RHOB     CORR       DPOR   
# ...
  466.5000   -40.0227    15.1875    13.0102    14.7510    86.2420     8.0715     2.4404     0.0678     0.1385
  467.0000   -39.9817    15.2829    12.9372    14.7652    86.7271     8.0019     2.4256     0.0460     0.1478
  467.5000   -39.8050    15.3789    12.8094    14.7793    87.0901     7.9310     2.4116     0.0368     0.1609
  468.0000   -39.3391    15.4755    12.6828    14.7935    85.0934     7.9350     2.4054     0.0496     0.1441
  468.5000   -38.6774    15.5727    12.6542    14.8082    82.8174     7.9794     2.4202     0.0593     0.1453
  469.0000   -38.2416    15.6538    12.8717    14.5980    81.6109     8.0090     2.4369     0.0691     0.1372
  469.5000   -39.0388    15.4277    12.9788    14.3851    83.4888     8.0172     2.4320     0.0591     0.1305
  470.0000   -40.0947    15.1988    13.0920    14.1754    84.9029     8.0253     2.4365     0.0449     0.1377
  470.5000   -40.7061    14.9734    13.2475    13.9687    86.1674     8.0333     2.4256     0.0307     0.1405
  471.0000   -40.6202    14.7517    12.9343    13.7650    86.6083     8.0414     2.4128     0.0164     0.1424
  471.5000   -40.5296    14.5332    12.7061    13.5642    86.3796     8.0710     2.4173     0.0016     0.1441
  472.0000   -40.7155    14.3180    12.4825    13.3664    86.1096     8.1328     2.4163     0.0024     0.1453
  472.5000   -40.9158    14.1060    12.2634    13.1715    87.3364     8.1945     2.4130     0.0047     0.1444
  473.0000   -41.1162    13.8971    12.0480    13.0688    89.4320     8.2055     2.4097     0.0070     0.1461
  473.5000   -40.5232    13.6913    11.7535    12.9906    91.5098     8.2058     2.4132     0.0092     0.1489
  474.0000   -39.6922    13.4885    11.9569    12.9128    92.5355     8.2095     2.4311     0.0114     0.1410
  474.5000   -38.8607    13.2888    12.3205    12.8355    89.6879     8.2134     2.4351     0.0111     0.1338
  475.0000   -38.0336    13.1149    12.5420    12.7586    90.3614     8.2172     2.4372     0.0037     0.1274
  475.5000   -37.7508    13.0341    12.2714    12.6823    91.1340     8.2211     2.4455    -0.0033     0.1325
  476.0000   -39.1127    12.9538    12.0066    12.6063    91.8951     8.2250     2.4416    -0.0053     0.1305
  476.5000   -40.4900    12.8910    11.7536    12.5308    92.6599     8.2289     2.4370     0.0038     0.1278
  477.0000   -41.4587    13.0501    11.6271    12.4558    93.3914     8.2328     2.4408     0.0022     0.1341
  477.5000   -41.7887    13.1838    11.4742    12.3812    93.1229     8.2367     2.4520     0.0136     0.1254
  478.0000   -42.1569    13.3192    11.3251    12.3080    91.4574     8.2405     2.4418     0.0210     0.1299
  478.5000   -42.4960    13.4559    11.5312    12.4184    89.8058     8.2444     2.4284     0.0126     0.1364
  479.0000   -42.3458    13.5939    11.7385    12.5285    88.1707     8.2483     2.4198     0.0045     0.1445
  479.5000   -42.1762    13.7334    11.8610    12.6395    85.9196     8.2522     2.4124    -0.0033     0.1434
  480.0000   -42.0619    13.8743    11.4330    12.7515    86.9341     8.2561     2.4051    -0.0072     0.1483
  480.5000   -41.9786    14.0167    11.7254    12.8646    88.7651     8.2599     2.4104     0.0003     0.1513
  481.0000   -41.8817    14.1606    12.0904    12.9788    90.6036     8.2638     2.4164     0.0073     0.1433
  481.5000   -41.6989    14.3060    12.5377    13.0944    93.3755     8.2636     2.4203     0.0143     0.1393
  482.0000   -41.1985    14.4541    12.2413    13.2047    91.5746     8.2605     2.4073     0.0163     0.1437
  482.5000   -40.7575    14.5364    11.9712    13.3692    85.9566     8.2573     2.3901     0.0062     0.1557
  483.0000   -41.4001    14.3637    12.0984    13.1630    84.1354     8.2542     2.3748    -0.0014     0.1677
  483.5000   -41.8998    14.2432    12.2239    12.9921    83.5017     8.2510     2.3775    -0.0057     0.1619
  484.0000   -41.2617    14.1251    12.3523    12.8234    85.3095     8.2478     2.3981     0.0001     0.1523
  484.5000   -40.6130    14.0091    12.4215    12.6569    87.1027     8.2447     2.4182     0.0055     0.1418
  485.0000   -40.7583    13.5129    12.1865    12.4926    88.8859     8.2415     2.4388     0.0111     0.1313
  485.5000   -41.1236    13.1486    12.0250    12.3304    90.6507     8.2384     2.4373     0.0167     0.1297
  486.0000   -41.4947    12.9146    11.8657    12.1704    91.5405     8.2352     2.4336     0.0093     0.1337
  486.5000   -41.8657    12.6852    11.7085    12.0571    88.6617     8.2320     2.4299     0.0003     0.1305
  487.0000   -42.2328    12.4598    11.5534    11.9547    88.0556     8.2289     2.4335    -0.0003     0.1365
  487.5000   -42.4572    12.2384    11.4003    11.8531    88.7907     8.2257     2.4441     0.0044     0.1275
  488.0000   -42.1680    12.0209    11.2493    11.7524    89.5265     8.2226     2.4543     0.0057     0.1134
  488.5000   -41.9359    11.8436    11.1003    11.6525    90.2773     8.2194     2.4578     0.0011     0.1189
  489.0000   -42.3421    11.7519    10.9532    11.5535    90.2769     8.2162     2.4466     0.0031     0.1250
  489.5000   -42.7566    11.9926    10.8082    11.4553    89.6113     8.2131     2.4408     0.0068     0.1305
  490.0000   -43.1740    12.3688    10.6649    11.3251    87.6225     8.2099     2.4366     0.0043     0.1374
  490.5000   -43.2379    12.7568    10.5196    11.6771    85.4717     8.2067     2.4269     0.0017     0.1401
  491.0000   -43.1474    13.1570    10.3248    12.2308    83.3280     8.2036     2.4165    -0.0010     0.1442
  491.5000   -42.7352    13.7204    10.3248    12.8108    84.1572     8.2004     2.3883     0.0020     0.1531
  492.0000   -42.1994    14.4911    11.5272    13.4183    85.1721     8.1973     2.3613     0.0057     0.1667
  492.5000   -41.5933    15.3049    12.7822    14.0546    84.1865     8.1942     2.3345     0.0028     0.2036
  493.0000   -40.9963    16.1646    13.6258    14.8261    83.7521     8.1912     2.3224     0.0072     0.2002
  493.5000   -40.4165    17.0724    14.0091    15.6566    84.1444     8.1872     2.3334     0.0153     0.1940
  494.0000   -39.5739    18.0313    14.4032    16.5337    84.5754     8.1580     2.3196     0.0236     0.2042
  494.5000   -38.7191    19.0441    14.9106    17.5266    83.0557     8.0590     2.3012     0.0308     0.2135
  495.0000   -37.8642    20.1137    15.2578    18.4830    81.1724     7.9635     2.2749     0.0276     0.2255
  495.5000   -36.9879    20.4678    15.3664    18.1467    79.5185     7.8685     2.2830     0.0316     0.2202
  496.0000   -37.2699    20.0049    15.2621    17.8038    77.8621     7.7731     2.3008     0.0430     0.2125
  496.5000   -38.0202    19.6984    15.1447    17.4903    77.3915     7.7331     2.3167     0.0437     0.2054
  497.0000   -38.7792    19.3435    14.9906    17.3234    79.4446     7.7446     2.3011     0.0300     0.2125
  497.5000   -39.2637    18.9404    14.6673    17.1711    80.8276     7.7559     2.2788     0.0213     0.2207
  498.0000   -38.9477    18.5633    14.3510    17.0201    80.7576     7.7602     2.2873     0.0159     0.2263
  498.5000   -38.6501    18.2354    14.0091    16.8705    80.6351     7.7109     2.2979     0.0117     0.2163
  499.0000   -38.3486    17.9134    14.3514    16.7222    79.6060     7.6928     2.3085     0.0075     0.2086
  499.5000   -38.7800    17.7601    14.8084    16.5752    78.4582     7.9201     2.3116     0.0047     0.2061
  500.0000   -39.2938    17.5709    14.6250    16.4295    77.5009     8.1191     2.3071     0.0198     0.2088
  500.5000   -39.1415    17.3836    14.3583    16.2851    78.6184     8.0045     2.3027     0.0326     0.2115
  501.0000   -38.4883    17.1982    14.0992    16.1511    79.7132     7.8900     2.2980     0.0273     0.2142
  501.5000   -37.8411    17.0145    13.8449    15.9718    79.4483     7.7878     2.2971     0.0220     0.2156
  502.0000   -37.5697    16.8552    13.2530    15.7943    78.8778     7.8471     2.3270     0.0166     0.2064
  502.5000   -37.6652    16.9384    13.3372    15.6186    78.4392     7.9181     2.3238     0.0293     0.1948
