~VERSION INFORMATION
 VERS.                2.0:   CWLS LOG ASCII STANDARD - VERSION 2.0
 WRAP.                 NO:   ONE LINE PER DEPTH STEP
~WELL INFORMATION
#MNEM.UNIT      DATA TYPE    INFORMATION
#----------   ------------   ------------------------------
 STRT.F           30.0000:   START DEPTH
 STOP.F          677.0000:   STOP DEPTH
 STEP.F            0.5000:   STEP LENGTH
 NULL.          -999.2500:   NO VALUE
 COMP. FENIX & SCISSON INC:   COMPANY
 WELL. TEAPOT DOME #27 SX -2:   WELL
 FLD .             TEAPOT:   FIELD
 LOC .       S2 T38N R78W:   LOCATION
 CNTY.            NATRONA:   COUNTY
 STAT.            WYOMING:   STATE
 CTRY. UNITED STATES OF AMERICA:   COUNTRY
 SRVC.            Unknown:   SERVICE COMPANY
 DATE.        28-JAN-1978:   LOGDATE
 API .       490251056500:   API NUMBER
~CURVE INFORMATION
#MNEM.UNIT       API CODE    CURVE DESCRIPTION
#----------   ------------   ------------------------------
 DEPT.F                  :   
 ILD .OHMM   05 120 46 00:   INDUCTION LOG DEEP
 SN  .OHMM   05 040 16 00:   SHORT NORMAL 16"
 SPR .MV     05 010 01 00:   SPONTANEOUS POTENSIAL
 CALD.IN     45 280 60 00:   CALIPER FROM DENSITY LOG
 CORR.G/C3   45 356 01 00:   DENSITY CORRECTION
 DPHI.DEC    45 890 12 00:   DENSITY POROSITY SANDSTONE
 GRD .GAPI   45 310 01 00:   GAMMA RAY FROM DENSITY LOG
 RHOB.G/C3   45 350 01 00:   BULK DENSITY
~PARAMETER INFORMATION
#MNEM.UNIT          VALUE    DESCRIPTION
#----------   ------------   ------------------------------
 PD  .                 GL:   PERMANENT DATUM
 EPD .F              5147:   ELEVATION PERMANENT DATUM
 LMF .                 KB:   LOG MEASURED FROM
 DAPD.F                 4:   FEET ABOVE PERMANENT DATUM
 DMF .                 KB:   DRILLING MEASURED FROM
 EKB .F              5151:   KELLING BUSHING
 EGL .F              5147:   GROUND LEVEL
 DATE.        28-JAN-1978:   RUN DATE
 RUN .                  1:   RUN NUMBER
 DD  .F               675:   DEPTH DRILLER
 DL  .F               678:   DEPTH LOGGER
 BLI .F               677:   BOTTOM LOG INTERVAL
 TLI .F                40:   TOP LOG INTERVAL
 CS  .IN            8.625:   CASING SIZE
 CBD .F                40:   CASING BOTTOM DRILLER
 CBL .F                40:   CASING BOTTOM LOGGER
 BS  .IN            7.875:   BIT SIZE
 BSD .F               675:   BIT SIZE AT DEPTH
 DFT .                KCL:   DRILLING FLUID TYPE
 DFD .                8.6:   DRILLING FLUID DENSITY
 DFV .                .34:   DRILLING FLUID VISCOSITY
 DFPH.                9.5:   DRILLING FLUID PH
 MSS .           FLOWLINE:   MUD SAMPLE SOURCE
 RMS .OHMM           0.38:   RESISTIVITY MUD SAMPLE
 MST .F                60:   MUD SAMPLE TEMPERATURE
 RMF .OHMM           0.36:   RESISTIVITY MUD FILTRATE SAMPLE
 MFST.F                62:   MUD FILTRATE SAMPLE TEMPERATURE
 RMC .OHMM            0.7:   RESISTIVITY MUD CAKE
 MCST.F                63:   MUD CAKE SAMPLE TEMPERATURE
 MFSS.               MEAS:   MUD FILTRATE SAMPLE SOURCE
 MCSS.               MEAS:   MUD CAKE SAMPLE SOURCE
 RMB .OHMM           0.31:   RESISTIVITY MUD AT BHT
 BHT .F                76:   BOTTOM HOLE TEMPERATURE
 TCS .HRS               3:   TIME CURCULATED STOPPED
 MRT .F                76:   MAXIMUM RECORDED TEMPERATURE
 LUN .               2958:   LOGGING UNIT NUMBER
 LUL .             CASPER:   LOGGING UNIT LOCATION
 ENGI.           REYNOLDS:   RECORDING ENGINEER
 WITN.     MR. HARRINGTON:   WITNESSED BY
 CLNT.            A2DTECH:   CLIENT CODE
 ORIG.           5" PRINT:   ORIGIN OF DATA
 UWI .       490251056500:   UNIQUE WELL ID
 DICO. A2D Technologies, Inc.:   DIGITIZING COMPANY
~OTHER INFORMATION
~A   DEPT      ILD         SN        SPR       CALD       CORR       DPHI        GRD       RHOB   
# ...
  597.0000    15.9158    12.9929   -55.2702     8.6150     0.1313     0.1747    81.0803     2.3682
  597.5000    15.7107    12.9032   -55.4057     8.6174     0.1330     0.1737    81.1015     2.3698
  598.0000    15.6152    12.7466   -55.3824     8.6196     0.1362     0.1731    80.6843     2.3699
  598.5000    15.2956    12.5808   -55.5179     8.6222     0.1347     0.1718    80.5523     2.3722
  599.0000    14.6033    12.4178   -55.4947     8.6246     0.1156     0.1640    80.2777     2.3745
  599.5000    14.1207    12.0915   -55.4753     8.6271     0.1083     0.1592    79.8604     2.3857
  600.0000    13.8405    12.1002   -55.7518     8.6300     0.1220     0.1732    78.9941     2.3717
  600.5000    13.5712    11.7823   -56.0321     8.6324     0.1237     0.1702    78.2757     2.3688
  601.0000    13.4888    11.7078   -56.0135     8.6348     0.1269     0.1693    78.3022     2.3757
  601.5000    13.4070    11.6359   -56.1450     8.6373     0.1226     0.1594    78.3234     2.3795
  602.0000    13.5109    11.5645   -56.2752     8.6248     0.1154     0.1491    78.4926     2.4010
  602.5000    13.1546    11.4953   -56.1025     8.6130     0.1140     0.1410    78.6618     2.4239
  603.0000    13.0747    11.3416   -56.2380     8.6000     0.1053     0.1404    78.3757     2.4248
  603.5000    12.9953    11.1189   -56.2194     8.6028     0.0980     0.1379    76.9344     2.4272
  604.0000    13.0078    11.0480   -56.4278     8.6053     0.0907     0.1343    78.4349     2.4363
  604.5000    12.9202    10.9059   -56.6420     8.6082     0.0864     0.1322    78.3029     2.4379
  605.0000    12.6774    10.8382   -56.7744     8.6107     0.0733     0.1282    78.4774     2.4410
  605.5000    12.4283    10.8471   -56.7531     8.6131     0.0645     0.1301    78.9424     2.4478
  606.0000    12.3504    10.7779   -56.9068     8.6155     0.0512     0.1365    79.2841     2.4401
  606.5000    12.1934    10.6393   -57.0179     8.6179     0.0439     0.1383    79.7363     2.4339
  607.0000    12.1196    10.6134   -57.1504     8.6209     0.0502     0.1403    79.8817     2.4310
  607.5000    12.0460    10.4285   -57.1290     8.6233     0.0551     0.1433    80.0094     2.4207
  608.0000    12.0554    10.2305   -57.1120     8.6257     0.0566     0.1435    80.0363     2.4200
  608.5000    11.9001    10.0956   -57.0942     8.6280     0.0584     0.1402    80.8122     2.4209
  609.0000    11.6685    10.0329   -57.0736     8.6305     0.0676     0.1416    82.3158     2.4241
  609.5000    11.5923     9.9721   -56.9071     8.6335     0.0798     0.1470    82.7864     2.4144
  610.0000    11.5272     9.9790   -56.8900     8.6356     0.0891     0.1508    83.4051     2.4033
  610.5000    11.5373     9.9869   -56.8729     8.6383     0.0968     0.1373    83.7278     2.3989
  611.0000    11.5469     9.9927   -56.8517     8.6407     0.1015     0.1315    84.4944     2.4245
  611.5000    11.5567    10.0000   -56.8346     8.6431     0.1017     0.1262    85.1346     2.4343
  612.0000    11.6458     9.9379   -56.8175     8.6456     0.1034     0.1240    85.5904     2.4428
  612.5000    11.5755     9.8762   -56.9542     8.6485     0.1036     0.1237    85.1735     2.4465
  613.0000    11.5046     9.8149   -57.2377     8.6510     0.1039     0.1204    84.7566     2.4511
  613.5000    11.5151     9.7539   -57.6632     8.6379     0.0981     0.1164    84.1918     2.4587
  614.0000    11.4883     9.7619   -57.7957     8.6410     0.0788     0.1140    84.6686     2.4663
  614.5000    11.4550     9.7688   -57.9253     8.6434     0.0790     0.1226    85.7316     2.4672
  615.0000    11.5064     9.7763   -58.2057     8.6464     0.0808     0.1238    86.4981     2.4554
  615.5000    11.3966     9.7818   -58.4876     8.6334     0.0840     0.1225    86.5250     2.4495
  616.0000    11.2498     9.7891   -58.7652     8.6209     0.0797     0.1195    86.1081     2.4541
  616.5000    11.1815     9.7961   -58.7482     8.6085     0.0770     0.1155    85.8388     2.4647
  617.0000    11.0359     9.8020   -58.5816     8.6116     0.0652     0.1116    86.0148     2.4708
  617.5000    10.8226     9.8100   -58.7145     8.5991     0.0654     0.1104    86.6393     2.4740
  618.0000    10.8311     9.8155   -58.6966     8.6021     0.0656     0.1196    86.8074     2.4628
  618.5000    10.6894     9.8228   -58.6757     8.6046     0.0659     0.1199    86.6864     2.4622
  619.0000    10.5537     9.8290   -58.6586     8.6068     0.0676     0.1192    86.5721     2.4623
  619.5000    10.5620     9.8358   -58.7911     8.6093     0.0693     0.1186    86.6021     2.4624
  620.0000    10.4259     9.8426   -58.9238     8.6119     0.0755     0.1215    87.0764     2.4625
  620.5000    10.3626     9.8493   -58.9058     8.6144     0.0772     0.1245    88.1388     2.4596
  621.0000    10.2997     9.8566   -59.0388     8.6169     0.0775     0.1232    89.9408     2.4538
  621.5000    10.3094     9.8629   -59.1713     8.6194     0.0777     0.1202    90.2636     2.4509
  622.0000    10.3179     9.8697   -59.3572     8.6219     0.0779     0.1174    89.9946     2.4511
  622.5000    10.3281     9.8765   -59.4320     8.6248     0.0781     0.1171    89.2819     2.4571
  623.0000    10.3362     9.8841   -59.4105     8.6272     0.0784     0.1156    90.4989     2.4625
  623.5000    10.2714     9.9589   -59.3935     8.6296     0.0786     0.1125    91.4134     2.4672
  624.0000    10.2090     9.8969   -59.3782     8.6320     0.0788     0.1146    91.1377     2.4628
  624.5000    10.2191     9.9035   -59.3602     8.6345     0.0791     0.1142    90.7275     2.4636
  625.0000    10.1570     9.7090   -59.3423     8.6374     0.0777     0.1121    90.6065     2.4667
  625.5000    10.1670     9.5168   -59.3210     8.6396     0.0780     0.1133    91.2318     2.4706
  626.0000    10.1053     9.4577   -59.3039     8.6423     0.0782     0.1168    93.0339     2.4722
  626.5000    10.1132     9.4329   -59.2869     8.6447     0.0785     0.1129    94.9839     2.4581
  627.0000    10.1212     9.4051   -59.2698     8.6471     0.0892     0.1113    95.6025     2.4717
  627.5000    10.1294     9.4119   -59.2526     8.6496     0.0864     0.1131    95.6294     2.4755
  628.0000    10.1391     9.3544   -59.2314     8.6521     0.0791     0.1073    95.6568     2.4674
  628.5000    10.0775     9.3605   -59.3681     8.6547     0.0778     0.1055    95.6899     2.4788
  629.0000    10.0087     9.3024   -59.6458     8.6573     0.0795     0.1055    95.1251     2.4864
  629.5000     9.8554     9.2388   -59.7788     8.6597     0.0813     0.1057    91.8975     2.4857
  630.0000     9.7222     9.1878   -59.7608     8.6622     0.0815     0.1060    90.8889     2.4859
  630.5000     9.6341     9.0675   -59.8935     8.6651     0.0817     0.1059    90.3240     2.4867
  631.0000     9.5756     9.0112   -59.8722     8.6675     0.0820     0.1056    90.8195     2.4869
  631.5000     9.4540     8.9567   -59.8552     8.6699     0.0822     0.1049    91.5680     2.4870
  632.0000     9.3320     8.9011   -59.8381     8.6723     0.0809     0.1043    92.1867     2.4878
  632.5000     9.1488     8.8465   -59.9705     8.6748     0.0766     0.1055    92.6573     2.4895
  633.0000     8.9093     8.8531   -60.1169     8.6623     0.0694     0.1063    92.0925     2.4896
  633.5000     8.7944     8.7378   -60.2332     8.6653     0.0651     0.1078    91.0839     2.4875
  634.0000     8.6216     8.6239   -60.3169     8.6677     0.0653     0.1089    91.1175     2.4801
  634.5000     8.3942     8.5116   -60.4960     8.6405     0.0641     0.1086    91.4403     2.4780
  635.0000     8.2238     8.3444   -60.4783     8.6430     0.0628     0.1079    91.7630     2.4803
  635.5000     8.0122     8.2357   -60.5271     8.6459     0.0645     0.1109    91.3462     2.4805
  636.0000     7.9636     8.1844   -60.5943     8.6483     0.0632     0.1126    91.2190     2.4724
  636.5000     7.9152     7.9675   -60.5729     8.6353     0.0604     0.1141    92.2885     2.4687
  637.0000     7.8146     7.8637   -60.7055     8.6383     0.0576     0.1183    92.6170     2.4696
