~VERSION INFORMATION
 VERS.                2.0:   CWLS LOG ASCII STANDARD - VERSION 2.0
 WRAP.                 NO:   ONE LINE PER DEPTH STEP
~WELL INFORMATION
#MNEM.UNIT      DATA TYPE    INFORMATION
#----------   ------------   ------------------------------
 STRT.F           33.0000:   START DEPTH
 STOP.F         1374.0000:   STOP DEPTH
 STEP.F            0.5000:   STEP LENGTH
 NULL.          -999.2500:   NO VALUE
 COMP. FENIX & SCISSON INC:   COMPANY
 WELL.   NPR-3 "S" #84-14:   WELL
 FLD .             TEAPOT:   FIELD
 LOC .      S14 T38N R78W:   LOCATION
 CNTY.            NATRONA:   COUNTY
 STAT.            WYOMING:   STATE
 CTRY. UNITED STATES OF AMERICA:   COUNTRY
 SRVC.            Unknown:   SERVICE COMPANY
 DATE.        18-MAR-1978:   LOGDATE
 API .       490251060400:   API NUMBER
~CURVE INFORMATION
#MNEM.UNIT       API CODE    CURVE DESCRIPTION
#----------   ------------   ------------------------------
 DEPT.F                  :   
 SPR .MV     05 010 01 00:   SPONTANEOUS POTENTIAL FROM RES.
 SN  .OHMM   05 040 16 00:   SHORT NORMAL 16"
 ILD .OHMM   05 120 46 00:   INDUCTION LOG DEEP
 CALD.IN     45 280 60 00:   CALIPER
 GRD .GAPI   45 310 01 00:   GAMMA RAY FROM DENSITY LOG
 CORR.G/C3   45 356 01 00:   DENSITY CORRECTION
 RHOB.G/C3   45 350 01 00:   BULK DENSITY
 DPHI.DEC    45 890 00 00:   DENSITY POROSITY
~PARAMETER INFORMATION
#MNEM.UNIT          VALUE    DESCRIPTION
#----------   ------------   ------------------------------
 PD  .                 GL:   PERMANENT DATUM
 EPD .F              5314:   ELEVATION PERMANENT DATUM
 LMF .                 KB:   LOG MEASURED FROM
 DMF .                 KB:   DRILLING MEASURED FROM
 EKB .F              5318:   KELLING BUSHING
 EGL .F              5314:   GROUND LEVEL
 DATE.          3-18-1978:   RUN DATE
 RUN .                  1:   RUN NUMBER
 DD  .F              1375:   DEPTH DRILLER
 DL  .F              1380:   DEPTH LOGGER
 BLI .F              1374:   BOTTOM LOG INTERVAL
 TLI .F                50:   TOP LOG INTERVAL
 CS  .IN            8.625:   CASING SIZE
 CBD .F                40:   CASING BOTTOM DRILLER
 CBL .F                50:   CASING BOTTOM LOGGER
 BS  .IN            7.875:   BIT SIZE
 BSD .F              1375:   BIT SIZE AT DEPTH
 DFT .                KCL:   DRILLING FLUID TYPE
 DFD .                8.1:   DRILLING FLUID DENSITY
 DFV .                 31:   DRILLING FLUID VISCOSITY
 DFPH.                 10:   DRILLING FLUID PH
 DFL .                8.4:   DRILLING FLUID LOSS
 MSS .           FLOWLINE:   MUD SAMPLE SOURCE
 RMS .OHMM            .28:   RESISTIVITY MUD SAMPLE
 MST .F                62:   MUD SAMPLE TEMPERATURE
 RMF .OHMM            .26:   RESISTIVITY MUD FILTRATE SAMPLE
 MFST.F                67:   MUD FILTRATE SAMPLE TEMPERATURE
 RMC .OHMM            .36:   RESISTIVITY MUD CAKE
 MCST.F                70:   MUD CAKE SAMPLE TEMPERATURE
 MFSS.               MEAS:   MUD FILTRATE SAMPLE SOURCE
 RMB .OHMM            .22:   RESISTIVITY MUD AT BHT
 BHT .F                80:   BOTTOM HOLE TEMPERATURE
 TCS .HRS               4:   TIME CURCULATED STOPPED
 MRT .F                80:   MAXIMUM RECORDED TEMPERATURE
 LUN .               2958:   LOGGING UNIT NUMBER
 LUL .               CASP:   LOGGING UNIT LOCATION
 ENGI.             MILLER:   RECORDING ENGINEER
 WITN.           MCGINLEY:   WITNESSED BY
 CLNT.            A2DTECH:   CLIENT CODE
 ORIG.      2" & 5" PRINT:   ORIGIN OF DATA
 UWI .       490251060400:   UNIQUE WELL ID
 DICO. A2D Technologies, Inc.:   DIGITIZING COMPANY
~OTHER INFORMATION
~A   DEPT      SPR         SN        ILD       CALD         GRD      CORR       RHOB       DPHI   
# ...
  195.0000   -58.9553     6.5171     6.7547     7.5879    99.0582    -0.0007     2.4291     0.1253
  195.5000   -58.7263     6.6689     6.8800     7.5883   100.5650    -0.0002     2.4260     0.1258
  196.0000   -58.4864     6.8337     7.0075     7.5887   102.0693     0.0004     2.4266     0.1233
  196.5000   -58.6892     7.0180     7.1372     7.5891   103.1155     0.0010     2.4306     0.1200
  197.0000   -59.0141     7.0155     7.2804     7.5895   101.8554     0.0001     2.4341     0.1150
  197.5000   -59.2370     7.0309     7.3972     7.5899   100.2427    -0.0015     2.4392     0.1183
  198.0000   -59.0483     7.0440     7.5258     7.5903    98.6194    -0.0029     2.4348     0.1214
  198.5000   -59.2276     7.0570     7.6566     7.5907    96.9966     0.0037     2.4321     0.1210
  199.0000   -59.5848     7.0697     7.6948     7.5911    95.3279     0.0145     2.4354     0.1210
  199.5000   -59.7765     7.0827     7.5206     7.5915    95.2500     0.0111     2.4334     0.1211
  200.0000   -59.2287     6.9946     7.3902     7.5919    95.6987     0.0139     2.4325     0.1214
  200.5000   -58.8314     6.8256     7.2621     7.5923    94.7305     0.0173     2.4325     0.1246
  201.0000   -59.1138     6.6610     7.1472     7.5927    93.5958     0.0205     2.4310     0.1285
  201.5000   -59.4229     6.4733     7.0509     7.5931    94.2968     0.0227     2.4294     0.1306
  202.0000   -59.7505     6.3212     6.8010     7.5935    95.7056     0.0230     2.4277     0.1306
  202.5000   -59.4660     6.1726     6.4961     7.5939    96.4901     0.0230     2.4262     0.1310
  203.0000   -58.9387     6.0275     6.2605     7.5943    96.0793     0.0230     2.4258     0.1330
  203.5000   -58.8141     5.8859     6.0952     7.5947    95.5154     0.0230     2.4174     0.1365
  204.0000   -59.2174     5.7475     5.9426     7.5951    96.0215     0.0231     2.4079     0.1400
  204.5000   -58.7786     5.7267     5.9426     7.5955    97.2299     0.0261     2.3988     0.1418
  205.0000   -58.4856     5.7274     5.9426     7.5959    98.4292     0.0291     2.4021     0.1398
  205.5000   -58.7491     5.7266     5.9604     7.5963    99.6331     0.0311     2.4058     0.1372
  206.0000   -58.7619     5.7776     5.9883     7.5967   100.8552     0.0286     2.4094     0.1358
  206.5000   -58.5798     5.8397     6.0164     7.5971   101.2535     0.0255     2.4082     0.1354
  207.0000   -58.3130     5.8886     6.0446     7.5975   101.8481     0.0231     2.4058     0.1358
  207.5000   -57.7003     5.9286     6.0730     7.5979   102.0703     0.0303     2.4037     0.1338
  208.0000   -57.0859     5.9681     6.1015     7.5983    99.5272     0.0380     2.4103     0.1294
  208.5000   -56.8661     6.0080     6.1301     7.5987    96.8648     0.0456     2.4177     0.1249
  209.0000   -56.8902     6.0483     6.1589     7.5991    96.3003     0.0533     2.4252     0.1205
  209.5000   -56.9164     6.0889     6.1878     7.5995    96.4131     0.0554     2.4278     0.1174
  210.0000   -56.9435     6.1298     6.2168     7.5999    96.5798     0.0524     2.4364     0.1180
  210.5000   -56.9709     6.1709     6.2705     7.6003    96.6519     0.0493     2.4372     0.1200
  211.0000   -56.9986     6.2123     6.3532     7.6007    96.3517     0.0463     2.4355     0.1214
  211.5000   -57.0240     6.2540     6.4370     7.6011    96.1145     0.0433     2.4337     0.1218
  212.0000   -56.9382     6.3136     6.5219     7.6015    96.6943     0.0406     2.4292     0.1247
  212.5000   -56.2170     6.4057     6.6080     7.6019    98.6841     0.0393     2.4243     0.1275
  213.0000   -56.1144     6.4992     6.6951     7.6023    98.6784     0.0402     2.4193     0.1304
  213.5000   -56.3152     6.5940     6.7834     7.6027    95.8525     0.0412     2.4143     0.1330
  214.0000   -56.4572     6.6385     6.8729     7.6029    92.6652     0.0422     2.4162     0.1295
  214.5000   -56.2216     6.7001     6.9660     7.6029    89.4892     0.0432     2.4218     0.1270
  215.0000   -55.9151     6.8438     7.0775     7.6027    86.8986     0.0442     2.4266     0.1200
  215.5000   -55.6063     7.0026     7.1908     7.6122    87.5181     0.0452     2.4261     0.1120
  216.0000   -55.4673     7.1152     7.3059     7.6263    88.4108     0.0408     2.4375     0.1086
  216.5000   -55.5131     7.2248     7.4228     7.6404    88.7380     0.0356     2.4517     0.1170
  217.0000   -55.5573     7.3361     7.5418     7.6424    87.9235     0.0304     2.4504     0.1156
  217.5000   -55.6028     7.4847     7.5736     7.6413    83.1070     0.0292     2.4464     0.1191
  218.0000   -55.6467     7.4207     7.5947     7.6402    77.8607     0.0360     2.4342     0.1241
  218.5000   -55.5850     7.2909     7.6263     7.6390    74.7617     0.0431     2.4211     0.1294
  219.0000   -55.5115     7.1635     7.2786     7.6378    75.4352     0.0470     2.4207     0.1287
  219.5000   -55.4945     7.0753     7.2815     7.6367    78.0657     0.0491     2.4225     0.1258
  220.0000   -55.6472     7.0522     7.2794     7.6355    82.4818     0.0534     2.4245     0.1213
  220.5000   -55.4813     7.0165     7.2801     7.6344    86.9527     0.0575     2.4337     0.1148
  221.0000   -54.7106     7.0720     7.3562     7.6333    91.4380     0.0589     2.4440     0.1107
  221.5000   -54.6221     7.1966     7.4746     7.6321    95.8786     0.0572     2.4504     0.1124
  222.0000   -54.8633     7.3235     7.5947     7.6309    99.9658     0.0551     2.4459     0.1102
  222.5000   -55.0606     7.4530     7.7171     7.6298    99.8581     0.0529     2.4487     0.1082
  223.0000   -55.0670     7.5546     7.8382     7.6287    96.1418     0.0513     2.4555     0.1101
  223.5000   -54.7270     7.4277     7.9465     7.6275    89.3505     0.0584     2.4497     0.1136
  224.0000   -54.3302     7.3060     8.1139     7.6264    82.5220     0.0657     2.4439     0.1179
  224.5000   -54.2933     7.1861     7.9976     7.6252    79.2234     0.0670     2.4383     0.1201
  225.0000   -54.3324     7.0682     7.7901     7.6241    81.3650     0.0673     2.4326     0.1178
  225.5000   -54.3745     6.9522     7.3222     7.6229    88.0084     0.0687     2.4359     0.1140
  226.0000   -54.4163     6.6391     7.0908     7.6220    94.4731     0.0682     2.4430     0.1109
  226.5000   -54.4568     6.5667     6.8661     7.6212    98.0702     0.0600     2.4468     0.1150
  227.0000   -54.4585     6.4948     6.6473     7.6203    98.0813     0.0521     2.4422     0.1194
  227.5000   -54.4580     6.4237     6.4356     7.6195    99.9241     0.0469     2.4377     0.1185
  228.0000   -54.4368     6.3536     6.2232     7.6187   102.0460     0.0467     2.4358     0.1195
  228.5000   -54.3045     6.2812     6.1877     7.6178   103.2768     0.0458     2.4358     0.1218
  229.0000   -54.1721     6.2547     6.1250     7.6170   102.4713     0.0448     2.4303     0.1238
  229.5000   -54.0545     6.2270     6.0888     7.6161   100.9605     0.0437     2.4262     0.1228
  230.0000   -54.2371     6.1995     6.0615     7.6153   100.0351     0.0425     2.4321     0.1217
  230.5000   -54.4735     6.1722     6.0343     7.6144    97.9518     0.0414     2.4241     0.1210
  231.0000   -54.7111     6.1451     6.0072     7.6136    95.8535     0.0402     2.4279     0.1231
  231.5000   -54.9490     6.1181     5.9803     7.6128    93.7489     0.0390     2.4306     0.1263
  232.0000   -55.1945     6.0911     5.9535     7.6119    92.9307     0.0379     2.4225     0.1283
  232.5000   -55.1879     6.0643     5.9268     7.6111    93.9315     0.0370     2.4163     0.1303
  233.0000   -55.1037     6.0376     5.9002     7.6102    96.6299     0.0378     2.4172     0.1314
  233.5000   -55.1440     6.0111     5.8737     7.6094    99.1030     0.0390     2.4181     0.1304
  234.0000   -55.4827     5.9975     5.8474     7.6085    99.3786     0.0401     2.4191     0.1302
  234.5000   -55.6521     5.9977     5.8340     7.6077    99.8997     0.0413     2.4202     0.1302
  235.0000   -55.6542     5.9977     5.8340     7.6068   101.5088     0.0425     2.4183     0.1306
