~VERSION INFORMATION
 VERS.                2.0:   CWLS LOG ASCII STANDARD - VERSION 2.0
 WRAP.                 NO:   ONE LINE PER DEPTH STEP
~WELL INFORMATION
#MNEM.UNIT      DATA TYPE    INFORMATION
#----------   ------------   ------------------------------
 STRT.F           14.0000:   START DEPTH
 STOP.F          623.5000:   STOP DEPTH
 STEP.F            0.5000:   STEP LENGTH
 NULL.          -999.2500:   NO VALUE
 COMP. LAWRENCE/ALLISON INC:   COMPANY
 WELL.   23-61 STX #10-10:   WELL
 FLD .             TEAPOT:   FIELD
 LOC .      S10 T38N R78W:   LOCATION
 CNTY.            NATRONA:   COUNTY
 STAT.            WYOMING:   STATE
 CTRY. UNITED STATES OF AMERICA:   COUNTRY
 SRVC.           Gearhart:   SERVICE COMPANY
 DATE.        02-JUL-1986:   LOGDATE
 API .       490251107700:   API NUMBER
~CURVE INFORMATION
#MNEM.UNIT       API CODE    CURVE DESCRIPTION
#----------   ------------   ------------------------------
 DEPT.F                  :   
 GRR .GAPI   07 310 01 00:   GAMMA RAY FROM RES. LOG
 RILD.OHMM   07 120 46 00:   INDUCTION LOG DEEP RESISTIVITY
 RILM.OHMM   07 120 44 00:   INDUCTION LOG MEDIUM
~PARAMETER INFORMATION
#MNEM.UNIT          VALUE    DESCRIPTION
#----------   ------------   ------------------------------
 PD  .                 GL:   PERMANENT DATUM
 EPD .F              5251:   ELEVATION PERMANENT DATUM
 LMF .                 KB:   LOG MEASURED FROM
 DAPD.F                 5:   FEET ABOVE PERMANENT DATUM
 DMF .                 KB:   DRILLING MEASURED FROM
 EKB .F              5256:   KELLING BUSHING
 EGL .F              5251:   GROUND LEVEL
 DATE.             7-2-86:   RUN DATE
 RUN .                  1:   RUN NUMBER
 DD  .F               648:   DEPTH DRILLER
 DL  .F               633:   DEPTH LOGGER
 BLI .F               623:   BOTTOM LOG INTERVAL
 TLI .F                15:   TOP LOG INTERVAL
 CS  .IN            8.625:   CASING SIZE
 CBD .F                47:   CASING BOTTOM DRILLER
 CBL .F                47:   CASING BOTTOM LOGGER
 BS  .IN            7.875:   BIT SIZE
 BSD .F               648:   BIT SIZE AT DEPTH
 DFT .               FOAM:   DRILLING FLUID TYPE
 BHT .F                82:   BOTTOM HOLE TEMPERATURE
 TCS .HRS            0930:   TIME CURCULATED STOPPED
 TLAB.HRS            1240:   TIME LOGGER AT BOTTOM
 MRT .F                82:   MAXIMUM RECORDED TEMPERATURE
 LUN .               7609:   LOGGING UNIT NUMBER
 LUL .           GILLETTE:   LOGGING UNIT LOCATION
 ENGI.              BAUER:   RECORDING ENGINEER
 WITN.           JENNINGS:   WITNESSED BY
 CLNT.            A2DTECH:   CLIENT CODE
 ORIG.       2", 5" PRINT:   ORIGIN OF DATA
 UWI .       490251107700:   UNIQUE WELL ID
 DICO. A2D Technologies, Inc.:   DIGITIZING COMPANY
~OTHER INFORMATION
~A   DEPT       GRR      RILD       RILM   
# ...
  196.0000   122.8316     9.4393     9.1032
  196.5000   123.3712     9.4131     9.0698
  197.0000   117.7726     9.3894     9.0501
  197.5000   112.6805     9.3658     9.0305
  198.0000   109.2978     9.3423     9.0109
  198.5000   108.1375     9.3189     8.9913
  199.0000   109.4095     9.2955     8.9718
  199.5000   110.5539     9.2722     8.9523
  200.0000   113.6480     9.2489     8.9329
  200.5000   116.8797     9.2257     8.9135
  201.0000   118.4690     9.2025     8.8941
  201.5000   115.8261     9.1795     8.8748
  202.0000   112.5559     9.1564     8.8555
  202.5000   112.6875     9.1334     8.8363
  203.0000   114.1254     9.1105     8.8171
  203.5000   114.8059     9.0877     8.7979
  204.0000   114.7340     9.0649     8.7785
  204.5000   118.2850     9.0421     8.7596
  205.0000   122.1272     9.0194     8.6848
  205.5000   125.9096     8.9986     8.5509
  206.0000   128.7956     8.9985     8.4290
  206.5000   124.2327     8.9986     8.4947
  207.0000   118.1323     8.9986     8.5877
  207.5000   111.9120     8.9985     8.5576
  208.0000   105.4441     8.9983     8.5289
  208.5000   103.6102     8.9994     8.5081
  209.0000   106.6920     8.9986     8.6986
  209.5000   109.7106     9.1206     8.8090
  210.0000   112.6975     9.2183     8.8997
  210.5000   115.6872     9.3171     8.9908
  211.0000   118.6691     9.4169     9.0829
  211.5000   121.4281     9.5177     9.1761
  212.0000   121.3474     9.6198     9.2702
  212.5000   120.7641     9.7034     9.3472
  213.0000   118.2043     9.7284     9.3715
  213.5000   113.8583     9.7535     9.3958
  214.0000   109.3947     9.7788     9.4201
  214.5000   108.4836     9.7878     9.4288
  215.0000   111.0927     9.6341     9.2808
  215.5000   113.7863     9.5290     9.1796
  216.0000   113.9348     9.4251     9.0794
  216.5000   113.2792     9.3223     8.9804
  217.0000   114.4004     9.2208     8.8825
  217.5000   116.7834     9.1196     8.7856
  218.0000   118.9778     8.9865     8.6554
  218.5000   118.8619     8.8336     8.5072
  219.0000   116.9836     8.6839     8.3616
  219.5000   117.8724     8.5367     8.2185
  220.0000   119.9392     8.3921     8.0778
  220.5000   122.0424     8.1961     7.9700
  221.0000   122.1876     8.2186     8.0288
  221.5000   122.8037     8.2551     8.0777
  222.0000   124.0770     8.2919     8.1271
  222.5000   121.8029     8.3287     8.1766
  223.0000   116.9860     8.3985     8.2265
  223.5000   112.0182     8.5168     8.2767
  224.0000   112.0068     8.6367     8.3272
  224.5000   114.4196     8.7583     8.3781
  225.0000   116.8795     8.8651     8.4290
  225.5000   117.9839     8.9481     8.4290
  226.0000   116.4252     9.0319     8.4737
  226.5000   114.8757     9.1165     8.5872
  227.0000   113.2863     9.1683     8.7020
  227.5000   113.5018     9.0830     8.7615
  228.0000   113.8417     9.0977     8.7795
  228.5000   113.5559     9.1227     8.7982
  229.0000   112.6378     9.1477     8.8167
  229.5000   112.1159     9.1679     8.8314
  230.0000   115.0394     9.1526     8.8168
  230.5000   117.7324     9.1392     8.8040
  231.0000   116.5874     9.1259     8.7912
  231.5000   114.3762     9.1126     8.7784
  232.0000   112.5359     9.0993     8.7657
  232.5000   111.5778     9.0831     8.7505
  233.0000   110.6330     9.1281     8.7656
  233.5000   110.3873     9.1869     8.7862
  234.0000   113.9140     9.2462     8.8067
  234.5000   119.2391     9.3058     8.8271
  235.0000   122.5302     9.3659     8.9247
  235.5000   123.4781     9.4288     9.0479
  236.0000   121.1458     9.5347     9.1728
  236.5000   115.4540     9.7024     9.3275
  237.0000   109.9923     9.9773     9.5368
  237.5000   104.8085    10.2621     9.7508
  238.0000   106.2843    10.5132     9.9690
  238.5000   107.6381    10.7049    10.2017
  239.0000   106.3533    10.8986    10.4821
  239.5000   105.6393    11.2859    10.7710
  240.0000   106.3315    11.7563    11.2285
  240.5000   103.8251    12.2422    11.7610
  241.0000    99.2608    12.7106    12.2450
  241.5000    93.9908    13.1458    12.6637
  242.0000    88.6561    13.5996    13.1005
  242.5000    86.1579    14.0667    13.5522
  243.0000    90.0065    14.5190    14.0897
  243.5000    95.0602    14.7633    14.0378
  244.0000   100.3247    14.7633    13.9400
  244.5000   100.4232    14.5054    13.8429
  245.0000    99.4464    14.3148    13.7473
  245.5000    99.2561    14.0913    13.5613
  246.0000    99.9958    13.8459    13.2981
  246.5000   103.4043    13.6039    13.0394
  247.0000   105.8947    13.3660    12.7860
  247.5000   107.9990    13.1324    12.6467
  248.0000   105.3689    12.9028    12.5164
  248.5000   102.3510    12.6772    12.3874
  249.0000    99.2834    12.3656    12.2475
  249.5000    97.2094    12.3290    12.1856
  250.0000    98.6520    12.2963    12.1173
  250.5000   100.9370    12.2621    12.0496
  251.0000   102.1256    12.2278    11.9821
  251.5000    99.8504    12.1935    11.9151
  252.0000    97.7101    12.1594    11.8484
  252.5000    95.4442    12.1253    11.7821
  253.0000    96.4606    12.0913    11.7162
  253.5000    96.4943    12.0575    11.6503
  254.0000    94.7196    12.0208    11.5809
  254.5000    92.9590    11.9101    11.4733
  255.0000    94.6841    11.7574    11.3262
  255.5000    99.0971    11.6066    11.1809
  256.0000   103.4964    11.4576    11.0374
  256.5000   107.7908    11.3099    10.8951
  257.0000   115.0062    11.1553    10.7474
  257.5000   128.5777    11.0634    10.6637
  258.0000   157.6840    10.9386    10.5516
  258.5000   186.9217    10.8152    10.4407
  259.0000   177.2038    10.6932    10.3310
  259.5000   156.6617    10.5726    10.2224
  260.0000   134.6845    10.4533    10.1149
  260.5000   111.8733    10.3520    10.0660
  261.0000   106.5410    10.3195    10.0660
  261.5000   107.1405    10.2850    10.0216
  262.0000   107.9818    10.2507     9.9748
  262.5000   104.4273    10.2165     9.9282
  263.0000   100.5563    10.1824     9.8819
  263.5000    97.1029    10.1484     9.8357
  264.0000    96.6235    10.1146     9.7898
  264.5000    96.7264    10.0808     9.7441
  265.0000    96.8599    10.0472     9.6986
  265.5000    96.9699    10.0136     9.6533
  266.0000    97.8648     9.9802     9.6082
  266.5000    99.7018     9.9469     9.5633
  267.0000   101.5205     9.9137     9.5173
  267.5000   103.3605     9.8806     9.4866
  268.0000   104.1005     9.8477     9.4549
  268.5000   102.1171     9.8148     9.4234
  269.0000   100.1662     9.7712     9.3920
  269.5000    98.2067     9.6751     9.3603
  270.0000    96.2510     9.5802     9.3202
  270.5000    94.4173     9.4863     9.2047
  271.0000    95.8345     9.3446     9.0905
  271.5000    98.0488     9.1288     8.9547
  272.0000   101.1308     8.9175     8.7178
  272.5000   104.3007     8.7112     8.4878
  273.0000   104.8621     8.5097     8.2637
  273.5000   104.0459     8.3129     8.0457
  274.0000   103.5805     8.1206     7.8334
  274.5000   104.1457     8.0444     7.7494
  275.0000   104.6759     8.0878     7.7912
  275.5000   105.2051     8.1316     7.8334
  276.0000   105.7449     8.1757     7.8758
  276.5000   105.1160     8.2199     7.9185
  277.0000   103.5510     8.2644     7.9613
  277.5000   102.0131     8.3328     8.0201
  278.0000   100.6363     8.4074     8.0828
  278.5000   102.2497     8.4827     8.1461
  279.0000   106.2601     8.5587     8.2099
  279.5000   108.8644     8.6194     8.2742
  280.0000   107.4398     8.6954     8.3390
  280.5000   106.1467     8.7721     8.4312
  281.0000   105.9292     8.8488     8.5243
  281.5000   107.6690     8.9245     8.5971
  282.0000   109.2801     9.0007     8.6706
  282.5000   106.0632     9.0776     8.7447
  283.0000   102.6491     9.1552     8.8194
  283.5000   100.0540     9.2334     8.8948
  284.0000   103.6923     9.3123     8.9708
  284.5000   107.7042     9.3412     8.9986
  285.0000   107.0605     9.2632     8.9233
  285.5000   103.7789     9.2090     8.8712
  286.0000   101.2812     9.1551     8.8195
  286.5000   104.7540     9.1017     8.7680
