~VERSION INFORMATION
 VERS.                2.0:   CWLS LOG ASCII STANDARD - VERSION 2.0
 WRAP.                 NO:   ONE LINE PER DEPTH STEP
~WELL INFORMATION
#MNEM.UNIT      DATA TYPE    INFORMATION
#----------   ------------   ------------------------------
 STRT.F           90.0000:   START DEPTH
 STOP.F          799.0000:   STOP DEPTH
 STEP.F            0.5000:   STEP LENGTH
 NULL.          -999.2500:   NO VALUE
 COMP. U S NAVY-INTEX OIL:   COMPANY
 WELL. RES 3 TEAPOT DOM #83S-34:   WELL
 FLD .             TEAPOT:   FIELD
 LOC .      S34 T39N R78W:   LOCATION
 CNTY.            NATRONA:   COUNTY
 STAT.            WYOMING:   STATE
 CTRY. UNITED STATES OF AMERICA:   COUNTRY
 SRVC.       Schlumberger:   SERVICE COMPANY
 DATE.        15-FEB-1961:   LOGDATE
 API .       490250655100:   API NUMBER
~CURVE INFORMATION
#MNEM.UNIT       API CODE    CURVE DESCRIPTION
#----------   ------------   ------------------------------
 DEPT.F                  :   
 ASN .OHMM   05 041 16 00:   AMPLIFIED SHORT NORMAL 16"
 ILD .OHMM   05 120 46 00:   INDUCTION LOG DEEP RESISTIVITY.
 CILD.MMHO   05 110 46 00:   CONDUCTIVITY INDUCTION LOG DEEP
 SPR .MV     05 010 01 00:   SPONTANEOUS POTENTIAL FROM RES.
 GR  .GAPI   30 310 01 00:   GAMMA RAY
~PARAMETER INFORMATION
#MNEM.UNIT          VALUE    DESCRIPTION
#----------   ------------   ------------------------------
 PD  .                 GL:   PERMANENT DATUM
 EPD .F              5090:   ELEVATION PERMANENT DATUM
 LMF .                 KB:   LOG MEASURED FROM
 DAPD.F                 4:   FEET ABOVE PERMANENT DATUM
 DMF .                 KB:   DRILLING MEASURED FROM
 EKB .F              5094:   KELLING BUSHING
 EGL .F              5090:   GROUND LEVEL
 DATE.        15-FEB-1961:   RUN DATE
 RUN .                  1:   RUN NUMBER
 DD  .F               800:   DEPTH DRILLER
 DL  .F               800:   DEPTH LOGGER
 BLI .F               799:   BOTTOM LOG INTERVAL
 TLI .F               100:   TOP LOG INTERVAL
 CBD .F                12:   CASING BOTTOM DRILLER
 BS  .IN            7.875:   BIT SIZE
 BSD .F               800:   BIT SIZE AT DEPTH
 DFT .       OIL EMULSION:   DRILLING FLUID TYPE
 DFD .                9.5:   DRILLING FLUID DENSITY
 DFV .                 50:   DRILLING FLUID VISCOSITY
 RMS .OHMM           1.25:   RESISTIVITY MUD SAMPLE
 MST .F                57:   MUD SAMPLE TEMPERATURE
 RMB .OHMM           0.98:   RESISTIVITY MUD AT BHT
 BHT .F                73:   BOTTOM HOLE TEMPERATURE
 TCS .HRS               1:   TIME CURCULATED STOPPED
 LUN .               2572:   LOGGING UNIT NUMBER
 LUL .                 NC:   LOGGING UNIT LOCATION
 ENGI.            EARNEST:   RECORDING ENGINEER
 WITN.          JORGENSEN:   WITNESSED BY
 CLNT.            A2DTECH:   CLIENT CODE
 ORIG.       2" ,5" PRINT:   ORIGIN OF DATA
 UWI .       490250655100:   UNIQUE WELL ID
 DICO. A2D Technologies, Inc.:   DIGITIZING COMPANY
~OTHER INFORMATION
~A   DEPT        ASN        ILD      CILD       SPR         GR   
# ...
  151.0000     5.0075     3.5299   251.8614   -57.2256  -999.2500
  151.5000     5.3585     3.8039   232.0295   -57.0738  -999.2500
  152.0000     5.6428     4.0351   221.7417   -57.0703  -999.2500
  152.5000     5.7014     4.1968   212.8378   -56.7693  -999.2500
  153.0000     5.7315     4.2568   209.9800   -56.7681  -999.2500
  153.5000     5.7638     4.1731   214.7398   -56.7631  -999.2500
  154.0000     5.8220     4.0718   218.7087   -56.6142  -999.2500
  154.5000     5.8522     3.8814   220.8572   -56.6677  -999.2500
  155.0000     5.8673     3.7186   223.1732   -56.7721  -999.2500
  155.5000     5.8220     3.6368   224.9700   -57.2121  -999.2500
  156.0000     5.7645     3.5060   228.4092   -57.2671  -999.2500
  156.5000     5.6784     3.3853   233.2082   -57.5171  -999.2500
  157.0000     5.5656     3.3348   238.7087   -57.6596  -999.2500
  157.5000     5.4319     3.2060   247.9733   -57.8665  -999.2500
  158.0000     5.2121     3.1586   261.0209   -57.9659  -999.2500
  158.5000     4.9774     3.1082   274.3317   -58.2573  -999.2500
  159.0000     4.7793     3.0565   287.6425   -58.3153  -999.2500
  159.5000     4.4905     3.0569   300.9534   -58.4147  -999.2500
  160.0000     4.1931     3.0572   310.6606   -58.5542  -999.2500
  160.5000     4.0383     3.0582   308.2882   -58.6135  -999.2500
  161.0000     3.9367     3.2087   297.6297   -58.7826  -999.2500
  161.5000     4.0422     3.3112   289.5645   -58.8509  -999.2500
  162.0000     4.2019     3.5156   275.7152   -58.9117  -999.2500
  162.5000     4.4721     3.7369   246.6231   -58.9986  -999.2500
  163.0000     4.7813     4.0208   232.9427   -59.1474  -999.2500
  163.5000     5.1682     4.2735   221.3864   -59.1673  -999.2500
  164.0000     5.5578     4.5663   212.8838   -59.2497  -999.2500
  164.5000     5.9125     4.6727   206.5316   -59.3512  -999.2500
  165.0000     6.0905     4.8745   200.8508   -59.4428  -999.2500
  165.5000     6.1980     5.0193   198.3569   -59.4413  -999.2500
  166.0000     6.2594     5.0196   197.8293   -59.5902  -999.2500
  166.5000     6.2945     4.9365   197.3016   -59.5889  -999.2500
  167.0000     6.3400     4.7192   199.4895   -59.5873  -999.2500
  167.5000     6.3341     4.5752   204.8299   -59.5856  -999.2500
  168.0000     6.2293     4.3133   212.2547   -59.6938  -999.2500
  168.5000     6.0249     3.9673   218.6037   -59.7335  -999.2500
  169.0000     5.6929     3.7442   227.7877   -59.7319  -999.2500
  169.5000     5.3394     3.5162   239.3263   -59.7304  -999.2500
  170.0000     5.1403     3.5166   245.9460   -59.7289  -999.2500
  170.5000     4.9391     3.4416   253.7888   -59.7272  -999.2500
  171.0000     4.7059     3.4420   264.8963   -59.5753  -999.2500
  171.5000     4.6089     3.5177   271.3513   -59.5522  -999.2500
  172.0000     4.6186     3.5181   273.9339   -59.4215  -999.2500
  172.5000     4.7210     3.6094   273.9498   -59.2746  -999.2500
  173.0000     4.8682     3.6695   269.5096   -59.1175  -999.2500
  173.5000     5.0240     3.8204   262.4425   -59.1158  -999.2500
  174.0000     5.2790     3.9890   254.4748   -58.9639  -999.2500
  174.5000     5.4967     4.1224   241.6869   -58.9378  -999.2500
  175.0000     5.6561     4.2106   225.4757   -58.8101  -999.2500
  175.5000     5.8220     4.3685   216.9520   -58.7708  -999.2500
  176.0000     5.9439     4.5753   213.9966   -58.6566  -999.2500
  176.5000     6.0089     4.3793   214.5996   -58.6550  -999.2500
  177.0000     6.0483     4.2322   217.1472   -58.8042  -999.2500
  177.5000     6.0083     4.0493   220.0471   -58.8027  -999.2500
  178.0000     5.9258     3.8790   223.3333   -58.8011  -999.2500
  178.5000     5.8008     3.8010   226.5015   -58.8785  -999.2500
  179.0000     5.6759     3.7492   231.3529   -58.9490  -999.2500
  179.5000     5.5509     3.6743   235.1602   -58.7966  -999.2500
  180.0000     5.4248     3.5743   241.1412   -58.7952  -999.2500
  180.5000     5.2640     3.5238   250.1662   -58.7937  -999.2500
  181.0000     5.1116     3.3743   259.3093   -58.6415  -999.2500
  181.5000     4.9505     3.3476   269.3843   -58.5582  -999.2500
  182.0000     4.7964     3.2219   275.7362   -58.4880  -999.2500
  182.5000     4.6471     3.1495   279.1541   -58.4863  -999.2500
  183.0000     4.5353     3.0745   284.7448   -58.4849  -999.2500
  183.5000     4.4191     3.0705   289.3043   -58.3328  -999.2500
  184.0000     4.2836     3.0000   292.3150   -58.1806  -999.2500
  184.5000     4.2329     3.0004   293.3633   -58.1792  -999.2500
  185.0000     4.2232     3.0070   294.6447   -58.1777  -999.2500
  185.5000     4.2534     3.0765   296.8640   -58.0255  -999.2500
  186.0000     4.2952     3.0015   299.0391   -57.9377  -999.2500
  186.5000     4.3137     2.9266   301.7768   -57.8720  -999.2500
  187.0000     4.1931     2.8517   307.4191   -57.8704  -999.2500
  187.5000     4.0799     2.7767   319.0691   -57.8690  -999.2500
  188.0000     3.9296     2.6265   336.5768   -57.8675  -999.2500
  188.5000     3.7707     2.4763   354.0101   -57.8659  -999.2500
  189.0000     3.6398     2.4403   366.1563   -57.8645  -999.2500
  189.5000     3.5238     2.3264   381.7766   -57.8630  -999.2500
  190.0000     3.4389     2.3268   394.5952   -57.8614  -999.2500
  190.5000     3.3498     2.3272   391.2463   -57.8599  -999.2500
  191.0000     3.2533     2.3276   382.2722   -57.8584  -999.2500
  191.5000     3.2127     2.3280   371.3664   -57.8569  -999.2500
  192.0000     3.3267     2.4086   348.1110   -57.8554  -999.2500
  192.5000     3.5158     2.5107   333.3586   -57.8539  -999.2500
  193.0000     3.6953     2.7056   323.9139   -57.8524  -999.2500
  193.5000     3.9988     2.8653   317.3747   -57.8509  -999.2500
  194.0000     4.4493     2.9674   312.4624   -57.8494  -999.2500
  194.5000     4.7813     3.0832   302.2872   -57.8479  -999.2500
  195.0000     4.8738     3.2028   289.6414   -57.8464  -999.2500
  195.5000     4.9020     3.3293   279.9950   -57.6943  -999.2500
  196.0000     4.8869     3.3856   264.4442   -57.6927  -999.2500
  196.5000     4.8869     3.3859   257.7327   -57.5407  -999.2500
  197.0000     4.8526     3.2144   265.1352   -57.4448  -999.2500
  197.5000     4.8265     3.0855   273.0981   -57.2364  -999.2500
  198.0000     4.7680     2.9905   282.9737   -57.2349  -999.2500
  198.5000     4.6876     2.9124   292.4774   -57.1847  -999.2500
  199.0000     4.5551     2.7854   298.1482   -57.0813  -999.2500
  199.5000     4.4249     2.7858   303.2885   -57.0798  -999.2500
  200.0000     4.2768     2.7108   308.4627   -57.0725  -999.2500
  200.5000     4.1670     2.7418   312.0340   -57.0421  -999.2500
  201.0000     4.0572     2.7676   315.6053   -57.0116  -999.2500
  201.5000     3.9474     2.7884   319.1766   -56.9811  -999.2500
  202.0000     3.8612     2.7892   323.5264   -56.9507  -999.2500
  202.5000     3.8311     2.7901   324.2117   -56.9202  -999.2500
  203.0000     3.8914     2.8918   319.5496   -56.9187  -999.2500
  203.5000     3.9538     3.0935   304.7240   -56.9172  -999.2500
  204.0000     4.0471     3.2441   294.8749   -56.9157  -999.2500
  204.5000     4.2232     3.4216   281.9107   -56.8138  -999.2500
  205.0000     4.4887     3.5479   268.6542   -56.7620  -999.2500
  205.5000     5.1592     3.6982   258.2220   -56.6099  -999.2500
  206.0000     5.7315     3.8494   246.4565   -56.6084  -999.2500
  206.5000     5.8814     4.0040   234.0860   -56.6069  -999.2500
  207.0000     6.0388     4.2275   224.2918   -56.6054  -999.2500
  207.5000     6.1689     4.3574   211.6742   -56.6039  -999.2500
  208.0000     6.2709     4.6074   199.5178   -56.6024  -999.2500
  208.5000     6.4054     4.8322   194.8123   -56.4503  -999.2500
  209.0000     6.6365     5.0108   190.3529   -56.4488  -999.2500
  209.5000     6.9093     5.2125   185.9706   -56.3971  -999.2500
  210.0000     7.1334     5.3616   181.6567   -56.2952  -999.2500
  210.5000     7.3575     5.5128   177.3762   -56.1933  -999.2500
  211.0000     7.5816     5.5916   172.4234   -55.9910  -999.2500
  211.5000     7.8058     5.8156   168.7375   -55.9895  -999.2500
