~VERSION INFORMATION
 VERS.                2.0:   CWLS LOG ASCII STANDARD - VERSION 2.0
 WRAP.                 NO:   ONE LINE PER DEPTH STEP
~WELL INFORMATION
#MNEM.UNIT      DATA TYPE    INFORMATION
#----------   ------------   ------------------------------
 STRT.F           66.0000:   START DEPTH
 STOP.F          814.0000:   STOP DEPTH
 STEP.F            0.5000:   STEP LENGTH
 NULL.          -999.2500:   NO VALUE
 COMP.   FLUOR DANIEL INC:   COMPANY
 WELL. NAVAL PETROLEUM RESERVE 3 SX-2 #32-11-2:   WELL
 FLD .        N.P.R NO. 3:   FIELD
 LOC .       S2 T38N R78W:   LOCATION
 CNTY.            NATRONA:   COUNTY
 STAT.            WYOMING:   STATE
 CTRY. UNITED STATES OF AMERICA:   COUNTRY
 SRVC.      Dresser Atlas:   SERVICE COMPANY
 DATE.        15-AUG-1985:   LOGDATE
 API .       490251104000:   API NUMBER
~CURVE INFORMATION
#MNEM.UNIT       API CODE    CURVE DESCRIPTION
#----------   ------------   ------------------------------
 DEPT.F                  :   
 SPR .MV     07 010 01 00:   SPONTANEOUS POTENTIAL
 RILD.OHMM   07 120 46 00:   INDUCTION LOG DEEP RESISTIVITY
 RILM.OHMM   07 120 44 00:   INDUCTION LOG MEDIUM RESISTIVITY
 RFOC.OHMM   07 220 04 00:   RESISTIVITY FOCUSED LOG
 PORD.DEC    45 890 12 00:   POROSITY DENSITY SANDSTONE
 CNC .DEC    42 890 03 00:   NEUTRON POROSITY SANDSTONE
 GRD .GAPI   45 310 01 00:   GAMMA RAY FROM DENSITY LOG
 CALD.IN     45 280 60 00:   CALIPER FROM DENSITY LOG
 CORR.G/C3   45 356 01 00:   DENSITY CORRECTION
 DEN .G/C3   45 350 01 00:   COMPENSATED BULK DENSTIY
~PARAMETER INFORMATION
#MNEM.UNIT          VALUE    DESCRIPTION
#----------   ------------   ------------------------------
 PD  .                 GL:   PERMANENT DATUM
 EPD .F              5113:   ELEVATION PERMANENT DATUM
 LMF .                 GL:   LOG MEASURED FROM
 DMF .                 GL:   DRILLING MEASURED FROM
 EGL .F              5113:   GROUND LEVEL
 DATE.            8-15-85:   RUN DATE
 RUN .                  1:   RUN NUMBER
 DD  .F               817:   DEPTH DRILLER
 DL  .F               817:   DEPTH LOGGER
 BLI .F               814:   BOTTOM LOG INTERVAL
 CS  .IN            8.625:   CASING SIZE
 CBD .F                79:   CASING BOTTOM DRILLER
 CBL .F                79:   CASING BOTTOM LOGGER
 BS  .IN            7.875:   BIT SIZE
 BSD .F               817:   BIT SIZE AT DEPTH
 DFT .          KCL WATER:   DRILLING FLUID TYPE
 MSS .               TANK:   MUD SAMPLE SOURCE
 RMS .OHMM            .25:   RESISTIVITY MUD SAMPLE
 MST .F                70:   MUD SAMPLE TEMPERATURE
 BHT .F               100:   BOTTOM HOLE TEMPERATURE
 TCS .HRS               2:   TIME CURCULATED STOPPED
 MRT .F               100:   MAXIMUM RECORDED TEMPERATURE
 LUN .            HL-6274:   LOGGING UNIT NUMBER
 LUL .           GILLETTE:   LOGGING UNIT LOCATION
 ENGI.             RAUTIO:   RECORDING ENGINEER
 WITN.           JENNINGS:   WITNESSED BY
 CLNT.            A2DTECH:   CLIENT CODE
 ORIG.       2", 5" PRINT:   ORIGIN OF DATA
 UWI .       490251104000:   UNIQUE WELL ID
 DICO. A2D Technologies, Inc.:   DIGITIZING COMPANY
~OTHER INFORMATION
~A   DEPT      SPR       RILD       RILM       RFOC       PORD        CNC        GRD       CALD       CORR        DEN   
   66.0000  -999.2500  -999.2500  -999.2500  -999.2500  -999.2500  -999.2500  -999.2500  -999.2500  -999.2500  -999.2500
   66.5000  -999.2500  -999.2500  -999.2500  -999.2500  -999.2500     0.4231    63.7696  -999.2500  -999.2500  -999.2500
   67.0000  -999.2500  -999.2500  -999.2500  -999.2500  -999.2500     0.4335    63.1510  -999.2500  -999.2500  -999.2500
   67.5000  -999.2500  -999.2500  -999.2500  -999.2500  -999.2500     0.4474    62.5359  -999.2500  -999.2500  -999.2500
   68.0000  -999.2500  -999.2500  -999.2500  -999.2500  -999.2500     0.4510    62.5215  -999.2500  -999.2500  -999.2500
   68.5000  -999.2500  -999.2500  -999.2500  -999.2500  -999.2500     0.4441    62.8073  -999.2500  -999.2500  -999.2500
   69.0000  -999.2500  -999.2500  -999.2500  -999.2500  -999.2500     0.4459    63.0932  -999.2500  -999.2500  -999.2500
   69.5000  -999.2500  -999.2500  -999.2500  -999.2500  -999.2500     0.4471    63.6793  -999.2500  -999.2500  -999.2500
   70.0000  -999.2500  -999.2500  -999.2500  -999.2500  -999.2500     0.4438    63.6613  -999.2500  -999.2500  -999.2500
   70.5000  -999.2500  -999.2500  -999.2500  -999.2500  -999.2500     0.4332    62.4456  -999.2500  -999.2500  -999.2500
   71.0000  -999.2500  -999.2500  -999.2500  -999.2500  -999.2500     0.4257    59.7284  -999.2500  -999.2500  -999.2500
   71.5000  -999.2500  -999.2500  -999.2500  -999.2500  -999.2500     0.4365    57.3116  -999.2500  -999.2500  -999.2500
   72.0000  -999.2500  -999.2500  -999.2500  -999.2500  -999.2500     0.4637    55.1950  -999.2500  -999.2500  -999.2500
   72.5000  -999.2500  -999.2500  -999.2500  -999.2500  -999.2500     0.4703    54.8803  -999.2500  -999.2500  -999.2500
   73.0000  -999.2500  -999.2500  -999.2500  -999.2500  -999.2500     0.4221    59.3667  -999.2500  -999.2500  -999.2500
   73.5000  -999.2500  -999.2500  -999.2500  -999.2500  -999.2500     0.4088    60.8574  -999.2500  -999.2500  -999.2500
   74.0000  -999.2500  -999.2500  -999.2500  -999.2500  -999.2500     0.4260    57.5360  -999.2500  -999.2500  -999.2500
   74.5000  -999.2500  -999.2500  -999.2500  -999.2500  -999.2500     0.4420    58.1222  -999.2500  -999.2500  -999.2500
   75.0000  -999.2500  -999.2500  -999.2500  -999.2500  -999.2500     0.4495    60.2098  -999.2500  -999.2500  -999.2500
   75.5000  -999.2500  -999.2500  -999.2500  -999.2500  -999.2500     0.4359    62.3240  -999.2500  -999.2500  -999.2500
   76.0000  -999.2500  -999.2500  -999.2500  -999.2500  -999.2500     0.4112    64.9821  -999.2500  -999.2500  -999.2500
   76.5000  -999.2500  -999.2500  -999.2500  -999.2500  -999.2500     0.3962    66.7694  -999.2500  -999.2500  -999.2500
   77.0000  -999.2500  -999.2500  -999.2500  -999.2500  -999.2500     0.4097    68.2565  -999.2500  -999.2500  -999.2500
   77.5000  -999.2500  -999.2500  -999.2500  -999.2500  -999.2500     0.4272    69.4432  -999.2500  -999.2500  -999.2500
   78.0000  -999.2500  -999.2500  -999.2500  -999.2500  -999.2500     0.4311    68.8282  -999.2500  -999.2500  -999.2500
   78.5000  -999.2500  -999.2500  -999.2500  -999.2500  -999.2500     0.4130    67.9128  -999.2500  -999.2500  -999.2500
   79.0000  -999.2500  -999.2500  2000.0000     0.2000  -999.2500     0.3983    67.5976  -999.2500  -999.2500  -999.2500
   79.5000    55.8980     2.5504  1615.8647     0.2014     0.2951     0.3907    72.0845     8.3199    -0.4667     2.0034
   80.0000    40.1665     3.0573  1231.7295     0.2034     0.1716     0.3751    79.8779     8.3945    -0.1722     2.0890
   80.5000    30.7445    14.0320   361.8081     0.2933     0.1762     0.3594    87.3709     8.4690     0.0208     2.2382
   81.0000    21.5624    16.5857     4.9995     0.7763     0.1868     0.3482    92.7619     8.5737     0.0413     2.3918
   81.5000    15.8153     2.5187     2.3767     1.5454     0.1898     0.3414    96.9516     8.5127     0.0338     2.3761
   82.0000     9.0093     2.1027     2.3118     2.4289     0.1819     0.3365   100.0000     8.4066     0.0249     2.3641
   82.5000     4.3032     5.1247     2.6757     3.2307     0.1726     0.3323   102.9251     8.3606     0.0294     2.3633
   83.0000     0.0873  8758.8789     3.0755     3.9542     0.1644     0.3371   102.3101     8.3599     0.0372     2.3768
   83.5000    -0.2135 10210.7500     3.5843     4.4516     0.1557     0.3341   100.4938     8.3591     0.0400     2.3938
   84.0000    -0.9681  8524.1611     4.2652     4.8069     0.1499     0.3172    96.8757     8.3584     0.0356     2.4092
   84.5000    -2.4791   120.7438     5.0756     5.0835     0.1551     0.3130    95.0595     8.3577     0.0447     2.4219
   85.0000    -4.3179     6.4581     5.4798     5.3764     0.1590     0.3238    94.4445     8.3569     0.0477     2.4235
   85.5000    -7.4675     5.3539     5.2937     5.4915     0.1626     0.3473    95.0767     8.3562     0.0115     2.4130
   86.0000    -9.5837     5.4687     5.2577     5.5317     0.1591     0.3546    96.8143     8.3705    -0.0003     2.4069
   86.5000   -11.6999     5.4331     5.4448     5.5335     0.1575     0.3497    99.2023     8.3696     0.0013     2.4093
   87.0000   -13.6648     5.2127     5.5992     5.5353     0.1680     0.3497    96.7854     8.3237     0.0073     2.4130
   87.5000   -15.1759     4.7305     5.6392     5.4607     0.1740     0.3573    93.7680     8.2627     0.0104     2.4002
   88.0000   -16.8377     4.3531     5.3725     5.3132     0.1734     0.3549    91.9517     8.2469     0.0104     2.3897
   88.5000   -17.8949     4.3566     5.0475     4.9926     0.1731     0.3521    91.3367     8.2311     0.0210     2.3882
   89.0000   -18.0449     4.4482     4.7753     4.7571     0.1746     0.3591    92.5198     8.2605     0.0271     2.3875
   89.5000   -18.3452     4.4808     4.5177     4.5956     0.1767     0.3624    94.6074     8.3049     0.0211     2.3830
   90.0000   -18.6460     4.4203     4.3339     4.5658     0.1749     0.3600    97.8963     8.3795     0.0227     2.3822
   90.5000   -19.4321     4.2410     4.1577     4.7622     0.1731     0.3558    99.6873     8.3940     0.0272     2.3868
   91.0000   -20.7599     4.1548     4.1874     4.8981     0.1728     0.3546    96.9665     8.3479     0.0318     2.3883
   91.5000   -21.8171     4.1855     4.3062     4.9683     0.1737     0.3558    93.6353     8.3019     0.0258     2.3868
   92.0000   -22.5717     4.2456     4.4283     4.9013     0.1761     0.3579    92.4331     8.2259     0.0139     2.3845
   92.5000   -23.4776     4.3668     4.4911     4.8352     0.1776     0.3582    96.9195     8.1950     0.0079     2.3823
   93.0000   -24.5411     4.4915     4.4920     4.9049     0.1773     0.3528   101.4096     8.2706     0.0109     2.3800
   93.5000   -25.4403     4.5581     4.4928     5.0100     0.1749     0.3422   102.5999     8.3311     0.0200     2.3800
   94.0000   -26.0436     4.6540     4.5248     5.1172     0.1619     0.3286    99.2786     8.3434     0.0035     2.3913
   94.5000   -26.3444     4.6232     4.5572     5.1546     0.1571     0.3187    95.9608     8.3275     0.0126     2.4094
   95.0000   -26.3426     4.6248     4.5897     5.1210     0.1652     0.3259    92.8762     8.3117     0.0187     2.4139
   95.5000   -26.4921     4.6586     4.6227     5.1227     0.1758     0.3268    91.7277     8.2949     0.0097     2.3921
   96.0000   -26.4898     4.6927     4.6882     5.0537     0.1821     0.3274    95.9138     8.2651    -0.0146     2.3754
   96.5000   -26.6397     4.7604     4.7546     5.0553     0.1824     0.3293    97.4045     8.2491    -0.0188     2.3726
   97.0000   -26.7892     4.8624     4.8556     5.0606     0.1774     0.3531    95.8849     8.2333     0.0053     2.3794
   97.5000   -27.0900     4.9666     4.9587     5.1299     0.1679     0.3588    96.4711     8.2326     0.0369     2.3884
   98.0000   -27.6929     5.0730     5.0996     5.1674     0.1607     0.3509   100.6874     8.2318     0.0580     2.3974
   98.5000   -28.3277     5.1841     5.2442     5.2781     0.1631     0.3359   101.8476     8.2463     0.0548     2.4034
   99.0000   -29.2016     5.3301     5.3556     5.3537     0.1655     0.3268   100.0277     8.2454     0.0356     2.3982
