~VERSION INFORMATION
 VERS.                2.0:   CWLS LOG ASCII STANDARD - VERSION 2.0
 WRAP.                 NO:   ONE LINE PER DEPTH STEP
~WELL INFORMATION
#MNEM.UNIT      DATA TYPE    INFORMATION
#----------   ------------   ------------------------------
 STRT.F           16.0000:   START DEPTH
 STOP.F          661.0000:   STOP DEPTH
 STEP.F            0.5000:   STEP LENGTH
 NULL.          -999.2500:   NO VALUE
 COMP. FENIX & SCISSON INC:   COMPANY
 WELL.  26-66 SX 11 #I-11:   WELL
 FLD .             TEAPOT:   FIELD
 LOC .      S11 T38N R78W:   LOCATION
 CNTY.            NATRONA:   COUNTY
 STAT.            WYOMING:   STATE
 CTRY. UNITED STATES OF AMERICA:   COUNTRY
 SRVC.      Dresser Atlas:   SERVICE COMPANY
 DATE.        22-JUL-1980:   LOGDATE
 API .       490251083200:   API NUMBER
~CURVE INFORMATION
#MNEM.UNIT       API CODE    CURVE DESCRIPTION
#----------   ------------   ------------------------------
 DEPT.F                  :   
 SFL .OHMM   07 220 01 00:   SHALLOW FOCUSED LOG RESISTIVITY
 ILD .OHMM   07 120 46 00:   INDUCTION LOG DEEP
 ILM .OHMM   07 120 44 00:   INDUCTION LOG MEDIUM
 SPR .MV     07 010 01 00:   SPONTANEOUS POTENTIAL
 CALD.IN     45 280 60 00:   CALIPER
 GRD .GAPI   45 310 01 00:   GAMMA RAY FROM DENSITY LOG
 RHOB.G/C3   45 350 01 00:   BULK DENSITY
 CORR.G/C3   45 356 01 00:   DENSITY CORRECTION
 DPHI.DEC    45 890 12 00:   DENSITY POROSITY SANDSTONE
 NPHI.DEC    42 890 03 00:   NEUTRON POROSITY SANDSTONE
~PARAMETER INFORMATION
#MNEM.UNIT          VALUE    DESCRIPTION
#----------   ------------   ------------------------------
 PD  .                 GL:   PERMANENT DATUM
 EPD .F              5193:   ELEVATION PERMANENT DATUM
 LMF .                 KB:   LOG MEASURED FROM
 DAPD.F                 5:   FEET ABOVE PERMANENT DATUM
 DMF .                 KB:   DRILLING MEASURED FROM
 EKB .F              5198:   KELLING BUSHING
 EDF .F              5196:   DRILLING FLOOR
 EGL .F              5193:   GROUND LEVEL
 DATE.            7-22-80:   RUN DATE
 RUN .                  1:   RUN NUMBER
 DD  .F               655:   DEPTH DRILLER
 DL  .F               655:   DEPTH LOGGER
 BLI .F               653:   BOTTOM LOG INTERVAL
 TLI .F                20:   TOP LOG INTERVAL
 BS  .IN            7.875:   BIT SIZE
 BSD .F               655:   BIT SIZE AT DEPTH
 DFT .                KCL:   DRILLING FLUID TYPE
 DFD .                9.1:   DRILLING FLUID DENSITY
 DFV .                 46:   DRILLING FLUID VISCOSITY
 DFPH.                 11:   DRILLING FLUID PH
 DFL .                  6:   DRILLING FLUID LOSS
 MSS .           FLOWLINE:   MUD SAMPLE SOURCE
 RMS .OHMM            .17:   RESISTIVITY MUD SAMPLE
 MST .F                75:   MUD SAMPLE TEMPERATURE
 RMF .OHMM            .13:   RESISTIVITY MUD FILTRATE SAMPLE
 MFST.F                75:   MUD FILTRATE SAMPLE TEMPERATURE
 RMC .OHMM            .26:   RESISTIVITY MUD CAKE
 MCST.F                75:   MUD CAKE SAMPLE TEMPERATURE
 MFSS.                  C:   MUD FILTRATE SAMPLE SOURCE
 MCSS.                  C:   MUD CAKE SAMPLE SOURCE
 TCS .HRS               1:   TIME CURCULATED STOPPED
 LUN .               6240:   LOGGING UNIT NUMBER
 LUL .               RVTN:   LOGGING UNIT LOCATION
 ENGI.   K. RALL/J. GETTY:   RECORDING ENGINEER
 WITN.            RHOADES:   WITNESSED BY
 CLNT.            A2DTECH:   CLIENT CODE
 ORIG.        2" 5" PRINT:   ORIGIN OF DATA
 UWI .       490251083200:   UNIQUE WELL ID
 DICO. A2D Technologies, Inc.:   DIGITIZING COMPANY
~OTHER INFORMATION
~A   DEPT      SFL        ILD        ILM        SPR       CALD        GRD       RHOB       CORR         DPHI     NPHI   
# ...
  619.0000    10.6797    10.3008    11.0693   -40.4792     7.7562   103.6532     2.4522     0.0308     0.1366     0.2687
  619.5000    10.7097    10.2710    11.1388   -40.5339     7.7584   105.8611     2.4593     0.0325     0.1303     0.2702
  620.0000    10.7406    10.2413    11.0548   -40.5876     7.7605   106.8998     2.4661     0.0345     0.1268     0.2665
  620.5000    10.5446    10.2117    10.8051   -40.6609     7.7606   102.9648     2.4501     0.0236     0.1404     0.2745
  621.0000    10.4479    10.1822    10.6344   -40.7814     7.7606    99.1324     2.4354     0.0112     0.1478     0.2783
  621.5000    10.4479    10.1430    10.4553   -40.9013     7.7606    97.9506     2.4340     0.0196     0.1437     0.2819
  622.0000    10.4479    10.0157    10.2806   -41.0211     7.7606    97.9227     2.4601     0.0350     0.1301     0.2509
  622.5000    10.3964     9.8899    10.1089   -41.1409     7.7606    97.6319     2.4856     0.0506     0.1166     0.2397
  623.0000    10.2575     9.7658     9.9400   -41.2607     7.7606    96.2432     2.4924     0.0410     0.1125     0.2444
  623.5000    10.1204     9.6432     9.7739   -41.3805     7.7606    96.3600     2.4732     0.0277     0.1227     0.2609
  624.0000     9.9852     9.4439     9.6107   -41.5003     7.7606    98.8734     2.4501     0.0144     0.1346     0.2680
  624.5000     9.8518     9.2276     9.4501   -41.6202     7.7606   104.0276     2.4481     0.0073     0.1382     0.2622
  625.0000     9.7202     9.0163     9.2922   -41.7398     7.7606   109.0656     2.4737     0.0237     0.1269     0.2550
  625.5000     9.5286     8.8099     9.1370   -41.8489     7.7606   112.0096     2.4611     0.0098     0.1227     0.2480
  626.0000     9.4223     8.3647     9.0130   -41.9119     7.7606   109.1726     2.4408    -0.0042     0.1518     0.2647
  626.5000     9.2923     7.7937     8.2897   -41.9760     7.7606   107.6062     2.4280    -0.0026     0.1500     0.2788
  627.0000     9.1840     7.2616     7.6232   -42.0324     7.7606   109.9567     2.4349     0.0003     0.1473     0.2838
  627.5000     9.0998     6.7659     7.0312   -41.9670     7.7606   113.9703     2.4327    -0.0010     0.1466     0.2858
  628.0000     8.9337     6.1513     6.4753   -41.9000     7.7606   114.3536     2.4223    -0.0085     0.1523     0.2918
  628.5000     7.8606     5.5133     5.9297   -41.8215     7.7606   110.9021     2.4146    -0.0123     0.1583     0.2953
  629.0000     6.6872     5.1408     5.6238   -41.5127     7.7606   109.7094     2.4155    -0.0006     0.1594     0.3087
  629.5000     5.6488     5.0937     5.2821   -41.2095     7.7606   113.6370     2.4201     0.0228     0.1577     0.3243
  630.0000     4.7652     5.1884     5.2785   -40.7563     7.7601   122.2978     2.4316     0.0459     0.1483     0.3302
  630.5000     5.3111     5.4423     5.4615   -40.3233     7.7574   123.9039     2.4569     0.0608     0.1377     0.3334
  631.0000     6.5351     5.7985     5.9733   -40.0147     7.7547   124.4994     2.4811     0.0471     0.1271     0.3352
  631.5000     8.0547     6.1780     6.5330   -40.0221     7.7521   125.8545     2.4860     0.0306     0.1164     0.3180
  632.0000     9.9218     6.5824     7.1452   -40.0237     7.7494   124.3399     2.4744     0.0140     0.1144     0.2777
  632.5000    10.1632     7.0926     7.8147   -39.9714     7.7467   121.6430     2.4560     0.0012     0.1257     0.2602
  633.0000     9.7762     7.7769     8.5469   -39.6466     7.7441   120.5532     2.4543     0.0013     0.1347     0.2350
  633.5000     9.4922     8.5315     9.1840   -39.3244     7.7414   119.7350     2.4684     0.0102     0.1355     0.2394
  634.0000     9.2689     9.3616     8.9337   -39.0144     7.7418   116.9125     2.4808     0.0193     0.1255     0.2489
  634.5000     9.3239     9.7058     9.0270   -39.0028     7.7450   114.5114     2.4663     0.0112     0.1199     0.2537
  635.0000     9.4413     9.6736     9.0473   -38.8740     7.7482   114.2317     2.4516     0.0033     0.1276     0.2572
  635.5000     9.3080     9.6127     9.0686   -38.7497     7.7513   117.1397     2.4655     0.0143     0.1359     0.2607
  636.0000     9.1840     9.6116     9.0885   -38.6322     7.7545   122.1084     2.5203     0.0472     0.1121     0.2631
  636.5000     9.5357     9.7832     9.2188   -38.4391     7.7577   122.7854     2.5488     0.0700     0.0863     0.2645
  637.0000     9.8602     9.9386     9.5814   -38.4074     7.7604   119.5700     2.5331     0.0572     0.0778     0.2629
  637.5000    10.1956    10.0932     9.9777   -38.4062     7.7547   115.9600     2.5200     0.0473     0.0860     0.2607
  638.0000    10.5409    10.2503     9.9267   -38.4120     7.7426   117.5423     2.5074     0.0407     0.0973     0.2679
  638.5000    10.8400    10.3521     9.8862   -38.1186     7.7308  -999.2500     2.4830     0.0244     0.1070     0.2651
  639.0000    10.7716    10.5203    10.3103   -37.6946     7.7203  -999.2500     2.4613     0.0084     0.1178     0.2615
  639.5000    10.7145    10.7208    10.4502   -37.2623     7.7233  -999.2500     2.4643     0.0110     0.1307     0.2719
  640.0000    10.6463    10.9250    10.4514   -36.8169     7.7261  -999.2500     2.4887     0.0189     0.1203     0.2808
  640.5000    10.7364    11.1332    10.4439   -36.6994     7.7289  -999.2500     2.4923     0.0164     0.1112     0.2660
  641.0000    10.9321    11.3453    10.7559   -36.6010     7.7316  -999.2500     2.4850     0.0084     0.1166     0.2525
  641.5000    11.0970    11.5631    10.9399   -36.5031     7.7344  -999.2500     2.4832     0.0050     0.1196     0.2419
  642.0000    11.2642    11.6693    11.1258   -36.3813     7.7371  -999.2500     2.4900     0.0061     0.1175     0.2226
  642.5000    11.4338    11.8117    11.3148   -35.5242     7.7398  -999.2500     2.4992     0.0134     0.1120     0.2387
  643.0000    11.6060    11.9988    11.3961   -34.6273     7.7426  -999.2500     2.5086     0.0205     0.1062     0.2564
  643.5000    11.7769    12.2188    11.4555   -34.3332     7.7453  -999.2500     2.5122     0.0209     0.1005     0.2773
  644.0000    11.6580    12.1344    11.3637   -34.1987     7.7481  -999.2500     2.5082     0.0227     0.0993     0.2869
  644.5000    11.5428    11.9930    11.2883   -33.9272     7.7508  -999.2500     2.4974     0.0221     0.1071     0.2817
  645.0000    11.4559    12.0009    11.2471   -33.2743     7.7536  -999.2500     2.4867     0.0213     0.1137     0.2771
  645.5000    11.6013    11.8780    11.2445   -32.7372     7.7563  -999.2500     2.4858     0.0221     0.1187     0.2762
  646.0000    11.7636    11.8786    11.5079   -32.6814     7.7590  -999.2500     2.4823     0.0189     0.1152     0.2593
  646.5000    11.9283    12.1228    11.7632   -32.6169     7.7590  -999.2500     2.4559     0.0102     0.1261     0.2397
  647.0000    12.0952    12.2188    12.0242   -32.5514     7.7516  -999.2500     2.4535     0.0117     0.1351     0.2441
  647.5000    12.2188    12.2202    12.2188   -32.4866     7.7443  -999.2500     2.4730     0.0251     0.1365     0.2555
  648.0000    11.6689    12.2237    12.1068   -32.4245     7.7397  -999.2500     2.4893     0.0353     0.1152     0.2602
  648.5000    11.5619    12.0068    11.7769   -32.3309     7.7381  -999.2500     2.4686     0.0174     0.1227     0.2577
  649.0000    11.5619    11.7652    11.5692   -31.6994     7.7365  -999.2500     2.4536     0.0028     0.1341     0.2568
  649.5000    11.7769    11.7713    11.5690   -31.0731     7.7348  -999.2500     2.4510     0.0069     0.1373     0.2537
  650.0000    11.7757    11.9971    11.7884   -30.4445     7.7332  -999.2500     2.4889     0.0150     0.1261     0.2467
  650.5000    11.7792    12.0108    11.7865   -29.9459     7.7316  -999.2500     2.5034     0.0209     0.1050     0.2535
  651.0000    11.3502    11.7964    11.3492   -30.5159     7.7300  -999.2500     2.4984     0.0187     0.1056     0.2591
  651.5000    11.3512    11.5473    11.3524   -31.3411     7.7284  -999.2500     2.4976     0.0171     0.1112     0.2734
  652.0000    11.3511    11.5642    11.3514   -32.2549     7.7268  -999.2500     2.5069     0.0261     0.1048     0.2752
