~VERSION INFORMATION
 VERS.                2.0:   CWLS LOG ASCII STANDARD - VERSION 2.0
 WRAP.                 NO:   ONE LINE PER DEPTH STEP
~WELL INFORMATION
#MNEM.UNIT      DATA TYPE    INFORMATION
#----------   ------------   ------------------------------
 STRT.F           15.0000:   START DEPTH
 STOP.F         5640.0000:   STOP DEPTH
 STEP.F            0.5000:   STEP LENGTH
 NULL.          -999.2500:   NO VALUE
 COMP.       F D SERV INC:   COMPANY
 WELL. NAVAL PETROLEUM RESERVE 3 SX-1 #43-10:   WELL
 FLD .         N.P.R. #.3:   FIELD
 LOC .      S10 T38N R78W:   LOCATION
 CNTY.            NATRONA:   COUNTY
 STAT.            WYOMING:   STATE
 CTRY. UNITED STATES OF AMERICA:   COUNTRY
 SRVC.      Dresser Atlas:   SERVICE COMPANY
 DATE.        05-JUL-1986:   LOGDATE
 API .       490251101800:   API NUMBER
~CURVE INFORMATION
#MNEM.UNIT       API CODE    CURVE DESCRIPTION
#----------   ------------   ------------------------------
 DEPT.F                  :   
 GRR .GAPI   07 310 01 00:   GAMMA RAY
 ILD .OHMM   07 120 46 00:   INDUCTION LOG DEEP
 ILM .OHMM   07 120 44 00:   INDUCTION LOG MEDIUM
 CALS.IN     60 280 50 00:   CALIPER FROM SONIC LOG
 GRS .GAPI   60 310 01 00:   GAMMA RAY FROM SONIC LOG
 AC  .US/F   60 520 00 00:   ACCOUSTIC
~PARAMETER INFORMATION
#MNEM.UNIT          VALUE    DESCRIPTION
#----------   ------------   ------------------------------
 PD  .                 GL:   PERMANENT DATUM
 EPD .F              5205:   ELEVATION PERMANENT DATUM
 LMF .                 KB:   LOG MEASURED FROM
 DAPD.F                 5:   FEET ABOVE PERMANENT DATUM
 DMF .                 KB:   DRILLING MEASURED FROM
 EKB .F              5210:   KELLING BUSHING
 EGL .F              5205:   GROUND LEVEL
 DATE.        05-JUL-1986:   RUN DATE
 RUN .                  1:   RUN NUMBER
 DD  .F               560:   DEPTH DRILLER
 DL  .F               560:   DEPTH LOGGER
 BLI .F               550:   BOTTOM LOG INTERVAL
 TLI .F                15:   TOP LOG INTERVAL
 CS  .IN            8.625:   CASING SIZE
 CBD .F                47:   CASING BOTTOM DRILLER
 CBL .F                47:   CASING BOTTOM LOGGER
 BS  .IN            7.875:   BIT SIZE
 BSD .F               560:   BIT SIZE AT DEPTH
 DFT .                AIR:   DRILLING FLUID TYPE
 BHT .F                83:   BOTTOM HOLE TEMPERATURE
 TCS .HRS            2100:   TIME CURCULATED STOPPED
 TLAB.HRS            2230:   TIME LOGGER AT BOTTOM
 MRT .F                83:   MAXIMUM RECORDED TEMPERATURE
 LUN .               7609:   LOGGING UNIT NUMBER
 LUL .           GILLETTE:   LOGGING UNIT LOCATION
 ENGI.              BAURT:   RECORDING ENGINEER
 CLNT.            A2DTECH:   CLIENT CODE
 ORIG. 1" 2" 2.5", 5" PRINT:   ORIGIN OF DATA
 UWI .       490251101800:   UNIQUE WELL ID
 DICO. A2D Technologies, Inc.:   DIGITIZING COMPANY
 R2  . HEADER NOT CLEARLY VISIBLE:   REMARKS 2
~OTHER INFORMATION
~A   DEPT       GRR       ILD        ILM       CALS        GRS         AC   
# ...
 3135.0000  -999.2500  -999.2500  -999.2500    10.9516    91.7596    77.5263
 3135.5000  -999.2500  -999.2500  -999.2500    10.9522    92.0742    77.6757
 3136.0000  -999.2500  -999.2500  -999.2500    10.9528    92.6918    78.9370
 3136.5000  -999.2500  -999.2500  -999.2500    10.9685    93.6125    82.0465
 3137.0000  -999.2500  -999.2500  -999.2500    10.9691    95.8011    84.8354
 3137.5000  -999.2500  -999.2500  -999.2500    10.9698   100.6082    87.8506
 3138.0000  -999.2500  -999.2500  -999.2500    10.9704   105.7713    89.0558
 3138.5000  -999.2500  -999.2500  -999.2500    10.9709   109.1162    88.8251
 3139.0000  -999.2500  -999.2500  -999.2500    10.9867   112.1581    88.2229
 3139.5000  -999.2500  -999.2500  -999.2500    10.9873   110.3484    87.8444
 3140.0000  -999.2500  -999.2500  -999.2500    10.9880   108.8479    87.4659
 3140.5000  -999.2500  -999.2500  -999.2500    10.9886   109.1654    87.2382
 3141.0000  -999.2500  -999.2500  -999.2500    10.9891   110.6921    87.6139
 3141.5000  -999.2500  -999.2500  -999.2500    11.0049   116.4613    88.2517
 3142.0000  -999.2500  -999.2500  -999.2500    11.0054   120.4122    89.5714
 3142.5000  -999.2500  -999.2500  -999.2500    11.0062   122.2424    92.0587
 3143.0000  -999.2500  -999.2500  -999.2500    11.0067   123.4686    92.9625
 3143.5000  -999.2500  -999.2500  -999.2500    11.0073   128.3286    92.2066
 3144.0000  -999.2500  -999.2500  -999.2500    11.0079   127.4311    91.6634
 3144.5000  -999.2500  -999.2500  -999.2500    11.0065   124.1094    91.2984
 3145.0000  -999.2500  -999.2500  -999.2500    10.9789   124.1516    91.2969
 3145.5000  -999.2500  -999.2500  -999.2500    10.9642   124.1325    92.0496
 3146.0000  -999.2500  -999.2500  -999.2500    10.9496   122.3288    96.0452
 3146.5000  -999.2500  -999.2500  -999.2500    10.9655   121.4284    99.5208
 3147.0000  -999.2500  -999.2500  -999.2500    10.9660   122.6549    99.8885
 3147.5000  -999.2500  -999.2500  -999.2500    10.9062   126.6508    97.5488
 3148.0000  -999.2500  -999.2500  -999.2500    10.8310   136.3174    95.6620
 3148.5000  -999.2500  -999.2500  -999.2500    10.8011   141.4804    94.3785
 3149.0000  -999.2500  -999.2500  -999.2500    10.8018   138.1587    94.9449
 3149.5000  -999.2500  -999.2500  -999.2500    10.8044   133.9278    96.4870
 3150.0000  -999.2500  -999.2500  -999.2500    10.8183   135.7576    97.0535
 3150.5000  -999.2500  -999.2500  -999.2500    10.9098   138.8060    97.9914
 3151.0000  -999.2500  -999.2500  -999.2500    10.9255   143.3660   100.4025
 3151.5000  -999.2500  -999.2500  -999.2500    10.9261   151.2593   102.5874
 3152.0000  -999.2500  -999.2500  -999.2500    10.9267   157.3344   101.9065
 3152.5000  -999.2500  -999.2500  -999.2500    10.9121   161.2883    96.9264
 3153.0000  -999.2500  -999.2500  -999.2500    10.8371   160.9445    91.4944
 3153.5000  -999.2500  -999.2500  -999.2500    10.6104   153.1391    85.2328
 3154.0000  -999.2500  -999.2500  -999.2500    10.4595   131.6385    81.9878
 3154.5000  -999.2500  -999.2500  -999.2500    10.3994   107.4106    81.7971
 3155.0000  -999.2500  -999.2500  -999.2500    10.4303   100.7584    87.7149
 3155.5000  -999.2500  -999.2500  -999.2500    10.4461    98.2965    92.2371
 3156.0000  -999.2500  -999.2500  -999.2500    10.4468   113.5040    92.0087
 3156.5000  -999.2500  -999.2500  -999.2500    10.4474   120.5026    91.0261
 3157.0000  -999.2500  -999.2500  -999.2500    10.4479   125.0589    90.2698
 3157.5000  -999.2500  -999.2500  -999.2500    10.4485   122.0431    89.8151
 3158.0000  -999.2500  -999.2500  -999.2500    10.4491   122.6673    89.5113
 3158.5000  -999.2500  -999.2500  -999.2500    10.4497   122.3763    89.2074
 3159.0000  -999.2500  -999.2500  -999.2500    10.4654   120.2757    88.6769
 3159.5000  -999.2500  -999.2500  -999.2500    10.4813   119.9836    87.8451
 3160.0000  -999.2500  -999.2500  -999.2500    10.4819   120.6078    86.3347
 3160.5000  -999.2500  -999.2500  -999.2500    10.4825   120.0162    83.6930
 3161.0000  -999.2500  -999.2500  -999.2500    10.4528   113.9701    81.9563
 3161.5000  -999.2500  -999.2500  -999.2500    10.4382   105.4425    81.0741
 3162.0000  -999.2500  -999.2500  -999.2500    10.4388   101.2755    80.2168
 3162.5000  -999.2500  -999.2500  -999.2500    10.4395   100.0742    79.9884
 3163.0000  -999.2500  -999.2500  -999.2500    10.4401   100.6984    79.9114
 3163.5000  -999.2500  -999.2500  -999.2500    10.4558   102.2281    80.5120
 3164.0000  -999.2500  -999.2500  -999.2500    10.4564   103.4547    81.4902
 3164.5000  -999.2500  -999.2500  -999.2500    10.4721   104.4165    83.3231
 3165.0000  -999.2500  -999.2500  -999.2500    10.4727   105.9116    84.8036
 3165.5000  -999.2500  -999.2500  -999.2500    10.4886   108.9564    84.5751
 3166.0000  -999.2500  -999.2500  -999.2500    10.5043   110.1831    82.2351
 3166.5000  -999.2500  -999.2500  -999.2500    10.5049   108.0764    80.6492
 3167.0000  -999.2500  -999.2500  -999.2500    10.5055   105.0588    79.3650
 3167.5000  -999.2500  -999.2500  -999.2500    10.5667   103.5599    78.9102
 3168.0000  -999.2500  -999.2500  -999.2500    10.6279   106.9114    79.7372
 3168.5000  -999.2500  -999.2500  -999.2500    10.6608   106.3199    80.7908
 3169.0000  -999.2500  -999.2500  -999.2500    10.7201   104.8156    81.1657
 3169.5000  -999.2500  -999.2500  -999.2500    10.7358   103.8909    81.3898
 3170.0000  -999.2500  -999.2500  -999.2500    10.7364   106.3841    81.3876
 3170.5000  -999.2500  -999.2500  -999.2500    10.7522   107.8967    81.0713
 3171.0000  -999.2500  -999.2500  -999.2500    10.7527   108.8203    80.4024
 3171.5000  -999.2500  -999.2500  -999.2500    10.7685   102.1681    80.0985
 3172.0000  -999.2500  -999.2500  -999.2500    10.7539   100.6639    79.9455
 3172.5000  -999.2500  -999.2500  -999.2500    10.7546   100.6820    79.8685
 3173.0000  -999.2500  -999.2500  -999.2500    10.7552   100.3935    79.8658
 3173.5000  -999.2500  -999.2500  -999.2500    10.7710    99.8019    79.4487
 3174.0000  -999.2500  -999.2500  -999.2500    10.7692   101.0322    78.5788
 3174.5000  -999.2500  -999.2500  -999.2500    10.7873   106.5012    78.2750
 3175.0000  -999.2500  -999.2500  -999.2500    10.8030   108.0273    78.0466
 3175.5000  -999.2500  -999.2500  -999.2500    10.8037   103.7938    78.0444
 3176.0000  -999.2500  -999.2500  -999.2500    10.8195    98.9690    78.2685
 3176.5000  -999.2500  -999.2500  -999.2500    10.8201   102.0175    79.3974
 3177.0000  -999.2500  -999.2500  -999.2500    10.8206   102.6380    81.1293
 3177.5000  -999.2500  -999.2500  -999.2500    10.8212   102.3495    82.4846
 3178.0000  -999.2500  -999.2500  -999.2500    10.8218   103.2731    83.8399
 3178.5000  -999.2500  -999.2500  -999.2500    10.8225   106.9453    84.2154
 3179.0000  -999.2500  -999.2500  -999.2500    10.8231   106.3361    84.1373
 3179.5000  -999.2500  -999.2500  -999.2500    10.8085   105.1385    83.8329
 3180.0000  -999.2500  -999.2500  -999.2500    10.7938   102.1227    84.6603
 3180.5000  -999.2500  -999.2500  -999.2500    10.7794   108.5008    86.0156
 3181.0000  -999.2500  -999.2500  -999.2500    10.7648   116.3941    87.2954
 3181.5000  -999.2500  -999.2500  -999.2500    10.7351   120.6515    87.6704
 3182.0000  -999.2500  -999.2500  -999.2500    10.6752   119.4571    87.6682
 3182.5000  -999.2500  -999.2500  -999.2500    10.6605   117.3504    87.1376
 3183.0000  -999.2500  -999.2500  -999.2500    10.6460   112.8194    86.9091
 3183.5000  -999.2500  -999.2500  -999.2500    10.6164   107.9854    86.7561
 3184.0000  -999.2500  -999.2500  -999.2500    10.6170   109.2307    87.8852
 3184.5000  -999.2500  -999.2500  -999.2500    10.5721   114.6847    88.9388
 3185.0000  -999.2500  -999.2500  -999.2500    10.5728   116.5174    89.3137
 3185.5000  -999.2500  -999.2500  -999.2500    10.5581   115.3198    89.2356
 3186.0000  -999.2500  -999.2500  -999.2500    10.5435   114.7283    88.6301
 3186.5000  -999.2500  -999.2500  -999.2500    10.5443   114.1363    87.7230
