~VERSION INFORMATION
 VERS.                2.0:   CWLS LOG ASCII STANDARD - VERSION 2.0
 WRAP.                 NO:   ONE LINE PER DEPTH STEP
~WELL INFORMATION
#MNEM.UNIT      DATA TYPE    INFORMATION
#----------   ------------   ------------------------------
 STRT.F          520.5000:   START DEPTH
 STOP.F         2062.0000:   STOP DEPTH
 STEP.F            0.5000:   STEP LENGTH
 NULL.          -999.2500:   NO VALUE
 COMP. LAWRENCE-ALLISON &AS:   COMPANY
 WELL.     NPR 3 #18-X-28:   WELL
 FLD .             TEAPOT:   FIELD
 LOC .      S28 T39N R78W:   LOCATION
 CNTY.            NATRONA:   COUNTY
 STAT.            WYOMING:   STATE
 CTRY. UNITED STATES OF AMERICA:   COUNTRY
 SRVC.            Unknown:   SERVICE COMPANY
 DATE.        08-DEC-1987:   LOGDATE
 API .       490251119700:   API NUMBER
~CURVE INFORMATION
#MNEM.UNIT       API CODE    CURVE DESCRIPTION
#----------   ------------   ------------------------------
 DEPT.F                  :   
 ROP .MIN/FT 91 810 01 00:   RAT OF DRILLING PENETRATION
 TGAS.UNITS  91 830 01 00:   TOTAL GAS FROM HOTWIRE
~PARAMETER INFORMATION
#MNEM.UNIT          VALUE    DESCRIPTION
#----------   ------------   ------------------------------
 EKB .F              5090:   KELLING BUSHING
 EGL .F              5080:   GROUND LEVEL
 DATE.            12-8-87:   RUN DATE
 DD  .F              2062:   DEPTH DRILLER
 CS  .IN                7:   CASING SIZE
 CBD .F               513:   CASING BOTTOM DRILLER
 TCS .HRS            1000:   TIME CURCULATED STOPPED
 TLAB.HRS            0432:   TIME LOGGER AT BOTTOM
 ENGI.              TOWER:   RECORDING ENGINEER
 WITN.               HUSK:   WITNESSED BY
 CLNT.            A2DTECH:   CLIENT CODE
 ORIG.           5" PRINT:   ORIGIN OF DATA
 UWI .       490251119700:   UNIQUE WELL ID
 DICO. A2D Technologies, Inc.:   DIGITIZING COMPANY
~OTHER INFORMATION
~A   DEPT      ROP         TGAS 
# ...
  763.5000     0.3151     0.0004
  764.0000     0.3365     0.0004
  764.5000     0.3579     0.0004
  765.0000     0.3688     0.0004
  765.5000     0.3696     0.0004
  766.0000     0.3702     0.0004
  766.5000     0.3708     0.0004
  767.0000     0.3714     0.0004
  767.5000     0.3410     0.0004
  768.0000     0.2899     0.0004
  768.5000     0.2595     0.0004
  769.0000     0.2497     0.0004
  769.5000     0.2386     0.0004
  770.0000     0.2199     0.0004
  770.5000     0.2102     0.0004
  771.0000     0.2110     0.0004
  771.5000     0.2116     0.0004
  772.0000     0.2123     0.0004
  772.5000     0.2129     0.0004
  773.0000     0.2135     0.0004
  773.5000     0.2142     0.0209
  774.0000     0.2148     0.0949
  774.5000     0.2156     0.5745
  775.0000     0.2265     0.6355
  775.5000     0.2272     0.6965
  776.0000     0.2382     0.3237
  776.5000     0.2388     0.4000
  777.0000     0.2394     0.4610
  777.5000     0.2400     0.5233
  778.0000     0.2407     0.5982
  778.5000     0.2413     0.2254
  779.0000     0.2316     0.0004
  779.5000     0.2324     0.0004
  780.0000     0.2225     0.0004
  780.5000     0.2233     0.0004
  781.0000     0.2239     0.1271
  781.5000     0.2245     0.0004
  782.0000     0.2252     0.2512
  782.5000     0.2258     0.3254
  783.0000     0.2368     0.3864
  783.5000     0.2376     0.4474
  784.0000     0.2382     0.5084
  784.5000     0.2388     0.1356
  785.0000     0.2498     0.2118
  785.5000     0.2504     0.2729
  786.0000     0.2511     0.3349
  786.5000     0.2517     0.0004
  787.0000     0.2523     0.0525
  787.5000     0.2635     0.1135
  788.0000     0.2641     0.0004
  788.5000     0.2647     0.0004
  789.0000     0.2653     0.0004
  789.5000     0.2660     0.0004
  790.0000     0.2770     0.0004
  790.5000     0.2776     0.0004
  791.0000     0.2782     0.0004
  791.5000     0.2789     0.0004
  792.0000     0.2796     0.0004
  792.5000     0.2803     0.0004
  793.0000     0.2809     0.0004
  793.5000     0.2815     0.0004
  794.0000     0.2821     0.0004
  794.5000     0.2828     0.0004
  795.0000     0.2834     0.0004
  795.5000     0.2840     0.0004
  796.0000     0.2847     0.0004
  796.5000     0.2855     0.0004
  797.0000     0.2861     0.0004
  797.5000     0.2867     0.0004
  798.0000     0.2873     0.0004
  798.5000     0.2775     0.0004
  799.0000     0.2782     0.0004
  799.5000     0.2789     0.0004
  800.0000     0.2795     0.0021
  800.5000     0.2696     0.0004
  801.0000     0.2702     0.0004
  801.5000     0.2707     0.0004
  802.0000     0.2712     0.0004
  802.5000     0.2718     0.0004
  803.0000     0.2723     0.0004
  803.5000     0.2728     0.0004
  804.0000     0.2733     0.0004
  804.5000     0.2738     0.0004
  805.0000     0.2743     0.0004
  805.5000     0.2749     0.0004
  806.0000     0.2754     0.0004
  806.5000     0.2760     0.0004
  807.0000     0.2765     0.0004
  807.5000     0.2665     0.0004
  808.0000     0.2567     0.0004
  808.5000     0.2573     0.0004
  809.0000     0.2474     0.0004
  809.5000     0.2479     0.0004
  810.0000     0.2484     0.0004
  810.5000     0.2490     0.0004
  811.0000     0.2496     0.0004
  811.5000     0.2501     0.0004
  812.0000     0.2506     0.0004
  812.5000     0.2511     0.0004
  813.0000     0.2516     0.0004
  813.5000     0.2521     0.0004
  814.0000     0.2526     0.0004
  814.5000     0.2531     0.0004
  815.0000     0.2536     0.0004
  815.5000     0.2542     0.0004
  816.0000     0.2443     0.0004
  816.5000     0.2449     0.0004
  817.0000     0.2454     0.0004
  817.5000     0.2459     0.0004
  818.0000     0.2567     0.0004
  818.5000     0.2572     0.0004
  819.0000     0.2578     0.0004
  819.5000     0.2584     0.0004
  820.0000     0.2589     0.0004
  820.5000     0.2697     0.0004
  821.0000     0.2702     0.0004
  821.5000     0.2707     0.0004
  822.0000     0.2712     0.0004
  822.5000     0.2717     0.0004
  823.0000     0.2826     0.0004
  823.5000     0.2831     0.0004
  824.0000     0.2941     0.0004
  824.5000     0.2946     0.0004
  825.0000     0.3054     0.0004
  825.5000     0.3059     0.0004
  826.0000     0.3065     0.0004
  826.5000     0.3070     0.0004
  827.0000     0.3075     0.0004
  827.5000     0.3080     0.0004
  828.0000     0.3189     0.0004
  828.5000     0.3194     0.0004
  829.0000     0.3199     0.0004
  829.5000     0.3204     0.0004
  830.0000     0.3210     0.0004
  830.5000     0.3215     0.0004
  831.0000     0.3220     0.0004
  831.5000     0.3328     0.0004
  832.0000     0.3333     0.0004
  832.5000     0.3443     0.0004
  833.0000     0.3552     0.0004
  833.5000     0.3557     0.0004
  834.0000     0.3562     0.0004
  834.5000     0.3567     0.0004
  835.0000     0.3572     0.0004
  835.5000     0.3577     0.1842
  836.0000     0.3582     0.2095
  836.5000     0.3588     0.0004
  837.0000     0.3593     0.0004
  837.5000     0.3598     0.0004
  838.0000     0.3603     0.0004
  838.5000     0.3505     0.0004
  839.0000     0.3510     0.0004
  839.5000     0.3515     0.0004
  840.0000     0.3520     0.0004
  840.5000     0.2796     0.0004
  841.0000     0.2798     0.0004
  841.5000     0.2799     0.0004
  842.0000     0.2800     0.0004
  842.5000     0.2905     0.0004
  843.0000     0.2906     0.0004
  843.5000     0.2908     0.0004
  844.0000     0.2909     0.0004
  844.5000     0.2807     0.0004
  845.0000     0.2808     0.0004
  845.5000     0.2809     0.0004
  846.0000     0.2914     0.0004
  846.5000     0.2915     0.0004
  847.0000     0.2917     0.0004
  847.5000     0.2918     0.0004
  848.0000     0.2920     0.0004
  848.5000     0.2921     0.0004
  849.0000     0.2922     0.0004
  849.5000     0.2923     0.0004
  850.0000     0.2925     0.0004
  850.5000     0.2926     0.0004
  851.0000     0.3031     0.0004
  851.5000     0.2928     0.0004
  852.0000     0.2930     0.0004
  852.5000     0.2931     0.0004
  853.0000     0.2932     0.0004
  853.5000     0.2830     0.0004
  854.0000     0.2831     0.0004
  854.5000     0.2936     0.0004
  855.0000     0.2937     0.0004
  855.5000     0.2939     0.0004
  856.0000     0.2940     0.0004
  856.5000     0.2838     0.0004
  857.0000     0.2839     0.0004
  857.5000     0.2841     0.0004
  858.0000     0.2842     0.0004
  858.5000     0.2843     0.0004
  859.0000     0.2844     0.0004
  859.5000     0.2846     0.0004
  860.0000     0.2847     0.0004
  860.5000     0.2848     0.0004
  861.0000     0.2850     0.0004
  861.5000     0.2851     0.0004
  862.0000     0.2852     0.0004
  862.5000     0.2853     0.0004
  863.0000     0.2855     0.0004
  863.5000     0.2856     0.0004
  864.0000     0.2857     0.0004
  864.5000     0.2858     0.0004
  865.0000     0.2860     0.0004
  865.5000     0.2861     0.0004
  866.0000     0.2863     0.0004
  866.5000     0.2864     0.2635
  867.0000     0.2865     0.3144
  867.5000     0.2866     0.3663
  868.0000     0.2868     0.4288
  868.5000     0.2869     0.0610
  869.0000     0.2860     0.1119
  869.5000     0.2768     0.1627
  870.0000     0.2769     0.2135
  870.5000     0.2874     0.2644
  871.0000     0.2875     0.3152
  871.5000     0.2877     0.3663
  872.0000     0.2878     0.4186
  872.5000     0.2879     0.4805
  873.0000     0.2880     0.5313
  873.5000     0.2882     0.1508
  874.0000     0.2883     0.2144
  874.5000     0.2988     0.2652
  875.0000     0.2989     0.3161
  875.5000     0.2991     0.3669
  876.0000     0.2992     0.4186
  876.5000     0.2993     0.4813
  877.0000     0.3098     0.1135
  877.5000     0.3099     0.1644
  878.0000     0.3101     0.2152
  878.5000     0.3205     0.2661
  879.0000     0.3207     0.3169
  879.5000     0.3208     0.3678
  880.0000     0.3209     0.0004
  880.5000     0.2892     0.0004
  881.0000     0.2884     0.0004
  881.5000     0.2878     0.0004
  882.0000     0.2872     0.0004
  882.5000     0.2865     0.0004
  883.0000     0.2859     0.0004
  883.5000     0.2853     0.0004
  884.0000     0.2950     0.0004
  884.5000     0.2944     0.0004
