~VERSION INFORMATION
 VERS.                2.0:   CWLS LOG ASCII STANDARD - VERSION 2.0
 WRAP.                 NO:   ONE LINE PER DEPTH STEP
~WELL INFORMATION
#MNEM.UNIT      DATA TYPE    INFORMATION
#----------   ------------   ------------------------------
 STRT.F           30.0000:   START DEPTH
 STOP.F          602.0000:   STOP DEPTH
 STEP.F            0.5000:   STEP LENGTH
 NULL.          -999.2500:   NO VALUE
 COMP. FENIX & SCISSON U.S NAVY:   COMPANY
 WELL.   S-3 NPR #3 #51-3:   WELL
 FLD .             TEAPOT:   FIELD
 LOC .       S3 T38N R78W:   LOCATION
 CNTY.            NATRONA:   COUNTY
 STAT.            WYOMING:   STATE
 CTRY. UNITED STATES OF AMERICA:   COUNTRY
 SRVC.              Welex:   SERVICE COMPANY
 DATE.        08-MAR-1977:   LOGDATE
 API .       490251030800:   API NUMBER
~CURVE INFORMATION
#MNEM.UNIT       API CODE    CURVE DESCRIPTION
#----------   ------------   ------------------------------
 DEPT.F                  :   
 SPR .MV     07 010 01 00:   SPONTANEOUS POTENTIAL
 ILD .OHMM   07 120 46 00:   INDUCTION LOG DEEP
 ILM .OHMM   07 120 44 00:   INDUCTION LOG MEDIUM
 SGRD.OHMM   07 221 05 00:   SHALLOW SHORT GUARD RESISTIVITY
 CALD.IN     45 280 60 00:   CALIPER FROM DENSITY LOG
 CORR.G/C3   45 356 01 00:   DENSITY CORRECTION
 RHOB.G/C3   45 350 01 00:   BULK DENSITY
 DPHI.DEC    45 890 12 00:   DENSITY POROSITY SANDSTONE
 GRD .GAPI   45 310 01 00:   GAMMA RAY FROM DENSITY LOG
~PARAMETER INFORMATION
#MNEM.UNIT          VALUE    DESCRIPTION
#----------   ------------   ------------------------------
 PD  .                 GL:   PERMANENT DATUM
 EPD .F              5140:   ELEVATION PERMANENT DATUM
 LMF .                 GL:   LOG MEASURED FROM
 DAPD.F                  :   FEET ABOVE PERMANENT DATUM
 DMF .                 GL:   DRILLING MEASURED FROM
 EKB .F                  :   KELLING BUSHING
 EDF .F                  :   DRILLING FLOOR
 EGL .F              5140:   GROUND LEVEL
 DATE.             3-8-77:   RUN DATE
 RUN .                  1:   RUN NUMBER
 DD  .F               611:   DEPTH DRILLER
 DL  .F               555:   DEPTH LOGGER
 BLI .F               553:   BOTTOM LOG INTERVAL
 TLI .F                40:   TOP LOG INTERVAL
 CS  .IN            8.625:   CASING SIZE
 CBD .F                40:   CASING BOTTOM DRILLER
 CBL .F                40:   CASING BOTTOM LOGGER
 BS  .IN            7.875:   BIT SIZE
 BSD .F               611:   BIT SIZE AT DEPTH
 DFT .           CHEM GEL:   DRILLING FLUID TYPE
 DFD .                8.6:   DRILLING FLUID DENSITY
 DFV .                 42:   DRILLING FLUID VISCOSITY
 DFPH.                  8:   DRILLING FLUID PH
 DFL .                3.2:   DRILLING FLUID LOSS
 MSS .           FLOWLINE:   MUD SAMPLE SOURCE
 RMS .OHMM           1.49:   RESISTIVITY MUD SAMPLE
 MST .F                48:   MUD SAMPLE TEMPERATURE
 RMF .OHMM           1.07:   RESISTIVITY MUD FILTRATE SAMPLE
 MFST.F                48:   MUD FILTRATE SAMPLE TEMPERATURE
 RMC .OHMM           2.34:   RESISTIVITY MUD CAKE
 MCST.F                48:   MUD CAKE SAMPLE TEMPERATURE
 MFSS.           MEASURED:   MUD FILTRATE SAMPLE SOURCE
 MCSS.           MEASURED:   MUD CAKE SAMPLE SOURCE
 RMB .OHMM           1.19:   RESISTIVITY MUD AT BHT
 BHT .F                60:   BOTTOM HOLE TEMPERATURE
 TCS .HRS               2:   TIME CURCULATED STOPPED
 TLAB.HRS                :   TIME LOGGER AT BOTTOM
 MRT .F                60:   MAXIMUM RECORDED TEMPERATURE
 LUN .               0716:   LOGGING UNIT NUMBER
 LUL .             VERNAL:   LOGGING UNIT LOCATION
 ENGI.           CALLAHAN:   RECORDING ENGINEER
 WITN.         STUEBINGER:   WITNESSED BY
 CLNT.            A2DTECH:   CLIENT CODE
 ORIG.       2", 5" PRINT:   ORIGIN OF DATA
 UWI .       490251030800:   UNIQUE WELL ID
 DICO. A2D Technologies, Inc.:   DIGITIZING COMPANY
 OS  .                   :   OTHER SERVICES
 PWI .                   :   PRIMARY WELL IDENTIFIER
 R1  .                   :   REMARKS 1
 R2  .                   :   REMARKS 2
 LSRV.                   :   LOG MNEMONIC
~OTHER INFORMATION
~A   DEPT      SPR        ILD        ILM       SGRD       CALD       CORR       RHOB       DPHI        GRD   
# ...
  285.5000   -37.2144     9.2184     9.4688    11.5055     7.9185     0.0235     2.4429     0.1213   112.9957
  286.0000   -37.0686     9.1524     9.2711    11.0343     7.9180     0.0203     2.4392     0.1222   113.1448
  286.5000   -37.0759     9.0241     8.9529    10.8795     7.9024     0.0159     2.4369     0.1234   112.8418
  287.0000   -37.2318     8.9594     8.8882    10.6523     7.8718     0.0113     2.4324     0.1253   113.4427
  287.5000   -37.2376     8.9569     8.8851    10.5760     7.8712     0.0083     2.4271     0.1283   114.3950
  288.0000   -37.2434     8.9540     8.8202    10.0033     7.8556     0.0037     2.4030     0.1307   116.0001
  288.5000   -37.2492     8.9516     8.6961     9.7950     7.8550     0.0022     2.4120     0.1322   113.2874
  289.0000   -37.1048     8.8875     8.4559     9.9980     7.8545     0.0007     2.4150     0.1343   113.8884
  289.5000   -36.9605     8.5827     8.1093    10.2051     7.8539     0.0052     2.4207     0.1454   113.7363
  290.0000   -36.3671     8.2312     7.8852    10.1929     7.8513     0.0187     2.4314     0.1367   113.4337
  290.5000   -36.5231     7.6692     7.5620     9.4509     7.8527     0.0247     2.4359     0.1298   112.8298
  291.0000   -36.9793     7.1623     7.1481     9.1903     7.8820     0.0141     2.4336     0.1331   113.0180
  291.5000   -36.9851     6.5894     6.7177     9.1244     7.8965     0.0096     2.4216     0.1358   115.9892
  292.0000   -36.8408     6.4077     6.4871     7.7789     7.9109     0.0276     2.4343     0.1313   117.1925
  292.5000   -36.8480     6.4509     6.3964     6.0608     7.9102     0.0383     2.4448     0.1262   117.4927
  293.0000   -36.8538     6.5841     6.7576     5.6533     7.9096     0.0336     2.4463     0.1238   117.9426
  293.5000   -37.1599     6.7209     7.2896     7.8508     7.9090     0.0275     2.4372     0.1220   119.2966
  294.0000   -37.1657     6.8751     7.6489    10.1090     7.8933     0.0214     2.4552     0.1187   119.5964
  294.5000   -37.4718     7.1485     7.9204     9.8985     7.8927     0.0169     2.4695     0.1126   119.5813
  295.0000   -37.7779     7.2966     8.1343     9.9646     7.8922     0.0093     2.4672     0.1118   118.6895
  295.5000   -37.7838     7.4995     8.1880    10.3129     7.8916     0.0033     2.4484     0.1226   119.1398
  296.0000   -37.4892     7.7081     9.0806    10.8223     7.8760     0.0002     2.4469     0.1199   119.7408
  296.5000   -37.4965     7.9776     9.3323    10.9703     7.8605     0.0032     2.4476     0.1257   119.5887
  297.0000   -37.6524     8.3762     9.3947    11.1203     7.8449     0.0080     2.4552     0.1196   118.9849
  297.5000   -37.8084     8.6636     9.5878    10.5175     7.8442     0.0167     2.4612     0.1133   118.2304
  298.0000   -37.8142     8.8437     9.7919    10.4428     7.8436     0.0227     2.4709     0.1115   117.1747
  298.5000   -38.1203     8.9647     9.9187    11.0340     7.8731     0.0257     2.4596     0.1176   118.2271
  299.0000   -38.5836     9.0867     9.9146    11.1084     7.8875     0.0181     2.4565     0.1197   119.1293
  299.5000   -38.7339     9.1475     9.9113    11.1819     7.8868     0.0106     2.4549     0.1212   119.7302
  300.0000   -38.1391     9.1449     9.9168    11.4136     7.8862     0.0181     2.4504     0.1227   120.7834
  300.5000   -38.1449     9.2694     9.9724    11.4074     7.8681     0.0150     2.4428     0.1233   119.8584
  301.0000   -38.1507     9.3307    10.0387    11.3234     7.8499     0.0089     2.4375     0.1320   119.0616
  301.5000   -38.1565     9.3925    10.1736    11.5559     7.8400     0.0149     2.4337     0.1344   118.3644
  302.0000   -37.8617     9.5203    10.4704    11.7929     7.8245     0.0269     2.4231     0.1311   117.7430
  302.5000   -37.8689     9.6491    10.8928    11.7861     7.7791     0.0404     2.4351     0.1248   117.1531
  303.0000   -37.8746     9.8484    11.0402    11.8625     7.7188     0.0508     2.4546     0.1185   116.5478
  303.5000   -37.8804     9.9135    11.0358    12.1059     7.6585     0.0598     2.4681     0.1134   115.3401
  304.0000   -38.0362     9.9791    11.0315    12.1970     7.6581     0.0613     2.4688     0.1095   114.4157
  304.5000   -38.1922     9.9750    11.0270    12.0946     7.6575     0.0552     2.4770     0.1029   115.2058
  305.0000   -37.7474     9.9717    10.7207    12.3415     7.6571     0.0325     2.4965     0.1008   118.1922
  305.5000   -37.6030     9.8996    10.3520    12.5078     7.6866     0.0158     2.4739     0.1097   119.2436
  306.0000   -37.6102     9.7594     9.9960    12.4158     7.7163     0.0023     2.4663     0.1141   118.9395
  306.5000   -37.7660     9.6889     9.6523    12.3244     7.7609     0.0007     2.4519     0.1201   117.4306
  307.0000   -37.7718     9.7538     9.6485    12.2336     7.7901     0.0022     2.4474     0.1210   117.7350
  307.5000   -37.7789     9.8183     9.9832    11.8105     7.8196     0.0081     2.4488     0.1204   119.5326
  308.0000   -37.7847     9.9511    10.1193    11.5623     7.8191     0.0160     2.4571     0.1165   120.4333
  308.5000   -38.2409    10.0169    10.1855    11.6386     7.8187     0.0095     2.4645     0.1135   119.9786
  309.0000   -38.5469     9.9437     9.8343    11.6319     7.8183    -0.0026     2.4494     0.1180   117.2649
  309.5000   -38.7028     9.6021     9.4956    11.6265     7.8328     0.0034     2.4456     0.1235   117.4157
  310.0000   -38.6887     9.4669     9.4259    11.6209     7.8323     0.0108     2.4448     0.1238   119.5175
  310.5000   -38.4154     9.3985     9.3572    11.3756     7.8319     0.0138     2.4357     0.1232   121.6231
  311.0000   -38.2710     9.3304     9.2890    11.1365     7.8464     0.0032     2.4274     0.1241   123.7286
  311.5000   -38.1266     9.1349     9.0318    10.9783     7.8460     0.0001     2.4236     0.1358   125.5330
  312.0000   -37.5317     8.8824     8.8428    10.9732     7.8454     0.0151     2.4190     0.1280   126.1325
  312.5000   -36.9244     8.5773     8.5378    10.3710     7.8300     0.0073     2.4137     0.1265   124.3217
  313.0000   -36.4921     8.2826     8.3591    10.1578     7.7847     0.0195     2.4114     0.1401   121.9092
  313.5000   -36.1975     7.8859     7.9607     9.6726     7.7394     0.0300     2.4098     0.1476   119.9485
  314.0000   -35.9030     7.4084     7.4771     9.2107     7.7072     0.0149     2.3993     0.1539   118.5902
  314.5000   -35.7598     6.9585     6.8785     9.1429     7.6636     0.0056     2.3631     0.1672   117.2319
  315.0000   -36.0711     6.4907     6.3543     8.5785     7.6932     0.0253     2.3548     0.1756   116.6064
  315.5000   -36.5236     6.0545     5.7807     7.2173     7.7077     0.0177     2.3428     0.1861   116.4724
  316.0000   -36.5294     5.5698     5.4672     6.6848     7.7222     0.0267     2.3186     0.1945   116.7707
  316.5000   -36.5351     5.1839     5.0996     6.2780     7.7816     0.0357     2.3118     0.2002   117.0698
  317.0000   -36.5408     4.5216     4.4082     5.5782     7.7961     0.0280     2.2997     0.2082   117.5180
  317.5000   -36.5466     4.0741     4.0469     4.8210     7.8107     0.0094     2.2746     0.2249   117.9819
  318.0000   -36.7039     3.7222     3.7046     4.3128     7.8102     0.0008     2.2492     0.2414   118.7164
  318.5000   -37.0099     3.2173     3.3612     3.8587     7.8097     0.0084     2.2657     0.2345   119.3159
  319.0000   -37.0157     3.1068     3.1136     3.2214     7.8092     0.0233     2.2927     0.2170   119.9154
  319.5000   -37.1715     3.2373     3.1777     3.0889     7.8238     0.0248     2.3167     0.1925   121.2680
  320.0000   -37.1773     3.4205     3.4103     3.2408     7.8233     0.0126     2.3600     0.1657   124.3073
  320.5000   -37.1832     3.6901     3.8006     3.6917     7.8229     0.0066     2.3828     0.1603   126.0808
  321.0000   -37.6406     4.0363     4.1567     5.3672     7.8223     0.0173     2.4038     0.1510   127.1321
  321.5000   -37.9467     4.3879     4.4837     6.7897     7.8070     0.0260     2.4278     0.1335   128.3341
