~VERSION INFORMATION
 VERS.                2.0:   CWLS LOG ASCII STANDARD - VERSION 2.0
 WRAP.                 NO:   ONE LINE PER DEPTH STEP
~WELL INFORMATION
#MNEM.UNIT      DATA TYPE    INFORMATION
#----------   ------------   ------------------------------
 STRT.F          131.0000:   START DEPTH
 STOP.F         1085.0000:   STOP DEPTH
 STEP.F            0.5000:   STEP LENGTH
 NULL.          -999.2500:   NO VALUE
 COMP. U S NAVY-INTEX OIL:   COMPANY
 WELL.     UPR #3 #66-S-2:   WELL
 FLD .             TEAPOT:   FIELD
 LOC .       S2 T38N R78W:   LOCATION
 CNTY.            NATRONA:   COUNTY
 STAT.            WYOMING:   STATE
 CTRY. UNITED STATES OF AMERICA:   COUNTRY
 SRVC.       Schlumberger:   SERVICE COMPANY
 DATE.        18-JUL-1964:   LOGDATE
 API .       490250641300:   API NUMBER
~CURVE INFORMATION
#MNEM.UNIT       API CODE    CURVE DESCRIPTION
#----------   ------------   ------------------------------
 DEPT.F                  :   
 ASN .OHMM   05 041 16 00:   AMPLIFIED SHORT NORMAL 16"
 CILD.MMHO   05 110 46 00:   CONDUCTIVITY INDUCTION LOG DEEP
 ILD .OHMM   05 120 46 00:   INDUCTION LOG DEEP
 SPR .MV     05 010 01 00:   SPONTANEOUS POTENTIAL FROM RES.
 GR  .GAPI   30 310 01 00:   GAMMA RAY
 CALS.IN     60 280 50 00:   CALIPER FROM SONIC LOG
 DT  .US/F   60 520 33 00:   INTERVAL TRANSIT TIME
~PARAMETER INFORMATION
#MNEM.UNIT          VALUE    DESCRIPTION
#----------   ------------   ------------------------------
 PD  .                 GL:   PERMANENT DATUM
 EPD .F              5204:   ELEVATION PERMANENT DATUM
 LMF .                 KB:   LOG MEASURED FROM
 DAPD.F                 5:   FEET ABOVE PERMANENT DATUM
 DMF .                 KB:   DRILLING MEASURED FROM
 EKB .F              5209:   KELLING BUSHING
 EGL .F              5204:   GROUND LEVEL
 DATE.          7-18-1964:   RUN DATE
 RUN .                  1:   RUN NUMBER
 DD  .F              1085:   DEPTH DRILLER
 DL  .F              1086:   DEPTH LOGGER
 BLI .F              1085:   BOTTOM LOG INTERVAL
 TLI .F               131:   TOP LOG INTERVAL
 CS  .IN            8.625:   CASING SIZE
 CBD .F                10:   CASING BOTTOM DRILLER
 BS  .IN             6.75:   BIT SIZE
 BSD .F              5204:   BIT SIZE AT DEPTH
 DFT .                GEL:   DRILLING FLUID TYPE
 DFD .                9.5:   DRILLING FLUID DENSITY
 DFV .                 47:   DRILLING FLUID VISCOSITY
 DFL .                 10:   DRILLING FLUID LOSS
 MSS .           FLOWLINE:   MUD SAMPLE SOURCE
 RMS .OHMM           2.58:   RESISTIVITY MUD SAMPLE
 MST .F                93:   MUD SAMPLE TEMPERATURE
 RMF .OHMM           2.27:   RESISTIVITY MUD FILTRATE SAMPLE
 MFST.F                93:   MUD FILTRATE SAMPLE TEMPERATURE
 MFSS.                 FP:   MUD FILTRATE SAMPLE SOURCE
 TCS .HRS             1.5:   TIME CURCULATED STOPPED
 LUN .               3527:   LOGGING UNIT NUMBER
 LUL .              CSPR.:   LOGGING UNIT LOCATION
 ENGI.            WINKLER:   RECORDING ENGINEER
 WITN.          JORGENSEN:   WITNESSED BY
 CLNT.            A2DTECH:   CLIENT CODE
 ORIG.    1" , 2.5" PRINT:   ORIGIN OF DATA
 UWI .       490250641300:   UNIQUE WELL ID
 DICO. A2D Technologies, Inc.:   DIGITIZING COMPANY
~OTHER INFORMATION
~A   DEPT      ASN       CILD        ILD        SPR         GR       CALS         DT   
# ...
  859.0000     5.5003   205.2194     5.0873   -26.9076    82.3415     6.6687   107.7812
  859.5000     5.7680   185.8683     5.7033   -26.9062    82.9595     6.6980   107.0996
  860.0000     5.8872   174.9210     6.2401   -27.2024    82.9715     6.6993   106.1171
  860.5000     5.9788   173.4068     6.6107   -27.2009    80.1047     6.7159   105.7365
  861.0000     6.0408   173.3851     6.6136   -26.5863    77.2378     6.7172   105.7291
  861.5000     6.1027   173.3634     6.3189   -25.9708    80.8862     6.7185   105.5010
  862.0000     6.1646   173.3417     6.0241   -25.6528    81.9557     6.7043   104.9699
  862.5000     6.2463   177.7976     5.5806   -25.7070    79.0919     6.6756   103.8369
  863.0000     6.1816   185.2386     5.1371   -26.0032    78.1948     6.6614   103.0801
  863.5000     5.7490   194.4949     4.8423   -26.1136    76.6916     6.6631   103.2263
  864.0000     5.4588   213.0141     4.5456   -26.2976    77.9157     6.6645   103.7486
  864.5000     5.2992   227.4702     4.2529   -26.2961    80.2004     6.6658   105.0829
  865.0000     5.1218   236.5918     4.0873   -25.8283    79.4548     6.6672   107.5763
  865.5000     4.8849   244.2211     3.9610   -25.1024    77.0425     6.6837   108.4749
  866.0000     4.7371   250.3580     3.8151   -24.8034    79.5152     6.6550   109.2230
  866.5000     4.6784   255.8632     3.8185   -24.8019    81.3088     6.6107   110.1968
  867.0000     4.8273   258.1940     3.8214   -25.0981    80.4117     6.5665   111.1707
  867.5000     5.0059   255.0374     3.8244   -25.3943    82.2448     6.5374   111.1512
  868.0000     5.1588   244.7122     3.9762   -25.3928    81.9538     6.5388   108.9788
  868.5000     5.3157   235.7353     4.2103   -25.9866    81.0536     6.5401   108.5982
  869.0000     5.5062   226.7584     4.5779   -26.3046    80.4625     6.5566   108.5186
  869.5000     5.7521   214.7964     4.8784   -26.6195    78.9593     6.5425   107.4609
  870.0000     5.9881   201.3418     5.1790   -27.1728    72.6077     6.5441   106.3279
  870.5000     6.4873   189.3798     5.4795   -27.0928    71.4075     6.5455   105.2701
  871.0000     6.8162   178.9104     5.7800   -26.8720    68.9952     6.5772   104.2714
  871.5000     7.0166   172.6642     6.0805   -26.5729    65.3708     6.6402   103.6049
  872.0000     7.2369   164.8950     6.5298   -26.7064    63.4131     6.6387   102.9234
  872.5000     7.3562   157.6741     6.8353   -27.1652    61.7584     6.5360   102.2418
  873.0000     7.4161   154.9403     7.1448   -27.6340    61.1613     6.4765   101.7860
  873.5000     7.4463   153.4254     7.3056   -27.7574    66.1762     6.4323   101.1797
  874.0000     7.4469   153.4030     7.4345   -27.8433    69.9761     6.3576   101.1001
  874.5000     7.3881   153.3806     7.3968   -27.4567    70.8971     6.3282   101.6214
  875.0000     7.3294   155.5970     7.2421   -26.8600    71.6667     6.4059   102.2942
  875.5000     7.2390   159.4947     6.9965   -26.5609    74.9011     6.5744   102.8166
  876.0000     7.1486   165.2497     6.7837   -25.9643    77.4969     6.7429   103.1136
  876.5000     7.0226   168.2130     6.5525   -25.9628    74.1335     6.7139   103.5797
  877.0000     6.9005   169.6866     6.3254   -25.9871    69.4448     6.6241   103.9315
  877.5000     6.7389   171.1547     6.1161   -26.5552    72.1840     6.5190   104.1529
  878.0000     6.5555   178.5957     5.6731   -26.6171    82.6505     6.4434   104.4495
  878.5000     6.3879   194.9919     5.2295   -26.8499    83.5716     6.3817   105.0471
  879.0000     6.1571   214.4340     4.7860   -26.7470    85.0987     6.2744   105.7200
  879.5000     5.7918   235.7687     4.3424   -26.5491    88.2909     5.9472   106.2493
  880.0000     5.3770   245.8708     4.1965   -25.9524    86.4862     6.2981   107.2903
  880.5000     5.0808   248.9279     4.0506   -25.6533    84.9801     6.5274   111.1235
  881.0000     4.9033   250.1073     4.0536   -25.9494    87.1162     6.6199   114.2041
  881.5000     5.0523   246.6144     4.0734   -26.5429    83.7949     6.7125   115.3284
  882.0000     5.2309   242.9354     4.2341   -26.2438    83.2008     6.8202   112.9915
  882.5000     5.1721   236.0815     4.3948   -25.3495    82.9097     6.8063   111.6328
  883.0000     5.3527   226.8208     4.7480   -25.0505    82.0126     6.6557   110.5387
  883.5000     6.1802   211.9934     5.3115   -25.0490    80.9639     6.5355   107.2588
  884.0000     6.5389   193.2498     5.7698   -25.9405    78.8547     6.5672   102.8903
  884.5000     6.7630   176.8102     6.2282   -26.2366    77.5010     6.6600   102.2087
  885.0000     6.8566   170.8184     6.4583   -25.9077    77.0604     6.7839   102.4301
  885.5000     6.9501   166.3190     6.7595   -25.3408    80.3634     6.7488   103.1782
  886.0000     7.0595   161.8197     6.9112   -25.3393    82.3879     6.6941   103.4748
  886.5000     7.1373   157.3204     6.9141   -25.9332    81.9478     6.7262   102.9427
  887.0000     7.2547   155.8060     7.0658   -26.2294    88.4749     6.7732   102.1859
  887.5000     7.3443   155.7836     7.0687   -26.5253    89.3959     6.8049   101.9558
  888.0000     7.4042   155.7612     7.0716   -26.8214    87.7412     6.7910   101.8762
  888.5000     7.5235   155.4253     7.2233   -26.8199    85.4805     6.7465   101.3452
  889.0000     7.6428   154.2239     7.2282   -26.5205    89.4318     6.7326   100.4379
  889.5000     7.7027   154.2015     7.3780   -26.5191    90.5044     6.7191   100.1324
  890.0000     7.7626   154.1791     7.3810   -26.2200    90.6649     6.7052   100.4281
  890.5000     7.7632   154.1567     7.5327   -25.9210    89.1647     6.6913   101.0257
  891.0000     7.7638   154.1343     7.5357   -25.6219    85.2343     6.6775   101.3234
  891.5000     7.7288   154.1075     7.5387   -25.3229    88.5825     6.6789   101.3943
  892.0000     7.6898   154.0858     7.5417   -25.3214    87.6854     6.6802   100.7869
  892.5000     7.6073   154.0641     7.5446   -25.9300    92.8489     6.6663   100.3311
  893.0000     7.5169   155.5373     7.5476   -26.5090    98.3154     6.6680   100.8524
  893.5000     7.4839   157.0075     7.5506   -26.5074    98.7819     6.6694   101.3748
  894.0000     7.5161   156.9841     7.4048   -26.5060    97.7171     6.6707   101.5972
  894.5000     7.5900   156.9624     7.4082   -26.5045    98.3757     6.6720   101.7434
  895.0000     7.5906   158.4825     7.2623   -26.5030    95.8787     6.6886   102.0389
  895.5000     7.5912   161.5399     6.9676   -26.5015    94.1328     6.6899   102.1851
  896.0000     7.5324   165.8525     6.8214   -26.5000    94.1477     6.6913   102.1806
  896.5000     7.3846   169.1466     6.5269   -26.9618    92.3415     6.7078   102.2505
  897.0000     7.1775   172.2039     6.5298   -27.3896    88.5656     6.7244   102.5471
  897.5000     6.9407   175.2610     6.5327   -27.6860    85.6988     6.7409   103.1448
  898.0000     6.6979   178.3186     6.5357   -27.6843    82.3774     6.7574   104.7205
  898.5000     6.4809   180.6642     6.5159   -27.0877    79.9651     6.7588   105.3182
  899.0000     6.2422   181.4476     6.3611   -26.4910    76.9468     6.7602   105.8445
  899.5000     6.0824   183.6045     6.2064   -26.4895    75.1405     6.7618   106.8133
  900.0000     6.6271   186.5672     5.9028   -26.4881    78.7889     6.7631   108.0128
  900.5000     6.6475   191.0195     5.5407   -27.0821    79.2524     6.7488   107.2531
  901.0000     6.5769   196.9679     5.1468   -27.2252    78.8098     6.7503   106.5684
  901.5000     6.3163   201.4238     4.9920   -27.0789    80.6429     6.7360   106.1848
  902.0000     5.9372   205.8797     4.7738   -26.7795    82.9276     6.7220   106.6288
  902.5000     5.7004   210.3356     4.7773   -26.1828    81.8789     6.7235   107.6749
  903.0000     5.5229   210.3134     4.9290   -25.8838    80.3757     6.7247   110.6801
  903.5000     5.8202   210.2910     5.0807   -25.8823    81.1586     6.7259   111.4269
  904.0000     5.7318   208.7761     5.2324   -26.1785    81.3087     6.7575   111.4056
