~VERSION INFORMATION
 VERS.                2.0:   CWLS LOG ASCII STANDARD - VERSION 2.0
 WRAP.                 NO:   ONE LINE PER DEPTH STEP
~WELL INFORMATION
#MNEM.UNIT      DATA TYPE    INFORMATION
#----------   ------------   ------------------------------
 STRT.F            0.0000:   START DEPTH
 STOP.F         2230.0000:   STOP DEPTH
 STEP.F            0.5000:   STEP LENGTH
 NULL.          -999.2500:   NO VALUE
 COMP. LAWRENCE/ALLISON INC:   COMPANY
 WELL. NPR 3 SH X 34 #48-34:   WELL
 FLD .            WILDCAT:   FIELD
 LOC .      S34 T39N R78W:   LOCATION
 CNTY.            NATRONA:   COUNTY
 STAT.            WYOMING:   STATE
 CTRY. UNITED STATES OF AMERICA:   COUNTRY
 SRVC.            Unknown:   SERVICE COMPANY
 DATE.        02-SEP-1991:   LOGDATE
 API .       490251110600:   API NUMBER
~CURVE INFORMATION
#MNEM.UNIT       API CODE    CURVE DESCRIPTION
#----------   ------------   ------------------------------
 DEPT.F                  :   
 ROP .MIN/FT 91 810 01 00:   RAT OF DRILLING PENETRATION
 TGAS.UNITS  91 830 01 00:   TOTAL GAS FROM HOTWIRE
 C1  .VF     91 831 01 00:   METHANE
 C2  .VF     91 832 01 00:   ETHANE
 C3  .VF     91 833 01 00:   PROPANE
 C4  .VF     91 834 01 00:   BUTANE
 TT  .US/F   81 520 00 00:   TRANSIT TIME
 GR  .GAPI   81 310 01 00:   GAMMA RAY FROM CEMENT BOND LOG
~PARAMETER INFORMATION
#MNEM.UNIT          VALUE    DESCRIPTION
#----------   ------------   ------------------------------
 EKB .F              5145:   KELLING BUSHING
 EGL .F              5135:   GROUND LEVEL
 DATE.          09-2-1991:   RUN DATE
 RUN .                  1:   RUN NUMBER
 BLI .F              2400:   BOTTOM LOG INTERVAL
 TLI .F              2200:   TOP LOG INTERVAL
 ENGI.           C. TOWER:   RECORDING ENGINEER
 WITN.            R. HUSK:   WITNESSED BY
 CLNT.            A2DTECH:   CLIENT CODE
 ORIG.           5" PRINT:   ORIGIN OF DATA
 UWI .       490251110600:   UNIQUE WELL ID
 DICO. A2D Technologies, Inc.:   DIGITIZING COMPANY
~OTHER INFORMATION
~A    DEPT     ROP       TGAS         C1         C2         C3         C4          TT         GR  
# ...
 1296.0000     0.5386     5.6144    10.4735     2.1429  -999.2500  -999.2500  -999.2500  -999.2500
 1296.5000     0.5398     5.6276    10.4780     2.1429  -999.2500  -999.2500  -999.2500  -999.2500
 1297.0000     0.5411     5.6408    10.4824     2.1429  -999.2500  -999.2500  -999.2500  -999.2500
 1297.5000     0.5423     5.6540    10.4869     2.1429  -999.2500  -999.2500  -999.2500  -999.2500
 1298.0000     0.5436     5.6671    10.4914     2.1429  -999.2500  -999.2500  -999.2500  -999.2500
 1298.5000     0.5448     5.6803    10.4959     2.1429  -999.2500  -999.2500  -999.2500  -999.2500
 1299.0000     0.5461     5.6934    10.5004     2.1429  -999.2500  -999.2500  -999.2500  -999.2500
 1299.5000     0.5474     5.7066    10.5049     2.1429  -999.2500  -999.2500  -999.2500  -999.2500
 1300.0000     0.5486     5.7198    10.5094     2.1429  -999.2500  -999.2500  -999.2500  -999.2500
 1300.5000     0.5499     5.7330    10.5138     2.1429  -999.2500  -999.2500  -999.2500  -999.2500
 1301.0000     0.5511     5.7461    10.5183     2.1429  -999.2500  -999.2500  -999.2500  -999.2500
 1301.5000     0.5524     5.7593    10.5228     2.1429  -999.2500  -999.2500  -999.2500  -999.2500
 1302.0000     0.5536     5.7724    10.5273     2.1429  -999.2500  -999.2500  -999.2500  -999.2500
 1302.5000     0.5549     5.7856    10.5318     2.1429  -999.2500  -999.2500  -999.2500  -999.2500
 1303.0000     0.5562     5.7988    10.5363     2.1429  -999.2500  -999.2500  -999.2500  -999.2500
 1303.5000     0.5574     5.8120    10.5407     2.1428  -999.2500  -999.2500  -999.2500  -999.2500
 1304.0000     0.5587     5.8251    10.5452     2.1429  -999.2500  -999.2500  -999.2500  -999.2500
 1304.5000     0.5586     5.8383    10.5497     2.1450  -999.2500  -999.2500  -999.2500  -999.2500
 1305.0000     0.5580     5.8514    10.5542     2.1473  -999.2500  -999.2500  -999.2500  -999.2500
 1305.5000     0.5574     5.8646    10.5587     2.1497  -999.2500  -999.2500  -999.2500  -999.2500
 1306.0000     0.5568     5.8778    10.5632     2.1521  -999.2500  -999.2500  -999.2500  -999.2500
 1306.5000     0.5562     5.8910    10.5677     2.1544  -999.2500  -999.2500  -999.2500  -999.2500
 1307.0000     0.5556     5.9041    10.5721     2.1568  -999.2500  -999.2500  -999.2500  -999.2500
 1307.5000     0.5550     5.9173    10.5766     2.1592  -999.2500  -999.2500  -999.2500  -999.2500
 1308.0000     0.5544     5.9304    10.5811     2.1615  -999.2500  -999.2500  -999.2500  -999.2500
 1308.5000     0.5538     5.9436    10.5856     2.1639  -999.2500  -999.2500  -999.2500  -999.2500
 1309.0000     0.5532     5.9568    10.5901     2.1663  -999.2500  -999.2500  -999.2500  -999.2500
 1309.5000     0.5526     5.9700    10.5946     2.1686  -999.2500  -999.2500  -999.2500  -999.2500
 1310.0000     0.5520     5.9831    10.5990     2.1710  -999.2500  -999.2500  -999.2500  -999.2500
 1310.5000     0.5514     5.9963    10.6035     2.1734  -999.2500  -999.2500  -999.2500  -999.2500
 1311.0000     0.5508     6.0094    10.6080     2.1757  -999.2500  -999.2500  -999.2500  -999.2500
 1311.5000     0.5502     6.0226    10.6125     2.1781  -999.2500  -999.2500  -999.2500  -999.2500
 1312.0000     0.5496     6.0358    10.6170     2.1804  -999.2500  -999.2500  -999.2500  -999.2500
 1312.5000     0.5490     6.0490    10.6215     2.1828  -999.2500  -999.2500  -999.2500  -999.2500
 1313.0000     0.5483     6.0621    10.6260     2.1852  -999.2500  -999.2500  -999.2500  -999.2500
 1313.5000     0.5477     6.0753    10.6304     2.1875  -999.2500  -999.2500  -999.2500  -999.2500
 1314.0000     0.5471     6.0885    10.6349     2.1899  -999.2500  -999.2500  -999.2500  -999.2500
 1314.5000     0.5465     6.1016    10.6394     2.1923  -999.2500  -999.2500  -999.2500  -999.2500
 1315.0000     0.5465     6.1148    10.6439     2.1946  -999.2500  -999.2500  -999.2500  -999.2500
 1315.5000     0.5465     6.1280    10.6484     2.1970  -999.2500  -999.2500  -999.2500  -999.2500
 1316.0000     0.5465     6.1411    10.6529     2.1994  -999.2500  -999.2500  -999.2500  -999.2500
 1316.5000     0.5465     6.1543    10.6573     2.2017  -999.2500  -999.2500  -999.2500  -999.2500
 1317.0000     0.5465     6.1675    10.6618     2.2041  -999.2500  -999.2500  -999.2500  -999.2500
 1317.5000     0.5465     6.1806    10.6663     2.2064  -999.2500  -999.2500  -999.2500  -999.2500
 1318.0000     0.5465     6.1938    10.6708     2.2088  -999.2500  -999.2500  -999.2500  -999.2500
 1318.5000     0.5465     6.2070    10.6753     2.2112  -999.2500  -999.2500  -999.2500  -999.2500
 1319.0000     0.5465     6.2201    10.6798     2.2135  -999.2500  -999.2500  -999.2500  -999.2500
 1319.5000     0.5465     6.2333    10.6843     2.2159  -999.2500  -999.2500  -999.2500  -999.2500
 1320.0000     0.5465     6.2465    10.6888     2.2183  -999.2500  -999.2500  -999.2500  -999.2500
 1320.5000     0.5465     6.2596    10.6932     2.2206  -999.2500  -999.2500  -999.2500  -999.2500
 1321.0000     0.5465     6.2728    10.6977     2.2230  -999.2500  -999.2500  -999.2500  -999.2500
 1321.5000     0.5465     6.2860    10.7022     2.2253  -999.2500  -999.2500  -999.2500  -999.2500
 1322.0000     0.5465     6.2991    10.7067     2.2277  -999.2500  -999.2500  -999.2500  -999.2500
 1322.5000     0.5465     6.3123    10.7112     2.2301  -999.2500  -999.2500  -999.2500  -999.2500
 1323.0000     0.5465     6.3255    10.7156     2.2324  -999.2500  -999.2500  -999.2500  -999.2500
 1323.5000     0.5465     6.3386    10.7201     2.2348  -999.2500  -999.2500  -999.2500  -999.2500
 1324.0000     0.5465     6.3518    10.7246     2.2372  -999.2500  -999.2500  -999.2500  -999.2500
 1324.5000     0.5465     6.3650    10.7291     2.2395  -999.2500  -999.2500  -999.2500  -999.2500
 1325.0000     0.5465     6.3781    10.7336     2.2419  -999.2500  -999.2500  -999.2500  -999.2500
 1325.5000     0.5466     6.3913    10.7381     2.2443  -999.2500  -999.2500  -999.2500  -999.2500
 1326.0000     0.5472     6.4046    10.7426     2.2466  -999.2500  -999.2500  -999.2500  -999.2500
 1326.5000     0.5478     6.4176    10.7471     2.2490  -999.2500  -999.2500  -999.2500  -999.2500
 1327.0000     0.5484     6.4260    10.7508     2.2513  -999.2500  -999.2500  -999.2500  -999.2500
 1327.5000     0.5490     6.4072    10.7533     2.2537  -999.2500  -999.2500  -999.2500  -999.2500
 1328.0000     0.5496     6.3888    10.7558     2.2561  -999.2500  -999.2500  -999.2500  -999.2500
 1328.5000     0.5501     6.3705    10.7582     2.2584  -999.2500  -999.2500  -999.2500  -999.2500
 1329.0000     0.5507     6.3522    10.7607     2.2608  -999.2500  -999.2500  -999.2500  -999.2500
 1329.5000     0.5513     6.3339    10.7632     2.2632  -999.2500  -999.2500  -999.2500  -999.2500
 1330.0000     0.5519     6.3156    10.7656     2.2655  -999.2500  -999.2500  -999.2500  -999.2500
 1330.5000     0.5525     6.2973    10.7681     2.2679  -999.2500  -999.2500  -999.2500  -999.2500
 1331.0000     0.5530     6.2790    10.7705     2.2703  -999.2500  -999.2500  -999.2500  -999.2500
 1331.5000     0.5536     6.2606    10.7730     2.2726  -999.2500  -999.2500  -999.2500  -999.2500
 1332.0000     0.5542     6.2423    10.7755     2.2750  -999.2500  -999.2500  -999.2500  -999.2500
 1332.5000     0.5548     6.2240    10.7779     2.2773  -999.2500  -999.2500  -999.2500  -999.2500
 1333.0000     0.5554     6.2057    10.7804     2.2797  -999.2500  -999.2500  -999.2500  -999.2500
 1333.5000     0.5560     6.1874    10.7829     2.2821  -999.2500  -999.2500  -999.2500  -999.2500
 1334.0000     0.5565     6.1691    10.7853     2.2844  -999.2500  -999.2500  -999.2500  -999.2500
 1334.5000     0.5571     6.1507    10.7878     2.2868  -999.2500  -999.2500  -999.2500  -999.2500
 1335.0000     0.5577     6.1324    10.7903     2.2892  -999.2500  -999.2500  -999.2500  -999.2500
 1335.5000     0.5583     6.1141    10.7927     2.2915  -999.2500  -999.2500  -999.2500  -999.2500
 1336.0000     0.5589     6.0958    10.7952     2.2939  -999.2500  -999.2500  -999.2500  -999.2500
