~VERSION INFORMATION
 VERS.                2.0:   CWLS LOG ASCII STANDARD - VERSION 2.0
 WRAP.                 NO:   ONE LINE PER DEPTH STEP
~WELL INFORMATION
#MNEM.UNIT      DATA TYPE    INFORMATION
#----------   ------------   ------------------------------
 STRT.F           37.5000:   START DEPTH
 STOP.F          525.5000:   STOP DEPTH
 STEP.F            0.5000:   STEP LENGTH
 NULL.          -999.2500:   NO VALUE
 COMP. LAWRENCE/ALLISON INC:   COMPANY
 WELL.    74-11 SX #10-10:   WELL
 FLD .             TEAPOT:   FIELD
 LOC .      S10 T38N R78W:   LOCATION
 CNTY.            NATRONA:   COUNTY
 STAT.            WYOMING:   STATE
 CTRY. UNITED STATES OF AMERICA:   COUNTRY
 SRVC.            Unknown:   SERVICE COMPANY
 DATE.        08-AUG-1984:   LOGDATE
 API .       490251097800:   API NUMBER
~CURVE INFORMATION
#MNEM.UNIT       API CODE    CURVE DESCRIPTION
#----------   ------------   ------------------------------
 DEPT.F                  :   
 CNC .DEC    42 890 03 00:   NEUTRON POROSITY SANDSTONE
 AC  .US/F   60 520 00 00:   ACCOUSTIC
 GRD .GAPI   45 310 01 00:   GAMMA RAY FROM DENSITY LOG
 CALD.IN     45 280 60 00:   CALIPER FROM DENSITY LOG
 CORR.G/C3   45 356 01 00:   DENSITY CORRECTION
 DPHI.DEC    45 890 12 00:   DENSITY POROSITY SANDSTONE
 DEN .G/C3   45 350 01 00:   COMPENSATED BULK DENSTIY
 RILD.OHMM   07 120 46 00:   RESISTIVITY INDUCTION LOG DEEP
 RILM.OHMM   07 120 44 00:   RESISTIVITY INDUCTION LOG MEDIUM
 RFOC.OHMM   07 220 04 00:   RESISTIVITY FOCUSED LOG
 SPR .MV     07 010 01 00:   SPONTANEOUS POTENTIAL FROM RES.
~PARAMETER INFORMATION
#MNEM.UNIT          VALUE    DESCRIPTION
#----------   ------------   ------------------------------
 PD  .                 GL:   PERMANENT DATUM
 EPD .F              5180:   ELEVATION PERMANENT DATUM
 LMF .                 GL:   LOG MEASURED FROM
 DMF .                 GL:   DRILLING MEASURED FROM
 EGL .F              5180:   GROUND LEVEL
 DATE.             8-8-84:   RUN DATE
 RUN .                  1:   RUN NUMBER
 DD  .F               525:   DEPTH DRILLER
 DL  .F               526:   DEPTH LOGGER
 BLI .F               525:   BOTTOM LOG INTERVAL
 TLI .F                42:   TOP LOG INTERVAL
 CS  .IN            9.625:   CASING SIZE
 CBD .F                42:   CASING BOTTOM DRILLER
 CBL .F                42:   CASING BOTTOM LOGGER
 BS  .IN            7.875:   BIT SIZE
 BSD .F               525:   BIT SIZE AT DEPTH
 DFT .          KCL WATER:   DRILLING FLUID TYPE
 MSS .           FLOWLINE:   MUD SAMPLE SOURCE
 RMS .OHMM           .141:   RESISTIVITY MUD SAMPLE
 MST .F                78:   MUD SAMPLE TEMPERATURE
 RMF .OHMM            .12:   RESISTIVITY MUD FILTRATE SAMPLE
 MFST.F                78:   MUD FILTRATE SAMPLE TEMPERATURE
 RMC .OHMM             .2:   RESISTIVITY MUD CAKE
 MCST.F                78:   MUD CAKE SAMPLE TEMPERATURE
 MFSS.               MEAS:   MUD FILTRATE SAMPLE SOURCE
 MCSS.               MEAS:   MUD CAKE SAMPLE SOURCE
 RMB .OHMM            .13:   RESISTIVITY MUD AT BHT
 BHT .F                89:   BOTTOM HOLE TEMPERATURE
 MRT .F                89:   MAXIMUM RECORDED TEMPERATURE
 LUN .               6307:   LOGGING UNIT NUMBER
 LUL .               GLTE:   LOGGING UNIT LOCATION
 ENGI.            JOHNSON:   RECORDING ENGINEER
 WITN.              FIVAS:   WITNESSED BY
 CLNT.            A2DTECH:   CLIENT CODE
 ORIG.           5" PRINT:   ORIGIN OF DATA
 UWI .       490251097800:   UNIQUE WELL ID
 DICO. A2D Technologies, Inc.:   DIGITIZING COMPANY
~OTHER INFORMATION
~A   DEPT      CNC         AC        GRD       CALD       CORR       DPHI        DEN       RILD       RILM       RFOC        SPR   
# ...
  403.5000     0.2856    92.3280    92.8970     7.8910     0.0510     0.1210     2.4750    11.8810     7.9260    12.4460   -40.4320
  404.0000     0.2980    92.3280    91.4110     7.8910     0.0680     0.1250     2.4750    11.1230     7.9990    12.2520   -40.8120
  404.5000     0.3270    92.8000    90.2790     7.8920     0.0730     0.1330     2.4670    10.0120     7.1320    11.9740   -41.1940
  405.0000     0.3406    93.4210    93.3380     7.8920     0.0620     0.1440     2.4570     8.9010     6.3440    11.6690   -41.5750
  405.5000     0.3396    94.0420    99.6100     7.8930     0.0560     0.1630     2.4260     7.7900     5.5550    11.6690   -41.9920
  406.0000     0.3310    94.7570   109.1600     7.8940     0.0550     0.1820     2.3960     6.1240     4.6880    11.0840   -42.4420
  406.5000     0.3109    97.7750   118.5640     7.8940     0.0680     0.1900     2.3640     6.3130     4.4360     9.1360   -42.8930
  407.0000     0.2924   101.3320   115.8930     7.8950     0.0590     0.1690     2.3760     6.6910     4.6760     7.1870   -43.3430
  407.5000     0.2859   104.8890   106.7020     7.8950     0.0490     0.1460     2.4150     7.0310     5.1560     5.4330   -43.7440
  408.0000     0.2976   107.5100    97.6380     7.8960     0.0440     0.1260     2.4510     7.1350     5.6360     7.2910   -43.7440
  408.5000     0.3000   104.7700    94.9250     7.8960     0.0480     0.1250     2.4720     7.2290     6.0680     9.9460   -43.6180
  409.0000     0.3009    98.8900    94.8560     7.8970     0.0500     0.1270     2.4710     7.6390     6.6130    12.6010   -43.4980
  409.5000     0.2809    93.0110    94.8470     7.8980     0.0390     0.1260     2.4690     8.7850     7.1090    13.5220   -43.3770
  410.0000     0.2714    90.8380    95.0420     7.8980     0.0320     0.1230     2.4690     9.9300     7.6050    12.6890   -43.2580
  410.5000     0.2710    90.4320    94.6530     7.8990     0.0240     0.1240     2.4720    11.0760     7.9570    12.3320   -43.1380
  411.0000     0.2722    90.3040    93.1760     7.8980     0.0180     0.1240     2.4740    12.2220     8.0640    12.3700   -43.0170
  411.5000     0.2734    90.3040    91.3660     7.8970     0.0360     0.1230     2.4750    12.8470     8.1700    12.4250   -43.0570
  412.0000     0.2756    90.4990    91.8630     7.8970     0.0560     0.1230     2.4750    12.9530     8.2730    12.4790   -43.2550
  412.5000     0.2737    90.7820    92.5150     7.8960     0.0660     0.1250     2.4720    13.0580     8.4400    12.5340   -43.4520
  413.0000     0.2695    91.0640    94.7560     7.8960     0.0550     0.1290     2.4690    13.1530     8.6080    12.6750   -43.6480
  413.5000     0.2720    91.3160    98.5900     7.8950     0.0440     0.1270     2.4680    13.5070     8.7750    12.9020   -43.8470
  414.0000     0.2732    91.5180   103.5560     7.8950     0.0480     0.1210     2.4740    13.8290     8.9420    13.1300   -43.6730
  414.5000     0.2716    91.2310   101.3130     7.8940     0.0650     0.1150     2.4850    14.1510     9.1100    13.3570   -43.1280
  415.0000     0.2707    90.9170    98.0400     7.8930     0.0760     0.1090     2.4950    14.4720     9.2770    13.5850   -42.5850
  415.5000     0.2700    90.6020    94.6020     7.8930     0.0810     0.1050     2.5050    14.8260     9.4440    13.8120   -42.0410
  416.0000     0.2734    90.2880    90.9550     7.8920     0.0860     0.1040     2.5050    15.0280     9.6120    14.0400   -41.7730
  416.5000     0.2755    89.9730    90.5770     7.8920     0.0820     0.1080     2.5030    15.2530     9.8210    14.2900   -41.7860
  417.0000     0.2692    89.6590    92.8170     7.8910     0.0760     0.1110     2.5000    15.4770     9.7060    14.4220   -41.5650
  417.5000     0.2717    89.3440    93.9600     7.8910     0.0690     0.1060     2.5050    15.7010     9.7450    14.5680   -41.7280
  418.0000     0.2729    89.0290    92.2760     7.8900     0.0730     0.1020     2.5100    15.9640     9.8010    14.7150   -41.9020
  418.5000     0.2725    88.7280    89.8070     7.8890     0.0910     0.0980     2.5150    16.2650     9.8560    14.8610   -42.0760
  419.0000     0.2703    88.4380    91.5730     7.8890     0.1010     0.1000     2.5150    16.5660     9.9120    15.0230   -42.3300
  419.5000     0.2650    88.1470    93.6680     7.8880     0.1040     0.1050     2.5090    16.8670     9.9680    15.2420   -42.6650
  420.0000     0.2562    87.8570    94.5530     7.8880     0.0560     0.1110     2.4960    17.1680    10.0240    15.1600   -42.9990
  420.5000     0.2584    87.5670    91.8040     7.8870     0.0310     0.1160     2.4830    17.5000    10.0800    15.0700   -43.3330
  421.0000     0.2602    87.2670    91.6780     7.8860     0.0360     0.1180     2.4830    17.4720    10.1350    14.9800   -43.6680
  421.5000     0.2608    87.5360    89.9560     7.8860     0.0550     0.1180     2.4850    17.4320    10.1770    14.8890   -44.0020
  422.0000     0.2611    87.8130    87.5850     7.8850     0.0730     0.1180     2.4820    17.3920    10.2050    14.6900   -44.3360
  422.5000     0.2629    88.0900    85.1340     7.8850     0.0910     0.1220     2.4780    17.3530    10.2320    15.0080   -44.6710
  423.0000     0.2675    88.3670    84.5030     7.8840     0.0960     0.1220     2.4790    17.3130    10.2570    15.2960   -45.0050
  423.5000     0.2750    88.4820    85.5110     7.8840     0.1010     0.1210     2.4800    17.2730    10.1810    15.5850   -45.3400
  424.0000     0.2875    88.4820    86.9280     7.8830     0.0950     0.1210     2.4790    17.2330    10.0960    15.9600   -45.6740
  424.5000     0.2856    88.4820    88.3660     7.8820     0.0660     0.1230     2.4710    17.1940    10.0700    15.7930   -46.0080
  425.0000     0.2812    88.4820    86.2520     7.8820     0.0250     0.1280     2.4630    17.1540    10.1770    15.4580   -46.3430
  425.5000     0.2759    88.4820    83.7650     7.8810     0.0040     0.1350     2.4570    17.1140    10.2590    15.1240   -46.6770
  426.0000     0.2815    88.8310    84.1330     7.8810     0.0230     0.1330     2.4630    17.0740    10.3410    14.7900   -47.0110
  426.5000     0.2824    89.1210    87.3670     7.8800     0.0420     0.1270     2.4730    17.0230    10.4480    14.5560   -47.3450
  427.0000     0.2820    89.0550    90.6730     7.8800     0.0610     0.1210     2.4810    17.0690    10.4280    14.8560   -47.6810
  427.5000     0.2711    88.4830    90.2820     7.8790     0.0650     0.1160     2.4820    17.1350    10.3990    15.0860   -48.0270
  428.0000     0.2593    87.9110    88.2270     7.8790     0.0700     0.1210     2.4770    17.2010    10.3700    15.3170   -48.0070
  428.5000     0.2599    87.4700    85.6390     7.8790     0.0460     0.1260     2.4650    17.2670    10.3410    15.5250   -47.8660
  429.0000     0.2608    87.6620    83.4580     7.8790     0.0190     0.1310     2.4590    17.3390    10.3120    14.5560   -47.7210
  429.5000     0.2638    88.1090    85.7360     7.8790     0.0090     0.1320     2.4620    17.0730    10.2830    14.6010   -47.5760
  430.0000     0.2898    88.5560    87.6860     7.8790     0.0340     0.1290     2.4680    16.7540    10.2570    14.6910   -47.4310
  430.5000     0.2941    89.0030    88.9750     7.8790     0.0550     0.1240     2.4730    16.3790    10.1630    14.8260   -47.2820
  431.0000     0.2894    89.4510    89.4250     7.8790     0.0620     0.1210     2.4790    16.0040    10.0280    14.6520   -47.0790
  431.5000     0.2881    89.8980    92.4070     7.8790     0.0510     0.1200     2.4790    15.6280     9.8930    14.3030   -47.3470
  432.0000     0.2952    90.3450    95.8850     7.8790     0.0470     0.1180     2.4790    15.2530     9.7580    13.9550   -47.9170
  432.5000     0.2986    90.7920    99.7830     7.8790     0.0570     0.1140     2.4890    14.8780     9.6240    13.6060   -48.4960
  433.0000     0.3004    91.2390    99.6110     7.8790     0.0770     0.1060     2.5030    14.5720     9.4890    13.2580   -49.0760
  433.5000     0.2966    91.6860    99.0870     7.8790     0.0980     0.0970     2.5170    14.3360     9.3540    13.0330   -49.6580
