~VERSION INFORMATION
 VERS.                2.0:   CWLS LOG ASCII STANDARD - VERSION 2.0
 WRAP.                 NO:   ONE LINE PER DEPTH STEP
~WELL INFORMATION
#MNEM.UNIT      DATA TYPE    INFORMATION
#----------   ------------   ------------------------------
 STRT.F           32.0000:   START DEPTH
 STOP.F          571.0000:   STOP DEPTH
 STEP.F            0.5000:   STEP LENGTH
 NULL.          -999.2500:   NO VALUE
 COMP. FENIX & SCISSON INCORP.:   COMPANY
 WELL.      NPR-3 #21-S-3:   WELL
 FLD .             TEAPOT:   FIELD
 LOC .       S3 T38N R78W:   LOCATION
 CNTY.            NATRONA:   COUNTY
 STAT.            WYOMING:   STATE
 CTRY. UNITED STATES OF AMERICA:   COUNTRY
 SRVC.           BIRDWELL:   SERVICE COMPANY
 DATE.        25-JUL-1978:   LOGDATE
 API .       490251067100:   API NUMBER
~CURVE INFORMATION
#MNEM.UNIT       API CODE    CURVE DESCRIPTION
#----------   ------------   ------------------------------
 DEPT.F                  :   
 CALD.IN     45 280 60 00:   CALIPER FROM DENSITY LOG
 CORR.G/C3   45 356 01 00:   DENSITY CORRECTION
 DPHI.DEC    45 890 10 00:   DENSITY POROSITY LIMESTONE
 GRD .GAPI   45 310 01 00:   GAMMA RAY FROM DENSITY LOG
 RHOB.G/C3   45 350 01 00:   BULK DENSITY
 ILD .OHMM   05 120 46 00:   INDUCTION LOG DEEP
 SN  .OHMM   05 040 16 00:   SHORT NORMAL 16"
 SPR .MV     05 010 01 00:   SPONTANEOUS POTENTIAL FROM RES.
 NPHI.DEC    42 890 01 00:   NEUTRON POROSITY LIMESTONE
~PARAMETER INFORMATION
#MNEM.UNIT          VALUE    DESCRIPTION
#----------   ------------   ------------------------------
 PD  .                 GL:   PERMANENT DATUM
 EPD .F              5203:   ELEVATION PERMANENT DATUM
 LMF .                 KB:   LOG MEASURED FROM
 DAPD.F                 4:   FEET ABOVE PERMANENT DATUM
 DMF .                 KB:   DRILLING MEASURED FROM
 EKB .F              5207:   KELLING BUSHING
 EGL .F              5203:   GROUND LEVEL
 DATE.        25-JUL-1978:   RUN DATE
 RUN .                  1:   RUN NUMBER
 DD  .F               565:   DEPTH DRILLER
 DL  .F               573:   DEPTH LOGGER
 BLI .F               566:   BOTTOM LOG INTERVAL
 TLI .F                46:   TOP LOG INTERVAL
 CS  .IN            8.625:   CASING SIZE
 CBD .F                40:   CASING BOTTOM DRILLER
 CBL .F                48:   CASING BOTTOM LOGGER
 BS  .IN            7.875:   BIT SIZE
 BSD .F               565:   BIT SIZE AT DEPTH
 DFT .                KCL:   DRILLING FLUID TYPE
 DFD .                8.6:   DRILLING FLUID DENSITY
 DFV .                 30:   DRILLING FLUID VISCOSITY
 DFPH.                  9:   DRILLING FLUID PH
 MSS .           FLOWLINE:   MUD SAMPLE SOURCE
 LUN .               2958:   LOGGING UNIT NUMBER
 LUL .               CASP:   LOGGING UNIT LOCATION
 WITN.           MCGINLEY:   WITNESSED BY
 CLNT.            A2DTECH:   CLIENT CODE
 ORIG.           5" PRINT:   ORIGIN OF DATA
 UWI .       490251067100:   UNIQUE WELL ID
 DICO. A2D Technologies, Inc.:   DIGITIZING COMPANY
~OTHER INFORMATION
~A   DEPT     CALD       CORR       DPHI         GRD      RHOB        ILD         SN        SPR       NPHI   
# ...
  506.5000     6.8854    -0.0028     0.1525    89.7192     2.4459    11.8533    10.2249   -42.0044     0.2938
  507.0000     6.9154    -0.0028     0.1582    89.5705     2.4332    11.8630    10.0958   -42.2871     0.2961
  507.5000     6.9455    -0.0028     0.1573    89.8727     2.4234    11.7908    10.1046   -42.2727     0.2988
  508.0000     6.9606     0.0002     0.1477    91.0753     2.4332    11.8027    10.0417   -42.2583     0.2994
  508.5000     6.9756     0.0033     0.1381    92.4281     2.4452    11.7287     9.9836   -42.0892     0.2998
  509.0000     6.9907     0.0063     0.1357    93.0302     2.4512    11.6575     9.9923   -41.7831     0.3007
  509.5000     7.0058     0.0063     0.1364    93.1818     2.4557    11.6692    10.0010   -41.7656     0.2983
  510.0000     7.1106     0.0033     0.1420    91.8319     2.4557    11.6786    10.0099   -42.2006     0.2953
  510.5000     7.1422     0.0033     0.1432    90.3319     2.4528    11.6075    10.0205   -42.3347     0.2950
  511.0000     7.1857     0.0048     0.1426    88.6817     2.4490    11.6170    10.0292   -42.0195     0.2938
  511.5000     7.1858     0.0049     0.1420    88.2327     2.4468    11.4673    10.0380   -41.5593     0.2914
  512.0000     7.1860     0.0049     0.1417    88.7067     2.4483    11.3977     9.9091   -41.5449     0.2905
  512.5000     7.1711     0.0049     0.1411    90.1880     2.4498    11.4091     9.9177   -41.6791     0.2905
  513.0000     7.1563     0.0049     0.1405    91.3906     2.4476    11.4183     9.9950   -41.8132     0.2905
  513.5000     7.1565     0.0051     0.1396    92.1428     2.4491    11.5064     9.9350   -41.7952     0.2902
  514.0000     7.1567     0.0064     0.1406    92.8951     2.4514    11.3581     9.8753   -41.9329     0.2890
  514.5000     7.1269     0.0049     0.1453    91.9956     2.4468    11.2114     9.8861   -42.2157     0.2839
  515.0000     7.1121     0.0065     0.1450    90.6457     2.4424    11.0671     9.8246   -42.1977     0.2788
  515.5000     7.1123     0.0080     0.1444    89.5961     2.4432    10.9999     9.8352   -42.3318     0.2779
  516.0000     7.1273     0.0095     0.1432    91.0991     2.4447    10.8603     9.7740   -42.6146     0.2782
  516.5000     7.1275     0.0110     0.1351    94.8659     2.4454    10.7181     9.6507   -43.1945     0.2779
  517.0000     7.1277     0.0125     0.1339    95.7571     2.4559    10.5094     9.4614   -43.3287     0.2779
  517.5000     7.1278     0.0127     0.1338    95.9087     2.4590    10.5179     9.3399   -43.3106     0.2771
  518.0000     7.1280     0.0156     0.1342    95.9101     2.4590    10.3823     9.2200   -43.4484     0.2759
  518.5000     7.1281     0.0156     0.1311    96.5122     2.4590    10.2482     9.2301   -43.7312     0.2747
  519.0000     7.1133     0.0156     0.1255    98.3155     2.4696    10.2567     9.1746   -43.8653     0.2735
  519.5000     7.1135     0.0141     0.1228    97.2659     2.4741     9.9859     9.1175   -43.9995     0.2702
  520.0000     7.1136     0.0111     0.1279    95.6153     2.4748     9.5912     9.0025   -44.4308     0.2690
  520.5000     7.1287     0.0081     0.1288    95.9175     2.4748     9.2102     8.8869   -44.2642     0.2690
  521.0000     7.1289     0.0066     0.1291    96.8240     2.4725     9.0272     8.6527   -44.2498     0.2702
  521.5000     7.1140     0.0067     0.1333    98.8229     2.4696     9.1617     8.4830   -44.3839     0.2726
  522.0000     7.0993     0.0082     0.1375    99.8257     2.4621     9.2324     8.3166   -44.6667     0.2738
  522.5000     7.0994     0.0067     0.1399    96.9747     2.4516     9.2398     8.1534   -44.3515     0.2711
  523.0000     7.0996     0.0067     0.1405    96.0749     2.4494     9.1203     7.9952   -44.3371     0.2708
  523.5000     7.0997     0.0052     0.1414    96.3771     2.4486     8.8488     7.6779   -44.9170     0.2738
  524.0000     7.1148     0.0067     0.1423    96.8290     2.4472     7.0327     7.5273   -45.0547     0.2863
  524.5000     7.1299     0.0082     0.1432    97.4310     2.4479     6.3038     7.2786   -44.8881     0.2998
  525.0000     7.1151     0.0085     0.1441    97.8829     2.4479     5.9706     6.7996   -44.8737     0.3130
  525.5000     7.1167     0.0068     0.1444    98.4850     2.4472     5.8532     6.4403   -44.8588     0.3133
  526.0000     7.1304     0.0053     0.1465    99.0931     2.4457     5.8579     6.0968   -45.2906     0.3145
  526.5000     7.1305     0.0023     0.1510    99.8824     2.4420     5.8626     5.9406   -45.4248     0.3666
  527.0000     7.1307     0.0008     0.1645   101.6429     2.4315     5.8673     5.9869   -45.4067     0.3768
  527.5000     7.1308     0.0008     0.1781   103.2960     2.4166     5.9947     6.0753   -45.0951     0.3793
  528.0000     7.1310     0.0053     0.1901   106.1503     2.4008     6.0421     6.2076   -44.7835     0.3984
  528.5000     7.1311     0.0129     0.1870   107.3530     2.3769     6.2159     6.8426   -45.0663     0.4053
  529.0000     7.1462     0.0129     0.1771   107.6548     2.3717     7.3900     7.7001   -45.4978     0.4130
  529.5000     7.1314     0.0099     0.1489   108.5571     2.3829     8.1447     8.3140   -45.7804     0.4065
  530.0000     7.1315     0.0069     0.1261   112.1622     2.4391     8.8537     8.6171   -45.6166     0.4017
  530.5000     7.1317     0.0069     0.1228   113.9745     2.4661     9.1084     8.9865   -45.5993     0.3825
  531.0000     7.1319     0.0084     0.1207   111.4987     2.4833     9.2422     9.1823   -45.2877     0.2969
  531.5000     7.1320     0.0100     0.1198   105.2855     2.4826     9.2498     9.3179   -44.8275     0.2987
  532.0000     7.1322     0.0130     0.1201    99.1054     2.4804     9.3229     9.5209   -44.6645     0.3023
  532.5000     7.1024     0.0145     0.1182    96.7044     2.4826     9.3948     9.5951   -44.6501     0.2996
  533.0000     7.1325     0.0130     0.1159    94.0032     2.4872     9.5328     9.7367   -44.6357     0.2990
  533.5000     7.1625     0.0070     0.1147    92.6533     2.4886     9.6728     9.8805   -44.6152     0.3017
  534.0000     7.1626     0.0055     0.1138    92.9551     2.4902     9.8149    10.0959   -44.1367     0.3046
  534.5000     7.1478     0.0070     0.1180    97.0106     2.4909     9.9590    10.2470   -43.5487     0.3119
  535.0000     7.1330     0.0086     0.1213   100.7658     2.4894    10.0359    10.4703   -43.0885     0.3164
  535.5000     7.1481     0.0071     0.1186   100.6171     2.4820    10.2539    10.6984   -42.9255     0.3158
  536.0000     7.1633     0.0041     0.1153   100.7848     2.4865    10.4064    10.8563   -43.0596     0.2969
  536.5000     7.1485     0.0041     0.1162   102.7225     2.4880    10.6322    11.0166   -42.8966     0.2855
  537.0000     7.1486     0.0041     0.1195   103.7750     2.4858    10.8629    11.1025   -42.8822     0.2856
  537.5000     7.1637     0.0041     0.1186   104.6774     2.4850    11.0224    11.3444   -42.7192     0.2882
  538.0000     7.1788     0.0026     0.1162   105.1293     2.4866    11.1075    11.4329   -42.5379     0.2975
  538.5000     7.1939    -0.0003     0.1132   105.7314     2.4925    11.1933    11.6020   -42.3895     0.2993
  539.0000     7.2090    -0.0018     0.1108   105.4325     2.4993    11.3577    11.6946   -42.2265     0.2996
  539.5000     7.1942    -0.0018     0.1126   104.0826     2.4993    11.5247    11.7047   -42.5093     0.2987
  540.0000     7.1943    -0.0018     0.1159   103.4835     2.4971    11.5360    11.7149   -42.4948     0.2972
  540.5000     7.1646    -0.0018     0.1201   104.3970     2.4919    11.5453    11.5282   -42.6326     0.2975
  541.0000     7.0900    -0.0018     0.1234   104.5375     2.4859    11.6344    11.6176   -42.6146     0.2979
  541.5000     7.0752     0.0012     0.1246   103.6384     2.4821    11.7243    11.6253   -42.6002     0.2994
  542.0000     7.0454     0.0028     0.1243   101.5378     2.4784    11.7337    11.5531   -42.5736     0.3000
  542.5000     7.0456     0.0058     0.1219    99.1368     2.4792    11.7431    11.4814   -41.9733     0.3003
