~VERSION INFORMATION
 VERS.                2.0:   CWLS LOG ASCII STANDARD - VERSION 2.0
 WRAP.                 NO:   ONE LINE PER DEPTH STEP
~WELL INFORMATION
#MNEM.UNIT      DATA TYPE    INFORMATION
#----------   ------------   ------------------------------
 STRT.F           33.0000:   START DEPTH
 STOP.F         1310.0000:   STOP DEPTH
 STEP.F            0.5000:   STEP LENGTH
 NULL.          -999.2500:   NO VALUE
 COMP. FENIX & SCISSON INC:   COMPANY
 WELL.    NPR-3 #76-14 SX:   WELL
 FLD .        TEAPOT DOME:   FIELD
 LOC .      S14 T38N R78W:   LOCATION
 CNTY.            NATRONA:   COUNTY
 STAT.            WYOMING:   STATE
 CTRY. UNITED STATES OF AMERICA:   COUNTRY
 SRVC.            Unknown:   SERVICE COMPANY
 DATE.        12-APR-1978:   LOGDATE
 API .       490251061200:   API NUMBER
~CURVE INFORMATION
#MNEM.UNIT       API CODE    CURVE DESCRIPTION
#----------   ------------   ------------------------------
 DEPT.F                  :   
 SPR .MV     05 010 01 00:   SPONTANEOUS POTENTIAL FROM RES.
 SN  .OHMM   05 040 16 00:   SHORT NORMAL 16"
 ILD .OHMM   05 120 46 00:   INDUCTION LOG DEEP
 CALD.IN     45 280 60 00:   CALIPER FROM DENSITY LOG
 GRD .GAPI   45 310 01 00:   GAMMA RAY FROM DENSITY LOG
 DPOR.DEC    45 890 12 00:   DENSITY POROSITY SANDSTONE
 CORR.G/C3   45 356 01 00:   DENSITY CORRECTION
 RHOB.G/C3   45 350 01 00:   BULK DENSITY
~PARAMETER INFORMATION
#MNEM.UNIT          VALUE    DESCRIPTION
#----------   ------------   ------------------------------
 PD  .                 GL:   PERMANENT DATUM
 EPD .F              5332:   ELEVATION PERMANENT DATUM
 LMF .                 KB:   LOG MEASURED FROM
 DMF .                 KB:   DRILLING MEASURED FROM
 EKB .F              5336:   KELLING BUSHING
 EGL .F              5332:   GROUND LEVEL
 DATE.          4-12-1978:   RUN DATE
 RUN .                  1:   RUN NUMBER
 DD  .F              1300:   DEPTH DRILLER
 DL  .F              1302:   DEPTH LOGGER
 BLI .F              1298:   BOTTOM LOG INTERVAL
 TLI .F                50:   TOP LOG INTERVAL
 CS  .IN            8.625:   CASING SIZE
 CBD .F                40:   CASING BOTTOM DRILLER
 CBL .F                46:   CASING BOTTOM LOGGER
 BS  .IN            7.875:   BIT SIZE
 BSD .F              1300:   BIT SIZE AT DEPTH
 DFT .                KCL:   DRILLING FLUID TYPE
 DFD .                8.5:   DRILLING FLUID DENSITY
 DFV .                 28:   DRILLING FLUID VISCOSITY
 MSS .            MUD PIT:   MUD SAMPLE SOURCE
 RMS .OHMM           1.45:   RESISTIVITY MUD SAMPLE
 MST .F                50:   MUD SAMPLE TEMPERATURE
 RMF .OHMM           1.25:   RESISTIVITY MUD FILTRATE SAMPLE
 MFST.F                62:   MUD FILTRATE SAMPLE TEMPERATURE
 RMC .OHMM           1.65:   RESISTIVITY MUD CAKE
 MCST.F                61:   MUD CAKE SAMPLE TEMPERATURE
 MFSS.           MEASURED:   MUD FILTRATE SAMPLE SOURCE
 MCSS.           MEASURED:   MUD CAKE SAMPLE SOURCE
 RMB .OHMM            .93:   RESISTIVITY MUD AT BHT
 BHT .F                78:   BOTTOM HOLE TEMPERATURE
 TCS .HRS               6:   TIME CURCULATED STOPPED
 MRT .F                78:   MAXIMUM RECORDED TEMPERATURE
 LUN .               2958:   LOGGING UNIT NUMBER
 LUL .                CAS:   LOGGING UNIT LOCATION
 ENGI.             MILLER:   RECORDING ENGINEER
 WITN.           MCGINLEY:   WITNESSED BY
 CLNT.            A2DTECH:   CLIENT CODE
 ORIG.      2" , 5" PRINT:   ORIGIN OF DATA
 UWI .       490251061200:   UNIQUE WELL ID
 DICO. A2D Technologies, Inc.:   DIGITIZING COMPANY
~OTHER INFORMATION
~A   DEPT      SPR         SN        ILD       CALD         GRD      DPOR       CORR       RHOB   
# ...
  357.0000   -12.4721     4.5087     5.5369     7.7746    49.7617     0.1180     0.0272     2.4500
  357.5000   -12.4752     4.5054     5.5468     7.7756    47.9922     0.1166     0.0270     2.4498
  358.0000   -12.4783     4.5714     5.5567     7.7766    47.1076     0.1128     0.0267     2.4511
  358.5000   -12.4815     4.6303     5.5667     7.7776    46.8952     0.1121     0.0264     2.4597
  359.0000   -12.4846     4.6898     5.5708     7.7786    47.4458     0.1167     0.0262     2.4650
  359.5000   -12.4877     4.7502     5.5708     7.7796    48.9688     0.1213     0.0259     2.4532
  360.0000   -12.4908     4.7619     5.5709     7.7806    50.2953     0.1224     0.0259     2.4409
  360.5000   -12.4939     4.7435     5.5710     7.7816    49.5043     0.1224     0.0289     2.4388
  361.0000   -12.4970     4.6647     5.5719     7.7826    47.9239     0.1205     0.0318     2.4410
  361.5000   -12.5008     4.5872     5.5064     7.7836    45.9901     0.1183     0.0348     2.4455
  362.0000   -12.5194     4.5111     5.4320     7.7846    43.3850     0.1168     0.0377     2.4499
  362.5000   -12.5378     4.4362     5.3586     7.7857    41.1121     0.1173     0.0377     2.4516
  363.0000   -12.5562     4.3625     5.2861     7.7867    40.6287     0.1179     0.0375     2.4506
  363.5000   -12.5744     4.2901     5.2147     7.7877    39.1431     0.1185     0.0372     2.4495
  364.0000   -12.5928     4.2188     5.1268     7.7887    38.7128     0.1188     0.0370     2.4489
  364.5000   -12.6111     4.1463     5.1659     7.7897    38.7966     0.1174     0.0368     2.4490
  365.0000   -12.6294     4.1444     5.2183     7.7900    41.2332     0.1157     0.0366     2.4507
  365.5000   -12.6477     4.2466     5.2714     7.7900    44.2491     0.1148     0.0363     2.4548
  366.0000   -12.6660     4.3123     5.3251     7.7900    47.3251     0.1150     0.0361     2.4568
  366.5000   -12.6843     4.3783     5.3792     7.7900    49.0370     0.1151     0.0359     2.4562
  367.0000   -12.7026     4.4452     5.4338     7.7900    49.3144     0.1148     0.0358     2.4560
  367.5000   -12.7209     4.5131     5.4891     7.7900    47.2403     0.1132     0.0358     2.4584
  368.0000   -12.7392     4.5821     5.5449     7.7900    44.8461     0.1115     0.0358     2.4611
  368.5000   -12.7575     4.6319     5.6011     7.7900    42.4551     0.1100     0.0358     2.4638
  369.0000   -12.7758     4.6774     5.6742     7.7900    41.6763     0.1114     0.0358     2.4659
  369.5000   -12.7941     4.7019     5.6682     7.7900    41.8532     0.1133     0.0358     2.4619
  370.0000   -12.8124     4.7264     5.6593     7.7900    41.8614     0.1132     0.0358     2.4576
  370.5000   -12.8307     4.7511     5.6503     7.7900    41.1662     0.1116     0.0358     2.4581
  371.0000   -12.8490     4.7759     5.6414     7.7900    40.7559     0.1135     0.0358     2.4598
  371.5000   -12.8674     4.8060     5.6325     7.7900    41.1031     0.1154     0.0358     2.4562
  372.0000   -12.8857     4.7859     5.6236     7.7900    41.2295     0.1147     0.0359     2.4530
  372.5000   -12.9014     4.7607     5.6147     7.7900    41.4646     0.1128     0.0368     2.4562
  373.0000   -12.9069     4.7356     5.6059     7.7900    41.1977     0.1128     0.0377     2.4619
  373.5000   -12.9125     4.7106     5.5970     7.7900    41.0226     0.1137     0.0385     2.4598
  374.0000   -12.9181     4.6857     5.5882     7.7900    42.7425     0.1146     0.0394     2.4576
  374.5000   -12.9237     4.6610     5.5793     7.7900    45.0192     0.1155     0.0403     2.4554
  375.0000   -12.9293     4.6364     5.5705     7.7900    47.3673     0.1164     0.0411     2.4532
  375.5000   -12.9349     4.6119     5.5617     7.7900    47.7115     0.1169     0.0420     2.4517
  376.0000   -12.9405     4.5876     5.5530     7.7900    47.5652     0.1169     0.0428     2.4509
  376.5000   -12.9462     4.5633     5.5442     7.7900    45.9698     0.1122     0.0437     2.4527
  377.0000   -12.9518     4.5392     5.5354     7.7900    42.7428     0.1047     0.0446     2.4644
  377.5000   -12.9574     4.5153     5.5265     7.7900    39.5318     0.0972     0.0454     2.4768
  378.0000   -12.9630     4.5054     5.5188     7.7900    37.8595     0.0897     0.0438     2.4891
  378.5000   -12.9686     4.6499     5.5174     7.7900    38.1425     0.0831     0.0398     2.5013
  379.0000   -12.9742     4.7553     5.6254     7.7900    39.0338     0.0899     0.0357     2.5056
  379.5000   -12.9799     4.8632     5.7319     7.7900    40.3494     0.0973     0.0404     2.4908
  380.0000   -12.9855     4.9734     5.8404     7.7900    43.1281     0.1048     0.0496     2.4822
  380.5000   -12.9911     5.0515     5.9509     7.7900    45.8282     0.1049     0.0457     2.4801
  381.0000   -12.9967     5.0911     6.0533     7.7900    47.4753     0.1048     0.0421     2.4780
  381.5000   -13.0023     5.1311     6.0588     7.7900    48.1360     0.1069     0.0385     2.4759
  382.0000   -13.0080     5.1713     6.0639     7.7900    50.1229     0.1089     0.0357     2.4716
  382.5000   -13.0136     5.2119     6.0690     7.7900    52.6108     0.1106     0.0351     2.4673
  383.0000   -13.0192     5.2528     6.0741     7.7900    54.0481     0.1123     0.0345     2.4637
  383.5000   -13.0248     5.2940     6.0792     7.7900    53.8340     0.1140     0.0339     2.4591
  384.0000   -13.0304     5.3355     6.0842     7.7900    53.0372     0.1156     0.0333     2.4529
  384.5000   -13.0360     5.3849     6.0893     7.7900    49.9620     0.1168     0.0327     2.4503
  385.0000   -13.0417     5.4652     6.0944     7.7900    46.9608     0.1175     0.0321     2.4513
  385.5000   -13.0473     5.5467     6.0996     7.7900    45.5126     0.1183     0.0315     2.4505
  386.0000   -13.0529     5.6295     6.1046     7.7900    46.1756     0.1190     0.0309     2.4464
  386.5000   -13.0585     5.7235     6.1094     7.7900    47.0938     0.1197     0.0303     2.4423
  387.0000   -13.0641     5.8292     6.1677     7.7900    47.6515     0.1204     0.0297     2.4412
  387.5000   -13.0698     5.9377     6.2227     7.7900    46.9974     0.1187     0.0291     2.4481
  388.0000   -13.0754     6.0481     6.2783     7.7900    45.3086     0.1172     0.0285     2.4517
  388.5000   -13.0810     6.1605     6.3344     7.7900    43.6451     0.1187     0.0279     2.4468
  389.0000   -13.0866     6.2750     6.3910     7.7900    41.9817     0.1179     0.0273     2.4481
  389.5000   -13.0922     6.3917     6.4480     7.7900    41.0502     0.1169     0.0267     2.4518
  390.0000   -13.0978     6.5105     6.5056     7.7900    40.9686     0.1163     0.0261     2.4473
  390.5000   -13.1035     6.6315     6.5637     7.7900    41.2636     0.1183     0.0266     2.4405
  391.0000   -13.1091     6.7548     6.6224     7.7900    42.4854     0.1204     0.0281     2.4347
  391.5000   -13.1147     6.8803     6.6815     7.7900    43.5503     0.1211     0.0295     2.4351
  392.0000   -13.1203     6.9520     6.7412     7.7900    43.6860     0.1183     0.0310     2.4425
  392.5000   -13.1259     6.9245     6.7622     7.7900    43.8302     0.1155     0.0325     2.4501
  393.0000   -13.1316     6.9055     6.7495     7.7900    44.6932     0.1128     0.0338     2.4562
  393.5000   -13.1372     6.8864     6.7305     7.7900    45.9772     0.1100     0.0338     2.4573
  394.0000   -13.1428     6.8675     6.7115     7.7900    47.2838     0.1080     0.0338     2.4644
  394.5000   -13.1484     6.8486     6.6925     7.7900    47.6864     0.1142     0.0338     2.4681
  395.0000   -13.1540     6.8297     6.6736     7.7900    47.2480     0.1204     0.0338     2.4621
  395.5000   -13.1596     6.8109     6.6548     7.7900    46.3304     0.1221     0.0338     2.4537
  396.0000   -13.1653     6.7921     6.6360     7.7900    45.6403     0.1232     0.0338     2.4482
  396.5000   -13.1709     6.7734     6.6173     7.7900    45.2805     0.1233     0.0338     2.4467
  397.0000   -13.1765     6.7548     6.5986     7.7900    43.4460     0.1235     0.0338     2.4451
