~VERSION INFORMATION
 VERS.                2.0:   CWLS LOG ASCII STANDARD - VERSION 2.0
 WRAP.                 NO:   ONE LINE PER DEPTH STEP
~WELL INFORMATION
#MNEM.UNIT      DATA TYPE    INFORMATION
#----------   ------------   ------------------------------
 STRT.F          100.0000:   START DEPTH
 STOP.F          872.0000:   STOP DEPTH
 STEP.F            0.5000:   STEP LENGTH
 NULL.          -999.2500:   NO VALUE
 COMP. U S NAVY/INTEX OIL CO:   COMPANY
 WELL. 53 S 11 #N P R 3-11:   WELL
 FLD .             TEAPOT:   FIELD
 LOC .      S11 T38N R78W:   LOCATION
 CNTY.            NATRONA:   COUNTY
 STAT.            WYOMING:   STATE
 CTRY. UNITED STATES OF AMERICA:   COUNTRY
 SRVC.       Schlumberger:   SERVICE COMPANY
 DATE.        07-AUG-1961:   LOGDATE
 API .       490250635800:   API NUMBER
~CURVE INFORMATION
#MNEM.UNIT       API CODE    CURVE DESCRIPTION
#----------   ------------   ------------------------------
 DEPT.F                  :   
 CILD.MMHO   05 110 46 00:   CONDUCTIVITY INDUCTION LOG DEEP
 ILD .OHMM   05 120 46 00:   INDUCTION LOG DEEP
 SPR .MV     05 010 01 00:   SPONTANEOUS POTENTIAL FROM RES.
 ASN .OHMM   05 041 16 00:   AMPLIFIED SHORT NORMAL 16"
~PARAMETER INFORMATION
#MNEM.UNIT          VALUE    DESCRIPTION
#----------   ------------   ------------------------------
 PD  .                 GL:   PERMANENT DATUM
 EPD .F              5192:   ELEVATION PERMANENT DATUM
 LMF .                 KB:   LOG MEASURED FROM
 DAPD.F                 6:   FEET ABOVE PERMANENT DATUM
 DMF .                 KB:   DRILLING MEASURED FROM
 EKB .F              5198:   KELLING BUSHING
 EGL .F              5192:   GROUND LEVEL
 DATE.             8-7-61:   RUN DATE
 RUN .                  1:   RUN NUMBER
 DD  .F               870:   DEPTH DRILLER
 DL  .F               873:   DEPTH LOGGER
 BLI .F               872:   BOTTOM LOG INTERVAL
 TLI .F               100:   TOP LOG INTERVAL
 BS  .IN            7.875:   BIT SIZE
 BSD .F               870:   BIT SIZE AT DEPTH
 DFT .            GEL/OIL:   DRILLING FLUID TYPE
 DFD .               10.4:   DRILLING FLUID DENSITY
 DFV .                 43:   DRILLING FLUID VISCOSITY
 RMS .OHMM            .02:   RESISTIVITY MUD SAMPLE
 MST .F                70:   MUD SAMPLE TEMPERATURE
 TCS .HRS               1:   TIME CURCULATED STOPPED
 LUN .               2544:   LOGGING UNIT NUMBER
 LUL .                 NC:   LOGGING UNIT LOCATION
 ENGI.             QUINCY:   RECORDING ENGINEER
 WITN.          JORGENSON:   WITNESSED BY
 CLNT.            A2DTECH:   CLIENT CODE
 ORIG.       2", 5" PRINT:   ORIGIN OF DATA
 UWI .       490250635800:   UNIQUE WELL ID
 DICO. A2D Technologies, Inc.:   DIGITIZING COMPANY
~OTHER INFORMATION
~A   DEPT      CILD         ILD      SPR          ASN 
# ...
  392.0000   138.2504     6.2943   -23.1650     8.1549
  392.5000   135.2146     6.4056   -23.2000     8.1722
  393.0000   134.2153     6.3939   -23.2384     8.1284
  393.5000   135.5972     6.3962   -23.2764     8.0908
  394.0000   136.9848     6.4020   -23.3117     8.0975
  394.5000   138.3987     6.3253   -23.3717     8.1267
  395.0000   139.7655     6.1569   -23.8197     8.1384
  395.5000   141.1323     6.0106   -24.2818     8.0658
  396.0000   142.4992     5.8496   -24.7811     7.9857
  396.5000   143.8660     5.7758   -24.9243     7.9067
  397.0000   145.2328     5.7082   -24.4947     7.8285
  397.5000   146.5997     5.6227   -24.0825     7.7478
  398.0000   147.9665     5.5557   -23.9287     7.6825
  398.5000   149.3333     5.4608   -23.9400     7.6463
  399.0000   149.7487     5.3931   -23.9531     7.6226
  399.5000   149.7487     5.5108   -23.7521     7.6231
  400.0000   146.3325     5.6371   -23.3951     7.6200
  400.5000   143.5448     5.8592   -23.1093     7.6331
  401.0000   140.7571     6.0762   -22.7676     7.7261
  401.5000   137.9695     6.3075   -22.9055     7.8594
  402.0000   135.1818     6.5169   -23.1649     7.9997
  402.5000   132.3941     6.7709   -23.4101     8.1409
  403.0000   129.6064     6.9136   -23.6472     8.2770
  403.5000   126.8187     7.0161   -23.9534     8.4277
  404.0000   123.6181     7.1104   -24.1766     8.5494
  404.5000   124.6088     7.0420   -23.9766     8.6297
  405.0000   125.7717     6.9746   -23.8356     8.7238
  405.5000   126.9347     6.9156   -23.7252     8.7172
  406.0000   129.2462     6.8051   -23.6063     8.6844
  406.5000   133.3166     6.5456   -23.4883     8.5246
  407.0000   137.3869     6.2995   -23.3748     8.3313
  407.5000   141.4573     6.0441   -23.2466     8.1422
  408.0000   145.5276     5.7954   -23.1540     7.9538
  408.5000   149.5980     5.5387   -22.9971     7.7594
  409.0000   153.7688     5.3097   -22.6809     7.5981
  409.5000   155.7789     5.3116   -22.3716     7.4943
  410.0000   154.8288     5.3576   -22.0750     7.4740
  410.5000   152.6890     5.3730   -21.8532     7.5242
  411.0000   150.5470     5.4824   -22.3842     7.6218
  411.5000   148.4101     5.6998   -23.2795     7.7123
  412.0000   146.2808     5.9001   -23.3370     7.8062
  412.5000   144.1560     6.0897   -23.3215     7.8986
  413.0000   142.0329     6.1918   -23.4853     7.9911
  413.5000   139.9131     6.2841   -23.8270     8.0853
  414.0000   137.8010     6.3779   -24.1151     8.1649
  414.5000   135.6844     6.4689   -24.4385     8.1895
  415.0000   133.5678     6.5641   -24.5667     8.2148
  415.5000   131.4513     6.6000   -24.6670     8.3010
  416.0000   129.6482     6.5969   -24.7115     8.3652
  416.5000   129.2234     6.6144   -24.3960     8.3757
  417.0000   128.8534     6.6274   -24.1511     8.3936
  417.5000   128.4833     6.6436   -23.9134     8.4003
  418.0000   128.1133     6.6560   -23.6689     8.4521
  418.5000   127.7433     6.6740   -23.4407     8.5290
  419.0000   128.7485     6.6826   -23.1827     8.5986
  419.5000   130.2991     6.7060   -23.1781     8.6498
  420.0000   131.8497     6.6102   -23.5368     8.6404
  420.5000   133.4003     6.4565   -23.9364     8.6306
  421.0000   134.9509     6.3148   -24.0125     8.5528
  421.5000   136.5016     6.2794   -23.9124     8.4437
  422.0000   138.0522     6.2397   -23.9817     8.3400
  422.5000   139.6028     6.2047   -24.0672     8.2330
  423.0000   141.1534     6.1143   -24.1771     8.1282
  423.5000   142.7040     6.0544   -24.2777     8.0183
  424.0000   143.6045     6.0166   -24.3782     8.0116
  424.5000   143.2745     5.9878   -24.4893     8.0251
  425.0000   142.9444     5.9931   -24.5550     8.0340
  425.5000   142.6276     5.9904   -24.5235     8.0435
  426.0000   142.2907     5.9922   -24.4666     8.0159
  426.5000   141.9574     5.9901   -24.4083     7.9821
  427.0000   141.6258     5.9974   -24.3311     7.9468
  427.5000   141.2944     6.0641   -24.0628     7.9636
  428.0000   140.9643     6.1536   -23.7503     8.0130
  428.5000   140.6342     6.1998   -23.4428     8.0585
  429.0000   140.3042     6.2304   -23.1506     8.1044
  429.5000   139.9742     6.2747   -23.1510     8.1290
  430.0000   139.6442     6.3132   -23.4627     8.1509
  430.5000   139.3141     6.3561   -23.8114     8.1747
  431.0000   138.9841     6.3906   -24.1192     8.1951
  431.5000   138.6541     6.3986   -24.1378     8.2331
  432.0000   138.3241     6.4222   -24.1713     8.2874
  432.5000   137.9940     6.4573   -24.4158     8.3381
  433.0000   137.6884     6.4750   -24.7230     8.3906
  433.5000   135.7454     6.5815   -24.6321     8.4421
  434.0000   133.9364     6.7035   -24.3484     8.4917
  434.5000   132.1273     6.7896   -24.1583     8.5442
  435.0000   130.3183     6.8884   -24.1417     8.5986
  435.5000   128.5092     6.9793   -24.1378     8.7127
  436.0000   126.7002     7.0771   -24.1525     8.8196
  436.5000   124.8911     7.1637   -24.0234     8.9327
  437.0000   123.0821     7.2277   -23.7965     9.0311
  437.5000   121.6080     7.3132   -23.5971     9.1632
  438.0000   121.2864     7.3594   -23.3986     9.3259
  438.5000   121.0151     7.4138   -23.3098     9.4398
  439.0000   120.7437     7.4636   -23.5018     9.4988
  439.5000   120.4724     7.5135   -23.8103     9.4541
  440.0000   120.2010     7.5697   -24.0573     9.3566
  440.5000   119.9296     7.6134   -24.2193     9.3246
  441.0000   119.5980     7.6331   -24.4476     9.3975
  441.5000   118.3119     7.6618   -24.7181     9.4466
  442.0000   116.6583     7.6835   -24.7515     9.5086
  442.5000   115.0047     7.7244   -24.6681     9.5759
  443.0000   113.3511     7.8602   -24.5648     9.7478
  443.5000   111.6975     8.0094   -24.4626     9.9780
  444.0000   110.0440     8.1689   -24.3564    10.0417
  444.5000   108.3904     8.3245   -24.3421    10.0848
  445.0000   106.7368     8.4825   -24.3456    10.1323
  445.5000   105.0832     8.6390   -24.3289    10.1787
  446.0000   103.4296     8.8047   -24.1215    10.2254
  446.5000   101.7761     8.9588   -23.8546    10.2718
  447.0000   100.1225     9.1231   -23.6073    10.3304
  447.5000    98.4689     9.2852   -23.3434    10.5380
  448.0000    96.8153     9.4517   -23.4405    10.7684
  448.5000    95.1618     9.6029   -23.7318    11.0166
  449.0000    93.4673     9.6388   -23.9949    11.1426
  449.5000    93.8927     9.6789   -24.2769    11.1031
  450.0000    94.3288     9.7177   -24.5230    11.0537
  450.5000    94.7649     9.7084   -24.5523    10.9627
  451.0000    95.2010     9.5752   -24.5800    10.8226
  451.5000    95.6371     9.4317   -24.6166    10.7011
  452.0000    96.0732     9.2870   -24.6498    10.4755
  452.5000    96.5093     9.1461   -24.6850    10.3379
  453.0000    96.9454     9.0143   -24.7168    10.3137
  453.5000    97.3816     9.0865   -24.7516    10.3975
  454.0000    97.8177     9.1074   -24.7197    10.4291
  454.5000    98.2538     9.0867   -24.4502    10.4188
  455.0000    98.6899     9.0801   -24.1720    10.4263
  455.5000    99.1260     9.0665   -23.9051    10.4182
  456.0000    99.4975     9.0571   -23.6222    10.4317
  456.5000    99.8394     9.0443   -23.5445    10.3948
  457.0000   100.1373     9.0354   -23.7453    10.3224
  457.5000   100.4351     9.0198   -23.9170    10.2499
  458.0000   100.7329     9.0186   -24.1024    10.2131
  458.5000   101.0308     8.9588   -24.2768    10.2259
  459.0000   101.3286     8.8546   -24.4634    10.2173
  459.5000   101.6264     8.7719   -24.6320    10.2033
  460.0000   101.9243     8.6684   -24.8388    10.1861
  460.5000   102.2221     8.6038   -24.9606    10.1711
  461.0000   102.5199     8.6700   -24.9519    10.1552
  461.5000   102.8177     8.7108   -24.9043    10.1397
  462.0000   103.1156     8.6496   -24.7274    10.1240
  462.5000   103.4134     8.5575   -24.5593    10.1086
  463.0000   103.7112     8.5055   -24.3838    10.0926
  463.5000   104.0091     8.5052   -24.2124    10.0780
  464.0000   104.3069     8.4778   -24.0387    10.0607
  464.5000   104.6047     8.4601   -23.8664    10.0483
