~VERSION INFORMATION
 VERS.                2.0:   CWLS LOG ASCII STANDARD - VERSION 2.0
 WRAP.                 NO:   ONE LINE PER DEPTH STEP
~WELL INFORMATION
#MNEM.UNIT      DATA TYPE    INFORMATION
#----------   ------------   ------------------------------
 STRT.F           20.0000:   START DEPTH
 STOP.F          610.0000:   STOP DEPTH
 STEP.F            0.5000:   STEP LENGTH
 NULL.          -999.2500:   NO VALUE
 COMP. LAWRENCE/ALLISON INC:   COMPANY
 WELL.    44-55 SX #10-10:   WELL
 FLD .             TEAPOT:   FIELD
 LOC .      S10 T38N R78W:   LOCATION
 CNTY.            NATRONA:   COUNTY
 STAT.            WYOMING:   STATE
 CTRY. UNITED STATES OF AMERICA:   COUNTRY
 SRVC.            Unknown:   SERVICE COMPANY
 DATE.        29-AUG-1984:   LOGDATE
 API .       490251098300:   API NUMBER
~CURVE INFORMATION
#MNEM.UNIT       API CODE    CURVE DESCRIPTION
#----------   ------------   ------------------------------
 DEPT.F                  :   
 AC  .US/F   60 520 00 00:   ACOUSTIC SONIC
 SPR .MV     07 010 01 00:   SPONTANEOUS POTENTIAL
 RILD.OHMM   07 120 46 00:   INDUCTION LOG DEEP RESISTIVITY
 RILM.OHMM   07 120 44 00:   INDUCTION LOG MEDIUM RESISTIVITY
 RFOC.OHMM   07 220 04 00:   RESISTIVITY FOCUSED LOG
 GRD .GAPI   45 310 01 00:   GAMMA RAY FROM DENSITY LOG
 CALD.IN     45 280 60 00:   CALIPER
 DEN .G/C3   45 350 01 00:   COMPENSATED BULK DENSTIY
 CNC .DEC    42 890 03 00:   NEUTRON POROSITY SANDSTONE
 PORD.DEC    45 890 12 00:   DENSITY POROSITY SANDSTONE
 CORR.G/C3   45 356 01 00:   DENSITY CORRECTION
~PARAMETER INFORMATION
#MNEM.UNIT          VALUE    DESCRIPTION
#----------   ------------   ------------------------------
 PD  .                 GL:   PERMANENT DATUM
 EPD .F              5247:   ELEVATION PERMANENT DATUM
 LMF .                 KB:   LOG MEASURED FROM
 DAPD.F                13:   FEET ABOVE PERMANENT DATUM
 DMF .                 KB:   DRILLING MEASURED FROM
 EKB .F              5260:   KELLING BUSHING
 EGL .F              5247:   GROUND LEVEL
 DATE.        29-AUG-1984:   RUN DATE
 RUN .                  1:   RUN NUMBER
 DD  .F               613:   DEPTH DRILLER
 DL  .F               607:   DEPTH LOGGER
 BLI .F               607:   BOTTOM LOG INTERVAL
 TLI .F                42:   TOP LOG INTERVAL
 CBL .F                42:   CASING BOTTOM LOGGER
 BS  .IN            7.875:   BIT SIZE
 BSD .F               613:   BIT SIZE AT DEPTH
 DFT .          KCL WATER:   DRILLING FLUID TYPE
 MSS .               TANK:   MUD SAMPLE SOURCE
 RMS .OHMM           .295:   RESISTIVITY MUD SAMPLE
 MST .F                75:   MUD SAMPLE TEMPERATURE
 TCS .HRS               3:   TIME CURCULATED STOPPED
 MRT .F               100:   MAXIMUM RECORDED TEMPERATURE
 LUN .               4082:   LOGGING UNIT NUMBER
 LUL .               ROOS:   LOGGING UNIT LOCATION
 ENGI.             MILLER:   RECORDING ENGINEER
 WITN.            JOHNSON:   WITNESSED BY
 CLNT.            A2DTECH:   CLIENT CODE
 ORIG.       2", 5" PRINT:   ORIGIN OF DATA
 UWI .       490251098300:   UNIQUE WELL ID
 DICO. A2D Technologies, Inc.:   DIGITIZING COMPANY
~OTHER INFORMATION
~A   DEPT       AC        SPR       RILD       RILM       RFOC         GRD      CALD        DEN        CNC       PORD       CORR   
# ...
  477.5000    88.6918   -44.2346    10.3658    10.7827    11.7643    81.4564     7.8360     2.5162     0.2699     0.0996     0.0370
  478.0000    89.1546   -44.5587    10.6467    11.0262    11.6505    80.9720     7.8366     2.5226     0.2670     0.0952     0.0617
  478.5000    89.1540   -44.6315    10.9605    11.2751    11.5746    85.2350     7.8371     2.5289     0.2749     0.0907     0.0624
  479.0000    88.9846   -44.6336    11.2836    11.5297    12.1477    85.2974     7.8377     2.5342     0.2817     0.0880     0.0583
  479.5000    88.5792   -44.5255    11.6163    11.7900    12.5984    84.9036     7.8382     2.5295     0.2749     0.0893     0.0543
  480.0000    88.1741   -44.3261    11.9587    12.0562    13.0658    84.1324     7.8388     2.5241     0.2633     0.0923     0.0502
  480.5000    87.7694   -44.1268    12.1189    12.3438    13.3160    83.2875     7.8390     2.5212     0.2537     0.0948     0.0451
  481.0000    87.3753   -43.9271    12.1189    12.5072    13.3719    85.4030     7.8390     2.5293     0.2604     0.0888     0.0469
  481.5000    87.0181   -43.6853    12.1189    12.6827    13.2857    88.3756     7.8390     2.5375     0.2674     0.0852     0.0585
  482.0000    86.6610   -43.4073    12.1189    12.8606    13.6837    90.3579     7.8390     2.5373     0.2681     0.0856     0.0508
  482.5000    86.3804   -43.1301    12.1893    13.0410    13.9106    87.4281     7.8390     2.5337     0.2653     0.0890     0.0329
  483.0000    86.2019   -42.8529    12.3878    13.2239    13.9620    87.4626     7.8390     2.5293     0.2630     0.0925     0.0149
  483.5000    86.0233   -42.5754    12.5895    13.4094    14.0158    87.6081     7.8390     2.5217     0.2674     0.0960     0.0049
  484.0000    85.8986   -42.2978    12.7945    13.5975    14.1007    86.1275     7.8390     2.5117     0.2666     0.1038     0.0153
  484.5000    85.8048   -42.0232    12.9883    13.7883    14.2095    83.4195     7.8390     2.4967     0.2677     0.1132     0.0259
  485.0000    85.7111   -41.8724    13.1642    13.9819    14.3193    81.9627     7.8390     2.4867     0.2682     0.1135     0.0363
  485.5000    85.7585   -42.0346    13.1642    14.1800    14.4316    84.6976     7.8390     2.4945     0.2678     0.1062     0.0447
  486.0000    85.9269   -42.1922    13.2186    14.2985    14.3499    87.3805     7.8390     2.5091     0.2678     0.0975     0.0294
  486.5000    86.1270   -42.3499    13.2741    14.0726    14.2676    87.8403     7.8390     2.5228     0.2654     0.0932     0.0244
  487.0000    86.3270   -42.5075    13.3300    13.9106    14.1696    85.5631     7.8390     2.5236     0.2617     0.0972     0.0531
  487.5000    86.3308   -42.6651    13.3860    13.9426    14.3714    82.8978     7.8390     2.5077     0.2582     0.1073     0.0750
  488.0000    86.2995   -42.8225    13.4424    13.9829    14.6278    80.5115     7.8390     2.4917     0.2652     0.1174     0.0614
  488.5000    86.2683   -42.9814    13.4992    14.0390    14.9721    81.4585     7.8390     2.4764     0.2758     0.1228     0.0461
  489.0000    86.3378   -43.0408    13.5331    13.9913    14.6897    82.8183     7.8390     2.4746     0.2758     0.1137     0.0304
  489.5000    86.5143   -43.0419    13.5322    13.9132    14.3415    84.1775     7.8390     2.4973     0.2674     0.1013     0.0149
  490.0000    86.6907   -43.0419    13.4377    13.8356    14.0010    85.5298     7.8396     2.5157     0.2711     0.0924     0.0006
  490.5000    86.8563   -43.0417    13.3604    13.7584    13.6687    86.5315     7.8409     2.5235     0.2762     0.0932     0.0026
  491.0000    86.6793   -43.0417    13.2836    13.6817    13.3454    85.6795     7.8422     2.5186     0.2794     0.0966     0.0140
  491.5000    86.4241   -43.0422    13.2072    13.6054    13.1642    84.1140     7.8435     2.5154     0.2646     0.0985     0.0278
  492.0000    85.8439   -43.0686    13.1313    13.5322    14.2626    81.0318     7.8448     2.5177     0.2477     0.0976     0.0414
  492.5000    85.2146   -43.1316    13.0557    13.4070    15.0845    77.0730     7.8461     2.5166     0.2477     0.0975     0.0553
  493.0000    85.0599   -43.1934    12.9806    13.2865    15.3907    74.9042     7.8474     2.5150     0.2560     0.0977     0.0846
  493.5000    85.2595   -43.2273    12.8876    13.1673    14.7998    74.4139     7.8486     2.5193     0.2608     0.0958     0.0999
  494.0000    85.9754   -43.1574    12.7398    13.0493    14.4035    76.8305     7.8499     2.5238     0.2644     0.0940     0.0832
  494.5000    86.5958   -43.0913    12.5937    12.9324    14.0390    80.5620     7.8512     2.5187     0.2658     0.0980     0.0479
  495.0000    87.0323   -43.0624    12.4492    12.8165    13.8378    84.2946     7.8525     2.5096     0.2670     0.1028     0.0202
  495.5000    87.3050   -43.1675    12.3064    12.7012    13.6499    88.0293     7.8538     2.5059     0.2706     0.0984     0.0305
  496.0000    87.5549   -43.3086    12.1653    12.5893    13.4646    91.7726     7.8551     2.5276     0.2757     0.0898     0.0422
  496.5000    88.1953   -43.6063    12.0257    12.4104    13.2817    93.5430     7.8564     2.5376     0.2782     0.0848     0.0509
  497.0000    88.7862   -43.8955    11.8982    12.2278    13.1014    91.6447     7.8577     2.5330     0.2738     0.0873     0.0176
  497.5000    89.1484   -44.1844    11.7132    12.0468    13.0437    89.7492     7.8588     2.5285     0.2714     0.0912     0.0006
  498.0000    89.3538   -44.4733    11.5437    11.8687    12.9946    89.6532     7.8588     2.5240     0.2756     0.0948     0.0183
  498.5000    89.5019   -44.7625    11.3767    11.6931    12.9228    89.6238     7.8575     2.5195     0.2821     0.0956     0.0434
  499.0000    89.6500   -45.0531    11.2195    11.5202    12.8515    88.7997     7.8548     2.5229     0.2893     0.0943     0.0486
  499.5000    89.7981   -45.3309    11.0820    11.3499    12.7808    87.3118     7.8520     2.5308     0.2894     0.0899     0.0517
  500.0000    89.9462   -45.6404    10.9462    11.1820    12.7096    90.0411     7.8493     2.5376     0.2746     0.0860     0.0549
  500.5000    90.1444   -45.5234    10.8533    11.0167    12.5275    92.8417     7.8466     2.5329     0.2698     0.0886     0.0557
  501.0000    90.4584   -45.3816    10.6253    10.8537    12.3015    92.5724     7.8439     2.5282     0.2720     0.0915     0.0434
  501.5000    90.7743   -45.2378    10.2709    10.6932    12.0797    90.8422     7.8412     2.5255     0.2746     0.0924     0.0252
  502.0000    91.0893   -45.0940    10.2781    10.5581    11.8618    87.6818     7.8384     2.5280     0.2743     0.0924    -0.0007
  502.5000    91.3176   -44.9503    10.2914    10.6232    11.6815    87.7203     7.8357     2.5235     0.2781     0.0947     0.0048
  503.0000    91.4471   -44.8068    10.3047    10.6804    11.7425    88.8788     7.8330     2.5172     0.2828     0.0983     0.0208
  503.5000    91.2782   -44.6624    10.3180    10.7379    11.7955    90.1259     7.8303     2.5140     0.2842     0.0989     0.0365
  504.0000    91.1247   -44.5139    10.3315    10.7956    11.8487    89.9818     7.8276     2.5147     0.2752     0.0974     0.0402
  504.5000    91.0271   -44.2488    10.3448    10.8533    11.9022    89.3586     7.8249     2.5174     0.2646     0.0964     0.0428
  505.0000    90.9855   -44.3204    10.3591    10.8533    11.9558    90.7683     7.8221     2.5227     0.2649     0.0950     0.0454
  505.5000    90.9481   -44.5296    10.3652    10.8533    12.0081    93.6289     7.8194     2.5280     0.2784     0.0912     0.0485
  506.0000    91.0298   -45.0068    10.1802    10.8533    12.0081    95.2764     7.8191     2.5327     0.2827     0.0895     0.0434
  506.5000    91.1205   -45.4746    10.0515    10.6941    11.8550    96.5577     7.8191     2.5297     0.2745     0.0912     0.0339
  507.0000    91.4970   -45.9418     9.9248    10.5438    11.7051    97.8145     7.8191     2.5271     0.2829     0.0913     0.0346
  507.5000    91.9960   -46.4090     9.8095    10.3956    11.5250    99.0792     7.8191     2.5303     0.2923     0.0899     0.0594
