~VERSION INFORMATION
 VERS.                2.0:   CWLS LOG ASCII STANDARD - VERSION 2.0
 WRAP.                 NO:   ONE LINE PER DEPTH STEP
~WELL INFORMATION
#MNEM.UNIT      DATA TYPE    INFORMATION
#----------   ------------   ------------------------------
 STRT.F           16.0000:   START DEPTH
 STOP.F         2438.0000:   STOP DEPTH
 STEP.F            0.5000:   STEP LENGTH
 NULL.          -999.2500:   NO VALUE
 COMP. FENIX & SCISSON INC:   COMPANY
 WELL.      15 SHX #27-27:   WELL
 FLD .             TEAPOT:   FIELD
 LOC .      S27 T39N R78W:   LOCATION
 CNTY.            NATRONA:   COUNTY
 STAT.            WYOMING:   STATE
 CTRY. UNITED STATES OF AMERICA:   COUNTRY
 SRVC.            Unknown:   SERVICE COMPANY
 DATE.        09-JUN-1978:   LOGDATE
 API .       490251064100:   API NUMBER
~CURVE INFORMATION
#MNEM.UNIT       API CODE    CURVE DESCRIPTION
#----------   ------------   ------------------------------
 DEPT.F                  :   
 CALD.IN     45 280 60 00:   CALIPER FROM DENSITY LOG
 GRD .GAPI   45 310 01 00:   GAMMA RAY FROM DENSITY LOG
 CORR.G/C3   45 356 01 00:   DENSITY CORRECTION
 RHOB.G/C3   45 350 01 00:   BULK DENSITY
 DPHI.DEC    45 890 10 00:   DENSITY POROSITY LIMESTONE
~PARAMETER INFORMATION
#MNEM.UNIT          VALUE    DESCRIPTION
#----------   ------------   ------------------------------
 PD  .                 GL:   PERMANENT DATUM
 EPD .F              5062:   ELEVATION PERMANENT DATUM
 LMF .                 KB:   LOG MEASURED FROM
 DAPD.F                10:   FEET ABOVE PERMANENT DATUM
 DMF .                 KB:   DRILLING MEASURED FROM
 EKB .F              5072:   KELLING BUSHING
 EGL .F              5062:   GROUND LEVEL
 DATE.        09-JUN-1978:   RUN DATE
 RUN .                  1:   RUN NUMBER
 DD  .F              2450:   DEPTH DRILLER
 DL  .F              2445:   DEPTH LOGGER
 BLI .F              2438:   BOTTOM LOG INTERVAL
 TLI .F                10:   TOP LOG INTERVAL
 CS  .IN            9.625:   CASING SIZE
 CBD .F               688:   CASING BOTTOM DRILLER
 CBL .F               694:   CASING BOTTOM LOGGER
 BS  .IN             8.75:   BIT SIZE
 BSD .F              2450:   BIT SIZE AT DEPTH
 DFT .           AIR MIST:   DRILLING FLUID TYPE
 TCS .HRS               1:   TIME CURCULATED STOPPED
 LUN .               2958:   LOGGING UNIT NUMBER
 LUL .                CPR:   LOGGING UNIT LOCATION
 ENGI.             MILLER:   RECORDING ENGINEER
 WITN.           MCGINLEY:   WITNESSED BY
 CLNT.            A2DTECH:   CLIENT CODE
 ORIG.           5" PRINT:   ORIGIN OF DATA
 UWI .       490251064100:   UNIQUE WELL ID
 DICO. A2D Technologies, Inc.:   DIGITIZING COMPANY
~OTHER INFORMATION
~A   DEPT     CALD         GRD      CORR       RHOB       DPHI   
# ...
 1053.0000     9.2276    75.7188  -999.2500     2.5660    -0.0075
 1053.5000     9.2297    75.8858  -999.2500     2.5653    -0.0087
 1054.0000     9.2620    73.1433  -999.2500     2.5600    -0.0048
 1054.5000     9.2636    71.0107  -999.2500     2.5532    -0.0033
 1055.0000     9.2657    71.7257  -999.2500     2.5478    -0.0002
 1055.5000     9.1906    81.3428  -999.2500     2.5471     0.0023
 1056.0000     9.1765    80.4391  -999.2500     2.5520     0.0046
 1056.5000     9.2092    77.8457  -999.2500     2.5581    -0.0025
 1057.0000     9.2109    76.3275  -999.2500     2.5590    -0.0004
 1057.5000     9.2278    76.0337  -999.2500     2.5591     0.0015
 1058.0000     9.3215    74.0592  -999.2500     2.5591    -0.0060
 1058.5000     9.3845    76.0741  -999.2500     2.5608    -0.0048
 1059.0000     9.3708    77.1798  -999.2500     2.5647    -0.0036
 1059.5000     9.3418    80.6004  -999.2500     2.5702    -0.0096
 1060.0000     9.3438    83.5011  -999.2500     2.5726    -0.0117
 1060.5000     9.3608    77.2255  -999.2500     2.5711     0.0025
 1061.0000     9.4084    73.8640  -999.2500     2.5396     0.0107
 1061.5000     9.4254    73.4166  -999.2500     2.5374     0.0048
 1062.0000     9.3810    87.5711  -999.2500     2.5444    -0.0146
 1062.5000     9.3367    86.5138  -999.2500     2.5730    -0.0186
 1063.0000     9.3212    81.6162  -999.2500     2.5792    -0.0196
 1063.5000     9.2939    79.9354  -999.2500     2.5801    -0.0186
 1064.0000     9.2960    79.4756  -999.2500     2.5762    -0.0055
 1064.5000     9.4663    79.8312  -999.2500     2.5597     0.0074
 1065.0000     9.5140    79.8491  -999.2500     2.5449     0.0043
 1065.5000     9.4849    77.2556  -999.2500     2.5442     0.0052
 1066.0000     9.4558    70.3611  -999.2500     2.5436     0.0073
 1066.5000     9.4575    71.7615  -999.2500     2.5398     0.0054
 1067.0000     9.4592    79.6136  -999.2500     2.5337     0.0100
 1067.5000     9.4612    80.2459  -999.2500     2.5330     0.0143
 1068.0000     9.4629    78.8207  -999.2500     2.5346     0.0087
 1068.5000     9.4645    76.4460  -999.2500     2.5387     0.0090
 1069.0000     9.4355    75.9986  -999.2500     2.5425     0.0080
 1069.5000     9.3297    76.0210  -999.2500     2.5449     0.0080
 1070.0000     9.2700    76.8070  -999.2500     2.5465     0.0008
 1070.5000     9.3177    78.2074  -999.2500     2.5451     0.0073
 1071.0000     9.3500    77.7645  -999.2500     2.5313     0.0211
 1071.5000     9.3670    73.6350  -999.2500     2.5252     0.0105
 1072.0000     9.2616    71.9632  -999.2500     2.5299     0.0133
 1072.5000     9.2019    72.4887  -999.2500     2.5308     0.0151
 1073.0000     9.2036    76.1510  -999.2500     2.5309     0.0157
 1073.5000     9.2052    80.3164  -999.2500     2.5302     0.0157
 1074.0000     9.2222    82.7921  -999.2500     2.5303     0.0156
 1074.5000     9.2698    82.5028  -999.2500     2.5296     0.0156
 1075.0000     9.2868    80.2165  -999.2500     2.5304     0.0153
 1075.5000     9.3210    76.3942  -999.2500     2.5313    -0.0015
 1076.0000     9.3672    74.2616  -999.2500     2.5576    -0.0086
 1076.5000     9.4148    76.1315  -999.2500     2.5607    -0.0061
 1077.0000     9.4625    78.5991  -999.2500     2.5513     0.0049
 1077.5000     9.4641    76.7776  -999.2500     2.5463     0.0068
 1078.0000     9.4347    70.1903  -999.2500     2.5471     0.0033
 1078.5000     9.4367    69.7429  -999.2500     2.5503    -0.0050
 1079.0000     9.4384    72.9912  -999.2500     2.5535    -0.0063
 1079.5000     9.4719    81.4576  -999.2500     2.5543    -0.0003
 1080.0000     9.5034    83.6261  -999.2500     2.5544    -0.0030
 1080.5000     9.3823    83.6440  -999.2500     2.5545    -0.0070
 1081.0000     9.2306    84.2805  -999.2500     2.5537    -0.0031
 1081.5000     9.1858    85.5238  -999.2500     2.5508     0.0021
 1082.0000     9.2339    81.7053  -999.2500     2.5486     0.0033
 1082.5000     9.3122    78.6511  -999.2500     2.5464     0.0042
 1083.0000     9.3445    77.7473  -999.2500     2.5434     0.0085
 1083.5000     9.3149    77.4536  -999.2500     2.5411     0.0103
 1084.0000     9.2534    78.7048  -999.2500     2.5412     0.0032
 1084.5000     9.2731    79.9517  -999.2500     2.5482    -0.0006
 1085.0000     9.3361    84.1170  -999.2500     2.5514    -0.0012
 1085.5000     9.3378    85.8466  -999.2500     2.5492     0.0009
 1086.0000     9.3087    89.1678  -999.2500     2.5438     0.0083
 1086.5000     9.2793    90.3197  -999.2500     2.5439     0.0085
 1087.0000     9.2660    89.1087  -999.2500     2.5463    -0.0095
 1087.5000     9.2676    88.3541  -999.2500     2.5649    -0.0128
 1088.0000     9.2693    88.2184  -999.2500     2.5681     0.0047
 1088.5000     9.2713    90.2378  -999.2500     2.5458     0.0146
 1089.0000     9.2730    91.5084  -999.2500     2.5281     0.0216
 1089.5000     9.2899    89.9664  -999.2500     2.5165     0.0225
 1090.0000     9.3222    90.4039  -999.2500     2.5129     0.0194
 1090.5000     9.3699    98.1481  -999.2500     2.5154     0.0218
 1091.0000     9.4022    98.6268  -999.2500     2.5124     0.0274
 1091.5000     9.4039   104.0211  -999.2500     2.5070     0.0307
 1092.0000     9.4055   100.5060  -999.2500     2.5040     0.0152
 1092.5000     9.3918    95.4548  -999.2500     2.5180     0.0130
 1093.0000     9.3325    93.3222  -999.2500     2.5273     0.0093
 1093.5000     9.2574    91.6504  -999.2500     2.5424     0.0049
 1094.0000     9.2433    89.6629  -999.2500     2.5475     0.0000
 1094.5000     9.3681    95.2329  -999.2500     2.5430     0.0021
 1095.0000     9.4004    95.3908  -999.2500     2.5392     0.0114
 1095.5000     9.2793    92.1874  -999.2500     2.5331     0.0144
 1096.0000     9.1889    89.1331  -999.2500     2.5286     0.0054
 1096.5000     9.2391    87.9222  -999.2500     2.5433     0.0041
 1097.0000     9.3153    87.3257  -999.2500     2.5334     0.0122
 1097.5000     9.3783    87.1855  -999.2500     2.5218     0.0196
 1098.0000     9.4106    93.5059  -999.2500     2.5205     0.0209
 1098.5000     9.4123    93.8311  -999.2500     2.5213     0.0212
 1099.0000     9.4139    96.7135  -999.2500     2.5222     0.0212
 1099.5000     9.4309   100.4766  -999.2500     2.5230     0.0174
 1100.0000     9.4325    98.8995  -999.2500     2.5310     0.0048
 1100.5000     9.4650    91.1408  -999.2500     2.5471     0.0041
 1101.0000     9.4826    87.7793  -999.2500     2.5425     0.0063
 1101.5000     9.4230    89.4897  -999.2500     2.5410     0.0038
 1102.0000     9.2867    87.7423  -999.2500     2.5534    -0.0061
 1102.5000     9.3192    86.7578  -999.2500     2.5566    -0.0086
 1103.0000     9.3977    87.8555  -999.2500     2.5567    -0.0034
 1103.5000     9.4301    88.3342  -999.2500     2.5423     0.0095
 1104.0000     9.4473    83.4366  -999.2500     2.5337     0.0129
 1104.5000     9.4491    82.3748  -999.2500     2.5307     0.0128
 1105.0000     9.4509    86.5447  -999.2500     2.5277     0.0134
 1105.5000     9.4531    88.5595  -999.2500     2.5293     0.0165
 1106.0000     9.4089    92.9494  -999.2500     2.5324     0.0180
 1106.5000     9.3340    98.1630  -999.2500     2.5348     0.0127
 1107.0000     9.2740    94.6086  -999.2500     2.5349     0.0136
 1107.5000     9.2762    89.7110  -999.2500     2.5342     0.0142
 1108.0000     9.3086    90.4969  -999.2500     2.5381     0.0046
 1108.5000     9.3411    91.4365  -999.2500     2.5436     0.0039
 1109.0000     9.3598    91.4545  -999.2500     2.5398     0.0102
 1109.5000     9.3911    91.1652  -999.2500     2.5306     0.0152
 1110.0000     9.3623    89.3398  -999.2500     2.5291     0.0172
 1110.5000     9.2874    84.2817  -999.2500     2.5292     0.0171
 1111.0000     9.2734    86.8386  -999.2500     2.5300     0.0162
 1111.5000     9.2756    87.5502  -999.2500     2.5309     0.0146
 1112.0000     9.2774    82.1918  -999.2500     2.5325     0.0140
 1112.5000     9.2945    82.9823  -999.2500     2.5349     0.0136
 1113.0000     9.3117    86.9940  -999.2500     2.5365     0.0130
 1113.5000     9.3442    91.1594  -999.2500     2.5365     0.0079
