~VERSION INFORMATION
 VERS.                2.0:   CWLS LOG ASCII STANDARD - VERSION 2.0
 WRAP.                 NO:   ONE LINE PER DEPTH STEP
~WELL INFORMATION
#MNEM.UNIT      DATA TYPE    INFORMATION
#----------   ------------   ------------------------------
 STRT.F            2.0000:   START DEPTH
 STOP.F          565.0000:   STOP DEPTH
 STEP.F            0.5000:   STEP LENGTH
 NULL.          -999.2500:   NO VALUE
 COMP.       F D SERV INC:   COMPANY
 WELL. NAVAL PETROLEUM RESERVE 3 SX-3 #86-2 SX3:   WELL
 FLD .             TEAPOT:   FIELD
 LOC .       S3 T38N R78W:   LOCATION
 CNTY.            NATRONA:   COUNTY
 STAT.            WYOMING:   STATE
 CTRY. UNITED STATES OF AMERICA:   COUNTRY
 SRVC.     Atlas Wireline:   SERVICE COMPANY
 DATE.        23-OCT-1992:   LOGDATE
 API .       490252255400:   API NUMBER
~CURVE INFORMATION
#MNEM.UNIT       API CODE    CURVE DESCRIPTION
#----------   ------------   ------------------------------
 DEPT.F                  :   
 GRR .GAPI   07 310 01 00:   GAMMA RAY
 RILD.OHMM   07 120 46 00:   INDUCTION LOG DEEP RESISTIVITY
 RILM.OHMM   07 120 44 00:   RESITIVITY LONG MEDIUM
~PARAMETER INFORMATION
#MNEM.UNIT          VALUE    DESCRIPTION
#----------   ------------   ------------------------------
 PD  .                 GL:   PERMANENT DATUM
 EPD .F              5153:   ELEVATION PERMANENT DATUM
 LMF .                 KB:   LOG MEASURED FROM
 DAPD.F                10:   FEET ABOVE PERMANENT DATUM
 DMF .                 KB:   DRILLING MEASURED FROM
 EKB .F              5153:   KELLING BUSHING
 EDF .F              5152:   DRILLING FLOOR
 EGL .F              5143:   GROUND LEVEL
 DATE.        23-OCT-1992:   RUN DATE
 RUN .                  1:   RUN NUMBER
 DD  .F               575:   DEPTH DRILLER
 DL  .F               574:   DEPTH LOGGER
 BLI .F               566:   BOTTOM LOG INTERVAL
 CS  .IN            8.625:   CASING SIZE
 CBD .F                94:   CASING BOTTOM DRILLER
 CBL .F                98:   CASING BOTTOM LOGGER
 BS  .IN            7.875:   BIT SIZE
 BSD .F               575:   BIT SIZE AT DEPTH
 DFT .           AIR FOAM:   DRILLING FLUID TYPE
 TCS .HRS               1:   TIME CURCULATED STOPPED
 MRT .F                70:   MAXIMUM RECORDED TEMPERATURE
 LUN .            HL-6274:   LOGGING UNIT NUMBER
 LUL .             CASPER:   LOGGING UNIT LOCATION
 ENGI.             RAUTIO:   RECORDING ENGINEER
 WITN.        GARY STRONG:   WITNESSED BY
 CLNT.            A2DTECH:   CLIENT CODE
 ORIG.           5" PRINT:   ORIGIN OF DATA
 UWI .       490252255400:   UNIQUE WELL ID
 DICO. A2D Technologies, Inc.:   DIGITIZING COMPANY
~OTHER INFORMATION
~A    DEPT      GRR      RILD       RILM   
# ...
  275.0000   129.7292     5.1950     5.3680
  275.5000   130.6375     4.4821     4.9069
  276.0000   130.6434     3.7440     4.2737
  276.5000   128.2468     3.4940     3.6199
  277.0000   124.9494     2.9594     2.9744
  277.5000   120.4507     2.7427     2.7278
  278.0000   119.8559     2.6496     2.6717
  278.5000   120.4625     2.6472     2.6531
  279.0000   119.8678     2.7061     2.7461
  279.5000   119.2730     2.8032     3.0038
  280.0000   122.2834     3.0144     3.4246
  280.5000   127.0940     3.4738     3.8244
  281.0000   131.6044     3.9903     4.2453
  281.5000   132.5112     4.8448     4.7879
  282.0000   132.8174     5.5653     5.4374
  282.5000   137.3277     6.0904     5.9066
  283.0000   140.3366     6.4829     6.5056
  283.5000   138.8410     6.8059     6.7337
  284.0000   136.7447     7.0956     6.8742
  284.5000   137.4154     7.2455     6.9214
  285.0000   138.8600     7.2968     6.9688
  285.5000   141.5686     7.2477     6.9204
  286.0000   142.4754     7.1487     6.8723
  286.5000   142.1795     6.9066     6.6846
  287.0000   141.8850     6.4009     6.2814
  287.5000   142.7933     6.0149     5.8620
  288.0000   144.0004     5.6133     5.4705
  288.5000   145.2074     5.3115     5.1762
  289.0000   147.6157     5.1314     5.1402
  289.5000   153.3394     5.1321     5.0694
  290.0000   153.6336     5.0974     5.0342
  290.5000   145.5327     5.0981     5.0338
  291.0000   138.0310     5.1343     5.0684
  291.5000   135.6330     5.2793     5.2823
  292.0000   137.7425     5.4283     5.5435
  292.5000   143.7543     6.0651     5.8985
  293.0000   145.2617     6.1933     6.2331
  293.5000   146.1670     6.5470     6.6322
  294.0000   144.3725     6.9690     7.1058
  294.5000   141.3754     7.3161     7.4662
  295.0000   138.9389     7.6311     7.8258
  295.5000   137.6877     8.0147     8.0444
  296.0000   138.3915     8.4066     8.2691
  296.5000   138.9980     8.5842     8.3260
  297.0000   139.3041     8.6451     8.3831
  297.5000   140.2109     8.5866     8.3247
  298.0000   141.4180     8.5282     8.2100
  298.5000   141.1235     8.4123     8.0411
  299.0000   142.6309     8.1271     7.8700
  299.5000   146.5407     7.7974     7.6079
  300.0000   150.1501     7.5855     7.4416
  300.5000   151.7137     7.4816     7.3185
  301.0000   152.5658     7.3283     7.1020
  301.5000   152.5716     7.0305     6.5834
  302.0000   151.6766     6.6521     6.2305
  302.5000   144.1042     6.2506     5.7737
  303.0000   138.4384     5.5954     5.3476
  303.5000   138.1381     5.1140     5.1374
  304.0000   139.6396     5.0440     4.9983
  304.5000   138.1381     5.1187     5.0336
  305.0000   138.4384     5.2953     5.2111
  305.5000   142.6426     5.4444     5.6620
  306.0000   144.4444     5.5977     6.1096
  306.5000   142.9429     5.8762     6.5022
  307.0000   142.6426     6.1685     6.8251
  307.5000   145.3454     6.5656     7.0658
  308.0000   146.5465     7.1350     7.5198
  308.5000   146.5465     7.9715     7.8932
  309.0000   146.5465     8.2530     8.0595
  309.5000   146.2462     8.4268     8.2293
  310.0000   146.2462     8.4859     8.2875
  310.5000   145.1810     8.5546     8.3212
  311.0000   140.2402     8.6654     8.3474
  311.5000   136.9369     8.7262     8.4064
  312.0000   138.7387     8.6666     8.4075
  312.5000   143.2432     8.6671     8.4087
  313.0000   145.6456     8.6677     8.4098
  313.5000   148.6487     8.6683     8.3947
  314.0000   152.2523     8.4905     8.3539
  314.5000   153.7538     8.4326     8.2976
  315.0000   149.5495     8.4332     8.2419
  315.5000   143.8438     8.3178     8.2430
  316.0000   139.0390     8.2609     8.2441
  316.5000   138.1311     8.2616     8.3024
  317.0000   142.1262     8.2622     8.3610
  317.5000   146.9520     8.4362     8.3622
  318.0000   148.3483     8.5544     8.2489
  318.5000   145.3454     8.4374     8.1368
  319.0000   145.0450     8.2074     7.9711
  319.5000   147.7477     7.8739     7.5961
  320.0000   148.3483     7.1965     7.0415
  320.5000   147.4474     6.6691     6.5274
  321.0000   148.9489     6.3981     5.9268
  321.5000   153.4535     6.2670     5.8866
  322.0000   156.7568     6.2242     6.0525
  322.5000   157.3574     6.1816     6.3093
  323.0000   154.9550     6.1395     6.4423
  323.5000   151.3513     6.0555     6.4431
  324.0000   146.8229     5.8904     6.3985
  324.5000   143.8438     5.7697     6.2610
  325.0000   144.2441     5.7303     5.8385
  325.5000   147.7477     5.6127     5.2047
  326.0000   151.6517     5.6132     5.0286
  326.5000   153.4535     5.5748     5.0294
  327.0000   152.5526     5.5758     5.1001
  327.5000   149.8499     5.6144     5.5032
  328.0000   145.9460     5.6538     5.8974
  328.5000   142.0420     5.7729     6.3198
  329.0000   142.6426     5.9355     6.6796
  329.5000   146.5465     6.2740     7.0113
  330.0000   147.7477     6.8181     7.3089
  330.5000   147.4474     7.5650     7.6190
  331.0000   145.3373     7.8865     7.7260
  331.5000   142.9199     7.8326     7.6699
  332.0000   139.3393     7.4109     7.2982
  332.5000   139.0390     6.7734     6.8261
  333.0000   139.3393     6.4462     6.2842
  333.5000   138.7387     6.0463     5.7455
  334.0000   138.1381     5.7375     5.4001
  334.5000   142.9429     5.6198     5.2901
  335.0000   149.2493     5.6203     5.4016
  335.5000   152.2523     5.6206     5.7091
  336.0000   151.3513     5.7789     6.0341
  336.5000   148.9489     5.9416     6.4663
  337.0000   143.2432     6.2805     6.8818
  337.5000   139.0390     6.7781     7.2236
  338.0000   138.1341     7.1647     7.4783
  338.5000   139.3564     7.6270     7.7481
  339.0000   138.9249     8.0661     8.0221
  339.5000   136.0360     8.4724     8.3555
  340.0000   139.0390     8.7607     8.5315
  340.5000   139.6396     8.9452     8.6513
  341.0000   139.0390     9.0080     8.7728
  341.5000   136.9369     9.0712     8.8348
  342.0000   135.7357     9.1983     9.0209
  342.5000   137.2372     9.2629     9.1476
  343.0000   141.7417     9.4580     9.2760
  343.5000   142.9429     9.4586     9.2773
  344.0000   137.8378     9.4593     9.2785
  344.5000   136.6366     9.5256     9.2798
  345.0000   139.0390     9.3218     9.2811
  345.5000   141.1411     9.2027     9.3466
  346.0000   141.7417     9.2674     9.4127
  346.5000   141.7417     9.3973     9.4908
  347.0000   141.7678     9.5953     9.6126
  347.5000   140.5405     9.7973     9.8151
  348.0000   138.4224     9.8661     9.8844
  348.5000   136.5255    10.0044     9.8178
  349.0000   130.6306    10.0050     9.5516
  349.5000   125.8258     9.4012     9.1022
  350.0000   121.3213     8.0732     8.6143
  350.5000   119.8198     7.0170     6.1421
  351.0000   122.5225     6.5895     5.7327
  351.5000   134.2342     6.3369     5.6937
  352.0000   146.5465     6.3373     5.7775
  352.5000   154.6546     6.3378     6.1439
  353.0000   155.2552     6.4266     6.6750
  353.5000   148.6487     6.5167     7.4552
  354.0000   141.1411     6.7936     8.1558
  354.5000   133.9339     7.3828     8.9223
  355.0000   129.6897     8.0788     9.8966
  355.5000   124.8008     9.3440    10.7522
  356.0000   121.9219    10.8886    11.2077
  356.5000   123.7237    11.1890    11.3643
  357.0000   126.1261    11.0019    11.2868
  357.5000   127.3273    11.0065    11.2878
  358.0000   128.2282    11.2414    11.4455
  358.5000   128.2282    11.5610    11.9304
  359.0000   127.3273    11.9723    12.6088
  359.5000   126.4264    12.5712    13.1813
  360.0000   124.6246    13.6779    14.3692
  360.5000   119.8198    15.3789    15.5572
  361.0000   105.5385    16.8333    16.8551
  361.5000    87.8261    19.7000    19.0868
  362.0000    78.2224    23.1642    21.8988
  362.5000    77.0270    26.2482    24.8045
  363.0000    76.7007    28.9301    26.7761
  363.5000    74.3375    31.0150    28.4947
  364.0000    73.1407    32.5665    30.1316
  364.5000    73.4483    33.9595    31.6087
  365.0000    74.6553    34.6841    32.2724
  365.5000    74.6612    35.4243    31.8314
