~VERSION INFORMATION
 VERS.                2.0:   CWLS LOG ASCII STANDARD - VERSION 2.0
 WRAP.                 NO:   ONE LINE PER DEPTH STEP
~WELL INFORMATION
#MNEM.UNIT      DATA TYPE    INFORMATION
#----------   ------------   ------------------------------
 STRT.F           84.0000:   START DEPTH
 STOP.F          860.0000:   STOP DEPTH
 STEP.F            0.5000:   STEP LENGTH
 NULL.          -999.2500:   NO VALUE
 COMP.               NAVY:   COMPANY
 WELL. 52-S-11  NPR #3 #52S-11:   WELL
 FLD .        TEAPOT DOME:   FIELD
 LOC .      S11 T38N R78W:   LOCATION
 CNTY.            NATRONA:   COUNTY
 STAT.            WYOMING:   STATE
 CTRY. UNITED STATES OF AMERICA:   COUNTRY
 SRVC.       Schlumberger:   SERVICE COMPANY
 DATE.        01-JUL-1962:   LOGDATE
 API .       490250637300:   API NUMBER
~CURVE INFORMATION
#MNEM.UNIT       API CODE    CURVE DESCRIPTION
#----------   ------------   ------------------------------
 DEPT.F                  :   
 ASN .OHMM   05 041 16 00:   AMPLIFIED SHORT NORMAL 16"
 CILD.MMHO   05 110 46 00:   CONDUCTIVITY INDUCTION LOG DEEP
 ILD .OHMM   05 120 46 00:   INDUCTION LOG DEEP
 SPR .MV     05 010 01 00:   SPONTANEOUS POTENTIAL FROM RES.
 GR  .GAPI   30 310 01 00:   GAMMA RAY
~PARAMETER INFORMATION
#MNEM.UNIT          VALUE    DESCRIPTION
#----------   ------------   ------------------------------
 LMF .                 KB:   LOG MEASURED FROM
 DMF .                 KB:   DRILLING MEASURED FROM
 EKB .F              5191:   KELLING BUSHING
 EGL .F              5186:   GROUND LEVEL
 DATE.           7-1-1962:   RUN DATE
 RUN .                  1:   RUN NUMBER
 DD  .F               860:   DEPTH DRILLER
 DL  .F               861:   DEPTH LOGGER
 BLI .F               860:   BOTTOM LOG INTERVAL
 TLI .F                91:   TOP LOG INTERVAL
 CBD .F                10:   CASING BOTTOM DRILLER
 BS  .IN             6.75:   BIT SIZE
 BSD .F               860:   BIT SIZE AT DEPTH
 DFT .            GEL-OIL:   DRILLING FLUID TYPE
 DFD .               10.2:   DRILLING FLUID DENSITY
 DFV .                 45:   DRILLING FLUID VISCOSITY
 DFL .                  4:   DRILLING FLUID LOSS
 MSS .           FLOWLINE:   MUD SAMPLE SOURCE
 RMS .OHMM           5.54:   RESISTIVITY MUD SAMPLE
 MST .F                75:   MUD SAMPLE TEMPERATURE
 RMB .OHMM           5.19:   RESISTIVITY MUD AT BHT
 BHT .F                80:   BOTTOM HOLE TEMPERATURE
 TCS .HRS               1:   TIME CURCULATED STOPPED
 MRT .F                80:   MAXIMUM RECORDED TEMPERATURE
 LUN .               2503:   LOGGING UNIT NUMBER
 LUL .              CSPR.:   LOGGING UNIT LOCATION
 ENGI.             KNOBEL:   RECORDING ENGINEER
 WITN.          JORGENSEN:   WITNESSED BY
 CLNT.            A2DTECH:   CLIENT CODE
 ORIG.      2" & 5" PRINT:   ORIGIN OF DATA
 UWI .       490250637300:   UNIQUE WELL ID
 DICO. A2D Technologies, Inc.:   DIGITIZING COMPANY
~OTHER INFORMATION
~A   DEPT      ASN       CILD        ILD        SPR         GR   
# ...
  816.0000    16.3485    64.1697    13.8359   -38.8720    42.5493
  816.5000    16.7683    64.9473    13.6826   -37.1951    41.5994
  817.0000    16.4634    64.9698    13.5294   -34.7561    35.4029
  817.5000    16.4619    64.9924    13.3762   -34.2708    37.0646
  818.0000    16.0058    65.0196    13.2988   -35.2134    28.1022
  818.5000    15.3983    65.0419    13.2218   -35.9756    23.2408
  819.0000    16.1544    63.5536    13.3717   -36.7378    33.0948
  819.5000    16.5316    62.0653    13.5219   -36.7378    38.5520
  820.0000    16.5302    59.8161    13.5967   -36.2805    34.1414
  820.5000    16.1499    58.3278    13.8224   -35.8232    30.4920
  821.0000    15.9211    58.3557    13.8209   -36.2805    31.2432
  821.5000    15.6166    59.8885    13.7435   -37.1961    32.7532
  822.0000    15.1605    62.1766    13.5903   -37.5000    37.2993
  822.5000    15.2348    63.7095    13.4371   -37.0427    33.9534
  823.0000    15.3848    65.2423    13.2747   -37.5000    33.1686
  823.5000    15.3076    66.7752    13.0415   -37.1213    26.1981
  824.0000    14.7717    68.3082    12.8252   -35.8232    23.0058
  824.5000    14.3114    69.1593    12.6720   -36.9121    31.4941
  825.0000    13.6868    69.8640    12.5187   -37.3476    38.9221
  825.5000    12.9527    69.1357    12.4413   -37.5000    41.7978
  826.0000    13.4815    69.9132    12.3640   -35.9756    43.7630
  826.5000    13.7835    69.9355    12.3625   -33.9939    37.3815
  827.0000    13.8577    71.4683    12.2851   -33.3841    37.8293
  827.5000    13.6286    72.2459    12.2077   -32.7744    41.3125
  828.0000    13.1725    73.0235    12.0545   -32.6220    41.7602
  828.5000    12.9438    73.8010    11.9771   -32.9268    39.6931
  829.0000    12.8665    76.0891    11.8239   -33.3841    32.9428
  829.5000    12.6378    77.6220    11.6706   -33.5366    34.6063
  830.0000    12.6363    78.3995    11.5174   -33.6890    36.8750
  830.5000    12.5590    79.1771    11.3642   -33.3841    36.4104
  831.0000    12.4818    80.7099    11.2868   -33.3841    34.1267
  831.5000    12.4045    80.7911    11.2094   -33.2317    34.4245
  832.0000    12.3273    81.5106    11.1320   -33.2317    34.1117
  832.5000    12.2500    82.2929    11.1305   -33.2317    33.6489
  833.0000    12.1728    83.0704    11.1149   -33.5366    28.9373
  833.5000    12.1613    83.0927    11.0513   -34.1463    32.8752
  834.0000    12.0182    83.8703    11.0498   -34.7561    32.5642
  834.5000    11.9406    83.8925    10.9724   -34.9085    36.1986
  835.0000    11.8634    84.6701    10.8951   -34.4512    40.1364
  835.5000    11.7861    84.6924    10.8177   -33.8415  -999.2500
  836.0000    11.7089    85.4699    10.7403   -33.2317  -999.2500
  836.5000    11.7074    86.2475    10.7388   -32.4695  -999.2500
  837.0000    11.6301    86.2697    10.7373   -31.8598  -999.2500
  837.5000    11.5529    86.2920    10.7358   -31.4024  -999.2500
  838.0000    11.5514    86.3143    10.7343   -30.9451  -999.2500
  838.5000    11.5499    86.3368    10.7328   -30.7927  -999.2500
  839.0000    11.5484    86.3595    10.7313   -30.4878  -999.2500
  839.5000    11.5469    86.3867    10.7298   -30.4878  -999.2500
  840.0000    11.5454    86.4089    10.7284   -30.4878  -999.2500
  840.5000    11.5439    87.1865    10.6510   -30.4878  -999.2500
  841.0000    11.5424    87.2087    10.5736   -30.6402  -999.2500
  841.5000    11.5409    87.2310    10.5721   -30.7927  -999.2500
  842.0000    11.5394    86.4980    10.5705   -31.2500  -999.2500
  842.5000    11.5379    86.5203    10.5687   -31.4024  -999.2500
  843.0000    11.5361    86.5425    10.5672   -31.2490  -999.2500
  843.5000    11.5346    86.5667    10.5658   -30.7927  -999.2500
  844.0000    11.5331    85.8308    10.5643   -30.4878  -999.2500
  844.5000    11.5316    85.8540    10.6386   -30.7927  -999.2500
  845.0000    11.5301    85.1208    10.5613   -30.8079  -999.2500
  845.5000    11.5286    85.1435    10.5598   -30.9451  -999.2500
  846.0000    11.4513    85.1662    10.5583   -30.9228  -999.2500
  846.5000    11.4499    85.9441    10.5568   -30.6143  -999.2500
  847.0000    11.3726    86.7262    10.5553   -30.1829  -999.2500
  847.5000    11.3711    87.5038    10.4779   -29.7256  -999.2500
  848.0000    11.3696    88.2814    10.4764   -29.5732  -999.2500
  848.5000    11.3681    89.0589    10.3990   -29.7256  -999.2500
  849.0000    11.3666    89.8365    10.3975   -29.5732  -999.2500
  849.5000    11.2136    89.8587    10.3202   -29.2683  -999.2500
  850.0000    11.0606    89.8810    10.3187   -28.9634  -999.2500
  850.5000    10.9834    89.9033    10.3172   -28.9634  -999.2500
  851.0000    10.9733    90.6808    10.3157   -28.8110  -999.2500
  851.5000    10.9045    90.7031    10.3141   -28.8110  -999.2500
  852.0000    10.9789    90.7254    10.2364   -28.8110  -999.2500
  852.5000    10.9770    90.7477    10.2349   -28.8110  -999.2500
  853.0000    10.9755    90.7704    10.2334   -28.8110  -999.2500
  853.5000    10.9740    90.7931    10.2319   -28.9634  -999.2500
  854.0000    10.9725    90.8200    10.2304   -28.8110  -999.2500
  854.5000    10.9710  -999.2500    10.2289   -28.8110  -999.2500
  855.0000    10.9695  -999.2500    10.2274   -28.8110  -999.2500
  855.5000    10.9680  -999.2500    10.2259   -29.2683  -999.2500
  856.0000    10.9665  -999.2500    10.2244   -29.7256  -999.2500
  856.5000    10.8893  -999.2500    10.1471   -30.1829  -999.2500
  857.0000    10.8120  -999.2500    10.2218   -30.4878  -999.2500
  857.5000    10.7348  -999.2500    10.2200   -30.7927  -999.2500
  858.0000    10.6575  -999.2500    10.1426   -30.7927  -999.2500
  858.5000    10.5803  -999.2500    10.2170   -30.9451  -999.2500
  859.0000    10.5788  -999.2500    10.2155   -30.9451  -999.2500
  859.5000    10.5714  -999.2500    10.2898   -30.9451  -999.2500
  860.0000    10.4997  -999.2500    10.2880   -30.9451  -999.2500
