~VERSION INFORMATION
 VERS.                2.0:   CWLS LOG ASCII STANDARD - VERSION 2.0
 WRAP.                 NO:   ONE LINE PER DEPTH STEP
~WELL INFORMATION
#MNEM.UNIT      DATA TYPE    INFORMATION
#----------   ------------   ------------------------------
 STRT.F            4.0000:   START DEPTH
 STOP.F          674.0000:   STOP DEPTH
 STEP.F            0.5000:   STEP LENGTH
 NULL.          -999.2500:   NO VALUE
 COMP. LAWRENCE/ALLISON INC:   COMPANY
 WELL.         21X #10-10:   WELL
 FLD .             TEAPOT:   FIELD
 LOC .      S10 T38N R78W:   LOCATION
 CNTY.            NATRONA:   COUNTY
 STAT.            WYOMING:   STATE
 CTRY. UNITED STATES OF AMERICA:   COUNTRY
 SRVC.           Gearhart:   SERVICE COMPANY
 DATE.        17-AUG-1987:   LOGDATE
 API .       490251118400:   API NUMBER
~CURVE INFORMATION
#MNEM.UNIT       API CODE    CURVE DESCRIPTION
#----------   ------------   ------------------------------
 DEPT.F                  :   
 GRR .GAPI   07 310 01 00:   GAMMA RAY FROM RESISTIVITY
 ILD .OHMM   07 120 46 00:   INDUCTION LOG DEEP
 ILM .OHMM   07 120 44 00:   INDUCTION LOG MEDIUM
~PARAMETER INFORMATION
#MNEM.UNIT          VALUE    DESCRIPTION
#----------   ------------   ------------------------------
 PD  .                 GL:   PERMANENT DATUM
 EPD .F              5253:   ELEVATION PERMANENT DATUM
 LMF .                 KB:   LOG MEASURED FROM
 DAPD.F                12:   FEET ABOVE PERMANENT DATUM
 DMF .                 KB:   DRILLING MEASURED FROM
 EKB .F              5265:   KELLING BUSHING
 EDF .F              5263:   DRILLING FLOOR
 EGL .F              5253:   GROUND LEVEL
 DATE.        17-AUG-1987:   RUN DATE
 RUN .                  1:   RUN NUMBER
 DD  .F               690:   DEPTH DRILLER
 DL  .F               682:   DEPTH LOGGER
 BLI .F               674:   BOTTOM LOG INTERVAL
 TLI .F                60:   TOP LOG INTERVAL
 CS  .IN            8.625:   CASING SIZE
 CBD .F                50:   CASING BOTTOM DRILLER
 CBL .F                60:   CASING BOTTOM LOGGER
 BS  .IN             7.87:   BIT SIZE
 BSD .F               690:   BIT SIZE AT DEPTH
 DFT .               FOAM:   DRILLING FLUID TYPE
 TCS .HRS            1500:   TIME CURCULATED STOPPED
 TLAB.HRS            1609:   TIME LOGGER AT BOTTOM
 LUN .               7597:   LOGGING UNIT NUMBER
 LUL .           GILLETTE:   LOGGING UNIT LOCATION
 ENGI.           JOHNSTON:   RECORDING ENGINEER
 WITN.             STRONG:   WITNESSED BY
 CLNT.            A2DTECH:   CLIENT CODE
 ORIG.       2", 5" PRINT:   ORIGIN OF DATA
 UWI .       490251118400:   UNIQUE WELL ID
 DICO. A2D Technologies, Inc.:   DIGITIZING COMPANY
~OTHER INFORMATION
~A    DEPT      GRR       ILD        ILM   
# ...
  459.0000    88.8357    18.8371    18.4864
  459.5000    87.3369    19.6486    19.1480
  460.0000    85.8380    20.3526    19.8332
  460.5000    84.3338    20.6455    20.4003
  461.0000    84.0507    20.7970    20.7169
  461.5000    83.7720    20.8041    20.8445
  462.0000    83.1854    20.8113    20.8251
  462.5000    83.2067    20.5301    20.5655
  463.0000    84.1642    19.9723    20.2860
  463.5000    86.3374    19.7024    19.7344
  464.0000    88.7456    19.1461    18.7988
  464.5000    90.2862    17.8668    18.1593
  465.0000    90.0031    17.5197    17.5414
  465.5000    87.5924    17.2830    16.8268
  466.0000    85.7895    17.2890    16.1413
  466.5000    86.4183    17.1732    15.8113
  467.0000    90.3905    17.1806    15.8158
  467.5000    92.2351    16.9485    15.8210
  468.0000    92.5599    16.8365    15.7142
  468.5000    92.5808    16.7238    15.5017
  469.0000    91.6778    16.4979    15.5060
  469.5000    87.3103    16.2764    15.7282
  470.0000    86.2604    16.2819    15.9536
  470.5000    86.8943    16.2875    16.1822
  471.0000    85.9981    16.2932    16.3000
  471.5000    85.4111    16.1854    16.1910
  472.0000    85.7411    16.1924    16.0829
  472.5000    86.6738    16.0854    15.7540
  473.0000    87.3026    15.9777    15.5399
  473.5000    88.8432    15.7618    15.3298
  474.0000    90.0799    15.5489    15.2264
  474.5000    90.4047    15.3401    15.0205
  475.0000    90.1216    15.2375    15.0246
  475.5000    88.5016    15.1381    15.0283
  476.0000    83.1247    15.0368    15.0325
  476.5000    83.1985    14.7699    15.0373
  477.0000    83.2194    14.6344    15.0409
  477.5000    83.5442    14.5344    14.9405
  478.0000    83.8690    14.4417    14.9446
  478.5000    83.5859    14.3463    14.6306
  479.0000    83.9107    14.4528    14.4401
  479.5000    84.5395    14.4578    14.1458
  480.0000    85.4722    14.3610    13.7593
  480.5000    85.4930    14.2673    13.8604
  481.0000    84.9060    14.1730    13.8642
  481.5000    85.2431    14.2771    13.3925
  482.0000    85.8602    14.2820    13.1177
  482.5000    86.4935    14.3868    13.1222
  483.0000    86.8183    14.3918    13.1258
  483.5000    87.1432    14.2966    13.1294
  484.0000    87.1640    14.2022    13.1330
  484.5000    86.8757    14.2071    13.1366
  485.0000    85.9899    14.1132    13.1403
  485.5000    85.0989    13.9237    13.1447
  486.0000    86.0316    13.6390    13.1483
  486.5000    86.9644    13.5489    12.9696
  487.0000    87.2892    13.3670    12.9577
  487.5000    85.7903    13.1864    12.8861
  488.0000    84.5953    13.0981    12.8897
  488.5000    85.2735    13.1037    12.9836
  489.0000    87.0739    13.1082    12.9873
  489.5000    88.0066    13.1127    12.9909
  490.0000    88.6353    13.1172    12.9944
  490.5000    88.9602    13.0304    12.9076
  491.0000    91.4126    12.9444    12.8066
  491.5000    93.5611    12.8512    12.6471
  492.0000    94.1847    12.7739    12.7400
  492.5000    92.3871    12.9588    12.7435
  493.0000    90.8882    13.3299    12.9261
  493.5000    91.5169    13.3344    13.2032
  494.0000    91.8417    13.5263    13.4862
  494.5000    91.2547    13.7209    13.5843
  495.0000    90.3689    13.9184    13.6832
  495.5000    89.4727    14.0194    13.7827
  496.0000    88.5817    13.9267    13.7865
  496.5000    89.5196    13.9500    13.7904
  497.0000    91.3642    13.8405    13.6981
  497.5000    92.9048    13.4645    13.6066
  498.0000    92.9257    13.3756    13.6113
  498.5000    92.6374    13.2768    13.5203
  499.0000    92.9674    13.1077    13.4300
  499.5000    92.6839    12.9306    13.2466
  500.0000    87.2340    12.8451    13.0675
  500.5000    87.6321    12.5796    12.7075
  501.0000    90.4093    12.4054    12.6191
  501.5000    92.4496    12.4054    12.5314
  502.0000    90.3368    12.4054    12.0087
  502.5000    87.9200    12.4054    11.2744
  503.0000    88.2389    12.4054    11.1297
  503.5000    90.9893    12.4922    11.2077
  504.0000    98.9069    12.8455    11.3652
  504.5000    99.8299    13.4880    11.4447
  505.0000    99.5441    14.3615    12.1865
  505.5000    98.3436    15.3985    12.7075
  506.0000    90.3467    16.0564    15.0241
  506.5000    80.3252    16.5128    16.5658
  507.0000    74.0759    17.2295    17.3974
  507.5000    69.2275    17.7027    17.7774
  508.0000    67.7189    17.7027    17.8873
  508.5000    67.4299    17.7027    17.8873
  509.0000    67.4484    17.2158    17.6394
  509.5000    69.2870    16.5105    16.7986
  510.0000    71.4296    15.6148    15.5575
  510.5000    71.8025    15.2916    15.2352
  511.0000    71.1550    15.0798    14.4081
  511.5000    70.8663    14.8710    14.2084
  512.0000    71.8420    14.6651    14.5090
  512.5000    73.7993    14.6651    14.7128
  513.0000    74.5596    14.8710    14.8159
  513.5000    72.7488    14.9750    14.8159
  514.0000    71.2459    15.0798    14.8159
  514.5000    71.3161    15.1853    14.8159
  515.0000    75.5346    15.2916    14.8159
  515.5000    77.9811    15.3985    15.0241
  516.0000    78.9079    15.6148    15.4493
  516.5000    78.9227    15.9448    15.9978
  517.0000    78.3260    16.3958    16.4506
  517.5000    78.0369    16.6260    16.5658
  518.0000    77.7478    16.7423    16.6818
  518.5000    78.0704    16.6260    16.6818
  519.0000    78.3892    16.6260    16.6818
  519.5000    78.7080    16.6260    16.6818
  520.0000    77.1631    16.5105    16.4506
  520.5000    75.6983    16.3958    16.2226
  521.0000    76.3248    16.1687    16.1098
  521.5000    79.3792    15.9326    15.8866
  522.0000    80.6098    15.3985    15.3419
  522.5000    80.6247    14.8710    15.1267
  523.0000    80.0280    14.7677    14.3967
  523.5000    79.4349    14.7677    13.7212
  524.0000    79.4003    14.7677    13.4370
  524.5000    79.4684    14.7677    13.4370
  525.0000    78.8754    14.7677    13.5311
  525.5000    76.7102    14.7677    13.6258
  526.0000    74.6498    14.8710    13.8173
  526.5000    76.4921    15.0798    13.9141
  527.0000    79.8505    15.2916    14.0115
  527.5000    81.0811    15.3985    14.3079
  528.0000    81.0960    15.5063    14.4081
  528.5000    81.1109    15.7240    14.4259
  529.0000    82.0376    15.7240    14.6105
  529.5000    84.1802    15.6148    14.7128
  530.0000    86.6266    15.5063    14.7128
  530.5000    87.2494    15.5063    14.5090
  531.0000    86.9483    15.3907    14.1096
  531.5000    84.3515    15.2916    13.8173
  532.0000    80.9148    15.1853    13.8173
  532.5000    83.3613    15.3985    13.9141
  533.0000    85.8077    15.6148    14.2084
  533.5000    86.7345    15.8340    14.4225
  534.0000    85.8375    15.9448    14.7128
  534.5000    82.8129    16.1687    14.8159
  535.0000    78.8764    16.1687    15.1293
  535.5000    77.6200    16.2818    15.5575
  536.0000    79.8180    16.2818    15.9978
  536.5000    83.1763    16.1687    16.1098
  537.0000    83.4951    16.0564    16.1098
  537.5000    82.5982    15.9448    15.9978
  538.0000    82.9207    15.7240    15.5561
  538.5000    86.5830    15.2916    14.9082
  539.0000    89.0295    14.8710    14.3079
  539.5000    89.6523    14.3615    13.7212
  540.0000    88.4513    14.0642    13.1587
  540.5000    84.8188    13.8695    12.8861
  541.0000    80.8823    13.8695    12.7965
  541.5000    80.2888    13.8695    12.6191
  542.0000    81.8239    13.7731    12.4443
  542.5000    83.0547    13.6774    12.3577
  543.0000    83.6778    13.4880    12.3577
  543.5000    83.6960    13.4880    12.3577
  544.0000    81.2792    13.4880    12.3577
  544.5000    79.1664    13.4880    12.3577
  545.0000    78.8774    13.4880    12.3577
  545.5000    79.1962    13.3943    12.3577
  546.0000    82.5545    13.3943    12.3577
  546.5000    84.3931    13.3012    12.3577
  547.0000    83.4961    13.3012    12.3577
  547.5000    82.5988    13.2088    12.3577
  548.0000    84.1338    13.2088    12.3577
  548.5000    85.9949    13.2088    12.2718
  549.0000    85.6833    13.0259    12.2838
  549.5000    85.0940    12.9354    12.3577
