~VERSION INFORMATION
 VERS.                2.0:   CWLS LOG ASCII STANDARD - VERSION 2.0
 WRAP.                 NO:   ONE LINE PER DEPTH STEP
~WELL INFORMATION
#MNEM.UNIT      DATA TYPE    INFORMATION
#----------   ------------   ------------------------------
 STRT.F           60.0000:   START DEPTH
 STOP.F          945.0000:   STOP DEPTH
 STEP.F            0.5000:   STEP LENGTH
 NULL.          -999.2500:   NO VALUE
 COMP.          U.S. NAVY:   COMPANY
 WELL. RES 3 TEAPOT DOM #48S-35:   WELL
 FLD .           TEAPOT E:   FIELD
 LOC .      S35 T39N R78W:   LOCATION
 CNTY.            NATRONA:   COUNTY
 STAT.            WYOMING:   STATE
 CTRY. UNITED STATES OF AMERICA:   COUNTRY
 SRVC.       Schlumberger:   SERVICE COMPANY
 DATE.        15-JUL-1964:   LOGDATE
 API .       490250649200:   API NUMBER
~CURVE INFORMATION
#MNEM.UNIT       API CODE    CURVE DESCRIPTION
#----------   ------------   ------------------------------
 DEPT.F                  :   
 SPR .MV     05 010 01 00:   SPONTANEOUS POTENTIAL FROM RES.
 ILD .OHMM   05 120 46 00:   INDUCTION LOG DEEP
 ASN .OHMM   05 041 18 00:   AMPLIFIED SHORT NORMAL 18"
 CILD.MMHO   05 110 46 00:   CONDUCTIVITY INDUCTION LOG DEEP
 CALS.IN     60 280 50 00:   CALIPER FROM SONIC LOG
 DT  .US/F   60 520 00 00:   INTERVAL TRANSIT TIME
 GR  .GAPI   30 310 01 00:   GAMMA RAY
~PARAMETER INFORMATION
#MNEM.UNIT          VALUE    DESCRIPTION
#----------   ------------   ------------------------------
 PD  .                 GL:   PERMANENT DATUM
 EPD .F              5123:   ELEVATION PERMANENT DATUM
 LMF .                 KB:   LOG MEASURED FROM
 DAPD.F                 5:   FEET ABOVE PERMANENT DATUM
 DMF .                 KB:   DRILLING MEASURED FROM
 EKB .F              5128:   KELLING BUSHING
 EGL .F              5123:   GROUND LEVEL
 DATE.        15-JUL-1964:   RUN DATE
 RUN .                  1:   RUN NUMBER
 DD  .F               945:   DEPTH DRILLER
 DL  .F               946:   DEPTH LOGGER
 BLI .F               945:   BOTTOM LOG INTERVAL
 TLI .F                94:   TOP LOG INTERVAL
 CS  .IN            8.625:   CASING SIZE
 CBD .F                10:   CASING BOTTOM DRILLER
 BS  .IN             6.75:   BIT SIZE
 BSD .F               945:   BIT SIZE AT DEPTH
 DFT .                GEL:   DRILLING FLUID TYPE
 DFD .                9.5:   DRILLING FLUID DENSITY
 DFV .                 44:   DRILLING FLUID VISCOSITY
 DFPH.                8.0:   DRILLING FLUID PH
 DFL .               10.5:   DRILLING FLUID LOSS
 MSS .           FLOWLINE:   MUD SAMPLE SOURCE
 RMS .OHMM           3.37:   RESISTIVITY MUD SAMPLE
 MST .F                74:   MUD SAMPLE TEMPERATURE
 RMF .OHMM           2.97:   RESISTIVITY MUD FILTRATE SAMPLE
 MFST.F                78:   MUD FILTRATE SAMPLE TEMPERATURE
 MFSS.                 FP:   MUD FILTRATE SAMPLE SOURCE
 TCS .HRS             1.5:   TIME CURCULATED STOPPED
 MRT .F       T. L. T. M.:   MAXIMUM RECORDED TEMPERATURE
 LUN .               3527:   LOGGING UNIT NUMBER
 LUL .               CSPR:   LOGGING UNIT LOCATION
 ENGI.            WINKLER:   RECORDING ENGINEER
 WITN.          JORGENSEN:   WITNESSED BY
 CLNT.            A2DTECH:   CLIENT CODE
 ORIG.           2" PRINT:   ORIGIN OF DATA
 UWI .       490250649200:   UNIQUE WELL ID
 DICO. A2D Technologies, Inc.:   DIGITIZING COMPANY
~OTHER INFORMATION
~A   DEPT      SPR        ILD        ASN       CILD         CALS       DT         GR   
# ...
  833.5000   -54.0231    18.0915    19.3845    54.5455     6.4567    99.3164    35.3870
  834.0000   -54.3239    18.0855    19.1945    54.5455     6.4406   100.2189    34.0263
  834.5000   -54.4038    18.0195    19.1597    54.5455     6.4396    99.6957    36.8775
  835.0000   -54.2704    18.0210    19.3101    54.5455     6.4386    98.5707    38.6761
  835.5000   -53.5765    18.0225    19.9421    54.6022     6.4376    97.9723    38.9710
  836.0000   -52.7597    17.9493    20.1363    56.0606     6.4666    97.4393    40.4674
  836.5000   -50.6125    17.8169    20.0615    57.1150     6.4958    97.2270    41.2134
  837.0000   -48.3314    17.4085    19.9216    58.4091     6.4948    97.6077    42.4105
  837.5000   -48.0322    16.8293    19.6678    60.6061     6.5092    97.0093    43.0062
  838.0000   -48.2196    16.4483    19.2364    61.9189     6.4928    91.0689    43.3025
  838.5000   -51.9319    16.0001    18.4521    63.6364     6.4916    86.2568    42.3929
  839.0000   -52.9591    15.4096    17.6502    65.1515     6.4906    82.9496    39.5299
  839.5000   -52.8093    15.1841    16.8347    66.1680     6.4895    81.4081    39.9751
  840.0000   -52.0841    14.8876    16.4845    67.4242     6.4885    81.6786    41.0219
  840.5000   -52.1429    14.6404    16.2345    69.4381     6.4873    84.9929    41.6175
  841.0000   -52.2484    14.4170    15.9894    69.9370     6.4863    88.6082    41.9138
  841.5000   -52.5361    14.2174    15.7419    71.2121     6.4853    92.3740    41.9050
  842.0000   -52.5367    13.9740    15.5595    72.4497     6.4843    94.5350    41.7487
  842.5000   -52.2339    13.8018    15.3657    73.9269     6.4832    95.5424    41.1414
  843.0000   -51.5897    13.5473    15.2246    75.7576     6.4820    95.7717    37.3761
  843.5000   -50.6989    13.3826    14.9595    76.2184     6.4810    95.6248    37.0694
  844.0000   -50.1409    13.2304    14.7696    76.7171     6.4800    95.4778    37.0636
  844.5000   -50.2359    13.1769    14.5709    77.2727     6.4790    95.3310    37.0577
  845.0000   -50.3348    13.1784    14.4347    77.2727     6.4628    95.4107    37.3540
  845.5000   -50.7429    13.1799    14.3598    77.0896     6.4011    95.7905    38.3993
  846.0000   -51.1604    13.1815    14.2750    76.5152     6.3698    94.9664    39.8972
  846.5000   -51.6811    13.2248    14.2102    76.5152     6.3385    94.9700    39.7409
  847.0000   -51.6447    13.2594    14.1353    75.7576     6.3375    95.2847    38.0794
  847.5000   -51.4118    13.3359    14.2106    75.0000     6.3516    95.5800    36.8705
  848.0000   -51.0145    13.3773    14.2108    74.1918     6.4109    95.6579    36.8647
  848.5000   -50.7474    13.4281    14.4187    73.4848     6.5160    95.2109    38.0618
  849.0000   -50.5982    13.4904    14.7393    73.4848     6.5304    94.9888    40.4619
  849.5000   -50.4489    13.4536    14.8121    73.4848     6.5138    94.6714    41.0575
  850.0000   -50.7497    13.2559    14.7122    75.0000     6.5128    94.2435    35.4881
  850.5000   -50.9735    12.9702    14.3621    75.7576     6.5118    94.4049    34.1293
  851.0000   -51.0510    12.7491    14.0896    77.9801     6.5106    94.5553    37.2764
  851.5000   -50.9019    12.6625    13.8908    81.1680     6.4944    95.2364    36.9684
  852.0000   -50.6846    12.4500    13.7622    82.5758     6.4934    95.8427    33.9537
  852.5000   -50.4373    12.4169    13.6748    84.0909     6.4921    96.4489    33.0460
  853.0000   -50.1545    12.3777    13.6124    83.2449     6.4760    96.6779    35.7438
  853.5000   -49.7926    12.4545    13.5376    81.8182     6.4750    96.0814    36.7910
  854.0000   -49.5452    12.5208    13.6129    79.3181     6.4588    95.5410    35.5771
  854.5000   -49.1073    12.7096    13.7020    75.5496     6.4578    94.7367    37.3744
  855.0000   -48.8430    13.5834    13.7635    71.9697     6.4568    94.2896    41.1266
  855.5000   -48.0535    14.2181    14.0590    69.3877     6.4555    93.7672    41.5723
  856.0000   -47.4604    15.0604    14.7649    66.5658     6.4545    93.1695    39.9092
  856.5000   -47.0567    15.9868    16.0165    63.6364     6.4535    92.7224    36.2911
  857.0000   -46.5598    16.4203    16.8349    62.2979     6.4525    92.4153    33.7275
  857.5000   -45.4185    16.5892    17.7938    60.6061     6.4514    92.0549    31.3143
  858.0000   -44.9144    16.5910    18.9451    60.6061     6.4504    90.4791    25.7432
  858.5000   -44.7654    16.6403    19.4934    60.8774     6.4494    87.3232    24.6833
  859.0000   -45.5703    16.3564    19.9215    62.8917     6.4481    83.5653    24.9768
  859.5000   -45.9661    14.5715    18.4202    66.6667     6.4471    82.4074    26.6220
  860.0000   -45.0675    13.9979    16.7187    69.9497     6.4461    80.3395    28.2689
  860.5000   -44.9183    13.2999    15.6429    75.0000     6.4451    80.1170    35.4797
  861.0000   -44.9555    12.7091    14.8123    83.4849     6.4594    79.8214    35.9254
  861.5000   -45.3696    12.1090    14.0781    89.1038     6.4886    80.5029    35.7660
  862.0000   -45.9191    11.8051    13.5415    90.9091     6.5177    82.0121    35.4580
  862.5000   -46.3331    11.4131    12.9473    93.3714     6.5320    83.3962    34.2460
  863.0000   -46.7212    11.2621    12.5134    94.1540     6.5305    84.5802    33.3365
  863.5000   -46.7996    11.2098    12.1908    94.6970     6.5449    86.0894    33.1789
  864.0000   -46.8986    11.1664    12.0008    93.9394     6.5436    88.0501    36.9311
  864.5000   -47.0233    11.1377    11.9385    92.9861     6.5426    89.7098    38.1269
  865.0000   -47.0964    11.2145    11.8161    90.9091     6.5416    90.6923    36.6159
  865.5000   -47.1747    11.2159    11.8163    90.4735     6.5403    91.3204    36.4565
  866.0000   -47.1755    11.2923    11.8165    89.9746     6.5392    91.7554    34.4944
  866.5000   -47.1762    11.2940    11.7417    88.6364     6.5382    91.9855    31.7805
  867.0000   -47.1769    11.3703    11.7419    88.2198     6.5523    92.0651    29.9687
  867.5000   -47.1778    11.4624    11.7358    87.8788     6.5513    92.1446    29.5104
  868.0000   -46.9665    11.5234    11.6673    87.8788     6.5503    92.1490    29.9561
  868.5000   -46.8691    11.5248    11.6675    87.8788     6.5490    92.0780    32.3513
  869.0000   -46.5803    11.6012    11.6677    88.0177     6.5480    92.0082    32.4944
  869.5000   -46.1109    11.6028    11.6680    88.6364     6.5626    91.7868    34.1413
  870.0000   -45.2224    11.6416    11.6682    90.5303     6.5460    91.4891    35.3389
  870.5000   -44.7835    11.6806    11.6684    91.6667     6.5450    91.4945    35.3299
  871.0000   -44.8356    11.6823    11.6686    92.4242     6.5440    91.2730    35.7738
  871.5000   -44.9348    11.6836    11.6688    93.1818     6.5427    90.6765    36.5167
  872.0000   -44.9355    11.6851    11.6691    93.1818     6.5417    90.2293    36.8138
  872.5000   -44.8901    11.6868    11.6255    93.1818     6.5406    90.3089    35.9026
  873.0000   -44.6372    11.6132    11.5769    93.1818     6.5396    90.5390    37.6980
  873.5000   -44.3953    11.6147    11.5196    93.1818     6.5386    90.8443    37.2397
  874.0000   -43.9160    11.5414    11.5198    93.1818     6.5376    91.0855    35.1272
  874.5000   -42.9903    11.5427    11.4449    93.1818     6.5363    91.3055    34.0674
  875.0000   -42.3664    11.5443    11.4452    93.1818     6.5507    91.2346    37.0659
  875.5000   -42.4278    11.5460    11.4454    93.1818     6.5343    90.4112    41.2692
  876.0000   -42.5428    11.5473    11.4456    92.8788     6.5333    89.8136    42.1642
  876.5000   -42.4613    11.5488    11.4459    92.3800     6.5322    89.5147    44.4126
  877.0000   -41.9140    11.5505    11.4461    91.6667     6.5312    89.1461    46.0595
  877.5000   -41.7953    11.5517    11.4463    91.6667     6.5302    88.9988    39.4340
  878.0000   -41.7961    11.5532    11.4466    91.6415     6.5289    89.3805    37.6223
  878.5000   -41.7969    11.4800    11.3717    90.9091     6.5279    89.7610    38.2165
