~VERSION INFORMATION
 VERS.                2.0:   CWLS LOG ASCII STANDARD - VERSION 2.0
 WRAP.                 NO:   ONE LINE PER DEPTH STEP
~WELL INFORMATION
#MNEM.UNIT      DATA TYPE    INFORMATION
#----------   ------------   ------------------------------
 STRT.F           32.0000:   START DEPTH
 STOP.F          757.0000:   STOP DEPTH
 STEP.F            0.5000:   STEP LENGTH
 NULL.          -999.2500:   NO VALUE
 COMP. FENIX & SCISSON INC:   COMPANY
 WELL.     88 S 34 #88-34:   WELL
 FLD .             NPR #3:   FIELD
 LOC .      S34 T39N R78W:   LOCATION
 CNTY.            NATRONA:   COUNTY
 STAT.            WYOMING:   STATE
 CTRY. UNITED STATES OF AMERICA:   COUNTRY
 SRVC.              Welex:   SERVICE COMPANY
 DATE.        10-MAY-1977:   LOGDATE
 API .       490251035800:   API NUMBER
~CURVE INFORMATION
#MNEM.UNIT       API CODE    CURVE DESCRIPTION
#----------   ------------   ------------------------------
 DEPT.F                  :   
 GURD.OHMM   07 220 05 00:   SHALLOW GUARD RESISTIVITY
 ILD .OHMM   07 120 46 00:   INDUCTION LOG DEEP
 ILM .OHMM   07 120 44 00:   INDUCTION LOG MEDIUM
 SPR .MV     07 010 01 00:   SPONTANEOUS POTENTIAL FROM RES.
 CALD.IN     45 280 60 00:   CALIPER FROM DENSITY LOG
 CORR.G/C3   45 356 01 00:   DENSITY CORRECTION
 DPHI.DEC    45 890 12 00:   DENSITY POROSITY SANDSTONE
 GRD .GAPI   45 310 01 00:   GAMMA RAY FROM DENSITY LOG
 RHOB.G/C3   45 350 01 00:   BULK DENSITY
~PARAMETER INFORMATION
#MNEM.UNIT          VALUE    DESCRIPTION
#----------   ------------   ------------------------------
 PD  .                 GL:   PERMANENT DATUM
 EPD .F              5094:   ELEVATION PERMANENT DATUM
 LMF .                 GL:   LOG MEASURED FROM
 DMF .                 GL:   DRILLING MEASURED FROM
 EGL .F              5094:   GROUND LEVEL
 DATE.        10-MAY-1977:   RUN DATE
 RUN .                  1:   RUN NUMBER
 DD  .F               760:   DEPTH DRILLER
 DL  .F               759:   DEPTH LOGGER
 BLI .F               757:   BOTTOM LOG INTERVAL
 TLI .F                30:   TOP LOG INTERVAL
 CS  .IN            8.625:   CASING SIZE
 CBD .F                40:   CASING BOTTOM DRILLER
 CBL .F                45:   CASING BOTTOM LOGGER
 BS  .IN            7.875:   BIT SIZE
 BSD .F               760:   BIT SIZE AT DEPTH
 DFT .            KCL MUD:   DRILLING FLUID TYPE
 DFD .                9.0:   DRILLING FLUID DENSITY
 DFV .                 33:   DRILLING FLUID VISCOSITY
 DFPH.                7.5:   DRILLING FLUID PH
 DFL .                7.4:   DRILLING FLUID LOSS
 MSS .           FLOWLINE:   MUD SAMPLE SOURCE
 RMS .OHMM           0.33:   RESISTIVITY MUD SAMPLE
 MST .F                70:   MUD SAMPLE TEMPERATURE
 RMF .OHMM           0.28:   RESISTIVITY MUD FILTRATE SAMPLE
 MFST.F                70:   MUD FILTRATE SAMPLE TEMPERATURE
 RMC .OHMM           0.40:   RESISTIVITY MUD CAKE
 MCST.F                70:   MUD CAKE SAMPLE TEMPERATURE
 MFSS.           FANN KIT:   MUD FILTRATE SAMPLE SOURCE
 MCSS.           FANN KIT:   MUD CAKE SAMPLE SOURCE
 RMB .OHMM           0.26:   RESISTIVITY MUD AT BHT
 BHT .F                86:   BOTTOM HOLE TEMPERATURE
 TCS .HRS             1.5:   TIME CURCULATED STOPPED
 MRT .F                86:   MAXIMUM RECORDED TEMPERATURE
 LUN .               8611:   LOGGING UNIT NUMBER
 LUL .             CASPER:   LOGGING UNIT LOCATION
 ENGI.            C. DOAK:   RECORDING ENGINEER
 WITN.         D. RHOADES:   WITNESSED BY
 CLNT.            A2DTECH:   CLIENT CODE
 ORIG.           5" PRINT:   ORIGIN OF DATA
 UWI .       490251035800:   UNIQUE WELL ID
 DICO. A2D Technologies, Inc.:   DIGITIZING COMPANY
~OTHER INFORMATION
~A   DEPT     GURD        ILD        ILM        SPR         CALD      CORR      DPHI         GRD        RHOB 
# ...
  433.5000    10.1737     7.5729     7.5069   -32.3865     7.4343     0.0053     0.1253   120.3710     2.4652
  434.0000     9.9683     7.5763     7.5615   -32.6802     7.4645     0.0068     0.1274   121.7237     2.4675
  434.5000    10.0400     7.6805     7.7754   -32.9726     7.4946     0.0129     0.1214   121.3048     2.4713
  435.0000    10.1130     7.6815     8.0509   -33.2635     7.5847     0.0159     0.1151   117.3726     2.4833
  435.5000    10.0454     7.6825     8.2787   -33.4069     7.6598     0.0174     0.1118   118.4251     2.4931
  436.0000     9.9795     7.5781     8.5719   -33.5501     7.7659     0.0160     0.1145   120.5286     2.4879
  436.5000     9.9127     7.4752     8.4485   -33.8425     7.8401     0.0115     0.1252   121.1607     2.4774
  437.0000     9.8477     7.3232     7.9493   -33.9858     7.8702     0.0116     0.1301   117.4285     2.4681
  437.5000     9.7825     7.2735     7.0215   -34.1291     7.8553     0.0146     0.1268   111.0738     2.4610
  438.0000     9.7857     7.1253     6.3758   -34.4200     7.8405     0.0177     0.1298   112.8770     2.4662
  438.5000     9.6533     7.1265     6.5562   -34.4143     7.8256     0.0147     0.1307   115.5812     2.4633
  439.0000     9.5894     7.1768     6.7904   -34.4072     7.8258     0.0148     0.1288   117.8349     2.4678
  439.5000     9.3311     7.1704     7.1272   -34.2524     7.8259     0.0148     0.1264   118.7372     2.4754
  440.0000     9.1421     7.0803     7.3289   -34.2467     7.8261     0.0148     0.1249   117.5378     2.4679
  440.5000     9.0190     6.9841     7.3817   -34.0920     7.7963     0.0119     0.1348   115.4371     2.4596
  441.0000     9.0220     6.7950     7.4348   -34.0863     7.7964     0.0059     0.1405   112.4355     2.4492
  441.5000     9.0869     6.5201     7.3855   -34.3786     7.7966     0.0075     0.1397   109.7343     2.4439
  442.0000     9.0893     6.2105     7.2300   -34.6710     7.8117     0.0135     0.1279   109.1351     2.4560
  442.5000     9.0291     5.9211     6.4362   -34.9619     7.8119     0.0226     0.1237   116.0438     2.4718
  443.0000     8.8462     5.7210     5.9667   -35.1066     7.8270     0.0271     0.1255   118.7479     2.4681
  443.5000     8.1450     5.6044     5.8860   -35.2499     7.8121     0.0347     0.1276   120.1003     2.4711
  444.0000     6.7606     5.5664     5.9287   -35.2428     7.8123     0.0362     0.1267   118.9009     2.4719
  444.5000     5.6896     5.6059     6.0137   -34.7759     7.8275     0.0347     0.1252   117.9815     2.4651
  445.0000     7.9293     5.6848     6.1834   -34.3358     7.8276     0.0365     0.1230   117.2525     2.4697
  445.5000     8.8585     5.7646     6.4915   -33.8830     7.8277     0.0453     0.1194   116.2029     2.4766
  446.0000     8.7998     5.8455     6.8150   -33.4301     7.8279     0.0544     0.1128   112.7508     2.4938
  446.5000     8.8028     6.0100     7.0564   -33.1264     7.8281     0.0604     0.1008   114.2538     2.5096
  447.0000     8.8661     6.1366     7.3064   -32.9716     7.8282     0.0635     0.0996   115.6266     2.5163
  447.5000     8.9300     6.3530     7.4101   -32.7968     7.8283     0.0665     0.1014   116.0584     2.5134
  448.0000     9.0566     6.5320     7.4125   -32.6621     7.8285     0.0680     0.1062   115.3091     2.5048
  448.5000     9.1851     6.6237     7.3629   -32.8055     7.8276     0.0681     0.1120   116.2118     2.4939
  449.0000     9.0620     6.7166     7.3146   -32.9803     7.7838     0.0696     0.1173   116.8138     2.4872
  449.5000     8.8173     6.7641     7.2657   -33.2397     7.7540     0.0663     0.1227   117.1156     2.4805
  450.0000     8.9418     6.8029     6.8010   -33.3830     7.6953     0.0590     0.1278   115.3795     2.4670
  450.5000     8.7593     6.7742     6.8034   -34.8733     7.6042     0.0473     0.1314   116.2144     2.4602
  451.0000     8.8208     6.7765     6.6660   -35.0224     7.5442     0.0443     0.1311   119.0658     2.4625
  451.5000     8.8825     6.5942     6.5766   -35.3204     7.5892     0.0428     0.1301   118.0134     2.4655
  452.0000     8.7612     6.4935     6.4439   -35.6185     7.6658     0.0383     0.1277   114.7086     2.4610
  452.5000     8.6415     6.3302     6.3140   -36.3636     7.7841     0.0339     0.1253   115.7583     2.4685
  453.0000     8.3973     6.1696     6.1933   -36.5127     7.8441     0.0277     0.1238   119.5102     2.4731
  453.5000     8.1779     5.9955     6.0197   -36.2146     7.8591     0.0219     0.1241   119.3586     2.4723
  454.0000     8.1222     5.8237     5.8980   -36.2146     7.8591     0.0205     0.1256   118.1560     2.4716
  454.5000     8.0667     5.5968     5.7778   -36.5127     7.8591     0.0220     0.1271   116.6531     2.4686
  455.0000     7.9566     5.4082     5.5463   -36.9598     7.8741     0.0250     0.1274   114.6997     2.4649
  455.5000     7.8343     5.2260     5.3968   -37.1088     7.8741     0.0251     0.1287   113.4971     2.4626
  456.0000     7.5299     5.0850     5.2151   -37.1088     7.8591     0.0206     0.1325   116.0478     2.4566
  456.5000     7.2747     4.8765     5.0395   -37.1088     7.8591     0.0161     0.1385   116.6470     2.4472
  457.0000     6.4689     4.6833     4.8699   -36.9598     7.8441     0.0072     0.1457   117.9969     2.4274
  457.5000     4.4240     4.6201     4.7017   -36.8107     7.8591     0.0012     0.1553   116.9444     2.4176
  458.0000     3.8267     4.5898     4.8615   -36.5127     7.8591     0.0044     0.1522   113.1889     2.4214
  458.5000     6.4257     4.6235     5.1881   -36.3462     7.8591     0.0073     0.1463   112.2869     2.4327
  459.0000     7.9063     4.7221     5.4850   -35.9165     7.8591     0.0088     0.1379   114.5374     2.4521
  459.5000     8.2986     4.8329     5.7322   -35.9165     7.8591     0.0088     0.1118   119.6411     2.4830
  460.0000     7.8529     5.0642     6.0522   -35.7675     7.8591     0.0088     0.1085   121.5916     2.5018
  460.5000     8.3678     5.3173     6.3931   -35.3204     7.8591     0.0074     0.1081   116.0342     2.4996
  461.0000     8.8942     5.5830     6.5746   -35.0224     7.8591     0.0059     0.1034   114.3812     2.5078
  461.5000     9.0184     5.9028     6.7146   -35.0224     7.8441     0.0029     0.1037   112.7281     2.5063
  462.0000     8.4754     6.1608     6.8576   -35.0224     7.8441     0.0000     0.1067   114.2282     2.5004
  462.5000     8.5939     6.5081     6.9554   -34.8733     7.8441    -0.0015     0.1157   116.3288     2.4869
  463.0000     8.9599     6.6930     7.2030   -34.7243     7.8441     0.0000     0.1304   118.7294     2.4644
  463.5000     9.1605     6.8356     7.3564   -34.7243     7.8291     0.0016     0.1337   119.9292     2.4539
  464.0000     9.4036     6.8854     7.5131   -34.5753     7.8291     0.0016     0.1325   120.8287     2.4546
  464.5000     9.4694     6.9355     7.6203   -34.5753     7.8291     0.0016     0.1301   121.4282     2.4614
  465.0000     9.5357     6.9865     7.7289   -34.4262     7.8291     0.0046     0.1295   121.2763     2.4644
  465.5000     9.4706     7.0370     7.7852   -34.2772     7.8291     0.0047     0.1307   119.9231     2.4599
  466.0000     9.4714     7.0397     7.8424   -33.9791     7.8441     0.0092     0.1310   119.6214     2.4584
  466.5000     9.4067     7.0909     7.8994   -33.8301     7.8441     0.0122     0.1277   120.2206     2.4667
  467.0000     9.2782     7.0933     7.9020   -33.6811     7.8441     0.0153     0.1211   121.4203     2.4761
  467.5000     9.2789     7.1449     7.9595   -33.5320     7.8441     0.0198     0.1138   123.8213     2.4893
  468.0000     9.3439     7.2037     7.9621   -33.3830     7.8441     0.0228     0.1090   125.0211     2.4983
  468.5000     9.4093     7.2608     8.0207   -33.0849     7.8441     0.0213     0.1107   124.2686     2.4930
  469.0000     9.5410     7.3533     8.0233   -32.9359     7.8291     0.0214     0.1141   123.2161     2.4908
  469.5000     9.6744     7.4068     8.0260   -32.6379     7.8441     0.0259     0.1123   122.0134     2.4916
