~VERSION INFORMATION
 VERS.                2.0:   CWLS LOG ASCII STANDARD - VERSION 2.0
 WRAP.                 NO:   ONE LINE PER DEPTH STEP
~WELL INFORMATION
#MNEM.UNIT      DATA TYPE    INFORMATION
#----------   ------------   ------------------------------
 STRT.F           53.0000:   START DEPTH
 STOP.F         4152.0000:   STOP DEPTH
 STEP.F            0.5000:   STEP LENGTH
 NULL.          -999.2500:   NO VALUE
 COMP. DEPARTMENT OF ENERGY:   COMPANY
 WELL. RES 3 TEAPOT #11-STX-11:   WELL
 FLD . TEAPOT NAVAL RESERVE:   FIELD
 LOC .      S11 T38N R78W:   LOCATION
 CNTY.            NATRONA:   COUNTY
 STAT.            WYOMING:   STATE
 CTRY. UNITED STATES OF AMERICA:   COUNTRY
 SRVC.       Schlumberger:   SERVICE COMPANY
 DATE.        24-JUL-1975:   LOGDATE
 API .       490251025200:   API NUMBER
~CURVE INFORMATION
#MNEM.UNIT       API CODE    CURVE DESCRIPTION
#----------   ------------   ------------------------------
 DEPT.F                  :   
 SPR .MV     07 010 01 00:   SPONTANEOUS POTENTIAL
 ILD .OHMM   07 120 46 00:   INDUCTION LOG DEEP
 ILM .OHMM   07 120 44 00:   INDUCTION LOG MEDIUM
 LL8 .OHMM   07 220 08 00:   LATEROLOG-8 RES.
 DPOR.DEC    45 890 12 00:   DENSITY POROSITY SANDSTONE
 NPOR.DEC    42 890 03 00:   NEUTRON POROSITY SANDSTONE
 RHOB.G/C3   45 350 01 00:   BULK DENSITY
 CORR.G/C3   45 356 01 00:   DENSITY CORRECTION
 GRD .GAPI   45 310 01 00:   GAMMA RAY FROM DENSITY LOG
 CALD.IN     45 280 60 00:   CALIPER FROM DENSITY LOG
~PARAMETER INFORMATION
#MNEM.UNIT          VALUE    DESCRIPTION
#----------   ------------   ------------------------------
 PD  .                 GL:   PERMANENT DATUM
 EPD .F              5165:   ELEVATION PERMANENT DATUM
 LMF .                 KB:   LOG MEASURED FROM
 DAPD.F                13:   FEET ABOVE PERMANENT DATUM
 DMF .                 KB:   DRILLING MEASURED FROM
 EKB .F              5178:   KELLING BUSHING
 EGL .F              5165:   GROUND LEVEL
 DATE.            7-24-75:   RUN DATE
 RUN .                  1:   RUN NUMBER
 DD  .F              4150:   DEPTH DRILLER
 DL  .F              4154:   DEPTH LOGGER
 BLI .F              4152:   BOTTOM LOG INTERVAL
 TLI .F              1800:   TOP LOG INTERVAL
 CS  .IN            8.625:   CASING SIZE
 CBD .F               625:   CASING BOTTOM DRILLER
 CBL .F               627:   CASING BOTTOM LOGGER
 BS  .IN            7.875:   BIT SIZE
 BSD .F              4150:   BIT SIZE AT DEPTH
 DFT .                FGM:   DRILLING FLUID TYPE
 DFD .                9.5:   DRILLING FLUID DENSITY
 DFV .                 85:   DRILLING FLUID VISCOSITY
 MSS .           FLOWLINE:   MUD SAMPLE SOURCE
 RMS .OHMM           1.34:   RESISTIVITY MUD SAMPLE
 MST .F                91:   MUD SAMPLE TEMPERATURE
 RMF .OHMM           1.17:   RESISTIVITY MUD FILTRATE SAMPLE
 MFST.F                91:   MUD FILTRATE SAMPLE TEMPERATURE
 MFSS.                  M:   MUD FILTRATE SAMPLE SOURCE
 RMB .OHMM            .94:   RESISTIVITY MUD AT BHT
 BHT .F               130:   BOTTOM HOLE TEMPERATURE
 TCS .HRS            1230:   TIME CURCULATED STOPPED
 TLAB.HRS            1900:   TIME LOGGER AT BOTTOM
 MRT .F               132:   MAXIMUM RECORDED TEMPERATURE
 LUN .               7680:   LOGGING UNIT NUMBER
 LUL .               CSPR:   LOGGING UNIT LOCATION
 ENGI.             FRENCH:   RECORDING ENGINEER
 WITN.             CARTER:   WITNESSED BY
 CLNT.            A2DTECH:   CLIENT CODE
 ORIG.       2", 5" PRINT:   ORIGIN OF DATA
 UWI .       490251025200:   UNIQUE WELL ID
 DICO. A2D Technologies, Inc.:   DIGITIZING COMPANY
~OTHER INFORMATION
~A   DEPT      SPR          ILD        ILM       LL8      DPOR       NPOR       RHOB       CORR        GRD       CALD   
# ...
 3068.0000  -999.2500  -999.2500  -999.2500  -999.2500     0.0684     0.2206     2.5717     0.0161   202.5876     9.7788
 3068.5000  -999.2500  -999.2500  -999.2500  -999.2500     0.0539     0.2258     2.5938     0.0286   204.2583     9.7607
 3069.0000  -999.2500  -999.2500  -999.2500  -999.2500     0.0421     0.2310     2.6040     0.0360   203.5098     9.7419
 3069.5000  -999.2500  -999.2500  -999.2500  -999.2500     0.0285     0.2363     2.5791     0.0234   202.5815     9.7231
 3070.0000  -999.2500  -999.2500  -999.2500  -999.2500     0.0354     0.2419     2.5596     0.0065   203.6110     9.7043
 3070.5000  -999.2500  -999.2500  -999.2500  -999.2500     0.0487     0.2423     2.5516    -0.0003   205.6318     9.6855
 3071.0000  -999.2500  -999.2500  -999.2500  -999.2500     0.0579     0.2346     2.5510     0.0034   205.5950     9.6667
 3071.5000  -999.2500  -999.2500  -999.2500  -999.2500     0.0608     0.2291     2.5486    -0.0005   203.2753     9.6540
 3072.0000  -999.2500  -999.2500  -999.2500  -999.2500     0.0636     0.2287     2.5508     0.0004   203.5234     9.6424
 3072.5000  -999.2500  -999.2500  -999.2500  -999.2500     0.0644     0.2349     2.5569     0.0054   206.7422     9.6310
 3073.0000  -999.2500  -999.2500  -999.2500  -999.2500     0.0597     0.2409     2.5613     0.0086   209.8837     9.6195
 3073.5000  -999.2500  -999.2500  -999.2500  -999.2500     0.0560     0.2433     2.5511     0.0060   210.6953     9.6081
 3074.0000  -999.2500  -999.2500  -999.2500  -999.2500     0.0600     0.2437     2.5437     0.0030   208.8122     9.5966
 3074.5000  -999.2500  -999.2500  -999.2500  -999.2500     0.0716     0.2411     2.5442     0.0000   206.2019     9.5852
 3075.0000  -999.2500  -999.2500  -999.2500  -999.2500     0.0764     0.2427     2.5419     0.0015   203.5373     9.5745
 3075.5000  -999.2500  -999.2500  -999.2500  -999.2500     0.0664     0.2443     2.5363     0.0033   198.2868     9.5660
 3076.0000  -999.2500  -999.2500  -999.2500  -999.2500     0.0704     0.2375     2.5487     0.0116   194.9236     9.5574
 3076.5000  -999.2500  -999.2500  -999.2500  -999.2500     0.0604     0.2328     2.5630     0.0198   196.0840     9.5488
 3077.0000  -999.2500  -999.2500  -999.2500  -999.2500     0.0552     0.2326     2.5566     0.0157   198.1230     9.5402
 3077.5000  -999.2500  -999.2500  -999.2500  -999.2500     0.0600     0.2285     2.5601     0.0163   196.1850     9.5316
 3078.0000  -999.2500  -999.2500  -999.2500  -999.2500     0.0564     0.2242     2.5469     0.0146   191.8003     9.5230
 3078.5000  -999.2500  -999.2500  -999.2500  -999.2500     0.0640     0.2201     2.5448     0.0012   182.0033     9.5131
 3079.0000  -999.2500  -999.2500  -999.2500  -999.2500     0.0635     0.2159     2.5517     0.0146   171.0747     9.4999
 3079.5000  -999.2500  -999.2500  -999.2500  -999.2500     0.0613     0.2182     2.5480     0.0219   156.4324     9.4869
 3080.0000  -999.2500  -999.2500  -999.2500  -999.2500     0.0616     0.2129     2.5390     0.0233   141.8061     9.4635
 3080.5000  -999.2500  -999.2500  -999.2500  -999.2500     0.0692     0.2060     2.5493     0.0374   127.9810     9.3633
 3081.0000  -999.2500  -999.2500  -999.2500  -999.2500     0.0700     0.1979     2.5140     0.0453   120.0798     9.2432
 3081.5000  -999.2500  -999.2500  -999.2500  -999.2500     0.0640     0.2018     2.4719     0.0286   120.9307     9.1212
 3082.0000  -999.2500  -999.2500  -999.2500  -999.2500     0.1002     0.2084     2.4545     0.0136   125.8977     9.0145
 3082.5000  -999.2500  -999.2500  -999.2500  -999.2500     0.1181     0.2149     2.4424     0.0012   135.1217     9.0181
 3083.0000  -999.2500  -999.2500  -999.2500  -999.2500     0.1267     0.2230     2.4470     0.0054   143.5215     9.0955
 3083.5000  -999.2500  -999.2500  -999.2500  -999.2500     0.1237     0.2316     2.4297    -0.0022   144.6108     9.1725
 3084.0000  -999.2500  -999.2500  -999.2500  -999.2500     0.1305     0.2401     2.4227     0.0104   141.2773     9.2486
 3084.5000  -999.2500  -999.2500  -999.2500  -999.2500     0.1356     0.2486     2.4070     0.0184   142.2769     9.2623
 3085.0000  -999.2500  -999.2500  -999.2500  -999.2500     0.1438     0.2578     2.3833     0.0161   148.0455     9.2683
 3085.5000  -999.2500  -999.2500  -999.2500  -999.2500     0.1535     0.2671     2.4046     0.0384   156.8660     9.2753
 3086.0000  -999.2500  -999.2500  -999.2500  -999.2500     0.1607     0.2766     2.4392     0.0724   170.3354     9.3173
 3086.5000  -999.2500  -999.2500  -999.2500  -999.2500     0.1384     0.2957     2.4932     0.1891   180.9413     9.4580
 3087.0000  -999.2500  -999.2500  -999.2500  -999.2500     0.1173     0.3144     2.4468     0.1224   183.9291     9.4867
 3087.5000  -999.2500  -999.2500  -999.2500  -999.2500     0.0993     0.3306     2.3939     0.0768   175.3236     9.3233
 3088.0000  -999.2500  -999.2500  -999.2500  -999.2500     0.1526     0.3200     2.4718     0.1496   168.5466     9.2093
 3088.5000  -999.2500  -999.2500  -999.2500  -999.2500     0.1272     0.3082     2.5052     0.2002   162.0700     9.2853
 3089.0000  -999.2500  -999.2500  -999.2500  -999.2500     0.0981     0.3283     2.4493     0.1686   150.8412     9.2874
 3089.5000  -999.2500  -999.2500  -999.2500  -999.2500     0.0908     0.3635     2.3855     0.0969   134.4339     9.1132
 3090.0000  -999.2500  -999.2500  -999.2500  -999.2500     0.1428     0.3530     2.3574     0.0206   114.1809     8.8996
 3090.5000  -999.2500  -999.2500  -999.2500  -999.2500     0.1815     0.3330     2.3465     0.0409    94.0478     8.6783
 3091.0000  -999.2500  -999.2500  -999.2500  -999.2500     0.1967     0.3006     2.3141     0.0557    87.2652     8.5893
 3091.5000  -999.2500  -999.2500  -999.2500  -999.2500     0.1851     0.2948     2.2993     0.0504    87.5363     8.5563
 3092.0000  -999.2500  -999.2500  -999.2500  -999.2500     0.2048     0.2940     2.3232     0.0586    87.8981     8.5372
 3092.5000  -999.2500  -999.2500  -999.2500  -999.2500     0.2095     0.2938     2.3090     0.0339    87.1333     8.5471
 3093.0000  -999.2500  -999.2500  -999.2500  -999.2500     0.1983     0.2950     2.3182     0.0359    88.2558     8.5551
 3093.5000  -999.2500  -999.2500  -999.2500  -999.2500     0.2040     0.2965     2.3248     0.0449    87.0930     8.5230
 3094.0000  -999.2500  -999.2500  -999.2500  -999.2500     0.1999     0.2979     2.3106     0.0283    84.4698     8.4585
 3094.5000  -999.2500  -999.2500  -999.2500  -999.2500     0.1991     0.3038     2.2965     0.0125    81.4665     8.3944
 3095.0000  -999.2500  -999.2500  -999.2500  -999.2500     0.2076     0.2977     2.2873     0.0001    78.4532     8.3148
 3095.5000  -999.2500  -999.2500  -999.2500  -999.2500     0.2136     0.2846     2.3006     0.0079    75.4433     8.2446
 3096.0000  -999.2500  -999.2500  -999.2500  -999.2500     0.2179     0.2713     2.3214     0.0185    72.6601     8.2141
 3096.5000  -999.2500  -999.2500  -999.2500  -999.2500     0.2079     0.2605     2.3350     0.0292    71.7043     8.2157
 3097.0000  -999.2500  -999.2500  -999.2500  -999.2500     0.1983     0.2623     2.3192     0.0395    70.7836     8.2273
 3097.5000  -999.2500  -999.2500  -999.2500  -999.2500     0.1907     0.2641     2.3303     0.0495    69.9062     8.2392
 3098.0000  -999.2500  -999.2500  -999.2500  -999.2500     0.1962     0.2659     2.3437     0.0500    71.0179     8.2510
 3098.5000  -999.2500  -999.2500  -999.2500  -999.2500     0.1909     0.2668     2.3501     0.0559    73.9559     8.2628
 3099.0000  -999.2500  -999.2500  -999.2500  -999.2500     0.1855     0.2669     2.3358     0.0341    76.9016     8.2746
 3099.5000  -999.2500  -999.2500  -999.2500  -999.2500     0.1831     0.2678     2.3248     0.0269    77.8821     8.2863
 3100.0000  -999.2500  -999.2500  -999.2500  -999.2500     0.1910     0.2695     2.3115     0.0256    73.4959     8.2933
 3100.5000  -999.2500  -999.2500  -999.2500  -999.2500     0.1984     0.2710     2.3026     0.0218    69.3086     8.2880
 3101.0000  -999.2500  -999.2500  -999.2500  -999.2500     0.2007     0.2686     2.3275     0.0235    69.6798     8.2829
