~VERSION INFORMATION
 VERS.                2.0:   CWLS LOG ASCII STANDARD - VERSION 2.0
 WRAP.                 NO:   ONE LINE PER DEPTH STEP
~WELL INFORMATION
#MNEM.UNIT      DATA TYPE    INFORMATION
#----------   ------------   ------------------------------
 STRT.F            6.0000:   START DEPTH
 STOP.F         2600.0000:   STOP DEPTH
 STEP.F            0.5000:   STEP LENGTH
 NULL.          -999.2500:   NO VALUE
 COMP. FENIX & SCISSON INC:   COMPANY
 WELL.   NPR 3 SH #17 -34:   WELL
 FLD .             TEAPOT:   FIELD
 LOC .      S34 T39N R78W:   LOCATION
 CNTY.            NATRONA:   COUNTY
 STAT.            WYOMING:   STATE
 CTRY. UNITED STATES OF AMERICA:   COUNTRY
 SRVC.            Unknown:   SERVICE COMPANY
 DATE.        21-MAR-1978:   LOGDATE
 API .       490251060600:   API NUMBER
~CURVE INFORMATION
#MNEM.UNIT       API CODE    CURVE DESCRIPTION
#----------   ------------   ------------------------------
 DEPT.F                  :   
 NPHI.DEC    42 890 03 00:   NEUTRON POROSITY SANDSTONE
 CALD.IN     45 280 60 00:   CALIPER FROM DENSITY LOG
 GRD .GAPI   45 310 01 00:   GAMMA RAY FROM DENSITY LOG
 CORR.G/C3   45 356 01 00:   DENSITY CORRECTION
 RHOB.G/C3   45 350 01 00:   BULK DENSITY
 DPHI.DEC    45 890 12 00:   DENSITY POROSITY SANDSTONE
~PARAMETER INFORMATION
#MNEM.UNIT          VALUE    DESCRIPTION
#----------   ------------   ------------------------------
 PD  .                 GL:   PERMANENT DATUM
 EPD .F              5150:   ELEVATION PERMANENT DATUM
 LMF .                 KB:   LOG MEASURED FROM
 DMF .                 KB:   DRILLING MEASURED FROM
 EKB .F              5160:   KELLING BUSHING
 EGL .F              5150:   GROUND LEVEL
 DATE.          3-21-1978:   RUN DATE
 RUN .                  1:   RUN NUMBER
 DD  .F              2612:   DEPTH DRILLER
 DL  .F              2592:   DEPTH LOGGER
 BLI .F              2590:   BOTTOM LOG INTERVAL
 TLI .F                20:   TOP LOG INTERVAL
 CS  .IN            9.625:   CASING SIZE
 CBD .F               710:   CASING BOTTOM DRILLER
 CBL .F               710:   CASING BOTTOM LOGGER
 BS  .IN            8.625:   BIT SIZE
 BSD .F              2612:   BIT SIZE AT DEPTH
 DFT .           AIR MIST:   DRILLING FLUID TYPE
 BHT .F               110:   BOTTOM HOLE TEMPERATURE
 TCS .HRS               2:   TIME CURCULATED STOPPED
 MRT .F               110:   MAXIMUM RECORDED TEMPERATURE
 LUN .               2958:   LOGGING UNIT NUMBER
 LUL .               CASP:   LOGGING UNIT LOCATION
 ENGI.            POINTER:   RECORDING ENGINEER
 WITN.           MCGINLEY:   WITNESSED BY
 CLNT.            A2DTECH:   CLIENT CODE
 ORIG.      2" , 5" PRINT:   ORIGIN OF DATA
 UWI .       490251060600:   UNIQUE WELL ID
 DICO. A2D Technologies, Inc.:   DIGITIZING COMPANY
~OTHER INFORMATION
~A    DEPT      NPHI     CALD        GRD       CORR       RHOB       DPHI   
# ...
 1826.0000  -999.2500     9.1849   117.6410     0.1267     2.4973     0.0884
 1826.5000  -999.2500     9.1849   118.8107     0.1306     2.5084     0.0868
 1827.0000  -999.2500     9.1849   115.4964     0.1346     2.5090     0.0841
 1827.5000  -999.2500     9.1849   113.5946     0.1322     2.5136     0.0812
 1828.0000  -999.2500     9.1849   113.1036     0.1280     2.5181     0.0804
 1828.5000  -999.2500     9.1849   112.5932     0.1238     2.5195     0.0799
 1829.0000  -999.2500     9.1849   111.5779     0.1196     2.5208     0.0793
 1829.5000  -999.2500     9.1849   110.6858     0.1174     2.5210     0.0788
 1830.0000  -999.2500     9.1849   110.7453     0.1174     2.5210     0.0807
 1830.5000  -999.2500     9.1849   110.8211     0.1174     2.5194     0.0828
 1831.0000  -999.2500     9.1849   111.3936     0.1174     2.5171     0.0849
 1831.5000  -999.2500     9.1849   115.6047     0.1174     2.5148     0.0845
 1832.0000  -999.2500     9.1849   119.8398     0.1174     2.5129     0.0827
 1832.5000  -999.2500     9.1849   122.9216     0.1176     2.5144     0.0808
 1833.0000  -999.2500     9.1849   123.5853     0.1109     2.5183     0.0833
 1833.5000  -999.2500     9.1849   122.4927     0.1065     2.5158     0.0813
 1834.0000  -999.2500     9.1849   121.3416     0.1048     2.5154     0.0820
 1834.5000  -999.2500     9.1849   120.8203     0.1032     2.5166     0.0848
 1835.0000  -999.2500     9.1847   120.8164     0.1015     2.5129     0.0808
 1835.5000  -999.2500     9.1911   120.8214     0.0999     2.5167     0.0845
 1836.0000  -999.2500     9.1997   120.8462     0.0983     2.5157     0.0896
 1836.5000  -999.2500     9.2084   120.6507     0.0979     2.5075     0.0912
 1837.0000  -999.2500     9.2170   116.7131     0.0988     2.5001     0.0912
 1837.5000  -999.2500     9.2257   113.1356     0.0997     2.5000     0.0912
 1838.0000  -999.2500     9.2343   113.6627     0.1006     2.5001     0.0928
 1838.5000  -999.2500     9.2429   115.0277     0.1015     2.4964     0.0974
 1839.0000  -999.2500     9.2483   115.3852     0.1024     2.4921     0.1004
 1839.5000  -999.2500     9.2528   115.6821     0.1033     2.4877     0.1024
 1840.0000  -999.2500     9.2574   116.1492     0.1042     2.4834     0.1044
 1840.5000  -999.2500     9.2619   121.6425     0.1051     2.4791     0.1070
 1841.0000  -999.2500     9.2665   123.9183     0.1060     2.4738     0.1100
 1841.5000  -999.2500     9.2711   122.1988     0.1069     2.4684     0.1131
 1842.0000  -999.2500     9.2756   121.2373     0.1078     2.4629     0.1161
 1842.5000  -999.2500     9.2802   120.4803     0.1087     2.4574     0.1192
 1843.0000  -999.2500     9.2847   117.7301     0.1097     2.4517     0.1220
 1843.5000  -999.2500     9.2893   114.9442     0.1168     2.4461     0.1258
 1844.0000  -999.2500     9.2939   113.0369     0.1237     2.4417     0.1294
 1844.5000  -999.2500     9.2984   112.3234     0.1324     2.4389     0.1342
 1845.0000  -999.2500     9.3030   112.5851     0.1434     2.4355     0.1428
 1845.5000  -999.2500     9.3075   112.6007     0.1544     2.4181     0.1519
 1846.0000  -999.2500     9.3121   110.8880     0.1657     2.4007     0.1591
 1846.5000  -999.2500     9.3167   109.4713     0.1876     2.3880     0.1533
 1847.0000  -999.2500     9.3212   110.6294     0.2100     2.3894     0.1449
 1847.5000  -999.2500     9.3194   111.7336     0.2196     2.4007     0.1304
 1848.0000  -999.2500     9.3023   115.0204     0.2004     2.4248     0.1089
 1848.5000  -999.2500     9.1901   118.8442     0.1702     2.4727     0.0940
 1849.0000  -999.2500     9.0858   119.8202     0.1400     2.4926     0.0942
 1849.5000  -999.2500     9.0851   113.9343     0.1268     2.4964     0.0957
 1850.0000  -999.2500     9.0855   111.4774     0.1291     2.4934     0.0973
 1850.5000  -999.2500     9.0855   112.6698     0.1318     2.4910     0.0984
 1851.0000  -999.2500     9.0855   113.9681     0.1426     2.4911     0.0949
 1851.5000  -999.2500     9.0855   115.3980     0.1531     2.4934     0.0935
 1852.0000  -999.2500     9.0855   120.1411     0.1637     2.4957     0.0946
 1852.5000  -999.2500     9.0855   123.6044     0.1649     2.4951     0.0942
 1853.0000  -999.2500     9.0855   125.4818     0.1613     2.4924     0.0897
 1853.5000  -999.2500     9.0855   125.9756     0.1575     2.4841     0.0852
 1854.0000  -999.2500     9.0855   125.1111     0.1468     2.4753     0.0816
 1854.5000  -999.2500     9.0855   122.0632     0.1247     2.5129     0.0874
 1855.0000  -999.2500     9.0855   118.5279     0.1023     2.5038     0.0922
 1855.5000  -999.2500     9.0855   117.5810     0.0970     2.4940     0.0943
 1856.0000  -999.2500     9.0855   116.3117     0.0961     2.4951     0.0936
 1856.5000  -999.2500     9.0855   113.4372     0.0954     2.4962     0.0930
 1857.0000  -999.2500     9.0855   112.8788     0.0948     2.4968     0.0944
 1857.5000  -999.2500     9.0855   115.9200     0.0940     2.4953     0.0948
 1858.0000  -999.2500     9.0855   117.3997     0.0934     2.4938     0.0953
 1858.5000  -999.2500     9.0855   115.3410     0.0936     2.4922     0.0964
 1859.0000  -999.2500     9.0855   113.6158     0.0937     2.4924     0.0961
 1859.5000  -999.2500     9.0855   113.5009     0.0939     2.4929     0.0957
 1860.0000  -999.2500     9.0855   115.8166     0.0940     2.4935     0.0965
 1860.5000  -999.2500     9.0855   118.8011     0.0942     2.4939     0.0986
 1861.0000  -999.2500     9.0855   119.8522     0.0943     2.4907     0.1007
 1861.5000  -999.2500     9.0855   120.0752     0.0945     2.4874     0.1004
 1862.0000  -999.2500     9.0855   120.2882     0.0946     2.4865     0.0982
 1862.5000  -999.2500     9.0855   120.5072     0.0948     2.4893     0.0976
 1863.0000  -999.2500     9.0855   122.1861     0.0949     2.4892     0.0992
 1863.5000  -999.2500     9.0855   126.3225     0.0951     2.4881     0.0962
 1864.0000  -999.2500     9.0855   126.8904     0.0952     2.4935     0.0940
 1864.5000  -999.2500     9.0855   124.1545     0.0953     2.4943     0.0972
 1865.0000  -999.2500     9.0855   121.8586     0.0971     2.4934     0.0958
 1865.5000  -999.2500     9.0855   119.3014     0.0996     2.4923     0.0948
 1866.0000  -999.2500     9.0855   117.6600     0.1011     2.4932     0.0925
 1866.5000  -999.2500     9.0855   116.1489     0.0996     2.4958     0.0904
 1867.0000  -999.2500     9.0855   113.4640     0.0982     2.4984     0.0914
 1867.5000  -999.2500     9.0855   110.6603     0.0968     2.4990     0.0924
 1868.0000  -999.2500     9.0855   109.8997     0.0955     2.4965     0.0945
 1868.5000  -999.2500     9.0855   109.9340     0.0968     2.4941     0.0974
 1869.0000  -999.2500     9.0855   110.0264     0.0983     2.4916     0.0969
 1869.5000  -999.2500     9.0855   110.5142     0.0998     2.4891     0.0955
 1870.0000  -999.2500     9.0855   111.6042     0.1013     2.4911     0.0940
 1870.5000  -999.2500     9.0855   112.5087     0.1027     2.4927     0.0960
 1871.0000  -999.2500     9.0855   112.0294     0.1042     2.4906     0.0981
 1871.5000  -999.2500     9.0855   111.4917     0.1057     2.4884     0.0992
 1872.0000  -999.2500     9.0855   110.5939     0.1071     2.4863     0.0987
 1872.5000  -999.2500     9.0855   109.2708     0.1086     2.4863     0.0984
 1873.0000  -999.2500     9.0855   107.5957     0.1100     2.4869     0.0988
 1873.5000  -999.2500     9.0855   106.5255     0.1115     2.4863     0.0958
 1874.0000  -999.2500     9.0855   109.3220     0.1130     2.4847     0.0922
 1874.5000  -999.2500     9.0855   112.3326     0.1144     2.5006     0.0934
 1875.0000  -999.2500     9.0855   114.4347     0.1159     2.4983     0.0955
 1875.5000  -999.2500     9.0855   113.7809     0.1173     2.4938     0.0972
 1876.0000  -999.2500     9.0855   113.4747     0.1174     2.4930     0.0931
 1876.5000  -999.2500     9.0855   113.8089     0.1130     2.4989     0.0896
 1877.0000  -999.2500     9.0855   114.1411     0.1052     2.4941     0.0957
 1877.5000  -999.2500     9.0855   113.9142     0.1038     2.4864     0.1000
