~VERSION INFORMATION
 VERS.                2.0:   CWLS LOG ASCII STANDARD - VERSION 2.0
 WRAP.                 NO:   ONE LINE PER DEPTH STEP
~WELL INFORMATION
#MNEM.UNIT      DATA TYPE    INFORMATION
#----------   ------------   ------------------------------
 STRT.F           32.0000:   START DEPTH
 STOP.F          502.0000:   STOP DEPTH
 STEP.F            0.5000:   STEP LENGTH
 NULL.          -999.2500:   NO VALUE
 COMP.    FENIX & SCISSON:   COMPANY
 WELL. NPR # #3 65-36-SX-3-FP:   WELL
 FLD .             TEAPOT:   FIELD
 LOC .       S3 T38N R78W:   LOCATION
 CNTY.            NATRONA:   COUNTY
 STAT.            WYOMING:   STATE
 CTRY. UNITED STATES OF AMERICA:   COUNTRY
 SRVC.              Welex:   SERVICE COMPANY
 DATE.        15-JUN-1980:   LOGDATE
 API .       490251082600:   API NUMBER
~CURVE INFORMATION
#MNEM.UNIT       API CODE    CURVE DESCRIPTION
#----------   ------------   ------------------------------
 DEPT.F                  :   
 CALD.IN     45 280 60 00:   CALIPER FROM DENSITY LOG
 CORR.G/C3   45 356 01 00:   DENSITY CORRECTION
 DPHI.DEC    45 890 12 00:   DENSITY POROSITY SANDSTONE
 GRD .GAPI   45 310 01 00:   GAMMA RAY FROM DENSITY LOG
 RHOB.G/C3   45 350 01 00:   BULK DENSITY
 NPHI.DEC    42 890 03 00:   NEUTRON POROSITY SANDSTONE
 ILD .OHMM   07 120 46 00:   INDUCTION LOG DEEP
 ILM .OHMM   07 120 44 00:   INDUCTION LOG MEDIUM
 SGRD.OHMM   07 220 05 00:   SHALLOW GUARD RESISTIVITY
 SPR .MV     07 010 01 00:   SPONTANEOUS POTENTIAL FROM RES.
~PARAMETER INFORMATION
#MNEM.UNIT          VALUE    DESCRIPTION
#----------   ------------   ------------------------------
 PD  .                 GL:   PERMANENT DATUM
 EPD .F              5159:   ELEVATION PERMANENT DATUM
 LMF .                 KB:   LOG MEASURED FROM
 DAPD.F                 5:   FEET ABOVE PERMANENT DATUM
 DMF .                 KB:   DRILLING MEASURED FROM
 EKB .F              5164:   KELLING BUSHING
 EGL .F              5159:   GROUND LEVEL
 DATE.            6-15-80:   RUN DATE
 RUN .                  1:   RUN NUMBER
 DD  .F               505:   DEPTH DRILLER
 DL  .F               504:   DEPTH LOGGER
 BLI .F               502:   BOTTOM LOG INTERVAL
 TLI .F                30:   TOP LOG INTERVAL
 BS  .IN            9.875:   BIT SIZE
 BSD .F               505:   BIT SIZE AT DEPTH
 DFT .             2% KCL:   DRILLING FLUID TYPE
 DFD .                9.4:   DRILLING FLUID DENSITY
 DFV .                 51:   DRILLING FLUID VISCOSITY
 DFPH.                 12:   DRILLING FLUID PH
 DFL .                5.6:   DRILLING FLUID LOSS
 MSS .           FLOWLINE:   MUD SAMPLE SOURCE
 RMS .OHMM            .36:   RESISTIVITY MUD SAMPLE
 MST .F                65:   MUD SAMPLE TEMPERATURE
 RMF .OHMM            .29:   RESISTIVITY MUD FILTRATE SAMPLE
 MFST.F                65:   MUD FILTRATE SAMPLE TEMPERATURE
 RMC .OHMM            .42:   RESISTIVITY MUD CAKE
 MCST.F                65:   MUD CAKE SAMPLE TEMPERATURE
 MFSS.           MEASURED:   MUD FILTRATE SAMPLE SOURCE
 MCSS.           MEASURED:   MUD CAKE SAMPLE SOURCE
 RMB .OHMM            .32:   RESISTIVITY MUD AT BHT
 BHT .F                74:   BOTTOM HOLE TEMPERATURE
 TCS .HRS               2:   TIME CURCULATED STOPPED
 MRT .F                74:   MAXIMUM RECORDED TEMPERATURE
 LUN .               1892:   LOGGING UNIT NUMBER
 LUL .             CASPER:   LOGGING UNIT LOCATION
 ENGI.               REIN:   RECORDING ENGINEER
 WITN.              AMEND:   WITNESSED BY
 CLNT.            A2DTECH:   CLIENT CODE
 ORIG.       2", 5" PRINT:   ORIGIN OF DATA
 UWI .       490251082600:   UNIQUE WELL ID
 DICO. A2D Technologies, Inc.:   DIGITIZING COMPANY
~OTHER INFORMATION
~A   DEPT     CALD       CORR       DPHI        GRD       RHOB       NPHI         ILD         ILM       SGRD      SPR   
# ...
   65.5000    10.1370     0.0758     0.1054   103.5033     2.4876     0.3151    11.0599     6.8553     7.1110   -58.1218
   66.0000    10.1084     0.0789     0.0979   103.9532     2.4877     0.3160    11.0577     6.8549     7.1110   -59.2837
   66.5000    10.0951     0.0821     0.0975   104.1081     2.4908     0.3135    10.8287     6.8543     7.1110   -60.4113
   67.0000    10.0963     0.0897     0.0969   104.2625     2.4998     0.3107    10.5321     6.8279     7.0136   -60.6961
   67.5000    10.0975     0.0959     0.0947   104.2703     2.5014     0.3107    10.3859     6.8617     7.0136   -60.9813
   68.0000    10.0987     0.1035     0.0868   104.1284     2.5052     0.3106    10.3125     6.8954     7.0136   -60.9799
   68.5000    10.0850     0.1051     0.0898   104.1376     2.5075     0.3121    10.3100     6.9292     7.0136   -60.9783
   69.0000    10.0568     0.1007     0.0927   104.4400     2.5008     0.3150    10.3439     6.9472     7.0136   -60.8338
   69.5000    10.0578     0.0963     0.0964   105.0374     2.5031     0.3150    10.3778     6.9466     7.0136   -60.6891
   70.0000    10.0590     0.0919     0.0977   105.9297     2.5061     0.3146    10.3040     6.9462     7.0136   -60.4011
   70.5000    10.0602     0.0889     0.0977   106.0846     2.4927     0.3146    10.3015     6.9457     7.0136   -60.3995
   71.0000    10.0616     0.0906     0.0976   106.2395     2.4953     0.3152    10.3706     6.9453     6.9654   -60.5417
   71.5000    10.0625     0.0997     0.0933   106.8368     2.5056     0.3167    10.3868     6.8496     6.9155   -60.4758
   72.0000    10.0637     0.1059     0.0915   106.2542     2.5056     0.3208    10.4384     6.8021     6.8700   -60.3897
   72.5000    10.0651     0.1075     0.0935   104.6392     2.5042     0.3210    10.4363     6.7549     6.8228   -59.9639
   73.0000    10.0663     0.1046     0.0935   103.1717     2.4998     0.3203    10.3622     6.7545     6.7705   -59.6761
   73.5000    10.0970     0.1062     0.0940   101.5566     2.5006     0.3206    10.4319     6.7539     6.7294   -59.3882
   74.0000    10.1274     0.1108     0.0913   102.5965     2.5081     0.3214    10.5019     6.7536     6.7759   -59.2416
   74.5000    10.1434     0.1109     0.0846   102.7495     2.5187     0.3216    10.4938     6.7531     6.7759   -58.6688
   75.0000    10.1593     0.1095     0.0813   101.2838     2.5225     0.3216    10.4252     6.7526     6.7759   -58.3809
   75.5000    10.1605     0.1051     0.0876   100.6994     2.5203     0.3209    10.3517     6.7989     6.7759   -57.9498
   76.0000    10.1617     0.0992     0.0859   100.7086     2.5136     0.3193    10.3494     6.8064     6.7759   -57.5186
   76.5000    10.1480     0.1008     0.0865   101.0110     2.5219     0.3184    10.4186     6.8450     6.8228   -57.6605
   77.0000    10.1493     0.0964     0.0939   101.4608     2.5145     0.3187    10.4169     6.9238     6.8228   -58.0886
   77.5000    10.1357     0.0693     0.1038   102.7957     2.4861     0.3185    10.4642     6.9935     6.9175   -58.5171
   78.0000    10.1369     0.0482     0.1067   102.2131     2.4742     0.3145    10.4846     7.0836     7.0136   -59.2321
   78.5000    10.1233     0.0574     0.1018   100.4506     2.4914     0.3076    10.6281     7.1322     7.0136   -59.5173
   79.0000    10.1092     0.0651     0.1044   100.1611     2.4833     0.3061    10.6995     7.1316     7.0136   -59.5156
   79.5000    10.0814     0.0561     0.1053   100.1703     2.4706     0.3042    10.6969     7.2301     7.1110   -59.3710
   80.0000    10.0752     0.0517     0.0972    99.5878     2.4954     0.3018    10.7688     7.3300     7.2596   -59.2263
   80.5000    10.0690     0.0578     0.0911    98.2677     2.5029     0.2988    10.8407     7.4313     7.4742   -58.7949
   81.0000    10.0702     0.0549     0.0920    97.9783     2.5060     0.2948    11.0651     7.4307     7.7075   -58.6502
   81.5000    10.0714     0.0490     0.0943    98.5775     2.4933     0.2930    11.5307     7.3284     7.9407   -58.5056
   82.0000    10.0726     0.0430     0.1017   100.7972     2.4896     0.2961    10.3953     7.0796     7.8315   -58.7908
   82.5000    10.0885     0.0401     0.1065   102.7220     2.4874     0.3004    10.3219     6.9342     7.5661   -59.2192
   83.0000    10.0897     0.0402     0.1133   106.4167     2.4688     0.3024    10.3913     6.9312     7.3098   -59.2176
   83.5000    10.1204     0.0373     0.1241   108.4890     2.4382     0.3044    10.1761     6.8383     7.2097   -59.0729
   84.0000    10.1363     0.0389     0.1303   108.4964     2.4240     0.3128    10.1741     6.7442     7.2097   -58.7221
   84.5000    10.1523     0.0572     0.1264   108.0613     2.4316     0.3200    10.1940     6.7438     7.1602   -58.3421
   85.0000    10.1829     0.0733     0.1167   107.6244     2.4546     0.3205    10.2403     6.7433     7.1602   -57.7792
   85.5000    10.1989     0.0785     0.1166   107.4843     2.4586     0.3205    10.3094     6.7428     7.1602   -57.4913
   86.0000    10.2001     0.0753     0.1121   107.3442     2.4691     0.3210    10.3068     6.7424     7.1602   -57.1510
   86.5000    10.2012     0.0742     0.1039   107.0584     2.4707     0.3213    10.3761     6.7419     7.1602   -56.9155
   87.0000    10.2024     0.0776     0.1015   106.0334     2.4812     0.3212    10.3023     6.7415     7.1602   -56.9138
   87.5000    10.2036     0.0870     0.0921   104.7133     2.5202     0.3175    10.3717     6.8346     7.2097   -56.7692
   88.0000    10.1900     0.0994     0.0783   103.8357     2.5255     0.3109    10.3935     7.0252     7.3098   -56.7087
   88.5000    10.1912     0.1109     0.0797   103.6938     2.5248     0.3093    10.4393     7.1715     7.4113   -56.6232
   89.0000    10.1924     0.1073     0.0824   102.0806     2.5204     0.3093    10.4367     7.4225     7.5142   -56.9081
   89.5000    10.2084     0.0891     0.1009   100.0231     2.5010     0.3095    10.5069     7.6822     7.6185   -56.8803
   90.0000    10.2094     0.0730     0.1089    98.2587     2.4718     0.3098    10.5775     7.8965     7.8315   -56.7621
   90.5000    10.2255     0.0720     0.1074    99.7429     2.4749     0.3034    10.6792     7.9506     8.0505   -56.7607
   91.0000    10.2267     0.0876     0.0956   100.4877     2.4959     0.3019    10.7518     8.0605     8.2755   -56.6158
   91.5000    10.2278     0.0966     0.0878    99.6102     2.5110     0.2997    10.9415     8.1717     8.3904   -56.3279
   92.0000    10.2290     0.1012     0.0853    99.7651     2.5148     0.2993    11.0533     8.2278     8.5069   -55.8968
   92.5000    10.2302     0.1042     0.0805   103.0173     2.5216     0.2990    11.2425     8.3414     8.5658   -56.0387
   93.0000    10.2314     0.1027     0.0786   104.0571     2.5314     0.2996    11.4752     8.5812     8.7451   -56.3239
   93.5000    10.2326     0.0998     0.0813   104.2101     2.5164     0.3004    11.5529     8.8740     8.9893   -56.3222
   94.0000    10.2336     0.0984     0.0845   102.3020     2.5173     0.3010    11.6300     9.0589     9.1141   -56.3208
   94.5000    10.2497     0.1000     0.0844    99.8020     2.5211     0.3012    11.8706     9.1841     9.2406   -56.0329
   95.0000    10.2656     0.1033     0.0790    99.0701     2.5262     0.2996    12.1159     9.3152     9.6346   -55.7447
   95.5000    10.2668     0.1109     0.0741    98.9318     2.5384     0.2980    12.2818     9.3915     9.9686   -55.4568
   96.0000    10.2680     0.1124     0.0750    98.6442     2.5287     0.2962    12.6226     9.5699    10.1769   -55.1690
   96.5000    10.2544     0.1033     0.0845    97.9141     2.5235     0.2959    12.9730     9.5693    10.2473   -54.7378
   97.0000    10.2406     0.0945     0.0871    97.4790     2.5116     0.2958    13.0602     9.5686    10.2473   -54.3063
   97.5000    10.2123     0.0947     0.0853    96.6015     2.5102     0.2955    13.6085     9.6341    10.3182   -53.8109
   98.0000    10.1987     0.1130     0.0777    94.6914     2.5337     0.2942    14.0830     9.7672    10.3182   -53.3008
   98.5000    10.1851     0.1160     0.0786    92.4864     2.5272     0.2984    13.5091     9.8341    10.3896   -53.1561
