~VERSION INFORMATION
 VERS.                2.0:   CWLS LOG ASCII STANDARD - VERSION 2.0
 WRAP.                 NO:   ONE LINE PER DEPTH STEP
~WELL INFORMATION
#MNEM.UNIT      DATA TYPE    INFORMATION
#----------   ------------   ------------------------------
 STRT.F            0.0000:   START DEPTH
 STOP.F         2720.0000:   STOP DEPTH
 STEP.F            0.5000:   STEP LENGTH
 NULL.          -999.2500:   NO VALUE
 COMP. DEPARTMENT OF ENERGY:   COMPANY
 WELL.       NPR-3 #410-A:   WELL
 FLD . TEAPOT NAVAL RESERVE:   FIELD
 LOC .      S20 T39N R78W:   LOCATION
 CNTY.            NATRONA:   COUNTY
 STAT.            WYOMING:   STATE
 CTRY. UNITED STATES OF AMERICA:   COUNTRY
 SRVC.      NL McCullough:   SERVICE COMPANY
 DATE.        26-JUL-1965:   LOGDATE
 API .       490251144500:   API NUMBER
~CURVE INFORMATION
#MNEM.UNIT       API CODE    CURVE DESCRIPTION
#----------   ------------   ------------------------------
 DEPT.F                  :   
 GR  .GAPI   30 310 01 00:   GAMMA RAY
 CALI.IN     30 280 01 00:   CALIPER
~PARAMETER INFORMATION
#MNEM.UNIT          VALUE    DESCRIPTION
#----------   ------------   ------------------------------
 PD  .                 GL:   PERMANENT DATUM
 LMF .                 GL:   LOG MEASURED FROM
 DATE.            7-16-65:   RUN DATE
 RUN .                  1:   RUN NUMBER
 DD  .F              2720:   DEPTH DRILLER
 TLI .F              2100:   TOP LOG INTERVAL
 CS  .IN            6.875:   CASING SIZE
 DFT .              WATER:   DRILLING FLUID TYPE
 ENGI. FITZSIMMONE/COWLTHORPE:   RECORDING ENGINEER
 WITN.             HUDSON:   WITNESSED BY
 CLNT.            A2DTECH:   CLIENT CODE
 ORIG.           5" PRINT:   ORIGIN OF DATA
 UWI .       490251144500:   UNIQUE WELL ID
 DICO. A2D Technologies, Inc.:   DIGITIZING COMPANY
~OTHER INFORMATION
~A    DEPT      GR         CALI 
# ...
  850.5000  -999.2500     5.9862
  851.0000  -999.2500     6.0068
  851.5000  -999.2500     5.9911
  852.0000  -999.2500     5.9671
  852.5000  -999.2500     5.9492
  853.0000  -999.2500     5.9438
  853.5000  -999.2500     5.9382
  854.0000  -999.2500     5.9329
  854.5000  -999.2500     5.9363
  855.0000  -999.2500     5.9513
  855.5000  -999.2500     5.9661
  856.0000  -999.2500     5.9811
  856.5000  -999.2500     5.9960
  857.0000  -999.2500     6.0095
  857.5000  -999.2500     6.0214
  858.0000  -999.2500     6.0344
  858.5000  -999.2500     6.0479
  859.0000  -999.2500     6.0428
  859.5000  -999.2500     6.0333
  860.0000  -999.2500     6.0237
  860.5000  -999.2500     6.0142
  861.0000  -999.2500     6.0101
  861.5000  -999.2500     6.0100
  862.0000  -999.2500     6.0100
  862.5000  -999.2500     6.0100
  863.0000  -999.2500     6.0100
  863.5000  -999.2500     6.0100
  864.0000  -999.2500     6.0100
  864.5000  -999.2500     6.0101
  865.0000  -999.2500     6.0157
  865.5000  -999.2500     6.0401
  866.0000  -999.2500     6.0389
  866.5000  -999.2500     6.0193
  867.0000  -999.2500     5.9994
  867.5000  -999.2500     5.9794
  868.0000  -999.2500     5.9701
  868.5000  -999.2500     5.9698
  869.0000  -999.2500     5.9699
  869.5000  -999.2500     5.9659
  870.0000  -999.2500     5.9598
  870.5000  -999.2500     5.9538
  871.0000  -999.2500     5.9512
  871.5000  -999.2500     5.9552
  872.0000  -999.2500     5.9591
  872.5000  -999.2500     5.9631
  873.0000  -999.2500     5.9670
  873.5000  -999.2500     5.9709
  874.0000  -999.2500     5.9749
  874.5000  -999.2500     5.9788
  875.0000  -999.2500     5.9828
  875.5000  -999.2500     5.9867
  876.0000  -999.2500     5.9910
  876.5000  -999.2500     5.9972
  877.0000  -999.2500     6.0034
  877.5000  -999.2500     6.0097
  878.0000  -999.2500     6.0031
  878.5000  -999.2500     5.9953
  879.0000  -999.2500     5.9876
  879.5000  -999.2500     5.9798
  880.0000  -999.2500     5.9718
  880.5000  -999.2500     5.9670
  881.0000  -999.2500     5.9630
  881.5000  -999.2500     5.9590
  882.0000  -999.2500     5.9550
  882.5000  -999.2500     5.9506
  883.0000  -999.2500     5.9616
  883.5000  -999.2500     5.9780
  884.0000  -999.2500     5.9946
  884.5000  -999.2500     6.0104
  885.0000  -999.2500     5.9921
  885.5000  -999.2500     5.9709
  886.0000  -999.2500     5.9510
  886.5000  -999.2500     5.9716
  887.0000  -999.2500     5.9940
  887.5000  -999.2500     6.0051
  888.0000  -999.2500     5.9833
  888.5000  -999.2500     5.9716
  889.0000  -999.2500     5.9835
  889.5000  -999.2500     5.9951
  890.0000  -999.2500     6.0073
  890.5000  -999.2500     6.0052
  891.0000  -999.2500     5.9986
  891.5000  -999.2500     5.9918
  892.0000  -999.2500     5.9850
  892.5000  -999.2500     5.9783
  893.0000  -999.2500     5.9713
  893.5000  -999.2500     5.9699
  894.0000  -999.2500     5.9699
  894.5000  -999.2500     5.9699
  895.0000  -999.2500     5.9699
  895.5000  -999.2500     5.9708
  896.0000  -999.2500     5.9780
  896.5000  -999.2500     5.9852
  897.0000  -999.2500     5.9925
  897.5000  -999.2500     5.9996
  898.0000  -999.2500     6.0069
  898.5000  -999.2500     6.0042
  899.0000  -999.2500     5.9939
  899.5000  -999.2500     5.9835
  900.0000  -999.2500     5.9731
  900.5000  -999.2500     5.9626
  901.0000  -999.2500     5.9519
  901.5000  -999.2500     5.9532
  902.0000  -999.2500     5.9577
  902.5000  -999.2500     5.9622
  903.0000  -999.2500     5.9667
  903.5000  -999.2500     5.9700
  904.0000  -999.2500     5.9645
  904.5000  -999.2500     5.9569
  905.0000  -999.2500     5.9492
  905.5000  -999.2500     5.9415
  906.0000  -999.2500     5.9340
  906.5000  -999.2500     5.9341
  907.0000  -999.2500     5.9440
  907.5000  -999.2500     5.9538
  908.0000  -999.2500     5.9635
  908.5000  -999.2500     5.9669
  909.0000  -999.2500     5.9581
  909.5000  -999.2500     5.9495
  910.0000  -999.2500     5.9410
  910.5000  -999.2500     5.9320
  911.0000  -999.2500     5.9434
  911.5000  -999.2500     5.9625
  912.0000  -999.2500     5.9820
  912.5000  -999.2500     5.9867
  913.0000  -999.2500     5.9816
  913.5000  -999.2500     5.9763
  914.0000  -999.2500     5.9710
  914.5000  -999.2500     5.9657
  915.0000  -999.2500     5.9604
  915.5000  -999.2500     5.9550
  916.0000  -999.2500     5.9501
  916.5000  -999.2500     5.9566
  917.0000  -999.2500     5.9635
  917.5000  -999.2500     5.9704
  918.0000  -999.2500     5.9773
  918.5000  -999.2500     5.9842
  919.0000  -999.2500     5.9893
  919.5000  -999.2500     5.9837
  920.0000  -999.2500     5.9782
  920.5000  -999.2500     5.9728
  921.0000  -999.2500     5.9683
  921.5000  -999.2500     5.9650
  922.0000  -999.2500     5.9617
  922.5000  -999.2500     5.9584
  923.0000  -999.2500     5.9550
  923.5000  -999.2500     5.9517
  924.0000  -999.2500     5.9498
  924.5000  -999.2500     5.9498
  925.0000  -999.2500     5.9498
  925.5000  -999.2500     5.9498
  926.0000  -999.2500     5.9498
  926.5000  -999.2500     5.9498
  927.0000  -999.2500     5.9498
  927.5000  -999.2500     5.9498
  928.0000  -999.2500     5.9498
  928.5000  -999.2500     5.9499
  929.0000  -999.2500     5.9449
  929.5000  -999.2500     5.9381
  930.0000  -999.2500     5.9312
  930.5000  -999.2500     5.9243
  931.0000  -999.2500     5.9174
  931.5000  -999.2500     5.9102
  932.0000  -999.2500     5.9218
  932.5000  -999.2500     5.9359
  933.0000  -999.2500     5.9500
  933.5000  -999.2500     5.9641
  934.0000  -999.2500     5.9713
  934.5000  -999.2500     5.9740
  935.0000  -999.2500     5.9766
  935.5000  -999.2500     5.9791
  936.0000  -999.2500     5.9817
  936.5000  -999.2500     5.9843
  937.0000  -999.2500     5.9870
  937.5000  -999.2500     5.9906
  938.0000  -999.2500     5.9433
  938.5000  -999.2500     5.8923
  939.0000  -999.2500     5.9361
  939.5000  -999.2500     5.9511
  940.0000  -999.2500     5.9543
  940.5000  -999.2500     5.9572
  941.0000  -999.2500     5.9601
  941.5000  -999.2500     5.9631
  942.0000  -999.2500     5.9660
  942.5000  -999.2500     5.9690
  943.0000  -999.2500     5.9687
  943.5000  -999.2500     5.9670
  944.0000  -999.2500     5.9653
  944.5000  -999.2500     5.9635
  945.0000  -999.2500     5.9618
  945.5000  -999.2500     5.9601
  946.0000  -999.2500     5.9584
  946.5000  -999.2500     5.9566
  947.0000  -999.2500     5.9549
  947.5000  -999.2500     5.9532
  948.0000  -999.2500     5.9515
  948.5000  -999.2500     5.9501
  949.0000  -999.2500     5.9398
  949.5000  -999.2500     5.9277
  950.0000  -999.2500     5.9154
  950.5000  -999.2500     5.9189
  951.0000  -999.2500     5.9362
  951.5000  -999.2500     5.9538
  952.0000  -999.2500     5.9692
  952.5000  -999.2500     5.9576
  953.0000  -999.2500     5.9458
  953.5000  -999.2500     5.9339
  954.0000  -999.2500     5.9349
  954.5000  -999.2500     5.9428
  955.0000  -999.2500     5.9509
  955.5000  -999.2500     5.9589
  956.0000  -999.2500     5.9672
  956.5000  -999.2500     5.9626
  957.0000  -999.2500     5.9516
  957.5000  -999.2500     5.9404
  958.0000  -999.2500     5.9292
  958.5000  -999.2500     5.9181
  959.0000  -999.2500     5.9069
  959.5000  -999.2500     5.8958
  960.0000  -999.2500     5.8847
  960.5000  -999.2500     5.8734
  961.0000  -999.2500     5.8731
  961.5000  -999.2500     5.8785
  962.0000  -999.2500     5.8840
  962.5000  -999.2500     5.8896
  963.0000  -999.2500     5.8951
  963.5000  -999.2500     5.9006
  964.0000  -999.2500     5.9061
  964.5000  -999.2500     5.9103
  965.0000  -999.2500     5.9120
  965.5000  -999.2500     5.9137
  966.0000  -999.2500     5.9154
  966.5000  -999.2500     5.9171
  967.0000  -999.2500     5.9188
  967.5000  -999.2500     5.9206
  968.0000  -999.2500     5.9223
  968.5000  -999.2500     5.9240
  969.0000  -999.2500     5.9257
  969.5000  -999.2500     5.9274
  970.0000  -999.2500     5.9292
  970.5000  -999.2500     5.9275
  971.0000  -999.2500     5.9244
  971.5000  -999.2500     5.9212
