~VERSION INFORMATION
 VERS.                2.0:   CWLS LOG ASCII STANDARD - VERSION 2.0
 WRAP.                 NO:   ONE LINE PER DEPTH STEP
~WELL INFORMATION
#MNEM.UNIT      DATA TYPE    INFORMATION
#----------   ------------   ------------------------------
 STRT.F           80.0000:   START DEPTH
 STOP.F          964.0000:   STOP DEPTH
 STEP.F            0.5000:   STEP LENGTH
 NULL.          -999.2500:   NO VALUE
 COMP. U S NAVY-INTEX OIL:   COMPANY
 WELL. N.P.R. #3` #57-S-2:   WELL
 FLD .        TEAPOT DOME:   FIELD
 LOC .       S2 T38N R78W:   LOCATION
 CNTY.            NATRONA:   COUNTY
 STAT.            WYOMING:   STATE
 CTRY. UNITED STATES OF AMERICA:   COUNTRY
 SRVC.       Schlumberger:   SERVICE COMPANY
 DATE.        04-AUG-1961:   LOGDATE
 API .       490250640500:   API NUMBER
~CURVE INFORMATION
#MNEM.UNIT       API CODE    CURVE DESCRIPTION
#----------   ------------   ------------------------------
 DEPT.F                  :   
 GR  .GAPI   30 310 01 00:   GAMMA RAY
 ASN .OHMM   05 041 16 00:   AMPLIFIED SHORT NORMAL 16"
 CILD.MMHO   05 110 46 00:   CONDUCTIVITY INDUCTION LOG DEEP
 ILD .OHMM   05 120 46 00:   INDUCTION LOG DEEP
 SPR .MV     05 010 01 00:   SPONTANEOUS POTENTIAL FROM RES.
~PARAMETER INFORMATION
#MNEM.UNIT          VALUE    DESCRIPTION
#----------   ------------   ------------------------------
 LMF .                 KB:   LOG MEASURED FROM
 DMF .                 KB:   DRILLING MEASURED FROM
 EKB .F              5205:   KELLING BUSHING
 EGL .F              5200:   GROUND LEVEL
 DATE.        04-AUG-1961:   RUN DATE
 RUN .                  1:   RUN NUMBER
 DD  .F               965:   DEPTH DRILLER
 DL  .F               965:   DEPTH LOGGER
 BLI .F               954:   BOTTOM LOG INTERVAL
 TLI .F               150:   TOP LOG INTERVAL
 BS  .IN             6.75:   BIT SIZE
 BSD .F               965:   BIT SIZE AT DEPTH
 DFT .       OIL EMULSION:   DRILLING FLUID TYPE
 DFD .                9.4:   DRILLING FLUID DENSITY
 DFV .                 65:   DRILLING FLUID VISCOSITY
 MSS .           FLOWLINE:   MUD SAMPLE SOURCE
 RMS .OHMM            1.0:   RESISTIVITY MUD SAMPLE
 MST .F                80:   MUD SAMPLE TEMPERATURE
 TCS .HRS               1:   TIME CURCULATED STOPPED
 LUN .               2544:   LOGGING UNIT NUMBER
 LUL .                 NC:   LOGGING UNIT LOCATION
 ENGI.            EARNEST:   RECORDING ENGINEER
 WITN.          JORGENSEN:   WITNESSED BY
 CLNT.            A2DTECH:   CLIENT CODE
 ORIG.        2" 5" PRINT:   ORIGIN OF DATA
 UWI .       490250640500:   UNIQUE WELL ID
 DICO. A2D Technologies, Inc.:   DIGITIZING COMPANY
~OTHER INFORMATION
~A   DEPT       GR        ASN       CILD        ILD        SPR   
# ...
  751.0000    52.6063     7.5412   153.0739     7.0359   -59.8537
  751.5000    51.1322     7.5112   161.7757     6.8114   -59.8553
  752.0000    54.3774     7.4513   163.2309     6.6617   -59.8567
  752.5000    54.5615     7.3463   164.6971     6.5120   -59.8582
  753.0000    52.0414     7.1514   166.1522     6.2874   -59.8597
  753.5000    53.0850     7.0015   169.0956     5.9880   -59.8615
  754.0000    57.0222     6.8516   173.5603     5.6886   -60.1614
  754.5000    56.6537     6.6706   186.9984     5.3144   -60.4614
  755.0000    58.4559     6.4708   206.4446     4.9401   -60.6121
  755.5000    62.4737     6.1910   221.3930     4.4910   -60.6136
  756.0000    60.8451     5.8171   242.3384     4.3413   -60.6151
  756.5000    57.5806     5.5322   254.2883     4.3413   -60.4669
  757.0000    62.1942     5.2624   251.2444     4.3413   -60.1699
  757.5000    65.9149     4.9925   245.1936     4.3413   -60.0224
  758.0000    65.1778     4.9475   240.6517     4.4910   -60.0239
  758.5000    60.8732     5.0075   233.1114     4.7904   -59.8721
  759.0000    63.8524     5.1724   224.0718     5.0898   -59.4298
  759.5000    61.6294     5.5772   213.5329     5.4641   -58.8346
  760.0000    58.3649     6.1769   196.9971     5.9132   -58.3880
  760.5000    64.6130     6.6567   178.9620     6.3623   -58.6883
  761.0000    62.8359     6.8675   168.4232     6.5868   -59.2868
  761.5000    58.9785     7.0209   163.8813     6.6617   -59.8853
  762.0000    54.5268     7.1742   159.3394     6.5868   -60.1852
  762.5000    48.8863     7.3163   157.7961     6.5868   -60.4852
  763.0000    52.9041     7.3913   159.2513     6.5868   -60.6359
  763.5000    55.5846     7.4813   160.7064     6.7365   -60.7866
  764.0000    58.1165     7.5862   160.6513     6.8114   -60.9373
  764.5000    53.9605     7.7061   160.6072     6.8862   -60.9388
  765.0000    56.9397     7.8261   157.5646     7.0359   -60.7910
  765.5000    54.2710     7.9310   154.5220     7.1108   -60.7925
  766.0000    52.4924     7.9760   151.4794     7.1856   -60.7943
  766.5000    56.8088     7.9610   152.9346     7.1856   -60.6462
  767.0000    59.0436     7.9160   157.3992     7.0359   -60.4987
  767.5000    56.5235     7.8106   160.3537     6.6617   -60.5002
  768.0000    54.1505     7.6448   161.7991     6.6617   -60.2028
  768.5000    51.0375     7.5562   163.2534     6.7365   -60.0550
  769.0000    51.7864     7.5262   163.2084     6.8862   -60.2061
  769.5000    49.8607     7.5262   161.4842     7.0359   -60.2075
  770.0000    54.7700     7.5112   158.6119     7.1108   -60.2090
  770.5000    66.2172     7.4813   157.0685     7.1108   -60.2105
  771.0000    68.5706     7.4513   154.0259     6.9611   -60.2119
  771.5000    63.7030     7.4063   161.4781     6.5868   -60.2134
  772.0000    64.2617     7.3763   170.4295     5.9880   -60.5137
  772.5000    62.3179     7.3163   186.8772     5.3892   -60.8137
  773.0000    65.0581     7.2114   206.3233     4.4910   -60.9644
  773.5000    67.2928     6.7916   222.7710     4.3413   -60.9659
  774.0000    67.9169     6.3401   236.2201     4.4910   -60.8177
  774.5000    61.3461     5.6183   231.6783     4.6407   -60.6699
  775.0000    63.8930     5.2274   225.6372     4.7156   -60.5221
  775.5000    60.9093     5.1724   231.5901     4.9401   -60.3747
  776.0000    57.8127     4.9925   231.5442     5.1018   -60.2269
  776.5000    57.6523     5.3373   225.4939     5.3144   -60.2284
  777.0000    58.9242     5.8471   217.9535     5.3144   -60.0806
  777.5000    63.3434     6.2069   213.4117     5.3144   -60.0821
  778.0000    71.0547     6.3118   208.8698     5.2395   -60.0836
  778.5000    70.9837     6.2819   207.3265     5.1647   -60.0854
  779.0000    69.7353     5.9370   204.2839     5.0898   -60.0868
  779.5000    71.4027     5.7271   202.7406     4.9401   -60.2375
  780.0000    71.9774     5.5622   204.2067     4.7904   -60.2390
  780.5000    71.6861     5.6223   213.1471     4.6407   -60.5390
  781.0000    66.7886     5.6984   225.0970     4.6407   -60.6897
  781.5000    63.0798     5.8269   231.0499     4.7156   -61.1389
  782.0000    62.7871     6.3718   230.6446     4.8743   -61.1404
  782.5000    63.2403     6.6567   203.9642     5.4641   -61.1418
  783.0000    65.1778     6.8516   179.9321     6.2126   -60.8448
  783.5000    69.7900     7.0465   164.8955     6.8114   -60.6970
  784.0000    73.2119     7.0765   161.8639     6.8862   -60.5492
  784.5000    67.8702     7.0615   169.3051     6.5868   -60.2522
  785.0000    63.1212     7.0765   179.7557     6.1377   -59.9551
  785.5000    56.5893     7.0765   193.2049     5.5389   -59.6581
  786.0000    52.2861     7.0465   211.1518     5.0150   -59.5103
  786.5000    47.0914     6.9865   221.6024     4.7156   -59.2132
  787.0000    50.8121     6.4906   223.0576     4.6407   -59.0655
  787.5000    54.8299     5.6946   224.5128     4.6407   -59.0673
  788.0000    52.6070     5.6048   224.4678     4.6407   -59.0687
  788.5000    54.2473     5.4873   224.4228     4.7156   -59.0702
  789.0000    54.8461     5.4123   221.3709     4.7904   -59.3702
  789.5000    54.4063     5.6372   209.3328     5.2395   -59.6702
  790.0000    56.3453     6.4768   191.2977     5.6886   -59.9701
  790.5000    47.8817     6.9565   173.2626     6.5120   -60.2920
  791.0000    51.0080     7.4513   159.7253     7.1856   -60.7197
  791.5000    53.6885     7.7361   146.1879     7.6347   -60.8704
  792.0000    55.1788     7.9910   138.6476     7.8593   -60.8719
  792.5000    53.4016     8.1559   137.1042     7.9341   -60.7241
  793.0000    57.2723     8.2909   134.0616     8.0838   -60.5763
  793.5000    60.2500     8.4108   134.0175     8.0838   -60.4285
  794.0000    59.3644     8.5181   136.9720     8.0838   -60.2803
  794.5000    46.2945     8.6104   139.9264     8.0838   -59.9833
  795.0000    48.0835     8.6657   136.8727     8.0090   -59.9851
  795.5000    48.9809     8.6807   132.3309     7.9341   -60.1358
  796.0000    46.1397     8.6957   129.2883     7.8593   -60.1413
  796.5000    49.8843     8.6807   130.7435     7.7844   -60.2880
  797.0000    52.2676     8.6507   132.2096     7.6347   -60.1402
  797.5000    53.5067     8.5757   136.6523     7.4850   -60.1421
  798.0000    51.6256     8.6357   145.6037     7.0359   -60.2928
  798.5000    53.6227     8.5907   151.5676     7.1856   -60.4435
  799.0000    53.1828     8.5157   148.5140     7.6347   -60.7435
  799.5000    51.9970     8.4108   142.4729     8.0090   -60.8942
  800.0000    50.5201     8.3508   136.4318     8.3086   -60.5543
  800.5000    47.9981     8.5765   131.9179     8.3850   -60.2897
  801.0000    53.5014     8.7743   131.9029     8.3112   -59.6955
  801.5000    54.9906     9.0300   133.3910     8.0885   -60.1403
  802.0000    53.5092     9.1936   142.3678     7.6409   -60.1254
  802.5000    56.0407     9.2076   160.3439     6.8939   -59.6717
  803.0000    58.2739     9.0156   175.3215     5.8475   -59.2179
  803.5000    57.3868     8.6394   199.2945     5.3250   -58.9343
  804.0000    54.7167     7.9348   206.7796     5.1765   -58.6328
  804.5000    56.2070     6.6908   205.2617     5.1031   -58.7792
  805.0000    53.3882     6.1065   203.7475     5.2547   -59.2233
  805.5000    48.7853     6.0769   199.2348     5.4059   -59.5196
  806.0000    49.9784     6.1524   196.2214     5.7816   -58.7696
  806.5000    42.8506     6.3178   187.2110     6.6064   -58.4681
  807.0000    46.8680     7.8025   173.7028     7.9552   -58.7644
  807.5000    48.8041     9.2572   148.2006     8.8549   -59.0592
  808.0000    46.2825     9.6924   122.6984     9.4552   -59.3555
  808.5000    37.2229     9.8517   107.6910     9.9058   -59.9488
  809.0000    39.3077     9.9426   101.6790    10.3564   -60.2450
  809.5000    42.5811    10.0536   101.6392    10.4327   -60.5406
  810.0000    45.2601    10.0540   103.1484    10.4342   -60.5369
  810.5000    44.3730     9.9044   106.1320    10.2860   -60.5339
  811.0000    42.5944     9.9050   106.1169    10.2123   -60.2324
  811.5000    41.7073     9.9804   106.1020    10.2141   -59.9309
