~VERSION INFORMATION
 VERS.                2.0:   CWLS LOG ASCII STANDARD - VERSION 2.0
 WRAP.                 NO:   ONE LINE PER DEPTH STEP
~WELL INFORMATION
#MNEM.UNIT      DATA TYPE    INFORMATION
#----------   ------------   ------------------------------
 STRT.F           28.5000:   START DEPTH
 STOP.F          781.0000:   STOP DEPTH
 STEP.F            0.5000:   STEP LENGTH
 NULL.          -999.2500:   NO VALUE
 COMP. FENIX & SCISSON INC:   COMPANY
 WELL. NPR 3 23 SX 14 #23-14:   WELL
 FLD .        TEAPOT DOME:   FIELD
 LOC .      S14 T38N R78W:   LOCATION
 CNTY.            NATRONA:   COUNTY
 STAT.            WYOMING:   STATE
 CTRY. UNITED STATES OF AMERICA:   COUNTRY
 SRVC.            Unknown:   SERVICE COMPANY
 DATE.        13-MAY-1978:   LOGDATE
 API .       490251063400:   API NUMBER
~CURVE INFORMATION
#MNEM.UNIT       API CODE    CURVE DESCRIPTION
#----------   ------------   ------------------------------
 DEPT.F                  :   
 RHOB.G/C3   45 350 01 00:   BULK DENSITY
 DPHI.DEC    45 890 12 00:   DENSITY POROSITY SANDSTONE
 GRD .GAPI   45 310 01 00:   GAMMA RAY FROM DENSITY LOG
 CALD.IN     45 280 60 00:   CALIPER FROM DENSITY LOG
 CORR.G/C3   45 356 01 00:   DENSITY CORRECTION
 SN  .OHMM   05 040 16 00:   SHORT NORMAL 16"
 SPR .MV     05 010 01 00:   SPONTANEOUS POTENTIAL FROM RES.
 ILD .OHMM   05 120 46 00:   INDUCTION LOG DEEP
~PARAMETER INFORMATION
#MNEM.UNIT          VALUE    DESCRIPTION
#----------   ------------   ------------------------------
 PD  .                 GL:   PERMANENT DATUM
 EPD .F              5202:   ELEVATION PERMANENT DATUM
 LMF .                 KB:   LOG MEASURED FROM
 DMF .                 KB:   DRILLING MEASURED FROM
 EKB .F              5206:   KELLING BUSHING
 EGL .F              5202:   GROUND LEVEL
 DATE.          5-13-1978:   RUN DATE
 RUN .                  1:   RUN NUMBER
 DD  .F               785:   DEPTH DRILLER
 DL  .F               776:   DEPTH LOGGER
 BLI .F               770:   BOTTOM LOG INTERVAL
 TLI .F                50:   TOP LOG INTERVAL
 CS  .IN            8.625:   CASING SIZE
 CBD .F                40:   CASING BOTTOM DRILLER
 CBL .F                40:   CASING BOTTOM LOGGER
 BS  .IN            7.875:   BIT SIZE
 BSD .F               785:   BIT SIZE AT DEPTH
 DFT .                KCL:   DRILLING FLUID TYPE
 DFD .                8.6:   DRILLING FLUID DENSITY
 DFV .                 30:   DRILLING FLUID VISCOSITY
 DFPH.                 10:   DRILLING FLUID PH
 DFL .                 14:   DRILLING FLUID LOSS
 MSS .           FLOWLINE:   MUD SAMPLE SOURCE
 RMS .OHMM             .4:   RESISTIVITY MUD SAMPLE
 MST .F                69:   MUD SAMPLE TEMPERATURE
 RMF .OHMM            .36:   RESISTIVITY MUD FILTRATE SAMPLE
 MFST.F                72:   MUD FILTRATE SAMPLE TEMPERATURE
 RMC .OHMM            .56:   RESISTIVITY MUD CAKE
 MCST.F                73:   MUD CAKE SAMPLE TEMPERATURE
 MFSS.               MEAS:   MUD FILTRATE SAMPLE SOURCE
 RMB .OHMM            .35:   RESISTIVITY MUD AT BHT
 BHT .F                79:   BOTTOM HOLE TEMPERATURE
 TCS .HRS               2:   TIME CURCULATED STOPPED
 MRT .F                79:   MAXIMUM RECORDED TEMPERATURE
 LUN .               3006:   LOGGING UNIT NUMBER
 LUL .              CASP.:   LOGGING UNIT LOCATION
 ENGI.             MILLER:   RECORDING ENGINEER
 WITN.           MCGINLEY:   WITNESSED BY
 CLNT.            A2DTECH:   CLIENT CODE
 ORIG.           5" PRINT:   ORIGIN OF DATA
 UWI .       490251063400:   UNIQUE WELL ID
 DICO. A2D Technologies, Inc.:   DIGITIZING COMPANY
~OTHER INFORMATION
~A   DEPT     RHOB       DPHI         GRD      CALD       CORR         SN        SPR        ILD   
# ...
  555.0000     2.3802     0.1601    57.5772     7.5809     0.0395    12.4752   -58.8513    11.5971
  555.5000     2.3861     0.1551    57.7856     7.5723     0.0384    12.4169   -58.9369    11.4957
  556.0000     2.3921     0.1553    57.3783     7.5638     0.0374    12.3588   -58.4842    11.3951
  556.5000     2.3924     0.1581    56.9810     7.5554     0.0363    12.3011   -57.9253    11.2954
  557.0000     2.3885     0.1609    56.5730     7.5518     0.0361    12.2436   -57.8444    11.1966
  557.5000     2.3836     0.1637    56.6252     7.5571     0.0361    12.2087   -57.7533    11.1370
  558.0000     2.3788     0.1663    57.2998     7.5622     0.0361    12.2266   -57.6608    11.2268
  558.5000     2.3745     0.1669    59.0705     7.5674     0.0361    12.2418   -57.5657    11.2917
  559.0000     2.3748     0.1689    60.5853     7.5726     0.0361    12.2570   -57.6251    11.3570
  559.5000     2.3734     0.1714    60.8262     7.5777     0.0361    12.2721   -57.7144    11.4227
  560.0000     2.3675     0.1727    60.8663     7.5829     0.0387    12.2872   -58.0023    11.4888
  560.5000     2.3683     0.1663    60.8182     7.5881     0.0436    12.3024   -58.5111    11.5552
  561.0000     2.3772     0.1599    60.7700     7.5932     0.0485    12.3176   -59.0110    11.6221
  561.5000     2.3867     0.1535    60.7185     7.5984     0.0534    12.3328   -59.3347    11.6893
  562.0000     2.3961     0.1485    61.0698     7.6036     0.0580    12.3480   -59.2873    11.7569
  562.5000     2.4038     0.1442    61.6799     7.6087     0.0573    12.3632   -59.2469    11.8249
  563.0000     2.4094     0.1411    61.6531     7.6139     0.0564    12.3785   -59.2052    11.8934
  563.5000     2.4123     0.1466    61.6007     7.6191     0.0520    12.3938   -59.1638    11.9621
  564.0000     2.4065     0.1548    61.5563     7.6242     0.0462    12.4090   -59.1224    11.9864
  564.5000     2.3950     0.1592    61.4389     7.6294     0.0417    12.4246   -59.0810    11.9260
  565.0000     2.3850     0.1590    60.1795     7.6300     0.0409    12.4354   -59.0396    11.7986
  565.5000     2.3851     0.1588    59.2253     7.6300     0.0399    12.3167   -58.9983    11.6726
  566.0000     2.3846     0.1600    59.0169     7.6304     0.0390    12.2259   -58.9569    11.5479
  566.5000     2.3840     0.1619    58.7472     7.6142     0.0380    12.1357   -58.9155    11.4246
  567.0000     2.3835     0.1608    58.9052     7.5930     0.0371    12.0463   -58.8741    11.3026
  567.5000     2.3856     0.1574    59.1729     7.5717     0.0363    11.9575   -58.8327    11.1819
  568.0000     2.3908     0.1541    59.4448     7.5504     0.0341    11.8694   -58.7913    11.0623
  568.5000     2.3962     0.1531    59.6880     7.5301     0.0341    11.7819   -58.7500    10.9443
  569.0000     2.3956     0.1551    59.5103     7.5218     0.0341    11.6950   -58.7086    10.8342
  569.5000     2.3918     0.1579    59.3221     7.5138     0.0341    11.6086   -58.6671    10.8507
  570.0000     2.3872     0.1591    59.1358     7.5012     0.0341    11.5232   -58.6252    10.8755
  570.5000     2.3857     0.1629    58.9379     7.4830     0.0340    11.4482   -58.5837    10.9004
  571.0000     2.3822     0.1686    59.1697     7.4650     0.0342    11.4768   -58.5744    10.9254
  571.5000     2.3751     0.1695    59.5397     7.4578     0.0378    11.5025   -58.7784    10.9504
  572.0000     2.3751     0.1678    59.9125     7.5144     0.0415    11.5282   -58.9820    10.9754
  572.5000     2.3769     0.1658    60.2738     7.5689     0.0441    11.5539   -59.1850    11.0005
  573.0000     2.3787     0.1582    60.0882     7.5891     0.0436    11.5797   -59.3883    11.0351
  573.5000     2.3863     0.1519    59.0569     7.6094     0.0433    11.6056   -59.5903    10.9621
  574.0000     2.3961     0.1521    58.0359     7.5563     0.0429    11.6315   -59.7367    10.8468
  574.5000     2.4005     0.1522    57.1114     7.4608     0.0425    11.6605   -59.6948    10.7326
  575.0000     2.4012     0.1523    57.1469     7.2522     0.0421    11.6477   -59.6570    10.6196
  575.5000     2.4017     0.1512    57.1995     7.0921     0.0430    11.6327   -59.6193    10.5078
  576.0000     2.4021     0.1485    57.2469     7.0415     0.0441    11.6181   -59.5818    10.3483
  576.5000     2.4191     0.1409    57.3089     7.0334     0.0465    11.6034   -59.5442    10.4435
  577.0000     2.4378     0.1334    57.7861     7.0379     0.0569    11.5886   -59.5067    10.6243
  577.5000     2.4552     0.1266    58.3123     7.0427     0.0617    11.5736   -59.4691    10.8071
  578.0000     2.4548     0.1272    57.6587     7.0473     0.0609    11.5604   -59.4316    10.9928
  578.5000     2.4298     0.1276    56.3080     7.0488     0.0604    11.4929   -59.3940    11.1370
  579.0000     2.4384     0.1280    55.8097     7.0424     0.0722    11.3551   -59.3564    11.1370
  579.5000     2.4479     0.1285    55.5128     7.0362     0.0802    11.2176   -59.3189    11.1370
  580.0000     2.4360     0.1320    56.8529     7.0300     0.0802    11.0822   -59.2813    11.0098
  580.5000     2.4286     0.1351    58.5143     7.0238     0.0775    10.9484   -59.2436    10.8024
  581.0000     2.4247     0.1425    59.2081     7.0174     0.0743    10.8308   -59.2059    10.7016
  581.5000     2.4175     0.1459    59.0784     7.0085     0.0711    10.8061   -59.1697    10.6018
  582.0000     2.4104     0.1449    58.9280     7.1249     0.0701    10.7814   -59.2049    10.4838
  582.5000     2.4090     0.1463    59.0999     7.2751     0.0701    10.7568   -59.3718    10.1727
  583.0000     2.4080     0.1485    59.1086     7.4262     0.0701    10.7322   -59.5366     9.8708
  583.5000     2.4054     0.1511    58.0668     7.5682     0.0702    10.7077   -59.7018     9.6943
  584.0000     2.4028     0.1496    57.6995     7.5972     0.0718    10.6833   -59.8669     9.6736
  584.5000     2.4014     0.1471    58.0446     7.6221     0.0763    10.6589   -60.0319     9.6531
  585.0000     2.4077     0.1422    58.5431     7.6475     0.0808    10.7351   -60.1972     9.6325
  585.5000     2.4212     0.1371    58.9660     7.6728     0.0853    10.6552   -60.3638     9.6144
  586.0000     2.4326     0.1393    59.1869     7.6933     0.0905    10.5431   -60.5286     9.5455
  586.5000     2.4196     0.1427    59.4546     7.7023     0.0623    10.4321   -60.4691     9.4712
  587.0000     2.4095     0.1435    59.7211     7.7116     0.0525    10.3223   -60.3959     9.3976
  587.5000     2.4181     0.1355    59.9888     7.7209     0.0501    10.2137   -60.4022     9.3244
  588.0000     2.4287     0.1363    60.2663     7.7302     0.0501    10.1062   -60.7839     9.2519
  588.5000     2.4335     0.1375    59.9654     7.7395     0.0501    10.0664   -61.1584     9.1799
  589.0000     2.4282     0.1346    59.5572     7.7490     0.0501    10.0738   -61.5317     9.1085
  589.5000     2.4315     0.1319    59.1418     7.7438     0.0501    10.0789   -61.7454     9.0155
  590.0000     2.4379     0.1299    58.7229     7.7365     0.0501    10.0840   -61.7763     9.0242
  590.5000     2.4444     0.1254    59.1947     7.7292     0.0501    10.0892   -61.8082     9.0368
  591.0000     2.4474     0.1220    59.7539     7.7219     0.0494    10.0943   -61.8396     9.0495
  591.5000     2.4465     0.1250    61.0442     7.7145     0.0485    10.0995   -61.8718     9.0622
  592.0000     2.4434     0.1301    62.3317     7.6968     0.0461    10.1046   -61.9037     9.0748
  592.5000     2.4391     0.1352    62.2655     7.6605     0.0424    10.1097   -61.9258     9.0875
  593.0000     2.4292     0.1403    62.2228     7.6244     0.0401    10.1149   -61.7066     9.1003
  593.5000     2.4157     0.1443    62.1831     7.5908     0.0404    10.1201   -61.1552     9.1130
  594.0000     2.4114     0.1435    62.1445     7.5921     0.0406    10.1252   -60.6095     9.1258
  594.5000     2.4140     0.1415    62.1112     7.5946     0.0408    10.1304   -60.5204     9.1385
  595.0000     2.4100     0.1480    61.8914     7.5969     0.0410    10.1355   -60.5036     9.1513
