~VERSION INFORMATION
 VERS.                2.0:   CWLS LOG ASCII STANDARD - VERSION 2.0
 WRAP.                 NO:   ONE LINE PER DEPTH STEP
~WELL INFORMATION
#MNEM.UNIT      DATA TYPE    INFORMATION
#----------   ------------   ------------------------------
 STRT.F           85.5000:   START DEPTH
 STOP.F         1080.5000:   STOP DEPTH
 STEP.F            0.5000:   STEP LENGTH
 NULL.          -999.2500:   NO VALUE
 COMP.         U.S.  NAVY:   COMPANY
 WELL.  N.P.R. #3 #67-S-2:   WELL
 FLD .             TEAPOT:   FIELD
 LOC .       S2 T38N R78W:   LOCATION
 CNTY.            NATRONA:   COUNTY
 STAT.            WYOMING:   STATE
 CTRY. UNITED STATES OF AMERICA:   COUNTRY
 SRVC.       Schlumberger:   SERVICE COMPANY
 DATE.        20-JUL-1964:   LOGDATE
 API .       490250639700:   API NUMBER
~CURVE INFORMATION
#MNEM.UNIT       API CODE    CURVE DESCRIPTION
#----------   ------------   ------------------------------
 DEPT.F                  :   
 GR  .GAPI   30 310 01 00:   GAMMA RAY
 DT  .US/F   60 520 33 00:   INTERVAL TRANSIT TIME
 SPR .MV     06 010 01 00:   SPONTANEOUS POTENTIAL
 CILD.MMHO   06 110 46 00:   CONDUCTIVITY INDUCTION LOG DEEP
 ASN .OHMM   06 041 16 00:   AMPLIFIED SHORT NORMAL 16"
 ILD .OHMM   06 120 46 00:   INDUCTION LOG DEEP
~PARAMETER INFORMATION
#MNEM.UNIT          VALUE    DESCRIPTION
#----------   ------------   ------------------------------
 PD  .                 GL:   PERMANENT DATUM
 EPD .F              5207:   ELEVATION PERMANENT DATUM
 LMF .                 KB:   LOG MEASURED FROM
 DAPD.F                 5:   FEET ABOVE PERMANENT DATUM
 DMF .                 KB:   DRILLING MEASURED FROM
 EKB .F              5212:   KELLING BUSHING
 EGL .F              5207:   GROUND LEVEL
 DATE.          7-20-1964:   RUN DATE
 RUN .                  1:   RUN NUMBER
 DD  .F              1080:   DEPTH DRILLER
 DL  .F              1081:   DEPTH LOGGER
 BLI .F              1080:   BOTTOM LOG INTERVAL
 TLI .F                86:   TOP LOG INTERVAL
 CS  .IN            8.625:   CASING SIZE
 CBD .F                10:   CASING BOTTOM DRILLER
 BS  .IN             6.75:   BIT SIZE
 BSD .F              1080:   BIT SIZE AT DEPTH
 DFT .            GEL-OIL:   DRILLING FLUID TYPE
 DFD .                9.5:   DRILLING FLUID DENSITY
 DFV .                 43:   DRILLING FLUID VISCOSITY
 MSS .           FLOWLINE:   MUD SAMPLE SOURCE
 RMS .OHMM           1.85:   RESISTIVITY MUD SAMPLE
 MST .F                83:   MUD SAMPLE TEMPERATURE
 RMF .OHMM           1.29:   RESISTIVITY MUD FILTRATE SAMPLE
 MFST.F                83:   MUD FILTRATE SAMPLE TEMPERATURE
 RMC .OHMM           2.49:   RESISTIVITY MUD CAKE
 MCST.F                83:   MUD CAKE SAMPLE TEMPERATURE
 MFSS.                 FP:   MUD FILTRATE SAMPLE SOURCE
 MCSS.                 FP:   MUD CAKE SAMPLE SOURCE
 TCS .HRS               2:   TIME CURCULATED STOPPED
 LUN .               4507:   LOGGING UNIT NUMBER
 LUL .               CSPR:   LOGGING UNIT LOCATION
 ENGI.             DANNER:   RECORDING ENGINEER
 WITN.          JORGENSEN:   WITNESSED BY
 CLNT.            A2DTECH:   CLIENT CODE
 ORIG.           2" PRINT:   ORIGIN OF DATA
 UWI .       490250639700:   UNIQUE WELL ID
 DICO. A2D Technologies, Inc.:   DIGITIZING COMPANY
~OTHER INFORMATION
~A   DEPT       GR         DT        SPR       CILD        ASN        ILD   
# ...
  969.5000    28.6115    95.9960   -32.5072    71.8065    15.6287    13.5222
  970.0000    28.2444    95.6557   -32.3394    73.0926    15.5068    13.3103
  970.5000    26.2039    95.9686   -32.1703    74.3787    15.3852    13.0982
  971.0000    24.1923    96.4226   -32.0024    75.6648    15.2633    13.0024
  971.5000    27.6334    96.1201   -31.8332    76.9508    15.1418    12.8070
  972.0000    25.9505    95.5295   -31.6654    78.2369    15.0198    12.6092
  972.5000    28.8807    94.4645   -31.4962    79.5229    14.8907    12.4138
  973.0000    31.2829    94.0110   -31.2927    80.8091    14.7522    12.2160
  973.5000    26.1437    94.2633   -31.3538    82.0951    14.6051    12.0030
  974.0000    23.8297    94.1173   -31.4331    83.3813    14.4572    11.9887
  974.5000    42.0879    93.9155   -31.5109    84.0891    14.3101    11.9569
  975.0000    36.1075    94.9449   -31.5901    83.9018    14.1622    11.9233
  975.5000    36.9152    95.5956   -31.6680    83.7144    13.9945    11.9033
  976.0000    35.2574    95.1944   -31.7472    83.5272    13.9941    11.9200
  976.5000    34.5250    94.8949   -31.8252    83.3398    14.0073    11.9697
  977.0000    26.6477    95.1386   -31.9043    83.1525    14.0220    12.0183
  977.5000    24.3658    94.7061   -31.9824    82.9652    14.0374    12.0679
  978.0000    33.3998    94.9690   -32.0614    82.7780    14.0522    12.1166
  978.5000    21.8620    95.4735   -32.1396    82.5908    14.0675    12.1660
  979.0000    25.3274    95.9780   -32.2186    82.4036    14.0825    12.2149
  979.5000    27.7363    96.4965   -32.2968    82.1713    14.0746    12.2641
  980.0000    34.2480    96.0761   -32.3757    82.3582    14.0030    12.3007
  980.5000    33.3293    95.8376   -32.4540    82.6041    13.9315    12.2271
  981.0000    31.9569    96.0618   -32.3397    82.8502    13.8600    12.1289
  981.5000    32.6467    95.9940   -32.1149    83.0960    13.7884    12.0302
  982.0000    31.1874    95.6220   -31.8902    82.8691    13.7169    12.0019
  982.5000    28.5194    95.4419   -31.6654    82.4475    13.6453    12.0858
  983.0000    31.7565    95.2617   -31.4407    82.0263    13.5737    12.1567
  983.5000    25.2085    94.7979   -31.2160    81.6046    13.5022    12.2261
  984.0000    29.1686    94.1681   -30.9913    81.1833    13.4307    12.2972
  984.5000    36.0725    93.5394   -30.8534    80.7616    13.3592    12.3665
  985.0000    32.5924    93.1653   -30.7817    80.3404    13.2877    12.4378
  985.5000    26.3658    93.0931   -30.7104    81.1782    13.2161    12.4989
  986.0000    20.1419    93.6316   -30.6387    82.7878    13.1447    12.2445
  986.5000    14.9284    94.0941   -30.5674    84.3965    13.0731    12.0139
  987.0000    15.7471    93.8208   -30.4965    86.0060    13.0016    11.7857
  987.5000    21.7726    93.6937   -30.2484    87.6154    12.9301    11.5552
  988.0000    27.6820    94.2239   -30.0026    89.2249    12.8254    11.3268
  988.5000    31.3381    94.0782   -29.7568    90.8344    12.6942    11.0963
  989.0000    19.3690    93.6330   -29.5110    92.4439    12.5632    10.8679
  989.5000    19.1472    93.1879   -29.2651    94.0533    12.4320    10.6375
  990.0000    23.3347    93.0631   -29.0194    95.6628    12.3010    10.4090
  990.5000    17.4479    93.5936   -28.7733    97.2723    12.1698    10.3780
  991.0000    20.2163    93.3391   -28.5105    98.2653    12.1018    10.3484
  991.5000    22.5712    92.6019   -28.4623    98.5931    12.1017    10.3176
  992.0000    25.3472    92.3062   -28.4113    98.9210    12.0669    10.2879
  992.5000    23.8513    93.0058   -28.3595    99.2488    12.0305    10.2571
  993.0000    23.3311    92.8527   -28.3085    99.5767    11.9943    10.2274
  993.5000    16.7092    92.5940   -28.2568    99.9045    11.9578    10.1967
  994.0000    19.2715    92.6916   -28.2057   100.2324    11.9217    10.1667
  994.5000    19.5092    92.7833   -28.1541   100.5603    11.8853    10.1362
  995.0000    19.4946    92.2823   -28.1030   100.8881    11.8491    10.1061
  995.5000    22.4416    91.7778   -28.0515   101.2160    11.8127    10.0756
  996.0000    18.2888    91.2733   -28.0003   101.5438    11.7766    10.0455
  996.5000    27.3937    91.2845   -27.9488   101.8717    11.7401    10.0151
  997.0000    28.7854    91.1035   -27.8725   102.1995    11.7040     9.9850
  997.5000    27.0009    90.6583   -27.7414   102.5274    11.6675     9.9545
  998.0000    22.4669    90.2132   -27.6103   102.8552    11.6314     9.9244
  998.5000    20.1883    90.1662   -27.4791   103.1831    11.5949     9.8940
  999.0000    22.8570    90.5349   -27.3177   103.5110    11.5588     9.8638
  999.5000    23.4929    90.2103   -27.0125   103.8388    11.5223     9.8334
 1000.0000    22.8849    89.8858   -26.6153   103.9574    11.4861     9.7612
 1000.5000    28.9970    89.5896   -26.2177   103.4585    11.4496     9.7539
 1001.0000    34.6223    89.8605   -25.8205   102.9595    11.4045     9.8111
 1001.5000    37.2894    90.1069   -25.4227   102.4606    11.4875     9.8680
 1002.0000    40.0290    90.0733   -25.1129   102.0268    11.5973     9.9252
 1002.5000    40.7537    89.8101   -25.0376   101.7772    11.7071     9.9821
 1003.0000    34.5477    89.5453   -24.9630   101.5275    11.8168    10.0393
 1003.5000    28.7676    89.3894   -24.8877   101.2779    11.9268    10.0962
 1004.0000    27.1965    89.3894   -24.8131   101.0283    12.0364    10.1534
 1004.5000    34.8272    89.3894   -24.7379   100.7787    12.1465    10.2103
 1005.0000    37.7787    89.1732   -24.6632   100.5289    12.2561    10.2675
 1005.5000    37.8186    88.2404   -24.5882   100.2794    12.3661    10.2898
 1006.0000    41.7123    86.8774   -24.6156   100.4908    12.4995    10.2234
 1006.5000    44.6324    86.8070   -24.8653   101.8739    12.3528    10.1567
 1007.0000    30.0929    86.9630   -25.1148   103.2563    12.1657    10.0903
 1007.5000    27.5778    87.2097   -25.3645   104.6396    11.9783    10.0236
 1008.0000    31.2066    88.1670   -25.5028   106.0219    11.7914     9.9572
 1008.5000    34.6935    89.4501   -25.4231   107.4052    11.6038     9.8904
 1009.0000    35.9403    90.7331   -25.3311   109.0630    11.4171     9.8242
 1009.5000    32.6472    91.0643   -25.0400   109.3834    11.2294     9.7573
 1010.0000    43.2811    90.7427   -24.6976   109.7820    11.0067     9.6912
 1010.5000    50.1463    90.6668   -24.3552   110.1820    11.0061     9.6244
 1011.0000    49.2031    90.8519   -24.0905   110.5805    10.9074     9.5583
 1011.5000    40.1261    90.8909   -23.9408   110.9805    10.9068     9.4916
 1012.0000    45.2611    90.6497   -23.9414   111.3791    10.9484     9.4133
 1012.5000    42.2806    90.3904   -23.9410   111.7791    10.9979     9.4132
 1013.0000    37.4013    90.7588   -23.9425   111.9424    11.0485     9.4136
 1013.5000    32.9850    91.2523   -24.2277   111.6099    11.0983     9.4136
 1014.0000    33.4153    91.2388   -24.5489   111.2765    11.1486     9.4140
 1014.5000    35.2760    91.1810   -24.7364   110.9440    11.1987     9.4773
 1015.0000    38.2316    91.3605   -24.7383   110.6107    11.2483     9.5545
 1015.5000    37.9323    91.4915   -24.7367   110.2782    11.2987     9.6309
 1016.0000    43.7430    91.0803   -24.7382   109.1576    11.3480     9.7081
 1016.5000    48.2944    90.4018   -25.1072   106.4946    11.4066     9.7844
 1017.0000    35.9849    90.5245   -25.5084   103.8313    11.6937     9.8618
 1017.5000    33.2572    90.8909   -25.9284   100.4613    12.0359    10.0956
 1018.0000    35.2032    90.8909   -26.0136    95.7527    12.3777    10.6289
 1018.5000    29.8425    90.8909   -26.1005    91.0442    12.7996    11.1603
 1019.0000    31.9311    91.3754   -26.1904    86.3356    13.5656    11.6939
 1019.5000    29.6434    91.8689   -26.2774    81.6271    14.4651    12.3002
 1020.0000    30.3661    92.5666   -27.4511    76.9185    15.3631    13.0945
 1020.5000    25.5373    93.6404   -29.8458    72.2100    16.2626    14.0166
 1021.0000    26.3025    94.8973   -32.2444    68.3710    17.1606    14.9414
