~VERSION INFORMATION
 VERS.                2.0:   CWLS LOG ASCII STANDARD - VERSION 2.0
 WRAP.                 NO:   ONE LINE PER DEPTH STEP
~WELL INFORMATION
#MNEM.UNIT      DATA TYPE    INFORMATION
#----------   ------------   ------------------------------
 STRT.F           35.0000:   START DEPTH
 STOP.F          601.0000:   STOP DEPTH
 STEP.F            0.5000:   STEP LENGTH
 NULL.          -999.2500:   NO VALUE
 COMP. FENIX & SCISSON INC:   COMPANY
 WELL. NPR #3 71SX #71-15:   WELL
 FLD .             TEAPOT:   FIELD
 LOC .      S15 T38N R78W:   LOCATION
 CNTY.            NATRONA:   COUNTY
 STAT.            WYOMING:   STATE
 CTRY. UNITED STATES OF AMERICA:   COUNTRY
 SRVC.              Welex:   SERVICE COMPANY
 DATE.        10-MAR-1977:   LOGDATE
 API .       490251031200:   API NUMBER
~CURVE INFORMATION
#MNEM.UNIT       API CODE    CURVE DESCRIPTION
#----------   ------------   ------------------------------
 DEPT.F                  :   
 SPR .MV     07 010 01 00:   SPONTANEOUS POTENTIAL
 SGRD.OHMM   07 220 05 00:   SHALLOW RESISTIVITY
 DRES.OHMM   07 120 46 00:   INDUCTION LOG DEEP
 MRES.OHMM   07 120 44 00:   INDUCTION LOG MEDIUM
 GRD .GAPI   45 310 01 00:   GAMMA RAY FROM DENSITY LOG
 CALD.IN     45 280 60 00:   CALIPER
 RHOB.G/C3   45 350 01 00:   BULK DENSITY
 DPHI.DEC    45 890 12 00:   DENSITY POROSITY
 CORR.G/C3   45 356 01 00:   DENSITY CORRECTION
~PARAMETER INFORMATION
#MNEM.UNIT          VALUE    DESCRIPTION
#----------   ------------   ------------------------------
 PD  .                 GL:   PERMANENT DATUM
 EPD .F              5241:   ELEVATION PERMANENT DATUM
 LMF .                 GL:   LOG MEASURED FROM
 DMF .                 GL:   DRILLING MEASURED FROM
 EGL .F              5241:   GROUND LEVEL
 DATE.            3-10-77:   RUN DATE
 RUN .                  1:   RUN NUMBER
 DD  .F               600:   DEPTH DRILLER
 DL  .F               603:   DEPTH LOGGER
 BLI .F               601:   BOTTOM LOG INTERVAL
 TLI .F                35:   TOP LOG INTERVAL
 CS  .IN            8.625:   CASING SIZE
 CBD .F                40:   CASING BOTTOM DRILLER
 CBL .F                40:   CASING BOTTOM LOGGER
 BS  .IN            7.875:   BIT SIZE
 BSD .F               600:   BIT SIZE AT DEPTH
 DFT .            KCL MUD:   DRILLING FLUID TYPE
 DFD .                8.6:   DRILLING FLUID DENSITY
 DFV .                 10:   DRILLING FLUID VISCOSITY
 DFPH.                7.2:   DRILLING FLUID PH
 DFL .                  8:   DRILLING FLUID LOSS
 MSS .            MUD PIT:   MUD SAMPLE SOURCE
 RMS .OHMM            .36:   RESISTIVITY MUD SAMPLE
 MST .F                47:   MUD SAMPLE TEMPERATURE
 RMF .OHMM            .35:   RESISTIVITY MUD FILTRATE SAMPLE
 MFST.F                47:   MUD FILTRATE SAMPLE TEMPERATURE
 RMC .OHMM            .40:   RESISTIVITY MUD CAKE
 MCST.F                47:   MUD CAKE SAMPLE TEMPERATURE
 MFSS.           FANN KIT:   MUD FILTRATE SAMPLE SOURCE
 MCSS.           FANN KIT:   MUD CAKE SAMPLE SOURCE
 RMB .OHMM            .31:   RESISTIVITY MUD AT BHT
 BHT .F                53:   BOTTOM HOLE TEMPERATURE
 TCS .HRS             1.5:   TIME CURCULATED STOPPED
 MRT .F                53:   MAXIMUM RECORDED TEMPERATURE
 LUN .               8611:   LOGGING UNIT NUMBER
 LUL .           GILLETTE:   LOGGING UNIT LOCATION
 ENGI.               DOAK:   RECORDING ENGINEER
 WITN.         STUEBINGER:   WITNESSED BY
 CLNT.            A2DTECH:   CLIENT CODE
 ORIG.       2", 5" PRINT:   ORIGIN OF DATA
 UWI .       490251031200:   UNIQUE WELL ID
 DICO. A2D Technologies, Inc.:   DIGITIZING COMPANY
~OTHER INFORMATION
~A   DEPT      SPR       SGRD       DRES       MRES         GRD      CALD       RHOB       DPHI       CORR   
# ...
  254.0000   -35.1061    11.8142     8.1632     9.7753   101.2263     7.9174     2.4427     0.1159     0.0452
  254.5000   -35.1771    12.5466     8.1632     9.7698   100.9225     7.9176     2.4557     0.1126     0.0505
  255.0000   -35.2481    13.1917     8.1632     9.7643   101.9425     7.9177     2.4656     0.1090     0.0557
  255.5000   -35.3191    12.6063     8.1632     9.7589   102.9484     7.9179     2.4614     0.1119     0.0572
  256.0000   -35.3901    12.4650     8.1633     9.7534   103.9488     7.9181     2.4555     0.1149     0.0551
  256.5000   -35.4611    12.3337     8.1632     9.7479   104.9462     7.9182     2.4496     0.1178     0.0530
  257.0000   -35.5321    12.2053     8.1632     9.7424   106.0189     7.9184     2.4436     0.1210     0.0509
  257.5000   -35.6031    12.0784     8.1632     9.7368   107.2868     7.9185     2.4377     0.1204     0.0488
  258.0000   -35.6742    12.0328     8.1078     9.7310   108.4786     7.9187     2.4416     0.1194     0.0480
  258.5000   -35.7451    12.0328     8.0422     9.6968   107.2430     7.9188     2.4463     0.1182     0.0477
  259.0000   -35.8138    12.0328     7.9772     9.6231   106.0803     7.9190     2.4484     0.1193     0.0473
  259.5000   -35.9075    12.0338     7.9127     9.5496   105.8415     7.9191     2.4446     0.1213     0.0470
  260.0000   -36.0023    11.9105     7.8487     9.4767   105.5740     7.9193     2.4374     0.1233     0.0467
  260.5000   -36.0978    11.6255     7.7853     9.4043   105.2238     7.9194     2.4307     0.1254     0.0463
  261.0000   -36.1932    11.3476     7.7223     9.3325   104.5578     7.9196     2.4345     0.1243     0.0460
  261.5000   -36.2885    10.9830     7.6598     9.2612   104.0776     7.9198     2.4390     0.1223     0.0457
  262.0000   -36.3838    11.0393     7.5975     9.1904   103.8374     7.9199     2.4434     0.1202     0.0453
  262.5000   -36.4791    11.1527     7.5356     9.1202   103.5907     7.9201     2.4444     0.1202     0.0450
  263.0000   -36.5744    11.2673     7.4320     9.0506   104.8456     7.9202     2.4409     0.1213     0.0447
  263.5000   -36.6697    11.4897     7.3002     8.9815   107.6400     7.9204     2.4376     0.1228     0.0443
  264.0000   -36.7650    11.2142     7.1708     8.9129   110.3984     7.9205     2.4368     0.1226     0.0465
  264.5000   -36.8604    10.7100     7.0436     8.8425   112.9371     7.9207     2.4411     0.1202     0.0495
  265.0000   -36.9558    10.7926     6.9187     8.6899   112.8988     7.9208     2.4454     0.1177     0.0525
  265.5000   -37.0516    10.9710     6.7960     8.5399   111.1358     7.9210     2.4496     0.1153     0.0554
  266.0000   -37.1460    10.8497     6.6755     8.3926   109.4527     7.9212     2.4537     0.1129     0.0584
  266.5000   -37.2138    10.5315     6.5571     8.2477   107.9520     7.9213     2.4557     0.1137     0.0590
  267.0000   -37.1203    10.2226     6.4409     8.1054   107.8275     7.9215     2.4448     0.1198     0.0554
  267.5000   -37.0295     9.9109     6.3267     7.9655   108.5374     7.9216     2.4337     0.1259     0.0518
  268.0000   -36.9393     8.8476     6.1873     7.7948   109.2530     7.9218     2.4316     0.1310     0.0482
  268.5000   -36.8489     7.7948     6.2511     7.8876   109.7790     7.9219     2.4292     0.1310     0.0446
  269.0000   -36.7585     9.3322     6.3385     8.0123   109.8685     7.9221     2.4268     0.1328     0.0410
  269.5000   -36.6681    10.9467     6.4270     8.1389   109.9666     7.9222     2.4242     0.1347     0.0402
  270.0000   -36.5778    10.7354     6.5164     8.2676   110.0588     7.9224     2.4251     0.1333     0.0402
  270.5000   -36.4874    10.4915     6.6070     8.3983   109.9144     7.9225     2.4271     0.1319     0.0402
  271.0000   -36.3970    10.3127     6.6988     8.5310   108.3293     7.9227     2.4279     0.1310     0.0402
  271.5000   -36.3066    10.5339     6.7919     8.6659   106.6640     7.9229     2.4246     0.1331     0.0402
  272.0000   -36.2161    10.7602     6.8863     8.8029   107.4469     7.9230     2.4215     0.1353     0.0402
  272.5000   -36.1244    10.9913     6.9820     8.9533   108.8465     7.9232     2.4183     0.1375     0.0402
  273.0000   -36.0328    11.2272     7.0790     8.9103   110.3389     7.9233     2.4163     0.1361     0.0402
  273.5000   -36.1404    11.4897     7.1774     8.8509   111.9415     7.9235     2.4221     0.1327     0.0419
  274.0000   -36.2656    11.2331     7.3067     8.7919   113.5261     7.9236     2.4347     0.1258     0.0446
  274.5000   -36.3900    10.9572     7.2593     8.7332   114.2364     7.9238     2.4476     0.1190     0.0485
  275.0000   -36.5132    10.7693     7.1928     8.6750   111.7137     7.9239     2.4607     0.1121     0.0543
  275.5000   -36.6333    10.7694     7.1269     8.6171   109.7922     7.9241     2.4732     0.1026     0.0601
  276.0000   -36.8140    10.7704     7.0616     8.5597   109.8210     7.9242     2.4702     0.1051     0.0602
  276.5000   -36.9874    10.7709     6.9972     8.5026   109.9623     7.9244     2.4617     0.1113     0.0569
  277.0000   -37.1595    10.6385     6.9332     8.4459   108.7860     7.9246     2.4537     0.1170     0.0547
  277.5000   -37.3315    10.4483     6.7461     8.3895   107.3857     7.9247     2.4559     0.1123     0.0575
  278.0000   -37.5035    10.2619     6.5089     8.3336   107.4428     7.9249     2.4715     0.1064     0.0601
  278.5000   -37.6756    10.0786     6.2800     8.1463   107.8962     7.9250     2.4716     0.1018     0.0627
  279.0000   -37.8477     9.9109     6.0592     7.8005   107.2549     7.9252     2.4615     0.1120     0.0633
  279.5000   -38.0195     9.7465     5.8462     7.4693   107.3559     7.9253     2.4467     0.1204     0.0610
  280.0000   -38.1914     9.5050     5.6407     7.1523   108.0292     7.9255     2.4327     0.1287     0.0587
  280.5000   -38.3714     9.2694     5.4425     6.8487   103.9809     7.9256     2.4270     0.1320     0.0588
  281.0000   -38.4226     9.0397     5.2512     6.5580   101.9945     7.9258     2.4217     0.1348     0.0595
  281.5000   -38.2124     8.1666     5.0029     6.2796   101.0286     7.9259     2.4165     0.1375     0.0602
  282.0000   -37.9639     4.8662     5.0286     6.0740   101.3905     7.9261     2.4122     0.1403     0.0583
  282.5000   -37.7147     5.5688     5.0868     6.3063   102.4589     7.9261     2.4147     0.1363     0.0558
  283.0000   -37.4661     7.5572     5.1457     6.5371   105.8808     7.9261     2.4184     0.1324     0.0534
  283.5000   -37.2176     9.5931     5.1913     6.7763   108.7180     7.9261     2.4222     0.1285     0.0510
  284.0000   -36.9691     9.7740     5.4448     7.0243   110.7719     7.9261     2.4259     0.1267     0.0485
  284.5000   -36.7205     9.9584     5.7003     7.2814   112.2495     7.9261     2.4296     0.1262     0.0461
  285.0000   -36.4717    10.1463     5.9683     7.5478   113.7658     7.9261     2.4333     0.1258     0.0441
  285.5000   -36.2242    10.3377     6.2495     7.7413   113.5310     7.9261     2.4365     0.1228     0.0438
  286.0000   -35.9782    10.5328     6.5436     7.8878   112.7204     7.9261     2.4413     0.1199     0.0434
  286.5000   -35.8124    10.7702     6.8516     8.0371   112.8347     7.9261     2.4461     0.1171     0.0431
  287.0000   -35.7699    10.7369     7.0333     8.1896   112.7550     7.9261     2.4508     0.1154     0.0427
  287.5000   -35.7269    10.6754     7.1274     8.3451   111.4772     7.9261     2.4548     0.1139     0.0423
  288.0000   -35.6850    10.9430     7.2227     8.4718   111.1122     7.9261     2.4554     0.1143     0.0420
  288.5000   -35.6431    11.8126     7.3194     8.4716   111.4218     7.9261     2.4521     0.1180     0.0416
  289.0000   -35.6011    11.6676     7.4173     8.4693   111.7003     7.9261     2.4462     0.1217     0.0413
  289.5000   -35.5591    11.4262     7.5165     8.4685   110.9177     7.9261     2.4395     0.1254     0.0409
  290.0000   -35.5171    11.2913     7.6171     8.6044   110.0700     7.9261     2.4330     0.1291     0.0405
