~VERSION INFORMATION
 VERS.                2.0:   CWLS LOG ASCII STANDARD - VERSION 2.0
 WRAP.                 NO:   ONE LINE PER DEPTH STEP
~WELL INFORMATION
#MNEM.UNIT      DATA TYPE    INFORMATION
#----------   ------------   ------------------------------
 STRT.F           94.0000:   START DEPTH
 STOP.F          939.0000:   STOP DEPTH
 STEP.F            0.5000:   STEP LENGTH
 NULL.          -999.2500:   NO VALUE
 COMP. U S NAVY/INTEX OIL CO:   COMPANY
 WELL.    NPR #3 #88-S-27:   WELL
 FLD .             TEAPOT:   FIELD
 LOC .      S27 T39N R78W:   LOCATION
 CNTY.            NATRONA:   COUNTY
 STAT.            WYOMING:   STATE
 CTRY. UNITED STATES OF AMERICA:   COUNTRY
 SRVC.       Schlumberger:   SERVICE COMPANY
 DATE.        30-JUL-1963:   LOGDATE
 API .       490250658100:   API NUMBER
~CURVE INFORMATION
#MNEM.UNIT       API CODE    CURVE DESCRIPTION
#----------   ------------   ------------------------------
 DEPT.F                  :   
 SPR .MV     05 010 01 00:   SPONTANEOUS POTENTIAL FROM RES.
 CILD.MMHO   05 110 46 00:   CONDUCTIVITY INDUCTION LOG DEEP
 ASN .OHMM   05 041 16 00:   AMPLIFIED SHORT NORMAL 16"
 ILD .OHMM   05 120 46 00:   INDUCTION LOG DEEP
 GR  .GAPI   30 310 01 00:   GAMMA RAY
~PARAMETER INFORMATION
#MNEM.UNIT          VALUE    DESCRIPTION
#----------   ------------   ------------------------------
 PD  .                 GL:   PERMANENT DATUM
 EPD .F              5069:   ELEVATION PERMANENT DATUM
 LMF .                 KB:   LOG MEASURED FROM
 DAPD.F                 5:   FEET ABOVE PERMANENT DATUM
 DMF .                 KB:   DRILLING MEASURED FROM
 EKB .F              5074:   KELLING BUSHING
 EGL .F              5069:   GROUND LEVEL
 DATE.          7-30-1969:   RUN DATE
 RUN .                  1:   RUN NUMBER
 DD  .F               940:   DEPTH DRILLER
 DL  .F               940:   DEPTH LOGGER
 BLI .F               939:   BOTTOM LOG INTERVAL
 TLI .F                94:   TOP LOG INTERVAL
 CS  .IN            8.625:   CASING SIZE
 CBD .F                10:   CASING BOTTOM DRILLER
 BS  .IN             6.75:   BIT SIZE
 BSD .F               940:   BIT SIZE AT DEPTH
 DFT .            GEL/OIL:   DRILLING FLUID TYPE
 DFD .                9.6:   DRILLING FLUID DENSITY
 DFV .                 40:   DRILLING FLUID VISCOSITY
 DFPH.                  9:   DRILLING FLUID PH
 DFL .                  6:   DRILLING FLUID LOSS
 MSS .          FLOW LINE:   MUD SAMPLE SOURCE
 RMS .OHMM           2.94:   RESISTIVITY MUD SAMPLE
 MST .F                89:   MUD SAMPLE TEMPERATURE
 RMF .OHMM           2.19:   RESISTIVITY MUD FILTRATE SAMPLE
 MFST.F                87:   MUD FILTRATE SAMPLE TEMPERATURE
 MFSS.           MEASURED:   MUD FILTRATE SAMPLE SOURCE
 TCS .HRS               1:   TIME CURCULATED STOPPED
 LUN .               4507:   LOGGING UNIT NUMBER
 LUL .               CSPR:   LOGGING UNIT LOCATION
 ENGI.            WINKLER:   RECORDING ENGINEER
 WITN.          JORGENSEN:   WITNESSED BY
 CLNT.            A2DTECH:   CLIENT CODE
 ORIG.           5" PRINT:   ORIGIN OF DATA
 UWI .       490250658100:   UNIQUE WELL ID
 DICO. A2D Technologies, Inc.:   DIGITIZING COMPANY
~OTHER INFORMATION
~A   DEPT      SPR        CILD         ASN        ILD       GR   
# ...
  582.0000   -38.8332   134.1698     8.8007     7.6228  -999.2500
  582.5000   -39.0696   134.1709     8.7937     7.6089  -999.2500
  583.0000   -39.0599   134.7136     8.8046     7.5949  -999.2500
  583.5000   -39.0576   135.3166     8.8263     7.5737  -999.2500
  584.0000   -38.8625   135.9193     8.8481     7.5453  -999.2500
  584.5000   -38.5287   136.5221     8.8335     7.5168  -999.2500
  585.0000   -38.2459   137.1250     8.7922     7.4884  -999.2500
  585.5000   -38.2519   137.9725     8.7508     7.4599  -999.2500
  586.0000   -38.2527   138.8464     8.7139     7.4315  -999.2500
  586.5000   -38.2534   139.7203     8.7090     7.4030  -999.2500
  587.0000   -38.2939   140.5963     8.6676     7.3746  -999.2500
  587.5000   -38.3334   141.2086     8.6251     7.3461  -999.2500
  588.0000   -38.0172   141.2093     8.6132     7.3171  -999.2500
  588.5000   -37.6935   141.2095     8.6130     7.2899  -999.2500
  589.0000   -38.0773   141.0075     8.6130     7.3802  -999.2500
  589.5000   -38.6038   138.9728     8.6113     7.4851  -999.2500
  590.0000   -39.1331   136.9347     8.7014     7.5900  -999.2500
  590.5000   -39.6663   134.9007     8.8264     7.6947  -999.2500
  591.0000   -39.8566   132.8667     8.9522     7.7994  -999.2500
  591.5000   -39.8596   130.8327     9.0782     7.9041  -999.2500
  592.0000   -39.8571   128.7988     9.2032     8.0089  -999.2500
  592.5000   -39.9586   126.7648     9.2751     8.1137  -999.2500
  593.0000   -40.0771   124.7308     9.3404     8.2179  -999.2500
  593.5000   -40.1950   124.1206     9.4058     8.2936  -999.2500
  594.0000   -40.2649   124.1206     9.4706     8.2544  -999.2500
  594.5000   -40.0483   124.1206     9.4776     8.2017  -999.2500
  595.0000   -39.7310   124.1206     9.4773     8.1488  -999.2500
  595.5000   -39.4097   124.8744     9.4587     8.0956  -999.2500
  596.0000   -39.0900   125.9512     9.3732     8.0150  -999.2500
  596.5000   -38.8498   127.0280     9.2801     7.9310  -999.2500
  597.0000   -38.8593   128.6432     9.1867     7.8470  -999.2500
  597.5000   -38.6124   130.3183     9.0933     7.7631  -999.2500
  598.0000   -38.2640   131.9933     9.0000     7.6791  -999.2500
  598.5000   -37.9109   133.8955     8.9118     7.5952  -999.2500
  599.0000   -37.5527   136.3277     8.8368     7.5112  -999.2500
  599.5000   -37.4469   138.7598     8.7614     7.4273  -999.2500
  600.0000   -37.5880   141.1920     8.6811     7.3434  -999.2500
  600.5000   -37.7413   143.6242     8.5600     7.2594  -999.2500
  601.0000   -37.8534   146.0564     8.4387     7.1755  -999.2500
  601.5000   -37.8511   147.2362     8.3176     7.0915  -999.2500
  602.0000   -37.8514   147.2362     8.2279     7.0078  -999.2500
  602.5000   -37.8512   147.2362     8.1319     6.9234  -999.2500
  603.0000   -37.8526   147.2362     8.1102     6.8850  -999.2500
  603.5000   -37.9053   147.2362     8.1119     6.8830  -999.2500
  604.0000   -38.0569   146.4236     8.2107     6.9461  -999.2500
  604.5000   -38.0122   144.9319     8.3180     7.0287  -999.2500
  605.0000   -37.7094   143.4402     8.4250     7.1118  -999.2500
  605.5000   -37.4430   141.9484     8.5319     7.1947  -999.2500
  606.0000   -37.4493   140.4567     8.6390     7.2775  -999.2500
  606.5000   -37.4468   138.9650     8.7462     7.3604  -999.2500
  607.0000   -37.2752   137.4733     8.8518     7.4433  -999.2500
  607.5000   -36.7731   135.9816     8.7407     7.5262  -999.2500
  608.0000   -36.5754   134.4898     8.5649     7.6090  -999.2500
  608.5000   -36.9721   132.9981     8.7615     7.6919  -999.2500
  609.0000   -37.0474   131.5064     9.0754     7.7747  -999.2500
  609.5000   -37.0502   130.0147     9.1942     7.8584  -999.2500
  610.0000   -37.1167   129.1457     9.2077     7.8895  -999.2500
  610.5000   -37.3019   129.8375     9.2351     7.8870  -999.2500
  611.0000   -37.4538   130.6801     9.2578     7.8152  -999.2500
  611.5000   -37.3862   131.5226     9.1813     7.7839  -999.2500
  612.0000   -37.0122   132.3652     9.0656     7.7560  -999.2500
  612.5000   -36.6551   133.2077     8.9519     7.7294  -999.2500
  613.0000   -36.8674   134.0502     8.9345     7.7028  -999.2500
  613.5000   -37.2306   134.8928     8.9330     7.6762  -999.2500
  614.0000   -37.4540   135.7353     8.9386     7.6496  -999.2500
  614.5000   -37.2826   136.1809     8.8689     7.6230  -999.2500
  615.0000   -37.0166   136.1824     8.8013     7.5961  -999.2500
  615.5000   -36.7451   136.1814     8.7993     7.5880  -999.2500
  616.0000   -36.6480   136.1822     8.9020     7.5879  -999.2500
  616.5000   -36.6463   136.1809     8.8923     7.5878  -999.2500
  617.0000   -36.6463   136.1809     8.8452     7.5880  -999.2500
  617.5000   -36.6470   134.8430     8.8391     7.5877  -999.2500
  618.0000   -36.6436   132.9372     8.9433     7.6609  -999.2500
  618.5000   -36.8397   131.0951     9.1191     7.8031  -999.2500
  619.0000   -37.1317   129.2281     9.2940     7.9451  -999.2500
  619.5000   -37.4268   127.3637     9.4691     8.0874  -999.2500
  620.0000   -37.7221   125.3817     9.6426     8.2296  -999.2500
  620.5000   -38.0171   123.1657     9.7895     8.3718  -999.2500
  621.0000   -38.3124   120.9497     9.8780     8.5139  -999.2500
  621.5000   -38.6073   118.7337    10.0123     8.6561  -999.2500
  622.0000   -38.9027   116.5177    10.1519     8.7983  -999.2500
  622.5000   -39.0614   114.3017    10.2917     8.9405  -999.2500
  623.0000   -38.8952   112.0856    10.4333     9.0826  -999.2500
  623.5000   -38.7106   109.8696    10.5251     9.2247  -999.2500
  624.0000   -38.6601   107.6536    10.6060     9.3665  -999.2500
  624.5000   -38.4777   105.4376    10.6887     9.5496  -999.2500
  625.0000   -38.4409   103.2216    10.7381     9.7427  -999.2500
  625.5000   -38.2005   101.0056    10.9349     9.9361  -999.2500
  626.0000   -37.9650    98.7896    11.1285    10.1294  -999.2500
  626.5000   -37.9027    96.5735    11.3218    10.3230  -999.2500
  627.0000   -38.0160    94.3575    11.5152    10.5170  -999.2500
  627.5000   -37.8390    93.9698    11.7086    10.6993  -999.2500
  628.0000   -38.0379    93.9698    11.9017    10.7046  -999.2500
  628.5000   -38.2387    93.9698    12.0071    10.7037  -999.2500
  629.0000   -38.4418    93.9698    11.9119    10.7039  -999.2500
  629.5000   -38.6455    93.9698    11.8167    10.7062  -999.2500
  630.0000   -38.6560    93.9698    11.7217    10.6077  -999.2500
  630.5000   -38.6538    94.9648    11.6270    10.4955  -999.2500
  631.0000   -38.7049    96.4677    11.5322    10.3828  -999.2500
  631.5000   -38.7725    97.9707    11.4374    10.2705  -999.2500
  632.0000   -38.8416    99.4736    11.3427    10.1581  -999.2500
  632.5000   -38.8118   100.9765    11.2480    10.0456  -999.2500
  633.0000   -38.5143   102.4794    11.1499     9.9326  -999.2500
  633.5000   -38.4547   103.9823    11.0220     9.8547  -999.2500
  634.0000   -38.4556   105.0251    11.0032     9.7971  -999.2500
  634.5000   -38.4433   105.0251    11.0044     9.7988  -999.2500
  635.0000   -38.0257   104.2942    11.0040     9.7986  -999.2500
  635.5000   -37.5819   101.9964    11.0057     9.9105  -999.2500
  636.0000   -37.1307    99.6985    11.0865    10.1232  -999.2500
  636.5000   -37.0448    97.4006    11.5513    10.3361  -999.2500
  637.0000   -37.2124    94.9749    12.0291    10.5567  -999.2500
  637.5000   -37.2580    95.2648    12.4984    10.4762  -999.2500
  638.0000   -36.8722    97.2091    12.7444    10.2502  -999.2500
  638.5000   -36.4013    99.1535    11.9803    10.0986  -999.2500
  639.0000   -35.9286   100.0000    12.2945    10.1014  -999.2500
  639.5000   -36.1315   100.4372    12.5500    10.1051  -999.2500
  640.0000   -36.8376   102.9648    11.7271     9.9043  -999.2500
  640.5000   -37.2525   105.4925    10.9200     9.6521  -999.2500
  641.0000   -37.2688   108.0201    10.6531     9.3990  -999.2500
  641.5000   -37.3732   110.5477    10.5002     9.1648  -999.2500
  642.0000   -37.4555   113.0754    10.5183     9.0202  -999.2500
  642.5000   -37.2812   115.6030    10.5273     8.9955  -999.2500
