~VERSION INFORMATION
 VERS.                2.0:   CWLS LOG ASCII STANDARD - VERSION 2.0
 WRAP.                 NO:   ONE LINE PER DEPTH STEP
~WELL INFORMATION
#MNEM.UNIT      DATA TYPE    INFORMATION
#----------   ------------   ------------------------------
 STRT.F           30.0000:   START DEPTH
 STOP.F          732.0000:   STOP DEPTH
 STEP.F            0.5000:   STEP LENGTH
 NULL.          -999.2500:   NO VALUE
 COMP. FENIX & SCISSON INC:   COMPANY
 WELL.        31-S #31-14:   WELL
 FLD .             TEAPOT:   FIELD
 LOC .      S14 T38N R78W:   LOCATION
 CNTY.            NATRONA:   COUNTY
 STAT.            WYOMING:   STATE
 CTRY. UNITED STATES OF AMERICA:   COUNTRY
 SRVC.              Welex:   SERVICE COMPANY
 DATE.        16-FEB-1977:   LOGDATE
 API .       490251027300:   API NUMBER
~CURVE INFORMATION
#MNEM.UNIT       API CODE    CURVE DESCRIPTION
#----------   ------------   ------------------------------
 DEPT.F                  :   
 CALD.IN     45 280 60 00:   CALIPER FROM DENSITY LOG
 CORR.G/C3   45 356 01 00:   DENSITY CORRECTION
 DPHI.DEC    45 890 12 00:   DENSITY POROSITY SANDSTONE
 GRD .GAPI   45 310 01 00:   GAMMA RAY FROM DENSITY LOG
 RHOB.G/C3   45 350 01 00:   BULK DENSITY
 GURD.OHMM   07 270 05 00:   SHALLOW SHORT GUARD RESISTIVITY
 ILM .OHMM   07 120 44 00:   INDUCTION LOG MEDIUM
 ILD .OHMM   07 120 46 00:   INDUCTION LOG DEEP
 SPR .MV     07 010 01 00:   SPONTANEOUS POTENTIAL
~PARAMETER INFORMATION
#MNEM.UNIT          VALUE    DESCRIPTION
#----------   ------------   ------------------------------
 PD  .                 GL:   PERMANENT DATUM
 EPD .F              5186:   ELEVATION PERMANENT DATUM
 LMF .                 GL:   LOG MEASURED FROM
 DMF .                 GL:   DRILLING MEASURED FROM
 EKB .F              5195:   KELLING BUSHING
 EGL .F              5186:   GROUND LEVEL
 DATE.        16-FEB-1977:   RUN DATE
 RUN .                  1:   RUN NUMBER
 DD  .F               740:   DEPTH DRILLER
 DL  .F               736:   DEPTH LOGGER
 BLI .F               734:   BOTTOM LOG INTERVAL
 TLI .F                30:   TOP LOG INTERVAL
 CS  .IN            8.625:   CASING SIZE
 CBD .F                40:   CASING BOTTOM DRILLER
 CBL .F                44:   CASING BOTTOM LOGGER
 BS  .IN            7.875:   BIT SIZE
 BSD .F               740:   BIT SIZE AT DEPTH
 DFT .   OIL EMULSION MUD:   DRILLING FLUID TYPE
 DFD .                8.3:   DRILLING FLUID DENSITY
 DFV .                 48:   DRILLING FLUID VISCOSITY
 DFPH.               10.5:   DRILLING FLUID PH
 DFL .                7.5:   DRILLING FLUID LOSS
 MSS .           FLOWLINE:   MUD SAMPLE SOURCE
 RMS .OHMM           0.80:   RESISTIVITY MUD SAMPLE
 MST .F                64:   MUD SAMPLE TEMPERATURE
 RMF .OHMM           0.68:   RESISTIVITY MUD FILTRATE SAMPLE
 MFST.F                64:   MUD FILTRATE SAMPLE TEMPERATURE
 RMC .OHMM           1.01:   RESISTIVITY MUD CAKE
 MCST.F                63:   MUD CAKE SAMPLE TEMPERATURE
 MFSS.               MEAS:   MUD FILTRATE SAMPLE SOURCE
 MCSS.               MEAS:   MUD CAKE SAMPLE SOURCE
 RMB .OHMM           0.74:   RESISTIVITY MUD AT BHT
 BHT .F                69:   BOTTOM HOLE TEMPERATURE
 TCS .HRS               5:   TIME CURCULATED STOPPED
 MRT .F                69:   MAXIMUM RECORDED TEMPERATURE
 LUN .               8611:   LOGGING UNIT NUMBER
 LUL .           GILLETTE:   LOGGING UNIT LOCATION
 ENGI.           D.LAWSON:   RECORDING ENGINEER
 WITN.             K.JAPP:   WITNESSED BY
 CLNT.            A2DTECH:   CLIENT CODE
 ORIG.         2.5" PRINT:   ORIGIN OF DATA
 UWI .       490251027300:   UNIQUE WELL ID
 DICO. A2D Technologies, Inc.:   DIGITIZING COMPANY
~OTHER INFORMATION
~A   DEPT       CALD      CORR      DPHI         GRD        RHOB     GURD        ILM        ILD        SPR   
# ...
  541.0000     8.0985     0.1495     0.0745   135.8131     2.5227   839.4305     7.1372     6.0027   -49.8361
  541.5000     8.1271     0.1495     0.0794   134.5653     2.5239   839.4156     7.2473     6.1350   -49.5323
  542.0000     8.1258     0.1465     0.0808   133.8516     2.5239   840.1756     7.2925     6.2569   -49.5252
  542.5000     8.1246     0.1435     0.0759   133.9985     2.5239   847.4825     7.2925     6.3442   -49.5178
  543.0000     8.1234     0.1435     0.0772   135.9255     2.5224   858.6140     7.2925     6.4327   -49.4451
  543.5000     8.1221     0.1405     0.0831   138.0013     2.5194   860.2183     7.1926     6.4336   -49.2062
  544.0000     8.1507     0.1394     0.0921   139.7803     2.5149   851.2600     7.0834     6.2444   -49.0722
  544.5000     8.1495     0.1361     0.1058   141.8560     2.4985   830.3835     6.9759     5.7994   -48.8947
  545.0000     8.1780     0.1315     0.1159   142.7448     2.4733   794.6053     6.7443     5.4144   -48.5892
  545.5000     8.1769     0.1255     0.1207   141.0515     2.4499   752.8665     6.4927     5.0417   -48.4738
  546.0000     8.1757     0.1225     0.1159   135.9171     2.4406   731.9901     6.1850     4.8253   -48.2784
  546.5000     8.1827     0.1195     0.0955   132.6516     2.4564   762.2596     6.0176     4.7606   -48.2713
  547.0000     8.2032     0.1165     0.0823   135.3799     2.4823   822.6614     5.7748     4.8939   -48.2502
  547.5000     8.2018     0.1166     0.0798   136.5059     2.5061   867.0779     5.7748     5.1708   -47.9599
  548.0000     8.2004     0.1202     0.0816   134.4270     2.5139   856.5085     5.8578     5.5388   -47.9525
  548.5000     8.2291     0.1297     0.0806   130.8648     2.5075   805.0493     6.2117     5.8541   -47.9451
  549.0000     8.2278     0.1353     0.0692   128.1927     2.5134   777.1520     6.5832     6.0371   -47.9377
  549.5000     8.2266     0.1385     0.0623   128.4881     2.5357   824.2736     6.9769     6.3098   -47.9303
  550.0000     8.2255     0.1403     0.0614   129.3769     2.5490   845.1218     7.2428     6.5947   -47.9217
  550.5000     8.2243     0.1403     0.0614   129.9985     2.5442   851.0682     7.4955     6.9878   -47.6179
  551.0000     8.2231     0.1433     0.0620   131.2730     2.5361   857.0146     7.5991     7.4042   -47.3141
  551.5000     8.1923     0.1432     0.0638   133.2005     2.5244   856.9996     7.7041     7.7075   -47.0103
  552.0000     8.1911     0.1432     0.0674   135.7803     2.5208   854.0043     7.7041     7.9230   -46.6825
  552.5000     8.1899     0.1402     0.0735   137.3813     2.5318   851.0091     7.8187     8.1446   -46.3477
  553.0000     8.1885     0.1370     0.0775   137.0828     2.5288   850.9942     8.0491     8.2583   -45.7161
  553.5000     8.1874     0.1342     0.0719   136.4879     2.5163   852.5339     8.2862     8.3735   -45.0846
  554.0000     8.1566     0.1312     0.0729   135.9525     2.5103   859.9027     8.5802     8.3932   -44.4530
  554.5000     8.1554     0.1312     0.0809   135.2982     2.5059   862.8708     8.9030     8.4916   -43.9971
  555.0000     8.1533     0.1282     0.0859   134.4065     2.5059   862.8546     9.3364     8.4927   -43.3966
  555.5000     8.1234     0.1282     0.0829   133.4258     2.5088   856.8798     9.5963     8.6113   -43.0928
  556.0000     8.1223     0.1282     0.0788   131.5549     2.5165   856.8654     9.7289     8.6125   -42.4923
  556.5000     8.1211     0.1311     0.0758   130.0698     2.5224   856.8505     9.8634     8.6138   -42.1884
  557.0000     8.1199     0.1311     0.0741   130.4242     2.5237   856.8356     9.7289     8.6150   -41.8843
  557.5000     8.1187     0.1311     0.0764   132.3220     2.5237   855.9016     9.5668     8.6161   -41.5801
  558.0000     8.1470     0.1311     0.0795   132.0235     2.5222   852.6136     9.3364     8.4997   -41.2760
  558.5000     8.1459     0.1311     0.0826   129.6482     2.5218   850.8303     9.5250     8.3747   -40.9718
  559.0000     8.1447     0.1311     0.0855   125.4924     2.5192   868.6945     9.8055     8.2500   -40.6677
  559.5000     8.1733     0.1340     0.0869   121.9302     2.5147   886.5623     9.9997     8.0488   -40.3622
  560.0000     8.1721     0.1340     0.0878   120.7418     2.5073   892.5087     9.7289     7.8970   -40.0584
  560.5000     8.1659     0.1355     0.0866   121.3932     2.5013   886.5339     9.4655     7.6733   -39.7546
  561.0000     8.1401     0.1370     0.0800   123.2909     2.5117   886.5197     9.2054     7.3148   -39.4508
  561.5000     8.1389     0.1400     0.0664   125.8412     2.5241   886.7880     8.9420     7.0206   -39.1469
  562.0000     8.1377     0.1399     0.0736   128.3324     2.5357   893.6030     8.6863     6.7382   -38.8427
  562.5000     8.1363     0.1429     0.0807   130.3783     2.5258   898.3984     8.4377     6.4672   -38.7611
  563.0000     8.1351     0.1459     0.0873   132.8988     2.5052   893.0757     8.0846     6.2055   -38.2344
  563.5000     8.1340     0.1429     0.0974   135.2713     2.4915   873.2075     7.5991     6.0297   -37.9303
  564.0000     8.1626     0.1394     0.1107   137.3470     2.4705   653.9250     7.1931     5.8771   -37.6261
  564.5000     8.1614     0.1331     0.1269   138.6662     2.4374   639.0482     6.8088     5.8515   -37.3208
  565.0000     8.1602     0.1239     0.1371   137.6410     2.4091   681.3564     6.6244     5.7986   -37.0170
  565.5000     8.1591     0.1233     0.1304   134.4342     2.4023   835.6185     6.5341     5.8796   -36.4165
  566.0000     8.1579     0.1295     0.1151   129.2702     2.4790   898.2895     6.6244     6.1277   -36.1127
  566.5000     8.1567     0.1368     0.0993   123.0668     2.5131   907.2163     6.7711     6.3862   -35.7858
  567.0000     8.1555     0.1368     0.0713   119.1779     2.5341   907.2021     7.2752     6.6555   -35.4510
  567.5000     8.1244     0.1398     0.0630   118.6424     2.5384   910.1682     7.7668     7.2278   -34.8195
  568.0000     8.1233     0.1368     0.0630   119.8276     2.5365   910.1536     8.7171     7.7715   -34.4847
  568.5000     8.1222     0.1337     0.0648   121.0131     2.5334   907.1585     9.5963     8.8192   -33.9985
  569.0000     8.1210     0.1308     0.0684   121.9019     2.5288   907.1436    10.4201     9.4190   -33.3962
  569.5000     8.1199     0.1337     0.0739   123.3842     2.5235   904.1483    11.1603     9.7454   -32.7957
  570.0000     8.1187     0.1337     0.0767   124.8665     2.5175   904.1334    11.8065    10.1196   -32.1951
  570.5000     8.1245     0.1367     0.0759   126.0520     2.5146   901.1382    12.1184    10.2754   -31.5946
  571.0000     8.1462     0.1411     0.0719   125.3384     2.5160   898.1404    12.2859    10.4805   -31.2889
  571.5000     8.1151     0.1516     0.0663   119.1344     2.5264   898.1262    12.4557    10.4819   -30.9540
  572.0000     8.0843     0.1575     0.0617   114.1189     2.5457   898.1119    12.5521    10.6282   -30.3541
  572.5000     8.0829     0.1635     0.0538   108.9837     2.5606   898.0978    13.1587    10.6295   -29.9876
  573.0000     8.0818     0.1695     0.0626   104.0858     2.5574   904.1135    14.0935    10.7908   -29.3561
  573.5000     8.0510     0.1754     0.0715    99.0398     2.5471   910.7150    15.0947    10.9571   -28.7246
  574.0000     8.0498     0.1784     0.0804    93.6972     2.5186   924.5168    16.8608    11.4355   -28.2776
  574.5000     8.0487     0.1784     0.0899    88.6513     2.4975   945.5903    18.3616    11.8372   -27.6771
  575.0000     8.0178     0.1784     0.0982    83.9021     2.4736   979.4855    19.7983    12.3716   -27.0766
  575.5000     7.9869     0.1783     0.1086    78.6781     2.4476  1041.6005    21.3062    13.4346   -26.7728
  576.0000     7.9561     0.1783     0.1172    75.4125     2.4268  1124.4961    22.4648    14.1947   -26.1721
  576.5000     7.9111     0.1753     0.1316    74.6990     2.4060  1097.6591    23.1006    14.9978   -25.8254
  577.0000     7.8348     0.1723     0.1434    78.1393     2.3911  1073.8022    23.1006    15.8464   -25.5638
