~VERSION INFORMATION
 VERS.                2.0:   CWLS LOG ASCII STANDARD - VERSION 2.0
 WRAP.                 NO:   ONE LINE PER DEPTH STEP
~WELL INFORMATION
#MNEM.UNIT      DATA TYPE    INFORMATION
#----------   ------------   ------------------------------
 STRT.F           20.0000:   START DEPTH
 STOP.F          677.0000:   STOP DEPTH
 STEP.F            0.5000:   STEP LENGTH
 NULL.          -999.2500:   NO VALUE
 COMP. FENIX & SCISSON INC:   COMPANY
 WELL. 11 WI NPR 3 #36-26 SX:   WELL
 FLD .             TEAPOT:   FIELD
 LOC .      S11 T38N R78W:   LOCATION
 CNTY.            NATRONA:   COUNTY
 STAT.            WYOMING:   STATE
 CTRY. UNITED STATES OF AMERICA:   COUNTRY
 SRVC.      Dresser Atlas:   SERVICE COMPANY
 DATE.        06-AUG-1980:   LOGDATE
 API .       490251084100:   API NUMBER
~CURVE INFORMATION
#MNEM.UNIT       API CODE    CURVE DESCRIPTION
#----------   ------------   ------------------------------
 DEPT.F                  :   
 SPR .MV     07 010 01 00:   SPONTANEOUS POTENTIAL
 SFL .OHMM   07 220 01 00:   SHALLOW FOCUSED LOG RESISTIVITY
 ILD .OHMM   07 120 46 00:   INDUCTION LOG DEEP
 ILM .OHMM   07 120 44 00:   INDUCTION LOG MEDIUM
 GRD .GAPI   45 310 01 00:   GAMMA RAY FROM DENSITY LOG
 RHOB.G/C3   45 350 01 00:   BULK DENSITY
 CALD.IN     45 280 60 00:   CALIPER
 CORR.G/C3   45 356 01 00:   DENSITY CORRECTION
 DPOR.DEC    45 890 12 00:   DENSITY POROSITY SANDSTONE
 NPOR.DEC    42 890 03 00:   NEUTRON POROSITY SANDSTONE
~PARAMETER INFORMATION
#MNEM.UNIT          VALUE    DESCRIPTION
#----------   ------------   ------------------------------
 PD  .                 GL:   PERMANENT DATUM
 EPD .F              5191:   ELEVATION PERMANENT DATUM
 LMF .                 KB:   LOG MEASURED FROM
 DAPD.F                 5:   FEET ABOVE PERMANENT DATUM
 DMF .                 KB:   DRILLING MEASURED FROM
 EKB .F              5196:   KELLING BUSHING
 EGL .F              5191:   GROUND LEVEL
 DATE.             8-6-80:   RUN DATE
 RUN .                  1:   RUN NUMBER
 DD  .F               680:   DEPTH DRILLER
 DL  .F               679:   DEPTH LOGGER
 BLI .F               676:   BOTTOM LOG INTERVAL
 TLI .F                20:   TOP LOG INTERVAL
 BS  .IN            7.875:   BIT SIZE
 BSD .F               680:   BIT SIZE AT DEPTH
 DFT .                KCL:   DRILLING FLUID TYPE
 DFD .                9.4:   DRILLING FLUID DENSITY
 DFV .                 45:   DRILLING FLUID VISCOSITY
 DFPH.                 12:   DRILLING FLUID PH
 MSS .           FLOWLINE:   MUD SAMPLE SOURCE
 RMS .OHMM            .11:   RESISTIVITY MUD SAMPLE
 MST .F                65:   MUD SAMPLE TEMPERATURE
 RMF .OHMM             .1:   RESISTIVITY MUD FILTRATE SAMPLE
 MFST.F                60:   MUD FILTRATE SAMPLE TEMPERATURE
 RMC .OHMM            .17:   RESISTIVITY MUD CAKE
 MCST.F                65:   MUD CAKE SAMPLE TEMPERATURE
 MFSS.               MEAS:   MUD FILTRATE SAMPLE SOURCE
 MCSS.              CHART:   MUD CAKE SAMPLE SOURCE
 TCS .HRS              .5:   TIME CURCULATED STOPPED
 MRT .F               100:   MAXIMUM RECORDED TEMPERATURE
 LUN .               6240:   LOGGING UNIT NUMBER
 LUL .               RVTN:   LOGGING UNIT LOCATION
 ENGI.            K. RALL:   RECORDING ENGINEER
 WITN.     AMAND/MCINTYRE:   WITNESSED BY
 CLNT.            A2DTECH:   CLIENT CODE
 ORIG.        2" 5" PRINT:   ORIGIN OF DATA
 UWI .       490251084100:   UNIQUE WELL ID
 DICO. A2D Technologies, Inc.:   DIGITIZING COMPANY
~OTHER INFORMATION
~A   DEPT       SPR       SFL         ILD         ILM      GRD       RHOB       CALD       CORR       DPOR       NPOR   
   20.0000    -1.0804  -999.2500    14.7626     6.9421  -999.2500  -999.2500  -999.2500  -999.2500  -999.2500  -999.2500
   20.5000    -3.1124  -999.2500    13.4480     6.7419  -999.2500  -999.2500  -999.2500  -999.2500  -999.2500  -999.2500
   21.0000    -6.0392  -999.2500    11.8554     6.1917  -999.2500  -999.2500  -999.2500  -999.2500  -999.2500  -999.2500
   21.5000    -8.7819  -999.2500    10.4067     5.6699  -999.2500  -999.2500  -999.2500  -999.2500  -999.2500  -999.2500
   22.0000   -11.5170  -999.2500     9.4050     5.3248  -999.2500  -999.2500  -999.2500  -999.2500  -999.2500  -999.2500
   22.5000   -15.1617  -999.2500     8.6463     4.9846  -999.2500  -999.2500  -999.2500  -999.2500  -999.2500  -999.2500
   23.0000   -15.0455  -999.2500     8.1925     4.9390  -999.2500  -999.2500  -999.2500  -999.2500  -999.2500  -999.2500
   23.5000   -15.0862  -999.2500     8.1925     4.9848  -999.2500  -999.2500  -999.2500  -999.2500  -999.2500  -999.2500
   24.0000   -16.4236  -999.2500     8.1925     5.0313  -999.2500  -999.2500  -999.2500  -999.2500  -999.2500  -999.2500
   24.5000   -21.1899  -999.2500     8.2395     5.0782  -999.2500  -999.2500  -999.2500  -999.2500  -999.2500  -999.2500
   25.0000   -27.3558  -999.2500     8.3164     5.1256  -999.2500  -999.2500  -999.2500  -999.2500  -999.2500  -999.2500
   25.5000   -29.3232  -999.2500     8.3940     5.1734  -999.2500  -999.2500  -999.2500  -999.2500  -999.2500  -999.2500
   26.0000   -28.4413  -999.2500     8.4723     5.2217  -999.2500  -999.2500  -999.2500  -999.2500  -999.2500  -999.2500
   26.5000   -27.4047  -999.2500     8.5514     5.2676  -999.2500  -999.2500  -999.2500  -999.2500  -999.2500  -999.2500
   27.0000   -26.3680  -999.2500     8.6312     5.2063  -999.2500  -999.2500  -999.2500  -999.2500  -999.2500  -999.2500
   27.5000   -25.3193  -999.2500     8.7077     5.1490  -999.2500  -999.2500  -999.2500  -999.2500  -999.2500  -999.2500
   28.0000   -24.7042  -999.2500     8.9140     5.0924  -999.2500  -999.2500  -999.2500  -999.2500  -999.2500  -999.2500
   28.5000   -28.2356  -999.2500    10.2717     5.0364  -999.2500  -999.2500  -999.2500  -999.2500  -999.2500  -999.2500
   29.0000   -31.2503  -999.2500    12.5201     5.0307  -999.2500  -999.2500  -999.2500  -999.2500  -999.2500  -999.2500
   29.5000   -32.9539  -999.2500    15.0367     5.0307  -999.2500  -999.2500  -999.2500  -999.2500  -999.2500  -999.2500
   30.0000   -34.6007  -999.2500    15.0367     5.0307  -999.2500  -999.2500  -999.2500  -999.2500  -999.2500  -999.2500
   30.5000   -36.2629  -999.2500    13.7956     5.0342  -999.2500  -999.2500  -999.2500  -999.2500  -999.2500  -999.2500
   31.0000   -36.8423  -999.2500    10.6366     3.6362  -999.2500  -999.2500  -999.2500  -999.2500  -999.2500  -999.2500
   31.5000   -36.8413  -999.2500     8.2010     2.7495  -999.2500  -999.2500  -999.2500  -999.2500  -999.2500  -999.2500
   32.0000   -36.6271  -999.2500     6.7569     2.0821  -999.2500  -999.2500  -999.2500  -999.2500  -999.2500  -999.2500
   32.5000   -36.4174   122.9791     6.2042     1.8284  -999.2500  -999.2500  -999.2500  -999.2500  -999.2500  -999.2500
   33.0000   -36.2102    45.6427     5.6937     1.9658  -999.2500  -999.2500  -999.2500  -999.2500  -999.2500  -999.2500
   33.5000   -36.0235    39.1506     5.2193     2.0914  -999.2500  -999.2500  -999.2500  -999.2500  -999.2500  -999.2500
   34.0000   -36.6679    52.5546     4.6737     2.2249  -999.2500  -999.2500  -999.2500  -999.2500  -999.2500  -999.2500
   34.5000   -37.4519    48.2245     3.9726     2.3657  -999.2500  -999.2500  -999.2500  -999.2500  -999.2500  -999.2500
   35.0000   -38.2376    39.9068     3.6869     2.3675  -999.2500  -999.2500  -999.2500  -999.2500  -999.2500  -999.2500
   35.5000   -39.0253    33.0238     3.4925     2.2295  -999.2500  -999.2500    14.6459     0.0318  -999.2500  -999.2500
   36.0000   -39.8323    30.0975     3.3869     2.0766    97.5153  -999.2500    14.9290     0.0361     0.5141     0.4542
   36.5000   -40.4234    28.5439     3.4496     2.0231    99.0376  -999.2500    15.0773     0.0404     0.4828     0.4504
   37.0000   -41.0234    27.6931     3.5112     2.4724   100.3666  -999.2500    14.9964     0.0530     0.4515     0.4507
   37.5000   -41.4477    26.8474     3.5738     3.1318   100.4158  -999.2500    14.5967     0.0722     0.4430     0.4631
   38.0000   -41.7598    26.8474     3.6456     3.4182    99.2101  -999.2500    14.0140     0.0718     0.4647     0.4668
   38.5000   -42.0689    28.4816     3.6392     3.1769    96.1007  -999.2500    12.9192     0.0625     0.4845     0.4478
   39.0000   -42.3826    29.4349     3.6318     2.8832    91.0546  -999.2500    12.1400     0.0567     0.5042     0.4284
   39.5000   -42.4728    28.4240     3.6245     2.6137    89.3509  -999.2500    12.1066     0.0664     0.5129     0.4037
   40.0000   -42.4607    26.0887     3.6178     2.3692    89.3290  -999.2500    12.1384     0.0695     0.4853     0.3785
   40.5000   -41.8601    23.9453     3.5435     2.1707    90.1950  -999.2500    12.2265     0.0424     0.4543     0.3641
   41.0000   -41.2123    22.7496     3.3351     2.0090    90.9290  -999.2500    12.3145     0.0234     0.4362     0.3730
   41.5000   -40.5656    23.1843     3.1389     1.9681    91.2833  -999.2500    12.4058     0.0188     0.4245     0.4106
   42.0000   -39.9228    23.8207     2.9544     1.9681    93.0981  -999.2500    12.5613     0.0156     0.4222     0.4659
   42.5000   -39.4419    21.2933     2.7808     1.7951    92.6113  -999.2500    12.7198     0.0236     0.4409     0.4802
   43.0000   -39.4227    18.3440     2.7158     1.9200    90.1498  -999.2500    12.9429     0.0316     0.4713     0.4419
   43.5000   -39.3956    15.8033     2.6918     2.3043    86.3529  -999.2500    13.1180     0.0396     0.5095     0.4084
   44.0000   -39.3688    13.5893     2.6505     2.7654    85.0024  -999.2500    12.9939     0.0413     0.5580     0.4113
   44.5000   -39.3416    13.4649     2.5468     3.1140    83.9630  -999.2500    12.4418     0.0307     0.5868     0.4140
   45.0000   -39.3145    16.7505     2.4312     2.6917    83.7234  -999.2500    11.7824     0.0122     0.5566     0.3878
   45.5000   -39.2869    17.5827     2.3209     2.3173    84.9935  -999.2500    11.3231    -0.0161     0.5211     0.3624
   46.0000   -39.2567    12.7475     2.1974     2.0046    86.3128  -999.2500    10.9108    -0.0331     0.4709     0.3522
   46.5000   -39.3703     7.7249     2.2362     1.8623    88.7227     2.0080    10.5139    -0.0222     0.4137     0.3726
   47.0000   -39.5000     5.2847     2.2996     1.8453    89.6842     2.0113    10.1187    -0.0155     0.3953     0.3792
   47.5000   -39.6407     4.4599     2.3648     1.8915    90.9960     2.0015     9.7545    -0.0096     0.3993     0.3789
   48.0000   -39.3627     4.0321     2.4316     1.9988    93.5086     2.0015     9.6298    -0.0025     0.4044     0.3896
   48.5000   -38.9010     3.9584     2.5134     2.1121    95.1489     2.0015     9.5315     0.0111     0.4169     0.4212
   49.0000   -38.0986     3.9579     2.6033     2.2802    97.1341     2.0015     9.5403     0.0249     0.4273     0.4331
   49.5000   -37.3077     4.0712     2.6931     2.4748   100.0497     2.0014     9.5463     0.0351     0.4275     0.4335
   50.0000   -36.5170     4.3697     3.0361     2.6697   100.1281     2.0016     9.5526     0.0445     0.4031     0.3953
   50.5000   -35.6460     4.6628     3.3960     2.8799    95.8772     2.0185     9.5217     0.0489     0.3879     0.3804
   51.0000   -34.3917     4.9756     3.7960     3.1066    94.3017     2.0376     9.4979     0.0412     0.3756     0.3926
   51.5000   -33.1237     5.1620     4.2431     3.3513    94.9105     2.0565     9.5064     0.0339     0.3694     0.4000
   52.0000   -31.8580     5.3543     4.7424     3.5907    95.2411     2.0638     9.5114     0.0291     0.3645     0.3861
   52.5000   -30.7076     5.5665     5.2967     3.6122    93.8370     2.0704     9.6824     0.0330     0.3562     0.3629
   53.0000   -30.2152     5.5665     5.9158     3.4088    93.3675     2.0829     9.9503     0.0391     0.3405     0.3403
