~VERSION INFORMATION
 VERS.                2.0:   CWLS LOG ASCII STANDARD - VERSION 2.0
 WRAP.                 NO:   ONE LINE PER DEPTH STEP
~WELL INFORMATION
#MNEM.UNIT      DATA TYPE    INFORMATION
#----------   ------------   ------------------------------
 STRT.F           34.0000:   START DEPTH
 STOP.F          517.0000:   STOP DEPTH
 STEP.F            0.5000:   STEP LENGTH
 NULL.          -999.2500:   NO VALUE
 COMP.    FENIX & SCISSON:   COMPANY
 WELL.       NPR #77-S-10:   WELL
 FLD .             TEAPOT:   FIELD
 LOC .      S10 T38N R78W:   LOCATION
 CNTY.            NATRONA:   COUNTY
 STAT.            WYOMING:   STATE
 CTRY. UNITED STATES OF AMERICA:   COUNTRY
 SRVC.              Welex:   SERVICE COMPANY
 DATE.        16-APR-1977:   LOGDATE
 API .       490251033600:   API NUMBER
~CURVE INFORMATION
#MNEM.UNIT       API CODE    CURVE DESCRIPTION
#----------   ------------   ------------------------------
 DEPT.F                  :   
 SPR .MV     07 010 01 00:   SPONTANEOUS POTENTIAL
 ILD .OHMM   07 120 46 00:   INDUCTION LOG DEEP
 ILM .OHMM   07 120 44 00:   INDUCTION LOG MEDIUM
 SGRD.OHMM   07 221 05 00:   SHALLOW SHORT GUARD RESISTIVITY
 CALD.IN     45 280 60 00:   CALIPER FROM DENSITY LOG
 GRD .GAPI   45 310 01 00:   GAMMA RAY FROM DENSITY LOG
 CORR.G/C3   45 356 01 00:   DENSITY CORRECTION
 RHOB.G/C3   45 350 01 00:   BULK DENSITY
 DPHI.DEC    45 890 12 00:   DENSITY POROSITY SANDSTONE
~PARAMETER INFORMATION
#MNEM.UNIT          VALUE    DESCRIPTION
#----------   ------------   ------------------------------
 PD  .                 GL:   PERMANENT DATUM
 EPD .F              5210:   ELEVATION PERMANENT DATUM
 LMF .                 GL:   LOG MEASURED FROM
 DMF .                 GL:   DRILLING MEASURED FROM
 EGL .F              5210:   GROUND LEVEL
 DATE.        16-APR-1977:   RUN DATE
 RUN .                  1:   RUN NUMBER
 DD  .F               525:   DEPTH DRILLER
 DL  .F               519:   DEPTH LOGGER
 BLI .F               517:   BOTTOM LOG INTERVAL
 TLI .F                30:   TOP LOG INTERVAL
 CS  .IN            8.625:   CASING SIZE
 BS  .IN            7.875:   BIT SIZE
 BSD .F               525:   BIT SIZE AT DEPTH
 DFT .            KCL MUD:   DRILLING FLUID TYPE
 DFD .                8.9:   DRILLING FLUID DENSITY
 BHT .F                61:   BOTTOM HOLE TEMPERATURE
 TCS .HRS            0300:   TIME CURCULATED STOPPED
 MRT .F                61:   MAXIMUM RECORDED TEMPERATURE
 ENGI.               DOAK:   RECORDING ENGINEER
 WITN.      B. HARRINGTON:   WITNESSED BY
 CLNT.            A2DTECH:   CLIENT CODE
 ORIG.           5" PRINT:   ORIGIN OF DATA
 UWI .       490251033600:   UNIQUE WELL ID
 DICO. A2D Technologies, Inc.:   DIGITIZING COMPANY
~OTHER INFORMATION
~A   DEPT      SPR        ILD        ILM       SGRD       CALD        GRD       CORR       RHOB       DPHI   
# ...
  435.5000   -39.5207    13.0289    17.2296    19.7400     7.7694    81.6458     0.0140     2.3613     0.1692
  436.0000   -39.5119    12.9493    16.8842    19.7534     7.7701    82.9925     0.0140     2.3705     0.1662
  436.5000   -39.6502    12.8661    17.1321    19.3622     7.7710    83.1434     0.0155     2.3822     0.1605
  437.0000   -39.6412    12.6976    17.2588    18.7189     7.7566    82.2484     0.0170     2.3905     0.1551
  437.5000   -39.6324    12.6180    16.9180    18.2221     7.7575    81.2035     0.0154     2.3949     0.1512
  438.0000   -39.6218    12.4527    16.2415    17.7385     7.7583    79.2617     0.0139     2.3927     0.1527
  438.5000   -39.6130    12.3747    17.2934    17.8734     7.7590    78.0673     0.0094     2.3889     0.1545
  439.0000   -39.6059    12.2145    18.5410    18.7698     7.7597    79.1151     0.0094     2.3874     0.1551
  439.5000   -39.7448    12.0526    18.2980    19.2430     7.7606    81.1345     0.0109     2.3912     0.1543
  440.0000   -39.7338    11.9787    18.3093    19.3225     7.7613    82.9903     0.0139     2.3957     0.1504
  440.5000   -39.7251    11.9037    18.1917    19.3356     7.7469    84.6822     0.0184     2.4024     0.1456
  441.0000   -40.0126    11.8292    17.9533    19.4825     7.7478    85.3989     0.0199     2.4091     0.1402
  441.5000   -40.0017    11.8365    17.9671    19.3635     7.7485    83.7564     0.0228     2.4029     0.1405
  442.0000   -40.1422    11.8439    17.9782    19.3767     7.7493    83.3094     0.0243     2.3979     0.1444
  442.5000   -40.1324    11.9333    17.9893    19.1243     7.7501    85.2541     0.0213     2.3979     0.1489
  443.0000   -40.2718    12.0248    17.8762    18.7456     7.7658    84.2092     0.0198     2.4009     0.1474
  443.5000   -40.5542    12.0322    17.5206    18.2481     7.7665    85.1078     0.0213     2.4046     0.1441
  444.0000   -40.5462    12.1229    17.1721    17.5206     7.7672    87.5009     0.0213     2.4084     0.1402
  444.5000   -40.6860    12.1303    16.9471    16.8221     7.7679    86.7549     0.0228     2.4068     0.1399
  445.0000   -40.6757    12.0525    16.2695    17.5444     7.7687    87.2048     0.0242     2.4046     0.1417
  445.5000   -40.8162    11.9788    15.5045    18.8094     7.7695    89.1498     0.0242     2.4113     0.1411
  446.0000   -40.9545    11.9861    15.3082    18.9523     7.7703    90.3470     0.0242     2.4188     0.1385
  446.5000   -41.0929    11.9092    15.7577    18.9652     7.7710    91.3948     0.0242     2.4248     0.1358
  447.0000   -41.0819    11.8345    15.8657    18.4619     7.7717    92.5920     0.0227     2.4180     0.1343
  447.5000   -41.0732    11.7604    15.3018    17.4832     7.7724    94.0882     0.0165     2.4060     0.1375
  448.0000   -41.0644    11.5283    14.3244    16.0527     7.7731    95.8834     0.0116     2.3910     0.1448
  448.5000   -41.0557    11.4560    15.4642    14.8899     7.7738    97.4295     0.0063     2.3843     0.1520
  449.0000   -41.0469    11.3840    14.2434    13.8125     7.7746    98.5772     0.0032     2.3828     0.1586
  449.5000   -41.0382    11.2350    13.1169    15.2754     7.7753    99.6311     0.0031     2.3844     0.1577
  450.0000   -41.0287    11.1647    14.7622    16.3161     7.7760   100.0752     0.0030     2.3895     0.1574
  450.5000   -40.9366    11.0950    14.3711    17.1351     7.7767    97.0785     0.0059     2.3805     0.1584
  451.0000   -40.7613    11.1046    13.2386    17.6255     7.7923    93.7842     0.0089     2.3813     0.1577
  451.5000   -40.5859    11.1124    13.1550    17.7586     7.7929    92.5826     0.0119     2.3843     0.1523
  452.0000   -40.3929    11.1955    13.9313    17.8927     7.7935    93.7726     0.0192     2.3910     0.1481
  452.5000   -40.3811    11.2808    14.5430    17.7808     7.7792    95.4111     0.0221     2.4037     0.1409
  453.0000   -40.3693    11.4560    15.0457    17.6696     7.7797    97.4080     0.0236     2.4105     0.1367
  453.5000   -40.3575    11.5326    14.8388    17.4384     7.7803    99.5834     0.0235     2.4097     0.1361
  454.0000   -40.3457    11.3041    14.6426    17.4492     7.7809   100.6254     0.0204     2.4022     0.1388
  454.5000   -40.3339    11.0802    14.2575    17.3401     7.7815    97.9276     0.0142     2.3978     0.1484
  455.0000   -40.3221    11.0117    12.4290    17.1132     7.7822    95.5302     0.0096     2.3948     0.1514
  455.5000   -40.3102    10.8683    11.6087    17.2424     7.7828    94.0296     0.0156     2.3959     0.1487
  456.0000   -40.2984    10.8011    11.8608    16.8998     7.7834    93.2764     0.0200     2.4157     0.1409
  456.5000   -40.2866    10.8087    12.8064    16.3369     7.7839    92.8122     0.0244     2.4277     0.1331
  457.0000   -40.2748    10.7416    13.2664    16.6890     7.7845    92.5160     0.0259     2.4352     0.1275
  457.5000   -40.2647    10.7493    13.0044    16.8150     7.7701    94.6029     0.0242     2.4427     0.1231
  458.0000   -40.2512    10.7568    12.4839    16.9420     7.7558    97.2877     0.0196     2.4315     0.1254
  458.5000   -40.2394    10.6884    12.7574    16.6053     7.7415    99.2251     0.0135     2.4172     0.1335
  459.0000   -40.2275    10.6223    13.6798    16.2741     7.6974    99.9682     0.0044     2.4082     0.1368
  459.5000   -40.2157    10.6315    13.1347    16.4538     7.6680    98.3167     0.0028     2.4067     0.1374
  460.0000   -40.2039    10.5639    12.3529    16.1828     7.6387    97.2646     0.0042     2.4075     0.1377
  460.5000   -40.1921    10.4986    11.6980    15.2180     7.6244    96.0630     0.0056     2.4090     0.1374
  461.0000   -40.1803    10.4355    12.9844    15.0185     7.5951    99.1948     0.0086     2.4112     0.1365
  461.5000   -40.1685    10.3692    12.8162    15.0279     7.5170   100.8332     0.0100     2.4165     0.1352
  462.0000   -40.1567    10.1656    12.5631    15.0373     7.4906   101.8752     0.0129     2.4097     0.1380
  462.5000   -40.1448     9.9625    12.0625    14.9432     7.4643   100.2237     0.0158     2.4037     0.1395
  463.0000   -40.2830     9.8329    11.1889    14.6451     7.4405    98.8727     0.0172     2.4084     0.1380
  463.5000   -40.5653     9.9096    10.3071    14.1574     7.4213   100.8101     0.0187     2.4165     0.1353
  464.0000   -40.8476    10.1238     9.1727    13.5918     7.4021   103.3952     0.0201     2.4217     0.1332
  464.5000   -41.1564    10.2010     8.6864    12.6936     7.3830   106.7761     0.0200     2.4247     0.1314
  465.0000   -41.4123    10.2788     7.8379    12.4413     7.3750   108.7135     0.0214     2.4277     0.1294
  465.5000   -41.5475    10.0060     7.0819    12.4491     7.3974   109.9036     0.0213     2.4292     0.1284
  466.0000   -41.8298     9.6734     6.5971    12.2862     7.4939   109.2999     0.0227     2.4277     0.1281
  466.5000   -41.8180     8.9727     6.2332    12.1260     7.5904   108.9951     0.0226     2.4232     0.1296
  467.0000   -41.9532     8.3562     5.6689    11.6019     7.6653   109.7367     0.0180     2.4172     0.1314
  467.5000   -41.9412     7.3903     5.3018    10.5044     7.6653   110.9268     0.0164     2.4045     0.1350
  468.0000   -41.9294     6.1761     5.0602     8.9783     7.7080   112.4554     0.0133     2.3940     0.1452
  468.5000   -41.9176     5.2815     5.1350     4.6776     7.6787   114.5012     0.0117     2.3903     0.1536
  469.0000   -41.9059     5.1839     6.1494     4.9726     7.6644   115.8407     0.0116     2.3880     0.1554
  469.5000   -41.8941     5.2973     6.6397     7.1662     7.6651   116.8812     0.0130     2.3888     0.1548
  470.0000   -41.8824     5.4480     7.4209     9.5822     7.6657   111.1953     0.0175     2.3963     0.1479
  470.5000   -41.7235     5.7611     8.1803    14.5796     7.6513   106.7052     0.0219     2.4142     0.1302
  471.0000   -41.7117     6.3498     9.5955    14.2899     7.6520    99.8235     0.0248     2.4390     0.1224
  471.5000   -41.4057     7.0958    10.7988    14.8007     7.6526    98.0140     0.0292     2.4547     0.1183
