~VERSION INFORMATION
 VERS.                2.0:   CWLS LOG ASCII STANDARD - VERSION 2.0
 WRAP.                 NO:   ONE LINE PER DEPTH STEP
~WELL INFORMATION
#MNEM.UNIT      DATA TYPE    INFORMATION
#----------   ------------   ------------------------------
 STRT.F           90.0000:   START DEPTH
 STOP.F          712.0000:   STOP DEPTH
 STEP.F            0.5000:   STEP LENGTH
 NULL.          -999.2500:   NO VALUE
 COMP. U S NAVY-INTEX OIL:   COMPANY
 WELL. RES 3 TEAPOT DOM #76S-34:   WELL
 FLD .             TEAPOT:   FIELD
 LOC .      S34 T39N R78W:   LOCATION
 CNTY.            NATRONA:   COUNTY
 STAT.            WYOMING:   STATE
 CTRY. UNITED STATES OF AMERICA:   COUNTRY
 SRVC.       Schlumberger:   SERVICE COMPANY
 DATE.        08-AUG-1961:   LOGDATE
 API .       490250651700:   API NUMBER
~CURVE INFORMATION
#MNEM.UNIT       API CODE    CURVE DESCRIPTION
#----------   ------------   ------------------------------
 DEPT.F                  :   
 SPR .MV     05 010 01 00:   SPONTANEOUS POTENTIAL FROM RES.
 ASN .OHMM   05 041 16 00:   AMPLIFIED SHORT NORMAL 16"
 CILD.MMHO   05 110 46 00:   CONDUCTIVITY INDUCTION LOG DEEP
 ILD .OHMM   05 120 46 00:   INDUCTION LOG DEEP
~PARAMETER INFORMATION
#MNEM.UNIT          VALUE    DESCRIPTION
#----------   ------------   ------------------------------
 LMF .                 KB:   LOG MEASURED FROM
 DMF .                 KB:   DRILLING MEASURED FROM
 EKB .F              5092:   KELLING BUSHING
 EGL .F              5087:   GROUND LEVEL
 DATE.        08-AUG-1961:   RUN DATE
 RUN .                  1:   RUN NUMBER
 DD  .F               710:   DEPTH DRILLER
 DL  .F               713:   DEPTH LOGGER
 BLI .F               712:   BOTTOM LOG INTERVAL
 TLI .F               100:   TOP LOG INTERVAL
 BS  .IN             6.75:   BIT SIZE
 BSD .F               710:   BIT SIZE AT DEPTH
 DFT .       OIL EMULSION:   DRILLING FLUID TYPE
 DFD .               10.4:   DRILLING FLUID DENSITY
 DFV .                 45:   DRILLING FLUID VISCOSITY
 RMS .OHMM           1.21:   RESISTIVITY MUD SAMPLE
 MST .F                78:   MUD SAMPLE TEMPERATURE
 TCS .HRS               1:   TIME CURCULATED STOPPED
 LUN .               2544:   LOGGING UNIT NUMBER
 LUL .                 NC:   LOGGING UNIT LOCATION
 ENGI.             QUINBY:   RECORDING ENGINEER
 WITN.          JORGENSON:   WITNESSED BY
 CLNT.            A2DTECH:   CLIENT CODE
 ORIG.      2" , 5" PRINT:   ORIGIN OF DATA
 UWI .       490250651700:   UNIQUE WELL ID
 DICO. A2D Technologies, Inc.:   DIGITIZING COMPANY
~OTHER INFORMATION
~A   DEPT      SPR        ASN       CILD        ILD   
   90.0000  -999.2500  -999.2500  -999.2500  -999.2500
   90.5000   -56.6464     0.0427     5.5844     0.3529
   91.0000   -56.7398     0.0447     5.5844     0.3692
   91.5000   -57.0428     0.0466     5.5844     0.3855
   92.0000   -57.3772     0.0486     5.5844     0.3988
   92.5000   -57.6280     0.0336     5.5844     0.3983
   93.0000   -57.8788     0.0335     5.5844     0.4377
   93.5000   -58.1505     0.0333     5.5844     0.4761
   94.0000   -57.7011     0.0332     5.5844     0.4756
   94.5000   -57.0219     0.0330     5.5844     0.5538
   95.0000   -56.1651     0.0329     5.5844     0.5534
   95.5000   -55.5590     0.0484     5.5844     0.5530
   96.0000   -55.3292     0.0482     5.5844     0.5526
   96.5000   -55.4754     0.0480     5.5844     0.5521
   97.0000   -55.9666     0.0479     5.5844     0.5518
   97.5000   -56.1129     0.0477     5.5844     0.5514
   98.0000   -55.9561     0.0476     5.5844     0.6295
   98.5000   -55.7994     0.0505     5.5844     0.6291
   99.0000   -55.6426     0.0629     5.5844     0.6287
   99.5000   -55.4754     0.0628     5.5844     0.5975
  100.0000   -55.3292     0.0782     5.5844     0.5495
  100.5000   -55.1724     0.0875     5.5844     0.6276
  101.0000   -55.0157     0.0968     5.5844     0.6272
  101.5000   -55.0157     0.1091     5.5844     0.6267
  102.0000   -55.0157     0.1089     5.5844     0.6264
  102.5000   -54.9112     0.1244     5.5844     0.7045
  103.0000   -54.8589     0.1243     5.5844     0.7543
  103.5000   -54.7022     0.1398     5.5844     0.7822
  104.0000   -54.7022     0.1396     5.5844     0.8602
  104.5000   -54.7022     0.1394     5.5844     0.8960
  105.0000   -54.7022     0.1549     5.5844     0.9380
  105.5000   -54.7022     0.1548     5.5844     0.9376
  106.0000   -54.7022     0.1546     5.5844     0.9372
  106.5000   -54.8589     0.1544     5.5844     0.9368
  107.0000   -55.0157     0.1543     5.5844     0.9364
  107.5000   -55.0157     0.1541     5.5844     0.9439
  108.0000   -55.0575     0.1540     5.5844     1.0141
  108.5000   -55.1724     0.1538     5.5844     1.1906
  109.0000   -55.2456     0.1537     5.5844     1.4843
  109.5000   -55.3292     0.1468     5.5844     1.5624
  110.0000   -55.3292     0.1221    27.8040     1.5725
  110.5000   -55.2874     0.1120    81.9264     1.6401
  111.0000   -55.1724     0.0868   212.4365     1.7182
  111.5000   -54.8694     0.0590   363.3881     1.7178
  112.0000   -54.7022     0.0363   486.6667     1.7174
  112.5000   -54.7022     0.0274   515.9198     1.7170
  113.0000   -54.9425     0.0272   530.0786     1.7166
  113.5000   -55.3292     0.0271   539.2060     1.7162
  114.0000   -55.3292     0.0426   545.8186     1.7159
  114.5000   -55.3292     0.0564   543.3098     1.8086
  115.0000   -55.3292     0.1221   515.9591     2.0918
  115.5000   -55.3292     0.1618   476.3443     2.5764
  116.0000   -55.1724     0.1319   438.6163     3.0417
  116.5000   -55.0993     0.1044   398.3726     3.5976
  117.0000   -54.8589     0.1042   358.1289     3.9343
  117.5000   -54.7544     0.1050   317.8852     3.9894
  118.0000   -54.7022     0.1299   277.6415     4.1470
  118.5000   -54.7022     0.1630   247.1462     4.3293
  119.0000   -54.7753     0.2288   226.7148     4.7731
  119.5000   -55.0261     0.3276   222.3192     5.0067
  120.0000   -55.2769     0.4413   218.8679     5.3218
  120.5000   -55.4127     0.7086   216.3601     5.5632
  121.0000   -55.6426     3.0890   211.6509     5.8150
  121.5000   -55.7262     0.6421   196.8799     6.1055
  122.0000   -55.6426     0.6657   184.9371     6.1334
  122.5000   -55.6426     1.0884   176.4544     6.1833
  123.0000   -55.4859     2.7100   170.8019     6.3064
  123.5000   -55.3292     3.2062   168.2940     6.4180
  124.0000   -55.3292     1.6201   165.4727     6.4175
  124.5000   -55.1724     4.1896   163.9072     6.4957
  125.0000   -55.0679     5.9077   162.3428     6.4953
  125.5000   -54.9739     5.7197   161.4072     6.4949
  126.0000   -54.7022     5.1466   160.4717     6.4945
  126.5000   -54.7022     3.7319   159.2217     6.4941
  127.0000   -54.5455     3.9793   158.6006     6.4937
  127.5000   -54.4410     4.2381   157.6651     6.4933
  128.0000   -54.1902     2.7612   156.7296     6.4929
  128.5000   -54.0752     2.1063   156.1075     6.4925
  129.0000   -53.9185     1.9001   156.1173     6.4921
  129.5000   -53.9080     1.9390   156.1242     6.4918
  130.0000   -53.6573     2.1690   156.1321     6.4914
  130.5000   -53.6050     2.5256   158.6557     6.4910
  131.0000   -53.7618     2.7247   161.1792     6.4121
  131.5000   -53.9916     3.2452   164.0183     6.4902
  132.0000   -54.5559     3.8811   164.6541     6.5285
  132.5000   -55.0157     4.5960   165.6053     6.6542
  133.0000   -55.3292     5.4670   164.6698     6.7245
  133.5000   -55.3292     5.9400   163.7343     6.8272
  134.0000   -55.2560     6.3743   160.9129     7.0377
  134.5000   -55.1620     6.4847   157.1462     7.0786
  135.0000   -54.9112     6.7697   153.0660     7.2043
  135.5000   -54.7022     7.0311   148.0424     7.3504
  136.0000   -54.5455     7.1499   142.7044     7.3773
  136.5000   -54.2424     7.2812   135.7950     7.5067
  137.0000   -54.0648     7.3600   130.1415     7.7072
  137.5000   -53.9185     7.4276   123.2311     7.9245
  138.0000   -53.9185     7.5311   117.5786     8.2904
  138.5000   -54.0752     7.5777   113.4984     8.5067
  139.0000   -54.3051     7.6560   110.6771     8.6036
  139.5000   -54.7126     7.7038   106.9104     8.6032
  140.0000   -54.9634     7.7183   105.9748     8.5557
  140.5000   -55.2142     7.5460   111.3286     8.2099
  141.0000   -55.3292     7.2474   128.0031     7.8443
  141.5000   -55.1724     6.9197   142.1629     7.3395
  142.0000   -55.0052     6.7640   157.2642     6.6871
  142.5000   -54.7544     6.3610   199.7525     5.5318
  143.0000   -54.5037     5.4482   254.1443     4.4403
  143.5000   -54.0752     5.0859   308.5361     3.3395
  144.0000   -53.9185     4.6665   362.9279     2.6175
  144.5000   -53.7513     4.1650   417.3197     2.1644
  145.0000   -53.5005     3.6635   471.7115     1.9636
  145.5000   -53.4065     3.0843   526.1033     1.7696
  146.0000   -53.1348     2.8135   563.6170     1.7692
  146.5000   -53.0616     2.6145   569.9135     1.7756
  147.0000   -52.9781     2.6231   552.4164     1.9254
  147.5000   -52.9781     2.6867   498.1263     2.1291
  148.0000   -52.9781     2.8332   418.2796     2.5526
  148.5000   -52.9781     3.1114   335.9543     3.1058
  149.0000   -53.0512     3.6310   253.6290     4.4325
  149.5000   -53.3020     4.8403   171.3038     5.6126
  150.0000   -53.5528     6.0780    95.1252     7.9932
  150.5000   -53.9603     7.3675    63.6874    10.2429
  151.0000   -54.3887     8.7961    62.8564    12.4634
  151.5000   -54.6186    10.0638    58.9852    13.5629
  152.0000   -54.8589    10.5604    60.5673    13.7739
  152.5000   -54.8589    10.7159    65.8151    13.6087
  153.0000   -54.7022    10.5240    76.3054    12.9882
  153.5000   -54.5455    10.2425    97.3820    11.4996
  154.0000   -54.3156    10.1543   124.0143    10.2308
  154.5000   -54.0752    10.0662   150.2293     9.3763
  155.0000   -53.9707     9.9780   161.7661     8.2143
  155.5000   -53.7200     8.3959   178.5459     5.1359
  156.0000   -53.4483     6.2339   187.2537     4.9796
  156.5000   -53.2915     6.0344   187.9946     5.0310
  157.0000   -53.1348     5.9366   184.8598     5.5282
  157.5000   -53.1348     5.8975   182.2458     5.8994
  158.0000   -53.1766     5.9117   170.7236     6.5824
  158.5000   -53.2915     6.0268   147.4604     7.9693
  159.0000   -53.4483     7.1928   124.8269     8.8642
  159.5000   -53.6155     8.3817   103.1381     9.9219
  160.0000   -53.7618     9.5274    96.8554    10.5756
  160.5000   -53.9185     9.6495    89.0019    11.0315
  161.0000   -53.9185     9.8332    84.1877    11.3335
  161.5000   -53.9185    10.1108    79.3737    11.5127
  162.0000   -53.9185    10.4953    76.4478    11.6468
  162.5000   -53.9185    10.8798    75.9303    11.7249
