~VERSION INFORMATION
 VERS.                2.0:   CWLS LOG ASCII STANDARD - VERSION 2.0
 WRAP.                 NO:   ONE LINE PER DEPTH STEP
~WELL INFORMATION
#MNEM.UNIT      DATA TYPE    INFORMATION
#----------   ------------   ------------------------------
 STRT.F           30.0000:   START DEPTH
 STOP.F          506.0000:   STOP DEPTH
 STEP.F            0.5000:   STEP LENGTH
 NULL.          -999.2500:   NO VALUE
 COMP. FENIX & SCISSON INC:   COMPANY
 WELL.    42 SX-3F1 #55-3:   WELL
 FLD .             TEAPOT:   FIELD
 LOC .       S3 T38N R78W:   LOCATION
 CNTY.            NATRONA:   COUNTY
 STAT.            WYOMING:   STATE
 CTRY. UNITED STATES OF AMERICA:   COUNTRY
 SRVC.              Welex:   SERVICE COMPANY
 DATE.        26-MAY-1980:   LOGDATE
 API .       490251082900:   API NUMBER
~CURVE INFORMATION
#MNEM.UNIT       API CODE    CURVE DESCRIPTION
#----------   ------------   ------------------------------
 DEPT.F                  :   
 GRD .GAPI   45 310 01 00:   GAMMA RAY FROM DENSITY LOG
 CALD.IN     45 280 60 00:   CALIPER
 RHOB.G/C3   45 350 01 00:   BULK DENSITY
 CORR.G/C3   45 356 01 00:   DENSITY CORRECTION
 DPHI.DEC    45 890 12 00:   DENSITY POROSITY SANDSTONE
 NPHI.DEC    42 890 03 00:   NEUTRON POROSITY SANDSTONE
 GURD.OHMM   07 220 05 00:   GUARD RESISTIVITY
 ILD .OHMM   07 120 46 00:   INDUCTION LOG DEEP
 ILM .OHMM   07 120 44 00:   INDUCTION LOG MEDIUM
 SPR .MV     07 010 01 00:   SPONTANEOUS POTENTIAL
~PARAMETER INFORMATION
#MNEM.UNIT          VALUE    DESCRIPTION
#----------   ------------   ------------------------------
 PD  .                 GL:   PERMANENT DATUM
 EPD .F              5161:   ELEVATION PERMANENT DATUM
 LMF .                 KB:   LOG MEASURED FROM
 DAPD.F                 4:   FEET ABOVE PERMANENT DATUM
 DMF .                 KB:   DRILLING MEASURED FROM
 EKB .F              5165:   KELLING BUSHING
 EGL .F              5161:   GROUND LEVEL
 DATE.            5-26-80:   RUN DATE
 RUN .                  1:   RUN NUMBER
 DD  .F               500:   DEPTH DRILLER
 DL  .F               502:   DEPTH LOGGER
 BLI .F               500:   BOTTOM LOG INTERVAL
 TLI .F                34:   TOP LOG INTERVAL
 BS  .IN            9.875:   BIT SIZE
 BSD .F               500:   BIT SIZE AT DEPTH
 DFT .          KCL WATER:   DRILLING FLUID TYPE
 DFD .                9.5:   DRILLING FLUID DENSITY
 DFV .                 45:   DRILLING FLUID VISCOSITY
 MSS .            MUD PIT:   MUD SAMPLE SOURCE
 RMS .OHMM            .39:   RESISTIVITY MUD SAMPLE
 MST .F                75:   MUD SAMPLE TEMPERATURE
 RMF .OHMM           .312:   RESISTIVITY MUD FILTRATE SAMPLE
 MFST.F                75:   MUD FILTRATE SAMPLE TEMPERATURE
 RMC .OHMM           .468:   RESISTIVITY MUD CAKE
 MCST.F                75:   MUD CAKE SAMPLE TEMPERATURE
 MFSS.           MEASURED:   MUD FILTRATE SAMPLE SOURCE
 MCSS.           MEASURED:   MUD CAKE SAMPLE SOURCE
 RMB .OHMM            .39:   RESISTIVITY MUD AT BHT
 BHT .F                75:   BOTTOM HOLE TEMPERATURE
 TCS .HRS               2:   TIME CURCULATED STOPPED
 MRT .F                75:   MAXIMUM RECORDED TEMPERATURE
 LUN .               9685:   LOGGING UNIT NUMBER
 LUL .             CASPER:   LOGGING UNIT LOCATION
 ENGI.            TOTHILL:   RECORDING ENGINEER
 WITN.            RHOADES:   WITNESSED BY
 CLNT.            A2DTECH:   CLIENT CODE
 ORIG.           5" PRINT:   ORIGIN OF DATA
 UWI .       490251082900:   UNIQUE WELL ID
 DICO. A2D Technologies, Inc.:   DIGITIZING COMPANY
~OTHER INFORMATION
~A   DEPT      GRD       CALD       RHOB       CORR         DPHI       NPHI      GURD        ILD        ILM       SPR   
# ...
  197.5000   103.2233    10.2249     2.4525     0.0258     0.1439     0.2694     7.4755     7.1027     7.2114   -38.2030
  198.0000   104.0029    10.2218     2.4442     0.0339     0.1508     0.2784     7.2684     6.8609     6.9855   -38.0894
  198.5000   104.7975    10.2186     2.4340     0.0386     0.1678     0.2862     7.0031     6.5726     6.7667   -37.9760
  199.0000   104.0668    10.2154     2.4086     0.0318     0.1857     0.2927     6.6013     6.2585     6.4019   -37.8620
  199.5000   102.8877    10.2122     2.3732     0.0199     0.2090     0.2992     6.2310     5.8354     6.0398   -37.8719
  200.0000   101.6768    10.2090     2.3272     0.0081     0.2238     0.3058     5.8824     5.4516     5.6653   -37.9616
  200.5000   101.3367    10.2058     2.3071     0.0076     0.2343     0.3087     5.5533     5.0233     5.3008   -38.0522
  201.0000   101.3170    10.2026     2.2955     0.0393     0.2425     0.3047     5.2163     4.5834     4.9236   -38.1425
  201.5000   102.0307    10.1993     2.2774     0.0613     0.2436     0.3073     4.7415     4.1762     4.5457   -38.1802
  202.0000   103.0266    10.1962     2.2687     0.1008     0.2394     0.3122     4.2706     3.8264     4.1919   -37.8172
  202.5000   104.0301    10.1947     2.2850     0.1593     0.2433     0.3153     3.8186     3.5354     3.8355   -37.4528
  203.0000   104.4059    10.2874     2.2764     0.1993     0.2452     0.3117     3.2443     3.2665     3.6066   -37.5335
  203.5000   103.9953    10.5019     2.2678     0.1838     0.2402     0.3080     2.8775     3.1017     3.5160   -37.6459
  204.0000   103.7307    10.7127     2.2675     0.1589     0.2290     0.3042     2.5976     3.0148     3.5160   -37.7553
  204.5000   104.7358    10.5095     2.2885     0.1321     0.2130     0.3018     3.0382     2.9266     3.6634   -37.8286
  205.0000   105.7551    10.2507     2.3140     0.1017     0.1879     0.2981     3.6539     2.9266     3.8697   -37.8274
  205.5000   106.7868    10.0794     2.3642     0.0620     0.1537     0.2896     5.0768     2.9777     4.0866   -37.8276
  206.0000   106.6702    10.0227     2.4132     0.0563     0.1354     0.2875     4.2942     3.1314     4.2776   -37.8275
  206.5000   106.3230    10.0038     2.4537     0.0719     0.1220     0.2891     3.3584     3.4045     4.5817   -37.8275
  207.0000   105.9698     9.9860     2.4746     0.0885     0.1207     0.2856     4.9285     3.7015     5.1687   -37.8275
  207.5000   105.6186     9.9926     2.4769     0.0755     0.1137     0.2791     6.5964     4.0281     5.5623   -37.8275
  208.0000   105.6007    10.0423     2.4906     0.0532     0.1193     0.2851     6.9961     4.4004     5.7343   -37.8280
  208.5000   106.3891    10.0910     2.4833     0.0556     0.1128     0.2904     6.8897     4.8081     5.9134   -37.8311
  209.0000   107.1738    10.1286     2.4948     0.0695     0.1105     0.2948     6.7585     5.1826     6.0982   -37.6895
  209.5000   107.9570    10.0959     2.4881     0.0685     0.1094     0.2970     6.6824     5.5623     6.2901   -37.5179
  210.0000   108.7396    10.0641     2.4968     0.0783     0.1074     0.2925     6.8689     5.8060     6.3431   -37.3451
  210.5000   109.5223    10.0325     2.5065     0.0814     0.1193     0.2864     6.6479     6.0569     6.3746   -37.1739
  211.0000   110.3051    10.0009     2.4862     0.0600     0.1157     0.2803     6.5609     6.1834     6.4056   -37.0550
  211.5000   111.0910     9.9690     2.4810     0.0433     0.1203     0.2834     6.6296     6.2668     6.4366   -37.1423
  212.0000   111.8744     9.9368     2.4866     0.0522     0.1264     0.2855     6.6781     6.2010     6.5253   -37.2252
  212.5000   112.5436     9.9641     2.4714     0.0476     0.1323     0.2807     6.7269     6.1234     6.6265   -37.3076
  213.0000   112.0399     9.9970     2.4652     0.0519     0.1555     0.2887     6.8572     5.9647     6.6824   -37.3900
  213.5000   111.5432    10.0297     2.4462     0.0522     0.1706     0.2946     7.0510     5.7679     6.2490   -37.4725
  214.0000   111.1099    10.0623     2.4024     0.0155     0.1680     0.3006     7.0797     5.5768     5.9672   -37.5554
  214.5000   111.3162    10.0947     2.3920     0.0086     0.1757     0.2994     5.5777     5.3912     5.6656   -37.6282
  215.0000   111.5296    10.1035     2.3959     0.0106     0.1769     0.2929     4.3661     5.2119     5.5115   -37.5885
  215.5000   111.7430    10.0837     2.3832     0.0008     0.1555     0.2896     4.1027     5.0789     5.6917   -37.5475
  216.0000   111.9695    10.0642     2.4048    -0.0042     0.1375     0.2906     5.8330     4.9917     5.8234   -37.5070
  216.5000   111.3238    10.0446     2.4464     0.0116     0.1406     0.2899     5.7659     4.9725     5.6653   -37.4667
  217.0000   110.5381    10.0252     2.4535     0.0118     0.1288     0.2871     4.9284     4.9582     5.8474   -37.4263
  217.5000   109.7286    10.0185     2.4457     0.0033     0.1112     0.2909     5.8862     4.9367     6.0185   -37.3860
  218.0000   110.2681    10.0437     2.4788     0.0177     0.1069     0.2946     6.6214     5.0364     6.2096   -37.3456
  218.5000   111.0751    10.0684     2.5017     0.0303     0.1081     0.2950     6.3427     5.2377     6.2668   -37.3052
  219.0000   111.1178    10.0914     2.5018     0.0386     0.1073     0.2959     6.0967     5.4470     6.4168   -37.2655
  219.5000   110.6889    10.0744     2.5055     0.0353     0.0987     0.2926     6.9160     5.6643     6.6300   -37.2507
  220.0000   110.8303    10.0555     2.4987     0.0334     0.1102     0.2859     7.2798     5.8903     6.8503   -37.2929
  220.5000   111.6987    10.0367     2.5160     0.0432     0.1193     0.2840     7.5471     6.1253     7.0788   -37.3340
  221.0000   112.5691    10.0170     2.4976     0.0465     0.1105     0.2823     7.6509     6.3697     7.3233   -37.3752
  221.5000   113.4108    10.0475     2.4785     0.0171     0.1134     0.2797     8.0999     6.6238     7.4336   -37.4164
  222.0000   112.8445    10.0901     2.4929     0.0340     0.1042     0.2834     8.0251     6.8881     7.5477   -37.4576
  222.5000   112.3876    10.0597     2.4973     0.0343     0.1067     0.2881     7.8822     7.0720     7.6682   -37.4988
  223.0000   113.3007    10.0246     2.4926     0.0485     0.1105     0.2927     7.9030     7.1031     7.6319   -37.5400
  223.5000   114.2133    10.0064     2.5068     0.0563     0.1137     0.2974     7.9548     7.1344     7.5851   -37.5811
  224.0000   114.4608    10.1067     2.5003     0.0478     0.1088     0.3001     7.8634     7.1658     7.5386   -37.6225
  224.5000   114.1303    10.0610     2.4954     0.0464     0.1024     0.2945     7.7144     7.1913     7.4258   -37.6628
  225.0000   113.7923    10.0694     2.4903     0.0331     0.0970     0.2892     7.5883     7.0606     7.2973   -37.7032
  225.5000   113.4525    10.1177     2.5020     0.0448     0.1114     0.2862     7.4643     6.9528     7.1710   -37.7435
  226.0000   113.1160    10.1147     2.5158     0.0625     0.1304     0.2823     7.3412     6.8208     7.0468   -37.7839
  226.5000   112.8584    10.0909     2.5193     0.0745     0.1348     0.2824     7.2192     6.5973     6.9249   -37.8242
  227.0000   112.7285    10.0664     2.4775     0.0378     0.1304     0.2839     7.0992     6.3810     6.8050   -37.8646
  227.5000   112.6237    10.0419     2.4607     0.0088     0.1272     0.2867     6.9817     6.1719     6.6872   -37.9049
  228.0000   111.2877    10.0173     2.4546     0.0094     0.1308     0.2910     6.8680     5.9585     6.5294   -37.9458
  228.5000   111.6867     9.9931     2.4700     0.0221     0.1169     0.2916     6.6368     5.7464     6.3218   -37.9880
  229.0000   112.5715     9.9835     2.4631     0.0377     0.1246     0.2928     6.4187     5.5418     6.1209   -38.0107
  229.5000   113.4759    10.0312     2.4771     0.0436     0.1247     0.2927     6.2145     5.3444     5.9264   -37.7052
  230.0000   114.3199    10.0775     2.4850     0.0625     0.1206     0.2950     5.7008     5.1542     5.7018   -37.3962
  230.5000   114.1404    10.1246     2.4711     0.0502     0.1126     0.2925     4.9224     4.9825     5.5623   -37.0890
