~VERSION INFORMATION
 VERS.                2.0:   CWLS LOG ASCII STANDARD - VERSION 2.0
 WRAP.                 NO:   ONE LINE PER DEPTH STEP
~WELL INFORMATION
#MNEM.UNIT      DATA TYPE    INFORMATION
#----------   ------------   ------------------------------
 STRT.F           28.0000:   START DEPTH
 STOP.F          693.0000:   STOP DEPTH
 STEP.F            0.5000:   STEP LENGTH
 NULL.          -999.2500:   NO VALUE
 COMP. FENIX & SCISSON INC:   COMPANY
 WELL.       NPR-3 #63-15:   WELL
 FLD .             TEAPOT:   FIELD
 LOC .      S15 T38N R78W:   LOCATION
 CNTY.            NATRONA:   COUNTY
 STAT.            WYOMING:   STATE
 CTRY. UNITED STATES OF AMERICA:   COUNTRY
 SRVC.            Unknown:   SERVICE COMPANY
 DATE.        10-JUN-1978:   LOGDATE
 API .       490251063800:   API NUMBER
~CURVE INFORMATION
#MNEM.UNIT       API CODE    CURVE DESCRIPTION
#----------   ------------   ------------------------------
 DEPT.F                  :   
 SPR .MV     05 010 01 00:   SPONTANEOUS POTENTIAL FROM RES.
 SN  .OHMM   05 040 16 00:   SHORT NORMAL 16"
 ILD .OHMM   05 120 46 00:   INDUCTION LOG DEEP
 CALD.IN     45 280 60 00:   CALIPER FROM DENSITY LOG
 GRD .GAPI   45 310 01 00:   GAMMA RAY FROM DENSITY LOG
 CORR.G/C3   45 356 01 00:   DENSITY CORRECTION
 DPHI.DEC    45 890 12 00:   DENSITY POROSITY SANDSTONE
 DEN .G/C3   45 350 01 00:   DENSITY
~PARAMETER INFORMATION
#MNEM.UNIT          VALUE    DESCRIPTION
#----------   ------------   ------------------------------
 PD  .                 GL:   PERMANENT DATUM
 EPD .F              5265:   ELEVATION PERMANENT DATUM
 LMF .                 KB:   LOG MEASURED FROM
 DAPD.F                 4:   FEET ABOVE PERMANENT DATUM
 DMF .                 KB:   DRILLING MEASURED FROM
 EKB .F              5269:   KELLING BUSHING
 EGL .F              5265:   GROUND LEVEL
 DATE.        10-JUN-1978:   RUN DATE
 RUN .                  1:   RUN NUMBER
 DD  .F               690:   DEPTH DRILLER
 DL  .F               697:   DEPTH LOGGER
 BLI .F               690:   BOTTOM LOG INTERVAL
 TLI .F                35:   TOP LOG INTERVAL
 CS  .IN            8.625:   CASING SIZE
 CBD .F                40:   CASING BOTTOM DRILLER
 CBL .F                35:   CASING BOTTOM LOGGER
 BS  .IN            7.875:   BIT SIZE
 BSD .F               690:   BIT SIZE AT DEPTH
 DFT .                KCL:   DRILLING FLUID TYPE
 DFD .                8.7:   DRILLING FLUID DENSITY
 DFV .                 34:   DRILLING FLUID VISCOSITY
 DFPH.                 10:   DRILLING FLUID PH
 DFL .               11.6:   DRILLING FLUID LOSS
 MSS .            MUD PIT:   MUD SAMPLE SOURCE
 RMS .OHMM            .32:   RESISTIVITY MUD SAMPLE
 MST .F                74:   MUD SAMPLE TEMPERATURE
 RMF .OHMM            .28:   RESISTIVITY MUD FILTRATE SAMPLE
 MFST.F                78:   MUD FILTRATE SAMPLE TEMPERATURE
 RMC .OHMM            .36:   RESISTIVITY MUD CAKE
 MCST.F                78:   MUD CAKE SAMPLE TEMPERATURE
 MFSS.               MEAS:   MUD FILTRATE SAMPLE SOURCE
 MCSS.               MEAS:   MUD CAKE SAMPLE SOURCE
 BHT .F                80:   BOTTOM HOLE TEMPERATURE
 TCS .HRS            0100:   TIME CURCULATED STOPPED
 MRT .F                80:   MAXIMUM RECORDED TEMPERATURE
 LUN .               2958:   LOGGING UNIT NUMBER
 LUL .               CASP:   LOGGING UNIT LOCATION
 ENGI.             MILLER:   RECORDING ENGINEER
 WITN.           MCGINLEY:   WITNESSED BY
 CLNT.            A2DTECH:   CLIENT CODE
 ORIG.           5" PRINT:   ORIGIN OF DATA
 UWI .       490251063800:   UNIQUE WELL ID
 DICO. A2D Technologies, Inc.:   DIGITIZING COMPANY
~OTHER INFORMATION
~A   DEPT      SPR         SN        ILD       CALD        GRD       CORR       DPHI        DEN   
# ...
  433.0000    -9.2419     7.1745     6.4814     7.5591    93.3249     0.0079     0.1072     2.4912
  433.5000    -9.3754     7.3257     6.5300     7.6203    88.9358     0.0096     0.1059     2.4900
  434.0000    -9.3592     7.2790     6.4428     7.6665    86.9402     0.0142     0.1035     2.4946
  434.5000    -9.3428     7.1835     6.3146     7.5180    87.4039     0.0203     0.0954     2.5037
  435.0000    -9.4766     7.1874     6.2312     7.3982    89.3602     0.0264     0.0908     2.5120
  435.5000    -9.4564     7.1417     6.2346     7.3265    90.8687     0.0356     0.0936     2.5158
  436.0000    -9.4402     7.0954     6.2380     7.3125    91.9294     0.0354     0.1091     2.4964
  436.5000    -9.4240     7.0511     6.2415     7.3141    94.3334     0.0223     0.1139     2.4890
  437.0000    -9.5616     7.0064     6.2449     7.3903    97.7822     0.0224     0.1163     2.4783
  437.5000    -9.5414     6.8662     6.2050     7.4665    99.1791     0.0240     0.1144     2.4786
  438.0000    -9.5252     6.7725     6.0816     7.5127   100.9524     0.0287     0.1198     2.4712
  438.5000    -9.5091     6.6860     5.8778     7.6038   100.2181     0.0303     0.1204     2.4682
  439.0000    -9.4929     6.5079     5.4497     7.6500   100.3873     0.0334     0.1200     2.4691
  439.5000    -9.1773     6.3777     4.9147     7.7112   100.4033     0.0425     0.1200     2.4707
  440.0000    -9.0114     6.1217     4.8490     7.7275    99.6730     0.0577     0.1188     2.4707
  440.5000    -8.9953     5.7951     4.8523     7.6690    96.4053     0.0730     0.1139     2.4738
  441.0000    -8.9790     5.4853     4.8550     7.7005    93.7347     0.0963     0.0926     2.4858
  441.5000    -8.9626     5.4890     4.9254     7.7468    91.8055     0.1226     0.0984     2.5168
  442.0000    -8.9461     5.5685     4.9968     7.7777    92.0557     0.1047     0.1036     2.4920
  442.5000    -8.9265     5.7280     5.0343     7.7491    97.3687     0.0433     0.1084     2.4981
  443.0000    -9.0641     5.9328     5.0720     7.7807    98.5786     0.0239     0.1129     2.4832
  443.5000    -9.0439     6.1027     5.1846     7.8119    96.8036     0.0134     0.1162     2.4825
  444.0000    -9.0277     6.3648     5.5424     7.8432    93.9797     0.0136     0.1149     2.4826
  444.5000    -9.0116     6.7308     6.4299     7.8445    94.4474     0.0167     0.1110     2.4842
  445.0000    -8.9954     7.1178     6.4334     7.8907    95.6574     0.0198     0.1125     2.4857
  445.5000    -8.9792     7.1712     6.4369     7.8433    96.4196     0.0199     0.1136     2.4843
  446.0000    -8.9630     7.1751     6.3518     7.7290    95.2319     0.0198     0.1149     2.4814
  446.5000    -8.9469     7.1799     6.1381     7.6555    95.1082     0.0157     0.1157     2.4807
  447.0000    -9.0808     7.1838     6.0991     7.6268    95.7252     0.0083     0.1148     2.4830
  447.5000    -9.0642     7.1877     6.1033     7.6581    98.7262     0.0024     0.1138     2.4861
  448.0000    -9.0479     7.1916     6.1066     7.7193   102.9213     0.0115     0.1123     2.4892
  448.5000    -9.0314     7.1956     6.1099     7.7352   102.3402     0.0192     0.1059     2.4893
  449.0000    -9.0117     7.1498     6.1132     7.6620   101.1621     0.0193     0.1047     2.4893
  449.5000    -8.9955     7.1537     6.1166     7.6035    99.9840     0.0194     0.1119     2.4894
  450.0000    -9.1331     7.1412     6.1199     7.6048    99.4030     0.0195     0.1158     2.4895
  450.5000    -9.1129     7.1207     6.1010     7.6381    99.7552     0.0077     0.1158     2.4820
  451.0000    -9.1252     7.1001     6.0820     7.6679   100.7854     0.0109     0.1139     2.4814
  451.5000    -9.1812     7.0796     6.0631     7.6694   100.0565     0.0157     0.1079     2.4731
  452.0000    -9.1982     7.0713     6.0102     7.6708    98.8799     0.0203     0.1052     2.4822
  452.5000    -9.0230     7.0342     5.9727     7.6723    98.5988     0.0204     0.1048     2.4868
  453.0000    -9.0027     6.9904     5.9778     7.6737    96.2281     0.0206     0.1054     2.4868
  453.5000    -9.1371     6.9963     5.9818     7.6602    91.9171     0.0103     0.1120     2.4869
  454.0000    -9.1116     7.0010     5.9858     7.6467    94.9196    -0.0091     0.1300     2.4622
  454.5000    -9.0912     7.0057     5.9899     7.6332    93.7193    -0.0149     0.1321     2.4525
  455.0000    -9.0708     7.0104     6.0365     7.6197    93.1633    -0.0117     0.1276     2.4533
  455.5000    -9.0505     6.9667     6.0406     7.6215    93.6328    -0.0038     0.1185     2.4586
  456.0000    -9.0299     6.8707     6.0447     7.6529    95.5905     0.0037     0.1170     2.4699
  456.5000    -9.0090     6.7400     6.0487     7.7591    97.8467     0.0069     0.1266     2.4715
  457.0000    -8.9842     6.6518     6.0100     7.7905    97.8641     0.0010     0.1305     2.4617
  457.5000    -9.1135     6.5195     5.8507     7.7321    98.6277     0.0012     0.1334     2.4513
  458.0000    -9.0932     6.3899     5.0623     7.7032   103.8690     0.0029     0.1377     2.4484
  458.5000    -9.0728     6.3942     4.9960     7.6751   109.1105     0.0031     0.1428     2.4425
  459.0000    -9.0524     6.3542     5.0342     7.7218   108.2627     0.0047     0.1403     2.4365
  459.5000    -9.0320     5.7715     5.0733     7.7532   103.6270     0.0110     0.1240     2.4358
  460.0000    -9.0116     5.6567     5.0417     7.7547   100.6550     0.0307     0.1255     2.4629
  460.5000    -8.9913     5.6615     4.9757     7.7411   101.5722     0.0233     0.1345     2.4647
  461.0000    -9.1206     5.6653     4.8430     7.7576   103.3807     0.0070     0.1372     2.4525
  461.5000    -9.0951     5.7481     4.4291     7.7740   105.1891    -0.0004     0.1417     2.4373
  462.0000    -9.0747     5.8726     4.1642     7.7904   105.2418     0.0013     0.1507     2.4279
  462.5000    -9.0543     5.7958     4.2251     7.7769   101.9403     0.0030     0.1505     2.4227
  463.0000    -9.0340     5.4106     4.4727     7.7634    98.4896     0.0049     0.1434     2.4197
  463.5000    -9.0136     5.2674     4.5037     7.7498    97.8003     0.0154     0.1296     2.4258
  464.0000    -8.9932     5.2719     4.4748     7.6918    96.3252     0.0351     0.1166     2.4657
  464.5000    -8.9728     5.2381     4.4470     7.6779    92.0142     0.0188     0.1109     2.4710
  465.0000    -8.9521     5.2425     4.4507     7.7097    91.5795     0.0129     0.1127     2.4853
  465.5000    -8.9270     5.7797     4.4537     7.6512    93.2430     0.0071     0.1117     2.4853
  466.0000    -9.0614     5.9872     4.6780     7.6826    94.9022     0.0058     0.1077     2.4857
  466.5000    -9.1856     6.1169     5.3395     7.5347    97.3076     0.0166     0.1045     2.4915
  467.0000    -9.1652     6.2067     5.4963     7.4314    99.8627     0.0212     0.1023     2.4960
  467.5000    -9.4493     6.2540     5.6915     7.4778    95.5557     0.0198     0.1008     2.4991
  468.0000    -9.1245     6.2150     5.8553     7.5391    90.4985     0.0200     0.0996     2.5029
  468.5000    -8.5053     6.1337     5.7387     7.6004    91.2621     0.0202     0.0975     2.5060
  469.0000    -8.1855     6.0955     5.3491     7.6019    94.8616     0.0249     0.0950     2.5105
  469.5000    -8.1647     6.0168     4.9690     7.6033    95.9238     0.0266     0.0911     2.5136
  470.0000    -8.1396     5.9793     4.5442     7.6347    90.5680     0.0282     0.0884     2.5241
  470.5000    -8.1193     5.7799     4.2423     7.7114    86.8541     0.0314     0.0977     2.5340
  471.0000    -7.9492     5.5485     4.2166     7.7278    88.5492     0.0091     0.1009     2.5138
  471.5000    -7.9288     5.3634     4.2487     7.7139    92.1313     0.0047     0.0973     2.5048
  472.0000    -7.9084     5.0082     4.2516     7.6858    96.4628     0.0245     0.1000     2.5011
  472.5000    -8.0377     5.0464     4.2545     7.6420    96.9236     0.0456     0.1021     2.4922
  473.0000    -8.0174     5.0506     4.2580     7.6438    93.6618     0.0188     0.1039     2.4862
