~VERSION INFORMATION
 VERS.                2.0:   CWLS LOG ASCII STANDARD - VERSION 2.0
 WRAP.                 NO:   ONE LINE PER DEPTH STEP
~WELL INFORMATION
#MNEM.UNIT      DATA TYPE    INFORMATION
#----------   ------------   ------------------------------
 STRT.F           34.0000:   START DEPTH
 STOP.F          662.0000:   STOP DEPTH
 STEP.F            0.5000:   STEP LENGTH
 NULL.          -999.2500:   NO VALUE
 COMP. FENIX & SCISSON INC:   COMPANY
 WELL.     55 S 34 #34-34:   WELL
 FLD .          N.P.R. #3:   FIELD
 LOC .      S34 T39N R78W:   LOCATION
 CNTY.            NATRONA:   COUNTY
 STAT.            WYOMING:   STATE
 CTRY. UNITED STATES OF AMERICA:   COUNTRY
 SRVC.       Schlumberger:   SERVICE COMPANY
 DATE.        15-MAR-1977:   LOGDATE
 API .       490251030500:   API NUMBER
~CURVE INFORMATION
#MNEM.UNIT       API CODE    CURVE DESCRIPTION
#----------   ------------   ------------------------------
 DEPT.F                  :   
 GRD .GAPI   45 310 01 00:   GAMMA RAY FROM DENSITY LOG
 CORR.G/C3   45 356 01 00:   DENSITY CORRECTION
 RHOB.G/C3   45 350 01 00:   BULK DENSITY
 DPOR.DEC    45 890 12 00:   DENSITY POROSITY SANDSTONE
 SPR .MV     07 010 01 00:   SPONTANEOUS POTENTIAL
 LL8 .OHMM   07 220 08 00:   LATEROLOG-8 RES.
 ILD .OHMM   07 120 46 00:   INDUCTION LOG DEEP
 ILM .OHMM   07 120 44 00:   INDUCTION LOG MEDIUM
 CALD.IN     45 280 60 00:   CALIPER
~PARAMETER INFORMATION
#MNEM.UNIT          VALUE    DESCRIPTION
#----------   ------------   ------------------------------
 PD  .                 GL:   PERMANENT DATUM
 EPD .F              5087:   ELEVATION PERMANENT DATUM
 LMF .                 GL:   LOG MEASURED FROM
 DMF .                 GL:   DRILLING MEASURED FROM
 EKB .F              5091:   KELLING BUSHING
 EGL .F              5087:   GROUND LEVEL
 DATE.            3-15-77:   RUN DATE
 RUN .                  1:   RUN NUMBER
 DD  .F               670:   DEPTH DRILLER
 DL  .F               663:   DEPTH LOGGER
 BLI .F               657:   BOTTOM LOG INTERVAL
 TLI .F                40:   TOP LOG INTERVAL
 CS  .IN            8.625:   CASING SIZE
 CBD .F                40:   CASING BOTTOM DRILLER
 CBL .F                40:   CASING BOTTOM LOGGER
 BS  .IN            7.875:   BIT SIZE
 BSD .F               670:   BIT SIZE AT DEPTH
 DFT .                KCL:   DRILLING FLUID TYPE
 DFD .                8.6:   DRILLING FLUID DENSITY
 DFV .                 31:   DRILLING FLUID VISCOSITY
 DFPH.                  8:   DRILLING FLUID PH
 DFL .                8.8:   DRILLING FLUID LOSS
 MSS .                PIT:   MUD SAMPLE SOURCE
 RMS .OHMM           .246:   RESISTIVITY MUD SAMPLE
 MST .F                76:   MUD SAMPLE TEMPERATURE
 RMF .OHMM           .243:   RESISTIVITY MUD FILTRATE SAMPLE
 MFST.F                76:   MUD FILTRATE SAMPLE TEMPERATURE
 MFSS.                  M:   MUD FILTRATE SAMPLE SOURCE
 RMB .OHMM           .267:   RESISTIVITY MUD AT BHT
 BHT .F                70:   BOTTOM HOLE TEMPERATURE
 TCS .HRS            1800:   TIME CURCULATED STOPPED
 TLAB.HRS            2200:   TIME LOGGER AT BOTTOM
 MRT .F                70:   MAXIMUM RECORDED TEMPERATURE
 LUN .               5642:   LOGGING UNIT NUMBER
 LUL .               CSPR:   LOGGING UNIT LOCATION
 ENGI.             MARTIN:   RECORDING ENGINEER
 WITN.              BURKE:   WITNESSED BY
 CLNT.            A2DTECH:   CLIENT CODE
 ORIG. 2", 2.5", 5" PRINT:   ORIGIN OF DATA
 UWI .       490251030500:   UNIQUE WELL ID
 DICO. A2D Technologies, Inc.:   DIGITIZING COMPANY
~OTHER INFORMATION
~A   DEPT       GRD      CORR       RHOB       DPOR        SPR        LL8        ILD        ILM       CALD   
# ...
  362.5000   107.1047     0.0152     2.4372     0.1181   -54.0034     8.6909     6.8120     7.2007     8.3972
  363.0000   106.8287     0.0094     2.4313     0.1208   -53.9262     8.5028     7.1801     7.6667     8.3985
  363.5000   107.7138     0.0030     2.4383     0.1218   -53.8490     8.4024     7.3125     7.6572     8.3998
  364.0000   110.1833     0.0115     2.4459     0.1153   -53.7726     8.7654     7.4499     7.8193     8.4011
  364.5000   111.8792     0.0182     2.4515     0.1137   -53.6940     9.0323     7.5294     7.8997     8.4024
  365.0000   112.2427     0.0096     2.4507     0.1174   -53.5351     9.3065     7.6082     7.9823     8.4037
  365.5000   115.0207     0.0053     2.4500     0.1142   -53.3797     9.5883     7.6878     8.0659     8.4050
  366.0000   114.9020     0.0158     2.4630     0.1067   -53.2251     9.6468     7.7683     8.1503     8.4062
  366.5000   113.5711     0.0234     2.4777     0.1006   -53.0704     9.2976     7.8496     8.2357     8.4075
  367.0000   113.7438     0.0156     2.4867     0.1012   -52.9162     9.4439     7.9318     8.3220     8.4088
  367.5000   114.4207     0.0076     2.4741     0.1036   -52.7602     9.5754     8.0226     8.4399     8.4101
  368.0000   114.1867     0.0166     2.4663     0.1047   -52.7528     9.7087     8.1039     8.4899     8.4114
  368.5000   112.2047     0.0118     2.4692     0.1050   -52.8364     9.7671     8.1236     8.5105     8.4127
  369.0000   111.0774     0.0058     2.4687     0.1055   -52.9222     9.8403     8.1433     8.5312     8.4140
  369.5000   110.6714     0.0121     2.4655     0.1026   -53.0077     9.9141     8.1631     8.5520     8.4153
  370.0000   108.9234     0.0193     2.4815     0.0940   -53.0932    10.0087     8.1829     8.5728     8.4166
  370.5000   106.0463     0.0253     2.4942     0.0897   -53.1786     9.9608     8.2028     8.5935     8.4179
  371.0000   104.8961     0.0212     2.4982     0.0922   -53.2640     9.8950     8.2227     8.6144     8.4192
  371.5000   106.7224     0.0149     2.4999     0.0889   -53.3494     9.8254     8.2476     8.6366     8.4205
  372.0000   109.0769     0.0212     2.5017     0.0874   -53.4348    10.0611     8.2280     8.6095     8.4218
  372.5000   110.1025     0.0061     2.4934     0.0961   -53.5203    10.3850     8.1939     8.5738     8.4231
  373.0000   109.9982     0.0132     2.4834     0.0977   -53.6057    10.1111     8.1600     8.5383     8.4244
  373.5000   110.2611     0.0219     2.4784     0.0990   -53.6911     9.6201     8.1262     8.5030     8.4257
  374.0000   110.8232     0.0189     2.4964     0.0950   -53.7765     9.4024     8.0926     8.4678     8.4270
  374.5000   110.4256     0.0536     2.5185     0.0681   -53.8619     9.7361     8.0591     8.4327     8.4283
  375.0000   109.5321     0.0295     2.4761     0.0976   -53.9474     9.3597     8.0233     8.3996     8.4295
  375.5000   109.9691     0.0057     2.4566     0.1142   -54.0328     8.7973     7.8386     8.1707     8.4308
  376.0000   110.4934     0.0058     2.4498     0.1150   -54.1182     8.7973     7.6405     7.9630     8.4321
  376.5000   111.2991     0.0153     2.4592     0.1117   -54.2036     8.7892     7.4472     7.7616     8.4334
  377.0000   113.3381     0.0234     2.4721     0.1068   -54.2889     8.7269     7.2590     7.5654     8.4347
  377.5000   113.8502     0.0147     2.4667     0.1038   -54.3743     8.3192     7.0755     7.3742     8.4361
  378.0000   111.9953     0.0104     2.4574     0.1098   -54.4595     7.8648     6.9012     7.1926     8.4391
  378.5000   110.5369     0.0176     2.4533     0.1142   -54.6526     7.4426     6.4750     6.8430     8.4420
  379.0000   111.0544     0.0286     2.4529     0.1133   -54.9409     6.7316     5.7877     6.2520     8.4449
  379.5000   111.3150     0.0331     2.4523     0.1106   -55.2250     6.2404     5.1688     5.7070     8.4479
  380.0000   110.6259     0.0257     2.4546     0.1118   -55.9029     5.7770     4.6173     5.2102     8.4508
  380.5000   111.3562     0.0494     2.4572     0.1070   -56.6975     5.3481     4.1247     4.7573     8.4537
  381.0000   110.6827     0.0392     2.4525     0.1269   -57.4940     4.9510     3.6846     4.3431     8.4566
  381.5000   109.9797     0.0212     2.4110     0.1459   -58.2902     4.7032     3.2377     3.9452     8.4595
  382.0000   111.0403     0.0048     2.3772     0.1583   -59.0859     4.0848     2.8380     3.3354     8.4624
  382.5000   109.3680     0.0039     2.3435     0.1775   -59.8806     3.3566     2.4877     2.7922     8.4653
  383.0000   105.5204     0.0061     2.3097     0.1967   -60.3482     2.7582     2.3763     2.4883     8.4682
  383.5000   101.9832     0.0094     2.2756     0.2092   -60.4444     2.3544     2.3130     2.4446     8.4711
  384.0000   100.5986     0.0264     2.2476     0.2387   -60.4216     2.3051     2.2462     2.4187     8.4741
  384.5000   101.6532     0.0251     2.2243     0.2516   -60.0906     2.6699     2.2068     2.3983     8.4755
  385.0000   100.4143     0.0145     2.2070     0.2661   -59.4324     5.1973     2.2049     2.5222     8.4773
  385.5000   100.5493     0.0060     2.2390     0.2577   -58.8382     5.1236     2.4472     2.6793     8.4791
  386.0000   105.0208    -0.0025     2.2902     0.2271   -58.2969     2.9568     2.6775     2.8574     8.4809
  386.5000   108.8346    -0.0088     2.3357     0.1936   -57.7569     3.6720     3.0438     3.2604     8.4826
  387.0000   112.6306     0.0018     2.3342     0.1880   -57.2131     5.0546     3.4489     3.6966     8.4844
  387.5000   115.4774     0.0150     2.3447     0.1830   -56.6962     6.9301     3.9096     4.1901     8.4861
  388.0000   116.4146    -0.0018     2.3417     0.1887   -56.3597     8.0226     4.4315     4.7495     8.4879
  388.5000   115.1625     0.0143     2.4437     0.1152   -56.0348     7.8331     5.0230     5.3835     8.4897
  389.0000   118.3748     0.0128     2.4589     0.1102   -55.7138     7.6742     5.4307     5.8015     8.4915
  389.5000   121.6915     0.0048     2.4536     0.1141   -55.4821     7.5213     5.6949     6.3033     8.4932
  390.0000   122.8044     0.0029     2.4465     0.1166   -55.4396     7.6927     5.9721     6.7961     8.4950
  390.5000   121.4307     0.0113     2.4466     0.1137   -55.3938     7.8038     6.2624     6.9211     8.4950
  391.0000   120.1897     0.0201     2.4624     0.1091   -55.3486     7.7038     6.6120     6.8617     8.4950
  391.5000   122.1693     0.0288     2.4798     0.1002   -55.3013     7.6190     6.6708     6.9228     8.4950
  392.0000   125.0926     0.0327     2.4809     0.0990   -55.2992     7.5195     6.6746     7.0219     8.4950
  392.5000   123.2384     0.0154     2.4749     0.1013   -55.3652     7.7320     6.5299     7.0514     8.4950
  393.0000   119.6662     0.0215     2.4802     0.1030   -55.6755     7.9503     6.4278     6.7836     8.4950
  393.5000   117.3630     0.0334     2.4924     0.0948   -55.9775     7.7861     6.3308     6.6016     8.4950
  394.0000   117.7495     0.0331     2.4977     0.0902   -56.2881     7.6650     6.1650     6.4393     8.4950
  394.5000   118.7074     0.0094     2.4710     0.1066   -56.4887     8.2555     6.0035     6.2811     8.4950
  395.0000   120.1192     0.0083     2.4686     0.1069   -56.6900     7.2491     5.8317     6.1656     8.4950
  395.5000   121.2309     0.0207     2.4648     0.1070   -56.8929     6.0753     5.5137     6.0516     8.4950
  396.0000   121.6760     0.0273     2.4576     0.1139   -57.0957     5.6970     5.2160     5.9397     8.4950
  396.5000   122.9340     0.0176     2.4403     0.1237   -57.2986     5.3423     4.9254     5.7851     8.4950
  397.0000   124.6108     0.0170     2.4236     0.1346   -57.5015     5.0096     4.8128     5.5408     8.4950
  397.5000   123.7880     0.0510     2.4069     0.1456   -57.7046     4.6976     4.7100     5.3069     8.4950
  398.0000   122.6642     0.0521     2.3938     0.1575   -57.9086     4.5302     4.6069     5.0828     8.4950
  398.5000   120.5057     0.0057     2.4069     0.1479   -58.0968     6.0912     4.5061     4.8682     8.4949
