~VERSION INFORMATION
 VERS.                2.0:   CWLS LOG ASCII STANDARD - VERSION 2.0
 WRAP.                 NO:   ONE LINE PER DEPTH STEP
~WELL INFORMATION
#MNEM.UNIT      DATA TYPE    INFORMATION
#----------   ------------   ------------------------------
 STRT.F          142.0000:   START DEPTH
 STOP.F          940.5000:   STOP DEPTH
 STEP.F            0.5000:   STEP LENGTH
 NULL.          -999.2500:   NO VALUE
 COMP. U S NAVY-INTEX OIL:   COMPANY
 WELL.     RESERVE #44S-2:   WELL
 FLD .             TEAPOT:   FIELD
 LOC .       S2 T38N R78W:   LOCATION
 CNTY.            NATRONA:   COUNTY
 STAT.            WYOMING:   STATE
 CTRY. UNITED STATES OF AMERICA:   COUNTRY
 SRVC. Schlumberger Well Surveying Corp:   SERVICE COMPANY
 DATE.        06-AUG-1959:   LOGDATE
 API .       490250644200:   API NUMBER
~CURVE INFORMATION
#MNEM.UNIT       API CODE    CURVE DESCRIPTION
#----------   ------------   ------------------------------
 DEPT.F                  :   
 ASN .OHMM   05 041 16 00:   AMPLIFIER SHORT NORMAL 16"
 CILD.MMHO   05 110 46 00:   CONDUCTIVITY INDUCTION LOG DEEP
 ILD .OHMM   05 110 46 00:   INDUCTION LOG DEEP
 SPR .MV     05 010 01 00:   SPONTANEOUS POTENTIAL FROM RES.
~PARAMETER INFORMATION
#MNEM.UNIT          VALUE    DESCRIPTION
#----------   ------------   ------------------------------
 LMF .                 KB:   LOG MEASURED FROM
 DMF .                 KB:   DRILLING MEASURED FROM
 EDF .F              5146:   DRILLING FLOOR
 EGL .F              5142:   GROUND LEVEL
 DATE.        06-AUG-1959:   RUN DATE
 RUN .                  1:   RUN NUMBER
 DD  .F               948:   DEPTH DRILLER
 DL  .F               946:   DEPTH LOGGER
 BLI .F               940:   BOTTOM LOG INTERVAL
 TLI .F               143:   TOP LOG INTERVAL
 CBD .F                17:   CASING BOTTOM DRILLER
 BS  .IN             6.75:   BIT SIZE
 BSD .F               948:   BIT SIZE AT DEPTH
 DFT .                GEL:   DRILLING FLUID TYPE
 RMS .OHMM             75:   RESISTIVITY MUD SAMPLE
 MST .F                75:   MUD SAMPLE TEMPERATURE
 TCS .HRS               1:   TIME CURCULATED STOPPED
 LUN .               2754:   LOGGING UNIT NUMBER
 LUL .                 NC:   LOGGING UNIT LOCATION
 ENGI.             QUINBY:   RECORDING ENGINEER
 WITN.             MARTIN:   WITNESSED BY
 CLNT.            A2DTECH:   CLIENT CODE
 ORIG.        2" 5" PRINT:   ORIGIN OF DATA
 UWI .       490250644200:   UNIQUE WELL ID
 DICO. A2D Technologies, Inc.:   DIGITIZING COMPANY
~OTHER INFORMATION
~A   DEPT      ASN       CILD        ILD        SPR   
# ...
  434.0000     7.5835   145.9325     7.5522   -68.0426
  434.5000     7.8997   141.9447     7.6872   -67.9112
  435.0000     8.0646   137.5227     7.7680   -67.9122
  435.5000     8.2927   133.0470     7.8216   -67.9136
  436.0000     8.4903   130.0361     7.8887   -67.9149
  436.5000     8.6288   125.5871     7.8202   -67.9388
  437.0000     8.7127   123.8122     7.6837   -68.0507
  437.5000     8.7460   123.3880     7.5927   -68.0519
  438.0000     8.7669   124.2401     7.4790   -68.1862
  438.5000     8.6179   127.6505     7.3308   -68.2757
  439.0000     8.4452   130.5452     7.2451   -68.3218
  439.5000     8.2656   133.7527     7.1377   -68.3232
  440.0000     8.0650   135.6561     6.9697   -68.4575
  440.5000     7.8990   137.9334     6.8587   -68.4588
  441.0000     7.6423   143.9164     6.7285   -68.4603
  441.5000     7.4345   149.0034     6.7515   -68.4614
  442.0000     7.3155   152.7739     6.8629   -68.4592
  442.5000     7.2900   154.8812     6.9708   -68.3311
  443.0000     7.2900   155.4955     7.0805   -68.1992
  443.5000     7.3171   155.4993     7.2001   -68.0679
  444.0000     7.4392   151.9728     7.2999   -68.0691
  444.5000     7.7549   146.4922     7.4095   -68.0705
  445.0000     7.9946   142.6138     7.5372   -68.0720
  445.5000     8.0967   140.8111     7.6045   -68.0731
  446.0000     8.1474   138.5476     7.6716   -68.0745
  446.5000     8.1707   136.3925     7.6710   -68.0758
  447.0000     8.1654   134.3326     7.6703   -68.0771
  447.5000     8.1155   133.1281     7.6696   -68.2115
  448.0000     8.0670   132.4525     7.6355   -68.2128
  448.5000     8.0873   132.4559     7.6004   -68.3471
  449.0000     8.1707   133.1385     7.5318   -68.3486
  449.5000     8.2614   134.0713     7.5565   -68.3497
  450.0000     8.4192   135.1810     7.5984   -68.3511
  450.5000     8.6450   135.1844     7.5977   -68.3524
  451.0000     8.8707   134.3326     7.5970   -68.3537
  451.5000     9.0664   133.1552     7.5963   -68.2222
  452.0000     9.0921   132.1267     7.5957   -68.1578
  452.5000     9.1057   130.3450     7.5950   -68.0917
  453.0000     9.0244   130.4507     7.5942   -67.9603
  453.5000     8.8877   131.6889     7.5258   -67.8285
  454.0000     8.6874   133.9050     7.4564   -67.8298
  454.5000     8.0217   136.1210     7.3887   -67.6981
  455.0000     7.7818   138.3372     7.3202   -67.5663
  455.5000     7.6965   140.6483     7.3195   -67.5679
  456.0000     7.6965   142.7692     7.2510   -67.7023
  456.5000     7.7146   144.1776     7.2503   -67.6454
  457.0000     7.7371   145.4099     7.2496   -67.5718
  457.5000     7.7507   146.3971     7.2490   -67.4404
  458.0000     7.7341   147.5068     7.2483   -67.4415
  458.5000     7.6965   148.1352     7.2476   -67.4429
  459.0000     7.6629   147.2285     7.3149   -67.5177
  459.5000     7.6558   146.1053     7.3141   -67.5785
  460.0000     7.6965   144.3439     7.3496   -67.5799
  460.5000     7.8354   143.2409     7.3807   -67.7141
  461.0000     7.9675   142.0433     7.3798   -67.7216
  461.5000     8.0030   140.3564     7.4611   -67.8497
  462.0000     8.0217   139.1720     7.5170   -67.8511
  462.5000     8.0352   137.3026     7.5814   -67.8525
  463.0000     8.0352   136.6267     7.6487   -67.6489
  463.5000     8.0488   136.6301     7.6479   -67.5890
  464.0000     8.0488   137.0679     7.6843   -67.5906
  464.5000     8.0300   137.9944     7.7145   -67.4588
  465.0000     8.0077   138.6767     7.7136   -67.3271
  465.5000     7.9636   139.3586     7.7130   -67.3285
  466.0000     7.9404   140.0407     7.7160   -67.3298
  466.5000     7.9539   140.0446     7.7795   -67.3312
  467.0000     8.0233   139.1923     7.7788   -67.3325
  467.5000     8.1116   136.5893     7.8460   -67.3338
  468.0000     8.2114   133.9464     7.9132   -67.3353
  468.5000     8.3106   132.1708     7.9930   -67.4694
  469.0000     8.5006   129.8802     8.1153   -67.4734
  469.5000     8.7318   128.8179     8.1825   -67.6050
  470.0000     8.9512   126.9004     8.1863   -67.7394
  470.5000     8.9973   125.1395     8.2490   -67.8738
  471.0000     8.9897   124.1516     8.1805   -67.8750
  471.5000     8.9677   123.0487     8.1798   -67.8581
  472.0000     8.9431   122.4344     8.1791   -67.7447
  472.5000     8.9371   122.4378     8.1784   -67.6130
  473.0000     8.9295   122.4412     8.1777   -67.6144
  473.5000     8.9295   122.8586     8.2449   -67.5319
  474.0000     8.9475   122.4475     8.3121   -67.3509
  474.5000     9.0108   122.4516     8.3113   -67.3525
  475.0000     9.1125   121.4367     8.4012   -67.2207
  475.5000     9.2970   120.2454     8.4457   -67.2221
  476.0000     9.5257   118.3896     8.5527   -67.2236
  476.5000     9.7175   116.7704     8.6624   -67.3577
  477.0000     9.8449   114.9887     8.7828   -67.3591
  477.5000     9.9164   113.4445     8.9496   -67.4424
  478.0000     9.9879   111.4254     8.9977   -67.5266
  478.5000    10.0594   109.5828     9.1201   -67.6291
  479.0000    10.1308   107.4955     9.2786   -67.6950
  479.5000    10.1626   106.0803     9.3901   -67.8976
  480.0000    10.3026   104.8420     9.4980   -67.8992
  480.5000    10.4555   103.5826     9.5398   -68.0807
  481.0000    10.6369   102.7715     9.6594   -68.1676
  481.5000    10.7330   101.4588     9.6913   -68.2491
  482.0000    10.8401   100.7821     9.7260   -68.3333
  482.5000    10.8401   100.7863     9.7930   -68.4376
  483.0000    10.8196   100.3959     9.7924   -68.4388
  483.5000    10.7046   100.1138     9.7917   -68.4402
  484.0000    10.6287   100.1180     9.6816   -68.3087
  484.5000    10.4886   100.7998     9.5706   -68.1769
  485.0000    10.4336   101.5498     9.4504   -67.9123
  485.5000    10.2981   102.8433     9.3485   -67.8351
  486.0000    10.2931   103.0905     9.3053   -67.7817
  486.5000    10.2304   104.2070     9.2448   -67.7834
  487.0000    10.2304   104.8891     9.2442   -67.6516
  487.5000    10.2981   104.8925     9.2436   -67.6529
  488.0000    10.2981   104.8962     9.2429   -67.6545
  488.5000    10.2835   104.8993     9.2422   -67.6995
  489.0000    10.2304   105.5815     9.2415   -67.7899
  489.5000    10.1107   106.2641     9.2065   -67.7912
  490.0000     9.9593   107.2172     9.0954   -67.9255
  490.5000     9.9836   108.3269     8.9680   -67.9270
  491.0000    10.0135   109.4366     8.9412   -68.0612
  491.5000    10.0135   110.5464     8.8311   -68.1955
  492.0000     9.9848   111.0318     8.7870   -68.1971
  492.5000     9.8780   112.0871     8.7438   -68.1560
  493.0000     9.8229   112.3959     8.6933   -67.9336
  493.5000     9.8103   112.3997     8.6927   -67.8599
  494.0000     9.8238   112.4027     8.6920   -67.6701
  494.5000     9.8374   111.7272     8.6912   -67.5387
  495.0000     9.8516   111.0527     8.6906   -67.4069
  495.5000     9.8916   111.0554     8.6900   -67.2752
  496.0000     9.9093   111.0589     8.6893   -67.1439
  496.5000     9.9187   110.3835     8.7076   -67.1449
  497.0000     9.9399   110.2376     8.7558   -67.1463
  497.5000     9.9484   109.7115     8.6872   -67.1476
  498.0000     9.9593   110.0407     8.6866   -67.1489
  498.5000     9.9276   111.8292     8.6180   -67.1504
  499.0000     9.8458   113.7947     8.4536   -67.2074
  499.5000     9.7425   116.3360     8.2720   -67.4189
  500.0000     9.6838   119.2308     8.0507   -67.4202
  500.5000     9.5799   121.4468     7.9170   -67.4215
  501.0000     9.3996   123.6630     7.7327   -67.4229
  501.5000     9.2057   126.0285     7.6271   -67.4242
  502.0000     8.8347   128.0950     7.5161   -67.4043
  502.5000     8.5535   131.0917     7.3235   -67.2939
  503.0000     8.2759   134.1380     7.2940   -67.1622
  503.5000     8.0488   139.7523     7.2544   -67.0306
  504.0000     7.9886   141.7123     7.3214   -67.0319
  504.5000     7.9404   141.2840     7.3209   -66.9000
  505.0000     7.9925   139.0162     7.3880   -66.9017
  505.5000     8.0922   136.8834     7.4552   -66.8333
  506.0000     8.3855   134.6832     7.5351   -66.7712
  506.5000     8.8058   132.2601     7.5896   -66.7728
