~VERSION INFORMATION
 VERS.                2.0:   CWLS LOG ASCII STANDARD - VERSION 2.0
 WRAP.                 NO:   ONE LINE PER DEPTH STEP
~WELL INFORMATION
#MNEM.UNIT      DATA TYPE    INFORMATION
#----------   ------------   ------------------------------
 STRT.F           60.0000:   START DEPTH
 STOP.F          748.0000:   STOP DEPTH
 STEP.F            0.5000:   STEP LENGTH
 NULL.          -999.2500:   NO VALUE
 COMP.               NAVY:   COMPANY
 WELL.        S-11 #31-11:   WELL
 FLD .             TEAPOT:   FIELD
 LOC .      S11 T38N R78W:   LOCATION
 CNTY.            NATRONA:   COUNTY
 STAT.            WYOMING:   STATE
 CTRY. UNITED STATES OF AMERICA:   COUNTRY
 SRVC.      NL McCullough:   SERVICE COMPANY
 DATE.        10-AUG-1961:   LOGDATE
 API .       490250637600:   API NUMBER
~CURVE INFORMATION
#MNEM.UNIT       API CODE    CURVE DESCRIPTION
#----------   ------------   ------------------------------
 DEPT.F                  :   
 GRN .GAPI   35 310 01 00:   GAMMA RAY
 NEUT.NAPI   35 330 01 00:   NEUTRON
~PARAMETER INFORMATION
#MNEM.UNIT          VALUE    DESCRIPTION
#----------   ------------   ------------------------------
 PD  .                 GL:   PERMANENT DATUM
 EPD .F              5157:   ELEVATION PERMANENT DATUM
 LMF .                 KB:   LOG MEASURED FROM
 DAPD.F                56:   FEET ABOVE PERMANENT DATUM
 DMF .                 KB:   DRILLING MEASURED FROM
 EKB .F              5162:   KELLING BUSHING
 EGL .F              5157:   GROUND LEVEL
 DATE.        10-AUG-1961:   RUN DATE
 RUN .                  1:   RUN NUMBER
 DD  .F               760:   DEPTH DRILLER
 DL  .F               749:   DEPTH LOGGER
 BLI .F               748:   BOTTOM LOG INTERVAL
 TLI .F                60:   TOP LOG INTERVAL
 BS  .IN            7.875:   BIT SIZE
 BSD .F               760:   BIT SIZE AT DEPTH
 DFT .       OIL EMULSION:   DRILLING FLUID TYPE
 DFD .                9.5:   DRILLING FLUID DENSITY
 TCS .HRS            0130:   TIME CURCULATED STOPPED
 ENGI.            JACKSON:   RECORDING ENGINEER
 WITN.          JORGENSEN:   WITNESSED BY
 CLNT.            A2DTECH:   CLIENT CODE
 ORIG.       2", 5" PRINT:   ORIGIN OF DATA
 UWI .       490250637600:   UNIQUE WELL ID
 DICO. A2D Technologies, Inc.:   DIGITIZING COMPANY
~OTHER INFORMATION
~A   DEPT        GRN     NEUT   
# ...
  181.5000     5.7177   440.1590
  182.0000     5.9120   420.3726
  182.5000     6.1417   409.8961
  183.0000     6.1718   406.8759
  183.5000     6.2024   410.5502
  184.0000     6.3685   411.3594
  184.5000     6.4974   406.8126
  185.0000     7.0682   420.9761
  185.5000     6.9286   431.6427
  186.0000     6.7117   445.2432
  186.5000     6.7238   487.3013
  187.0000     6.7174   503.1695
  187.5000     6.4255   502.1750
  188.0000     6.2460   485.4015
  188.5000     6.0078   451.8627
  189.0000     6.0033   448.0822
  189.5000     6.1453   478.9536
  190.0000     6.2767   473.5907
  190.5000     6.3362   462.4549
  191.0000     6.4389   457.7901
  191.5000     6.5453   463.5923
  192.0000     6.6009   475.7688
  192.5000     6.6214   503.3414
  193.0000     6.4567   512.8175
  193.5000     6.3761   518.7287
  194.0000     6.3714   571.1028
  194.5000     6.3274   590.2807
  195.0000     5.6884   552.5764
  195.5000     5.1263   525.6378
  196.0000     4.8800   508.8308
  196.5000     5.3499   530.7025
  197.0000     6.0767   535.9217
  197.5000     6.5632   501.2317
  198.0000     6.6143   489.7993
  198.5000     6.5459   491.8336
  199.0000     6.4766   499.0956
  199.5000     6.3805   483.2356
  200.0000     6.2446   480.0301
  200.5000     6.2119   496.8366
  201.0000     5.9965   514.6483
  201.5000     5.9084   525.3077
  202.0000     6.1733   519.2888
  202.5000     6.3299   477.6530
  203.0000     6.1944   480.0129
  203.5000     5.7265   497.9577
  204.0000     5.6346   491.9275
  204.5000     5.7479   481.5636
  205.0000     5.8668   480.4445
  205.5000     6.0563   482.7480
  206.0000     6.1715   485.1646
  206.5000     6.2025   477.4714
  207.0000     6.2317   458.1488
  207.5000     6.2390   453.3149
  208.0000     6.1837   448.1686
  208.5000     5.9961   450.1745
  209.0000     5.9307   472.0846
  209.5000     6.0895   494.5294
  210.0000     6.2681   502.1859
  210.5000     6.2941   495.6770
  211.0000     6.4950   490.9796
  211.5000     6.6067   487.7980
  212.0000     6.5539   501.7431
  212.5000     6.6610   505.1808
  213.0000     6.7503   507.3212
  213.5000     6.5849   514.4846
  214.0000     6.1947   529.8867
  214.5000     6.0121   517.6951
  215.0000     6.0074   501.9623
  215.5000     6.0612   504.9487
  216.0000     6.1563   507.8725
  216.5000     6.2197   506.8970
  217.0000     6.2476   489.8073
  217.5000     6.2648   483.8729
  218.0000     6.2645   474.6938
  218.5000     6.2659   465.3581
  219.0000     6.3777   459.3317
  219.5000     6.7864   457.2916
  220.0000     7.0970   460.7385
  220.5000     6.5437   466.3620
  221.0000     6.5208   472.4362
  221.5000     6.7857   479.2653
  222.0000     6.8565   483.5551
  222.5000     6.6859   488.4015
  223.0000     6.5501   491.8026
  223.5000     6.3079   465.3994
  224.0000     6.2921   460.8591
  224.5000     6.6277   464.6039
  225.0000     6.7973   468.6636
  225.5000     6.8010   466.8227
  226.0000     6.6940   473.5770
  226.5000     6.6016   476.9944
  227.0000     6.9347   466.2399
  227.5000     7.0888   454.1260
  228.0000     6.9873   450.6607
  228.5000     6.5553   450.1043
  229.0000     6.4430   457.5803
  229.5000     6.3805   471.5244
  230.0000     6.3075   485.4526
  230.5000     6.2577   497.6669
  231.0000     6.2258   508.0352
  231.5000     6.1825   517.0184
  232.0000     6.0991   533.2377
  232.5000     6.0566   602.1458
  233.0000     6.0445   619.2818
  233.5000     6.0302   621.6969
  234.0000     5.4092   559.1218
  234.5000     5.3480   526.6993
  235.0000     5.6516   474.9686
  235.5000     6.2453   479.1332
  236.0000     6.4048   483.6754
  236.5000     6.2173   480.6832
  237.0000     6.1271   482.6676
  237.5000     6.1420   495.6628
  238.0000     6.2372   502.1653
  238.5000     6.4067   499.3888
  239.0000     6.5339   493.9964
  239.5000     6.5930   496.3284
  240.0000     6.8303   517.4048
  240.5000     7.0328   532.9094
  241.0000     7.1253   541.4775
  241.5000     6.6588   536.9857
  242.0000     6.3066   526.8380
  242.5000     6.0640   530.1039
  243.0000     5.9460   579.4650
  243.5000     5.8901   565.6531
  244.0000     5.8057   497.6302
  244.5000     5.7621   467.5997
  245.0000     5.5401   486.2846
  245.5000     5.5614   499.6858
  246.0000     5.8811   507.1593
  246.5000     6.2213   518.6187
  247.0000     6.4714   526.6917
  247.5000     6.6299   530.6895
  248.0000     6.3948   525.3311
  248.5000     6.4753   501.4434
  249.0000     6.7732   489.8709
  249.5000     6.8321   497.4825
  250.0000     6.5492   514.1922
  250.5000     6.2194   547.0731
  251.0000     6.0856   561.3970
  251.5000     5.9614   572.6852
  252.0000     6.0524   568.3497
  252.5000     6.1983   546.1575
  253.0000     6.3244   528.1218
  253.5000     6.1217   521.3264
  254.0000     5.7633   524.0691
  254.5000     5.8540   528.8056
  255.0000     5.7614   504.4470
  255.5000     5.5354   485.0561
  256.0000     6.0267   481.5276
  256.5000     6.3531   491.0954
  257.0000     6.3074   507.5936
  257.5000     6.2702   519.0340
  258.0000     6.2785   523.3768
  258.5000     6.3218   440.4552
  259.0000     6.3293   438.1805
  259.5000     6.2987   462.2671
  260.0000     6.0283   462.7983
  260.5000     6.0028   447.7435
  261.0000     6.1313   440.3434
  261.5000     6.2843   446.8940
  262.0000     6.5252   451.6052
  262.5000     6.8096   447.4380
  263.0000     7.1831   444.7811
  263.5000     7.2363   453.7961
  264.0000     7.2215   476.1405
  264.5000     7.1541   480.8831
  265.0000     6.9856   455.9870
  265.5000     6.7678   450.9421
  266.0000     6.4851   459.7130
  266.5000     6.5856   493.1775
  267.0000     6.7231   518.8771
  267.5000     6.9617   512.3937
  268.0000     7.0502   490.5299
  268.5000     6.9569   483.7158
  269.0000     6.8877   503.4509
  269.5000     7.0428   525.2123
  270.0000     7.1424   514.5427
  270.5000     7.0134   504.6694
  271.0000     6.9223   499.9829
  271.5000     7.1872   495.3703
  272.0000     7.4365   487.3207
  272.5000     7.6036   473.6429
  273.0000     7.2508   456.3820
  273.5000     7.0547   476.5005
  274.0000     6.9739   504.3557
  274.5000     6.8925   506.2031
  275.0000     6.8131   506.4052
  275.5000     6.8975   526.7587
  276.0000     7.1055   560.2112
  276.5000     7.2076   542.0676
  277.0000     7.1981   536.8334
  277.5000     7.1093   531.1292
  278.0000     6.9494   526.8976
  278.5000     6.7727   529.2278
  279.0000     6.5371   559.6843
  279.5000     6.0884   602.2831
  280.0000     6.0016   628.4853
  280.5000     6.2892   624.8038
  281.0000     6.0990   599.8243
  281.5000     5.9232   555.9979
  282.0000     5.9778   515.5096
  282.5000     6.1141   541.1035
  283.0000     6.2274   526.9024
  283.5000     6.2014   505.6433
  284.0000     6.2497   508.1048
  284.5000     6.1661   539.4808
  285.0000     6.1795   559.8312
  285.5000     6.2289   560.4108
  286.0000     6.3245   555.1769
  286.5000     6.5685   549.2806
  287.0000     6.8014   545.0389
  287.5000     6.8011   542.3871
  288.0000     6.8142   537.1311
  288.5000     7.0279   514.4545
  289.0000     7.1079   491.8274
  289.5000     6.9444   477.0923
  290.0000     6.4687   467.6710
  290.5000     6.6296   470.2937
  291.0000     6.8223   482.1100
  291.5000     6.8257   490.9621
  292.0000     6.8153   495.6139
  292.5000     6.6170   500.0062
  293.0000     6.5484   500.6933
  293.5000     6.5181   500.4485
  294.0000     6.6229   499.8933
  294.5000     6.7600   499.4712
  295.0000     6.7901   498.2290
  295.5000     6.7399   496.0555
  296.0000     6.6458   488.8918
  296.5000     6.7218   476.3857
  297.0000     6.9444   468.6763
  297.5000     6.9812   467.3323
  298.0000     6.7903   467.3078
  298.5000     6.7269   467.6476
  299.0000     6.8565   465.0766
  299.5000     7.2143   440.8626
  300.0000     7.4848   430.6159
  300.5000     7.6815   413.8651
  301.0000     7.6508   396.5257
  301.5000     7.5217   382.6568
  302.0000     7.3888   376.1968
  302.5000     7.1365   393.4426
