~VERSION INFORMATION
 VERS.                2.0:   CWLS LOG ASCII STANDARD - VERSION 2.0
 WRAP.                 NO:   ONE LINE PER DEPTH STEP
~WELL INFORMATION
#MNEM.UNIT      DATA TYPE    INFORMATION
#----------   ------------   ------------------------------
 STRT.F            2.5000:   START DEPTH
 STOP.F         1003.0000:   STOP DEPTH
 STEP.F            0.5000:   STEP LENGTH
 NULL.          -999.2500:   NO VALUE
 COMP. U S NAVY-INTEX OIL:   COMPANY
 WELL.   NPR #3 #87-SX-27:   WELL
 FLD .             TEAPOT:   FIELD
 LOC .      S27 T39N R78W:   LOCATION
 CNTY.            NATRONA:   COUNTY
 STAT.            WYOMING:   STATE
 CTRY. UNITED STATES OF AMERICA:   COUNTRY
 SRVC. Schlumberger Well Surveying Corp:   SERVICE COMPANY
 DATE.        13-AUG-1961:   LOGDATE
 API .       490250659000:   API NUMBER
~CURVE INFORMATION
#MNEM.UNIT       API CODE    CURVE DESCRIPTION
#----------   ------------   ------------------------------
 DEPT.F                  :   
 ASN .OHMM   05 041 16 00:   AMPLIFIER SHORT NORMAL
 SPR .MV     05 010 01 00:   SPONTANEOUS POTENSIAL
 CILD.MMHO   05 110 46 00:   CONDUCTIVITY INDUCTION LOG DEEP
 ILD .OHMM   05 120 46 00:   INDUCTION LOG DEEP
 GRN .MG/TON 35 310 30 00:   GAMMA RAY
 NEUT.NAPI   35 330 01 00:   NEUTRON
~PARAMETER INFORMATION
#MNEM.UNIT          VALUE    DESCRIPTION
#----------   ------------   ------------------------------
 PD  .                 GL:   PERMANENT DATUM
 EPD .F              5082:   ELEVATION PERMANENT DATUM
 LMF .                 KB:   LOG MEASURED FROM
 DAPD.F                 5:   FEET ABOVE PERMANENT DATUM
 DMF .                 KB:   DRILLING MEASURED FROM
 EKB .F              5087:   KELLING BUSHING
 EGL .F              5082:   GROUND LEVEL
 DATE.        13-AUG-1961:   RUN DATE
 RUN .                  1:   RUN NUMBER
 DD  .F              1000:   DEPTH DRILLER
 DL  .F              1003:   DEPTH LOGGER
 BLI .F              1002:   BOTTOM LOG INTERVAL
 TLI .F                90:   TOP LOG INTERVAL
 BS  .IN             6.75:   BIT SIZE
 BSD .F              1000:   BIT SIZE AT DEPTH
 DFT . OIL EMUL (12% OIL):   DRILLING FLUID TYPE
 DFD .                9.3:   DRILLING FLUID DENSITY
 DFV .                 60:   DRILLING FLUID VISCOSITY
 DFL .                  4:   DRILLING FLUID LOSS
 MSS .           FLOWLINE:   MUD SAMPLE SOURCE
 RMS .OHMM           1.29:   RESISTIVITY MUD SAMPLE
 MST .F                80:   MUD SAMPLE TEMPERATURE
 TCS .HRS               1:   TIME CURCULATED STOPPED
 LUN .               2523:   LOGGING UNIT NUMBER
 LUL .               CSPR:   LOGGING UNIT LOCATION
 ENGI.              SCOTT:   RECORDING ENGINEER
 WITN.          JORGENSEN:   WITNESSED BY
 CLNT.            A2DTECH:   CLIENT CODE
 ORIG.       2", 5" PRINT:   ORIGIN OF DATA
 UWI .       490250659000:   UNIQUE WELL ID
 DICO. A2D Technologies, Inc.:   DIGITIZING COMPANY
~OTHER INFORMATION
~A    DEPT     ASN        SPR       CILD        ILD          GRN     NEUT   
# ...
  418.5000     6.9379   -12.5751   153.1532     5.8121     6.2772   254.3438
  419.0000     6.9520   -12.1622   154.8748     5.7372     6.1716   258.9721
  419.5000     6.9520   -12.0120   156.1562     5.6995     6.0516   266.0143
  420.0000     6.9520   -11.8619   158.2583     5.5873     5.9653   271.9761
  420.5000     6.9436   -11.8994   159.1592     5.5125     5.9074   270.9675
  421.0000     6.9369   -12.3874   160.1401     5.4834     5.9296   266.7388
  421.5000     6.9219   -12.9129   162.1622     5.4379     6.0278   264.9059
  422.0000     6.9219   -13.1381   163.6637     5.4383     5.9448   263.6812
  422.5000     6.9219   -13.2320   165.1652     5.3633     5.9171   264.4267
  423.0000     6.9219   -13.3634   165.1652     5.3637     5.8918   267.2140
  423.5000     6.9219   -13.3634   165.1652     5.3641     5.8671   274.2749
  424.0000     6.9219   -13.3634   165.1652     5.4398     5.8539   288.1413
  424.5000     6.9301   -13.3634   165.1652     5.4402     5.8613   313.2979
  425.0000     6.9369   -13.3258   164.1641     5.5158     5.9969   338.0084
  425.5000     6.9369   -13.2132   163.2233     5.5949     6.0774   360.1905
  426.0000     6.9431   -13.2132   160.6607     5.7179     6.1022   377.6442
  426.5000     6.9697   -13.2132   158.3383     6.0596     6.1055   388.0773
  427.0000     7.1213   -13.0631   155.6356     6.6469     6.0191   401.7164
  427.5000     7.3826   -12.9129   150.1501     7.1166     5.7852   407.2492
  428.0000     7.6727   -12.7628   145.2254     7.6687     5.6575   407.9438
  428.5000     7.7955   -12.6126   137.9780     8.0034     5.5599   402.0953
  429.0000     7.9221   -12.4249   130.6306     8.2964     5.4834   386.8546
  429.5000     8.0330   -12.3123   124.2841     8.6926     5.4573   378.1392
  430.0000     8.1261   -12.4624   115.6156     9.0588     5.5570   370.0322
  430.5000     8.2146   -12.7815   107.0872     9.1344     5.8298   346.9138
  431.0000     8.3315   -13.2132   103.6036     9.1348     5.8266   335.1642
  431.5000     8.4425   -13.2695   103.6036     9.0599     5.8718   321.0618
  432.0000     8.4685   -13.3634   104.2643     8.9689     5.9802   302.1694
  432.5000     8.4452   -13.2695   105.1051     8.7594     6.0006   270.7425
  433.0000     8.3360   -13.2132   108.1081     8.3923     6.0327   257.9774
  433.5000     8.0180   -13.0631   110.5706     7.9022     5.9952   249.7539
  434.0000     7.7299   -12.8378   118.6186     7.4052     5.9449   221.0411
  434.5000     7.3835   -12.6126   142.2632     6.8904     5.9344   161.1658
  435.0000     6.7783   -12.4625   186.1844     6.0505     5.9343   122.9421
  435.5000     6.0641   -12.4625   255.3962     5.0631     5.9342   113.5301
  436.0000     5.4204   -12.4625   320.6762     2.9608     5.9265   113.0525
  436.5000     4.9540   -12.6126   385.5051     1.3076     5.9146   136.5721
  437.0000     3.6614   -12.8003   438.2587     1.1953     5.9020   158.8662
  437.5000     3.3483   -12.9129   494.9962     1.0730     5.8885   178.9050
  438.0000     3.2340   -13.0631   543.9627     1.0075     5.8769   226.1165
  438.5000     3.0480   -13.2132   572.0721     1.0366     5.8643   253.3926
  439.0000     2.9994   -12.9129   551.1512     1.1604     5.8429   355.1503
  439.5000     2.9880   -12.6502   511.6313     1.4060     5.7873   453.3174
  440.0000     3.2132   -12.3123   468.4685     1.8825     5.6226   491.9761
  440.5000     3.7281   -12.2185   403.8470     2.6661     5.2094   508.5305
  441.0000     4.5706   -12.3499   265.7462     3.6953     4.6380   503.3885
  441.5000     5.1952   -12.6126   216.2162     4.8987     4.3158   505.8699
  442.0000     6.1886   -12.9880   167.9867     8.4654     4.2967   520.5745
  442.5000     7.0120   -13.2508   102.1021    10.9124     4.3687   528.4909
  443.0000     9.1968   -13.6637    82.7030    12.6519     4.4738   534.2183
  443.5000    10.4217   -13.8701    68.2283    14.4138     4.6509   528.1313
  444.0000    10.8999   -13.9640    63.0631    14.9649     4.7924   507.6543
  444.5000    11.0360   -13.8138    63.0631    14.9432     4.8919   471.3293
  445.0000    11.0360   -13.4385    64.9647    14.3449     4.9148   424.8531
  445.5000    10.8816   -13.0631    78.0781    13.5913     4.8411   398.0802
  446.0000    10.5856   -12.6877    89.4895    11.8570     4.6956   393.7074
  446.5000    10.1828   -12.4437   102.1021    10.4853     4.7076   403.1642
  447.0000     9.8249   -12.3123   110.6909     9.2641     4.7143   435.0785
  447.5000     9.5751   -12.1059   119.5193     7.8672     4.7405   459.7184
  448.0000     9.1417   -12.0120   130.6306     7.4187     4.7959   469.9203
  448.5000     8.3333   -12.0120   138.6787     7.1148     4.8383   491.4685
  449.0000     7.8775   -12.0120   144.2643     7.4076     4.7628   499.1592
  449.5000     7.7765   -12.3123   147.1471     8.0211     4.5583   500.6341
  450.0000     7.7778   -12.5375   137.1375     8.8479     4.4975   489.3950
  450.5000     8.0634   -12.7815   120.1201     9.3291     4.4835   467.9998
  451.0000     9.9654   -13.2132   110.5905     9.7658     4.5960   455.7427
  451.5000    10.2505   -13.4197   104.4644    10.1292     4.7584   444.1361
  452.0000    10.4715   -13.5135    99.0991    10.3323     4.8149   441.3951
  452.5000    10.8108   -13.7575    96.8969    10.5064     4.8330   440.9236
  453.0000    10.9470   -13.9640    93.0931    10.7028     4.8448   444.5775
  453.5000    11.1862   -14.1141    91.5916    10.9011     4.8447   452.7476
  454.0000    11.2843   -14.3393    91.0710    11.0347     4.8550   455.5118
  454.5000    11.3571   -14.4332    90.0901    11.1103     4.8909   455.7851
  455.0000    11.4114   -14.5646    89.1892    11.1195     5.1308   420.9961
  455.5000    11.3721   -14.7147    88.2482    11.2617     5.2714   413.1934
  456.0000    11.3363   -14.8649    87.0871    11.2620     5.2888   407.9027
  456.5000    11.3363   -14.8649    87.0871    11.2624     5.2887   403.5990
  457.0000    11.3363   -15.0150    85.5856    11.2628     5.2962   399.0821
  457.5000    11.3376   -14.8649    84.0841    11.2632     5.2357   395.7218
  458.0000    11.4114   -14.8649    84.0841    11.2636     5.1393   394.5627
  458.5000    11.4865   -14.8649    84.0841    11.2639     5.0964   398.2774
  459.0000    11.6366   -14.7147    82.5826    11.3504     4.9414   402.5195
  459.5000    11.8634   -14.3018    82.2223    11.4153     4.8604   403.2688
  460.0000    12.0220   -13.8138    81.0811    11.5964     4.8070   387.7202
  460.5000    12.1622   -13.4760    81.0811    11.7968     4.7602   380.4697
  461.0000    12.2372   -13.3634    80.9008    12.0424     4.8398   379.4305
  461.5000    12.3126   -13.6637    79.5796    12.2451     5.0673   375.8818
  462.0000    12.3874   -13.9640    79.5796    12.3208     5.1292   367.8003
  462.5000    12.4625   -14.2830    79.5796    12.3212     5.1696   380.1731
  463.0000    12.4625   -14.7147    79.5796    12.3215     5.2118   393.3198
  463.5000    12.5003   -14.8273    81.0811    12.3220     5.3399   396.9109
  464.0000    12.4625   -15.0150    81.0811    12.2470     5.3762   399.8867
  464.5000    12.4625   -15.2590    81.0811    12.2474     5.3925   403.9131
  465.0000    12.4625   -15.4655    81.0811    12.2478     5.3622   405.8132
  465.5000    12.4625   -15.6156    79.5796    12.3234     5.2704   408.0552
  466.0000    12.5085   -15.6156    79.5796    12.3991     5.1195   406.9151
  466.5000    12.5375   -15.6156    78.0781    12.5604     4.9774   383.5431
  467.0000    12.6877   -15.4655    78.0781    12.7159     4.8873   361.6638
  467.5000    12.7603   -15.4655    77.6777    12.7768     4.8264   360.9162
  468.0000    12.9289   -15.3153    76.5766    12.8695     4.7726   373.2458
  468.5000    13.1381   -15.3153    75.0751    12.9342     4.7081   378.7952
  469.0000    13.3413   -15.3153    73.3534    13.0791     4.7130   379.0053
  469.5000    13.5135   -15.3153    70.5706    13.3319     4.8560   363.3707
  470.0000    13.7087   -15.4655    67.8678    13.7575     4.9518   337.7431
