~VERSION INFORMATION
 VERS.                2.0:   CWLS LOG ASCII STANDARD - VERSION 2.0
 WRAP.                 NO:   ONE LINE PER DEPTH STEP
~WELL INFORMATION
#MNEM.UNIT      DATA TYPE    INFORMATION
#----------   ------------   ------------------------------
 STRT.F           36.0000:   START DEPTH
 STOP.F          557.0000:   STOP DEPTH
 STEP.F            0.5000:   STEP LENGTH
 NULL.          -999.2500:   NO VALUE
 COMP. FENIX & SCISSON U.S. NAVY:   COMPANY
 WELL.        NPR #62-S-3:   WELL
 FLD .             TEAPOT:   FIELD
 LOC .       S3 T38N R78W:   LOCATION
 CNTY.            NATRONA:   COUNTY
 STAT.            WYOMING:   STATE
 CTRY. UNITED STATES OF AMERICA:   COUNTRY
 SRVC.              Welex:   SERVICE COMPANY
 DATE.        07-MAY-1977:   LOGDATE
 API .       490251035000:   API NUMBER
~CURVE INFORMATION
#MNEM.UNIT       API CODE    CURVE DESCRIPTION
#----------   ------------   ------------------------------
 DEPT.F                  :   
 SPR .MV     07 010 01 00:   SPONTANEOUS POTENTIAL
 ILD .OHMM   07 120 46 00:   INDUCTION LOG DEEP
 ILM .OHMM   07 120 44 00:   INDUCTION LOG MEDIUM
 SGRD.OHMM   07 221 05 00:   SHALLOW SHORT GUARD RESISTIVITY
 GRD .GAPI   45 310 01 00:   GAMMA RAY FROM DENSITY LOG
 CALD.IN     45 280 60 00:   CALIPER FROM DENSITY LOG
 CORR.G/C3   45 356 01 00:   DENSITY CORRECTION
 RHOB.G/C3   45 350 01 00:   BULK DENSITY
 DPHI.DEC    45 890 12 00:   DENSITY POROSITY SANDSTONE
 NEUT.NAPI   35 330 01 00:   NEUTRON
~PARAMETER INFORMATION
#MNEM.UNIT          VALUE    DESCRIPTION
#----------   ------------   ------------------------------
 PD  .                 GL:   PERMANENT DATUM
 EPD .F              5136:   ELEVATION PERMANENT DATUM
 LMF .                 GL:   LOG MEASURED FROM
 DMF .                 GL:   DRILLING MEASURED FROM
 EGL .F              5136:   GROUND LEVEL
 DATE.        07-MAY-1977:   RUN DATE
 RUN .                  1:   RUN NUMBER
 DD  .F               560:   DEPTH DRILLER
 DL  .F               560:   DEPTH LOGGER
 BLI .F               558:   BOTTOM LOG INTERVAL
 TLI .F                35:   TOP LOG INTERVAL
 CS  .IN            8.625:   CASING SIZE
 CBD .F                40:   CASING BOTTOM DRILLER
 CBL .F                42:   CASING BOTTOM LOGGER
 BS  .IN            7.875:   BIT SIZE
 BSD .F               560:   BIT SIZE AT DEPTH
 DFT .             KCLMUD:   DRILLING FLUID TYPE
 DFD .                8.8:   DRILLING FLUID DENSITY
 MSS .           FLOWLINE:   MUD SAMPLE SOURCE
 RMS .OHMM           0.24:   RESISTIVITY MUD SAMPLE
 MST .F                60:   MUD SAMPLE TEMPERATURE
 RMF .OHMM           0.20:   RESISTIVITY MUD FILTRATE SAMPLE
 MFST.F                60:   MUD FILTRATE SAMPLE TEMPERATURE
 RMC .OHMM           0.29:   RESISTIVITY MUD CAKE
 MCST.F                60:   MUD CAKE SAMPLE TEMPERATURE
 MFSS.               MEAS:   MUD FILTRATE SAMPLE SOURCE
 MCSS.               MEAS:   MUD CAKE SAMPLE SOURCE
 RMB .OHMM             17:   RESISTIVITY MUD AT BHT
 BHT .F                71:   BOTTOM HOLE TEMPERATURE
 TCS .HRS            0230:   TIME CURCULATED STOPPED
 MRT .F                71:   MAXIMUM RECORDED TEMPERATURE
 LUN .               8611:   LOGGING UNIT NUMBER
 LUL .           GILLETTE:   LOGGING UNIT LOCATION
 ENGI.            C. DOCK:   RECORDING ENGINEER
 WITN.           ROB LYON:   WITNESSED BY
 CLNT.            A2DTECH:   CLIENT CODE
 ORIG.           5" PRINT:   ORIGIN OF DATA
 UWI .       490251035000:   UNIQUE WELL ID
 DICO. A2D Technologies, Inc.:   DIGITIZING COMPANY
~OTHER INFORMATION
~A   DEPT      SPR        ILD        ILM       SGRD        GRD       CALD       CORR       RHOB       DPHI       NEUT   
# ...
  337.5000   -43.1051     8.3817    11.2674    13.0562   123.1745     7.7949    -0.0030     2.5073     0.1025   379.6698
  338.0000   -43.0918     8.4444    11.3503    13.1525   121.8476     7.7960    -0.0029     2.5066     0.1018   380.7952
  338.5000   -43.0785     8.5075    10.9722    13.1579   119.6252     7.7970    -0.0029     2.5007     0.1015   382.1455
  339.0000   -43.0652     8.5710    10.4595    13.1633   119.1897     7.7981    -0.0028     2.4992     0.1015   380.7952
  339.5000   -43.0520     8.5757    10.2490    13.0764   122.7923     7.7991    -0.0027     2.4985     0.1026   372.6932
  340.0000   -43.0387     8.5803    10.4710    12.4632   125.0475     7.8001    -0.0026     2.4963     0.1065   364.5912
  340.5000   -43.0254     8.5849    10.8453    12.0434   122.8251     7.8012    -0.0033     2.4926     0.1116   356.2642
  341.0000   -43.0121     8.4718    11.3895    11.8812   117.9161     7.8022    -0.0055     2.4845     0.1152   353.7885
  341.5000   -42.9988     8.3601    11.7966    12.3068   113.0071     7.8031    -0.0069     2.4822     0.1154   355.1388
  342.0000   -42.9856     8.2499    11.8031    12.5707   110.9339     7.8192    -0.0061     2.4868     0.1133   360.5401
  342.5000   -42.9723     8.0825    11.4859    13.2015   110.4985     7.8203    -0.0045     2.4914     0.1115   365.9415
  343.0000   -42.9590     7.6974    11.3344    13.7682   111.7130     7.8213    -0.0029     2.4922     0.1102   368.6422
  343.5000   -43.0954     7.2347    11.6603    14.1613   112.7741     7.8072    -0.0014     2.4877     0.1096   364.3662
  344.0000   -43.2310     6.8096    11.7460    14.2643   113.6860     7.7933    -0.0013     2.4855     0.1129   352.4381
  344.5000   -43.8134     6.5360    11.0449    14.5717   114.5979     7.7794    -0.0012     2.4893     0.1107   337.5844
  345.0000   -44.0984     6.3168     8.9807    14.1789   116.4054     7.7655    -0.0011     2.4856     0.1137   321.3803
  345.5000   -43.9358     6.1049     7.8794    10.0979   119.7053     7.7519    -0.0003     2.4759     0.1233   310.5776
  346.0000   -43.1754     5.9002     6.5865     6.2601   122.2549     7.7529     0.0013     2.4639     0.1290   315.9790
  346.5000   -42.2539     5.7895     5.9409     5.9457   121.2293     7.7540     0.0021     2.4633     0.1253   327.6815
  347.0000   -41.4833     5.9146     7.5195     8.5602   114.9770     7.7550     0.0022     2.4696     0.1133   351.0878
  347.5000   -40.7327     6.2108     9.0676    12.1977   104.8441     7.7561     0.0023     2.4814     0.1060   367.2918
  348.0000   -39.9940     6.5671     9.8575    15.2350   100.9799     7.7571     0.0016     2.5009     0.0991   376.7442
  348.5000   -39.3819     6.9438    11.6434    15.3473   103.0859     7.7731     0.0002     2.5227     0.0930   382.1455
  349.0000   -38.7725     7.3929    13.1938    16.0061   106.6843     7.7741    -0.0005     2.5167     0.0924   382.1455
  349.5000   -38.1631     7.8711    12.3191    16.3494   111.1783     7.7752    -0.0020     2.5078     0.0981   379.2199
  350.0000   -37.5326     8.4383    11.8250    16.3115   112.7613     7.7762    -0.0034     2.5020     0.1014   373.6769
  350.5000   -37.2363     8.9223    11.9145    16.1387   111.0618     7.7778    -0.0031     2.5004     0.1026   369.0956
  351.0000   -36.9419     9.4341    10.9726    16.1465   110.4812     7.7794    -0.0029     2.4990     0.1039   365.9933
  351.5000   -36.3249     9.9753    11.8471    15.8217   110.6469     7.7810    -0.0026     2.4968     0.1049   364.6689
  352.0000   -35.4178    10.4028    14.0915    15.3963   110.2149     7.7827    -0.0023     2.4961     0.1057   364.7013
  352.5000   -34.6697    10.6262    14.1981    14.9823   107.9944     7.7843    -0.0015     2.4954     0.1066   364.7272
  353.0000   -33.9135    10.8545    13.5357    14.6809   105.0257     7.8009     0.0001     2.4992     0.1081   370.1545
  353.5000   -33.3065    11.5566    14.0206    14.4857    99.3705     7.7876     0.0025     2.4888     0.1104   380.9895
  354.0000   -32.6995    12.5617    16.1100    15.4262    87.5958     7.7893     0.0033     2.4761     0.1146   393.1684
  354.5000   -32.0924    13.5738    20.5339    18.4835    74.1794     7.7909     0.0041     2.4604     0.1236   406.6977
  355.0000   -31.4853    15.0894    18.8480    28.2313    61.2107     7.7776     0.0042     2.4395     0.1368   420.2270
  355.5000   -30.8783    16.7595    17.6563    40.2306    57.6450     7.7793     0.0028     2.4201     0.1467   420.6033
  356.0000   -30.2951    18.9939    26.9415    29.6645    56.0155     7.7809     0.0014     2.4051     0.1623   414.8238
  356.5000   -29.6900    21.4999    23.3147    33.6252    60.0658     7.7825     0.0000     2.3865     0.1719   404.1071
  357.0000   -29.2062    19.0485    22.2234    33.1781    63.3657     7.7842    -0.0015     2.3895     0.1727   397.3813
  357.5000   -28.4781    17.9699    23.3437    26.0400    66.3672     7.7859    -0.0014     2.3753     0.1823   392.0059
  358.0000   -28.0221    20.8506    24.5166    27.5390    69.0702     7.7875    -0.0013     2.3567     0.1883   385.2802
  358.5000   -27.7151    22.7559    24.6983    33.2265    71.9224     7.7891    -0.0012     2.3604     0.1873   379.9047
  359.0000   -27.1101    18.1689    23.7130    29.7511    75.2223     7.7907    -0.0004     2.3740     0.1819   374.4486
  359.5000   -26.6541    16.8174    23.2370    29.9727    77.6268     7.7924     0.0005     2.3680     0.1801   367.8099
  360.0000   -26.1981    16.7132    23.4164    29.3698    78.0868     7.7944     0.0005     2.3666     0.1821   365.1287
  360.5000   -26.1892    17.0917    23.7573    29.3415    74.2267     7.7807     0.0014     2.3671     0.1833   362.4604
  361.0000   -26.6296    18.3646    24.6084    31.7289    72.0043     7.7827     0.0015     2.3577     0.1893   361.1295
  361.5000   -26.4694    20.8572    25.6667    26.8768    70.6774     7.7690     0.0015     2.3488     0.1935   361.1619
  362.0000   -26.0134    23.2621    28.4896    32.2034    69.0520     7.7557     0.0016     2.3436     0.1979   361.1883
  362.5000   -25.5574    25.0892    40.2816    33.5881    68.6165     7.7578     0.0009     2.3429     0.1937   359.8633
  363.0000   -25.3994    26.7186    68.6449    38.6044    69.8310     7.7743     0.0003     2.3609     0.1879   359.8957
  363.5000   -25.0925    28.4181    55.4352    49.0807    71.0414     7.7909    -0.0011     2.3692     0.1840   359.9216
  364.0000   -24.7855    29.6419    18.4747    37.0669    72.8489     7.7925    -0.0033     2.3341     0.1960   357.2469
  364.5000   -24.4785    30.0360    19.2693    30.7519    74.8055     7.8240    -0.0040     2.3274     0.2050   354.5717
  365.0000   -24.3206    29.2420    24.7312    35.8384    76.1611     7.8403    -0.0039     2.3304     0.2079   350.5470
  365.5000   -24.3117    28.4651    38.5219    39.0234    73.6443     7.8419    -0.0031     2.3335     0.2052   349.2225
  366.0000   -24.6030    27.7088    21.2676    34.4111    72.1681     7.8287    -0.0030     2.3365     0.2025   349.2549
  366.5000   -24.7432    27.1595    22.1823    40.1028    70.3935     7.8452    -0.0014     2.3373     0.1997   350.6312
  367.0000   -24.7320    27.1782    23.1328    47.2106    70.8576     7.8469    -0.0006     2.3434     0.1985   354.7081
  367.5000   -24.1270    27.5751    22.8293    33.7517    71.1684     7.8485     0.0003     2.3457     0.1982   361.4857
  368.0000   -23.6710    28.5634    23.8149    35.9430    68.8008     7.8352     0.0019     2.3450     0.1969   371.1270
  368.5000   -23.5130    29.5870    25.1850    36.5251    67.3247     7.8219     0.0019     2.3540     0.1933   381.7990
  369.0000   -23.5041    30.6474    27.0049    34.5110    66.7433     7.8236     0.0028     2.3608     0.1872   392.6277
  369.5000   -23.4952    31.5273    29.7684    49.8671    67.0589     7.8252     0.0029     2.3766     0.1791   392.6536
  370.0000   -23.4863    32.4325    34.6810    59.3371    68.1201     7.8269     0.0037     2.3901     0.1688   387.2717
  370.5000   -23.4774    33.1341    40.1259    51.3197    69.0320     7.8285     0.0053     2.3999     0.1619   387.3040
