~VERSION INFORMATION
 VERS.                2.0:   CWLS LOG ASCII STANDARD - VERSION 2.0
 WRAP.                 NO:   ONE LINE PER DEPTH STEP
~WELL INFORMATION
#MNEM.UNIT      DATA TYPE    INFORMATION
#----------   ------------   ------------------------------
 STRT.F           46.0000:   START DEPTH
 STOP.F          670.0000:   STOP DEPTH
 STEP.F            0.5000:   STEP LENGTH
 NULL.          -999.2500:   NO VALUE
 COMP. FENIX & SCISSON INC:   COMPANY
 WELL. TEAPOT #27 62SX 11WI-11:   WELL
 FLD .             TEAPOT:   FIELD
 LOC .      S11 T38N R78W:   LOCATION
 CNTY.            NATRONA:   COUNTY
 STAT.            WYOMING:   STATE
 CTRY. UNITED STATES OF AMERICA:   COUNTRY
 SRVC.      Dresser Atlas:   SERVICE COMPANY
 DATE.        27-JUL-1980:   LOGDATE
 API .       490251084000:   API NUMBER
~CURVE INFORMATION
#MNEM.UNIT       API CODE    CURVE DESCRIPTION
#----------   ------------   ------------------------------
 DEPT.F                  :   
 GRD .GAPI   45 310 01 00:   GAMMA RAY FROM DENSITY LOG
 RHOB.G/C3   45 350 01 00:   BULK DENSITY
 CORR.G/C3   45 356 01 00:   DENSITY CORRECTION
 CALD.IN     45 280 60 00:   CALIPER
 DPOR.DEC    45 890 12 00:   DENSITY POROSITY SANDSTONE
 SPR .MV     07 010 01 00:   SPONTANEOUS POTENTIAL
 SFL .OHMM   07 220 01 00:   SHALLOW FOCUSED LOG RESISTIVITY
 ILD .OHMM   07 120 46 00:   INDUCTION LOG DEEP
 ILM .OHMM   07 120 44 00:   INDUCTION LOG MEDIUM
~PARAMETER INFORMATION
#MNEM.UNIT          VALUE    DESCRIPTION
#----------   ------------   ------------------------------
 PD  .                 GL:   PERMANENT DATUM
 EPD .F              5186:   ELEVATION PERMANENT DATUM
 LMF .                 KB:   LOG MEASURED FROM
 DAPD.F                 5:   FEET ABOVE PERMANENT DATUM
 DMF .                 KB:   DRILLING MEASURED FROM
 EKB .F              5191:   KELLING BUSHING
 EGL .F              5186:   GROUND LEVEL
 DATE.            7-27-80:   RUN DATE
 RUN .                  1:   RUN NUMBER
 DD  .F               660:   DEPTH DRILLER
 DL  .F               663:   DEPTH LOGGER
 BLI .F               661:   BOTTOM LOG INTERVAL
 TLI .F                46:   TOP LOG INTERVAL
 BS  .IN            7.875:   BIT SIZE
 BSD .F               660:   BIT SIZE AT DEPTH
 DFT .           CHEM GEL:   DRILLING FLUID TYPE
 DFD .                9.5:   DRILLING FLUID DENSITY
 DFV .                 50:   DRILLING FLUID VISCOSITY
 DFPH.                 11:   DRILLING FLUID PH
 DFL .                  6:   DRILLING FLUID LOSS
 MSS .           FLOWLINE:   MUD SAMPLE SOURCE
 RMS .OHMM            .08:   RESISTIVITY MUD SAMPLE
 MST .F                70:   MUD SAMPLE TEMPERATURE
 RMC .OHMM            .08:   RESISTIVITY MUD CAKE
 MCST.F                70:   MUD CAKE SAMPLE TEMPERATURE
 MFSS.               MEAS:   MUD FILTRATE SAMPLE SOURCE
 MCSS.               MEAS:   MUD CAKE SAMPLE SOURCE
 RMB .OHMM            .06:   RESISTIVITY MUD AT BHT
 BHT .F                90:   BOTTOM HOLE TEMPERATURE
 TCS .HRS               5:   TIME CURCULATED STOPPED
 MRT .F                90:   MAXIMUM RECORDED TEMPERATURE
 LUN .               6145:   LOGGING UNIT NUMBER
 LUL .              GLTTE:   LOGGING UNIT LOCATION
 ENGI.              HENRY:   RECORDING ENGINEER
 WITN.              AMEND:   WITNESSED BY
 CLNT.            A2DTECH:   CLIENT CODE
 ORIG.       2", 5" PRINT:   ORIGIN OF DATA
 UWI .       490251084000:   UNIQUE WELL ID
 DICO. A2D Technologies, Inc.:   DIGITIZING COMPANY
~OTHER INFORMATION
~A   DEPT      GRD       RHOB       CORR       CALD       DPOR        SPR          SFL        ILD      ILM   
# ...
  301.5000   108.1603     2.4741    -0.0006     8.5848     0.1231   -47.5283    10.5029     7.4194     8.5230
  302.0000   108.1734     2.4687     0.0012     8.5848     0.1250   -47.2497    10.4458     7.5354     8.5672
  302.5000   107.6781     2.4779     0.0149     8.5848     0.1208   -46.9681    10.4067     7.6533     8.6116
  303.0000   106.2373     2.5078     0.0193     8.5848     0.1054   -46.6990    10.6000     7.7730     8.6575
  303.5000   104.9041     2.5351     0.0216     8.5848     0.0864   -46.8982    11.0283     7.8965     8.8403
  304.0000   103.7991     2.5330     0.0239     8.5848     0.0882   -47.1473    11.3145     8.0610     9.0323
  304.5000   103.0958     2.5279     0.0257     8.5848     0.0913   -47.5039    11.3624     8.2317     9.1708
  305.0000   102.9089     2.5240     0.0233     8.5848     0.0937   -47.8585    11.4097     8.4054     9.2782
  305.5000   101.6459     2.5241     0.0206     8.5848     0.0939   -48.2114    11.8105     8.5790     9.3868
  306.0000   100.3658     2.5255     0.0179     8.5848     0.0931   -48.4569    12.2173     8.8332     9.4919
  306.5000    99.6192     2.5301     0.0175     8.5848     0.0919   -48.6783    12.3904     9.0889     9.6735
  307.0000    99.3595     2.5237     0.0176     8.5848     0.0934   -48.9040    12.1597     9.3502     9.8518
  307.5000    99.3625     2.5215     0.0166     8.5848     0.0956   -49.2279    12.0510     9.5835    10.0330
  308.0000    98.8966     2.5210     0.0149     8.5848     0.0954   -49.8468    12.5956     9.7751    10.2174
  308.5000    97.9663     2.5207     0.0139     8.5848     0.0935   -50.0581    13.3663     9.9722    10.4443
  309.0000    97.5926     2.5413     0.0163     8.5848     0.0835   -50.2787    14.2272    10.1749    10.7214
  309.5000    97.5054     2.5602     0.0187     8.5848     0.0767   -50.5005    14.8990    10.3389    10.8959
  310.0000    97.5411     2.5457     0.0192     8.5848     0.0817   -50.7336    14.0134    10.4242    11.0352
  310.5000    95.6661     2.5318     0.0186     8.5848     0.0881   -50.9846    13.3404    10.5102    11.1096
  311.0000    93.5959     2.5226     0.0180     8.5848     0.0920   -51.2360    13.5335    10.6000    11.1401
  311.5000    94.4373     2.5158     0.0175     8.5848     0.0990   -51.4849    13.9659    10.5599    11.1706
  312.0000    96.8834     2.5106     0.0176     8.5848     0.1012   -51.6433    13.8917    10.4899    11.2016
  312.5000    99.2603     2.5093     0.0175     8.5848     0.1028   -51.6394    13.8417    10.4204    11.1756
  313.0000   100.1460     2.5091     0.0176     8.5848     0.1046   -51.5283    14.2053    10.3759    11.1496
  313.5000    97.8145     2.5173     0.0217     8.5848     0.0993   -51.2314    14.3606    10.3252    11.1222
  314.0000    94.9887     2.5212     0.0258     8.5848     0.0974   -50.6549    13.9374    10.2747    11.0990
  314.5000    92.5950     2.5065     0.0191     8.5848     0.1037   -50.4541    13.4649    10.2245    10.7637
  315.0000    91.7808     2.4919     0.0105     8.5848     0.1119   -50.4497    13.1864    10.0831    10.4495
  315.5000    92.9372     2.4845     0.0048     8.5848     0.1175   -50.4448    13.0983     9.9278    10.4067
  316.0000    94.5008     2.4834     0.0081     8.5848     0.1172   -50.6699    13.1427     9.7749    10.3863
  316.5000    95.9363     2.4984     0.0122     8.5848     0.1093   -50.9206    13.2143     9.6244    10.3141
  317.0000    96.9495     2.5126     0.0163     8.5848     0.1014   -51.0097    13.0804     9.4836    10.2423
  317.5000    97.9271     2.5230     0.0205     8.5848     0.0953   -50.8837    12.8042     9.4225    10.1710
  318.0000    97.6393     2.5223     0.0246     8.5848     0.0944   -50.6047    12.5785     9.3586    10.0848
  318.5000    97.1376     2.5163     0.0276     8.5848     0.0979   -50.5897    12.3921     9.3191    10.0307
  319.0000    95.9540     2.5096     0.0276     8.5848     0.0998   -50.8368    12.4764     9.5644    10.0789
  319.5000    95.6263     2.5137     0.0276     8.5848     0.1004   -51.0872    12.7109     9.7567    10.1151
  320.0000    95.0054     2.5111     0.0277     8.5848     0.1026   -51.3399    12.8594     9.8468    10.2170
  320.5000    93.5587     2.4982     0.0281     8.5848     0.1091   -51.4409    12.9735     9.9389    10.1804
  321.0000    93.7807     2.4865     0.0285     8.5848     0.1128   -51.4445    13.6629    10.0323    10.1543
  321.5000    97.4447     2.4899     0.0290     8.5848     0.1094   -51.5353    14.6891     9.9564    10.1236
  322.0000    97.3651     2.5173     0.0293     8.5848     0.1004   -51.7646    15.5184     9.8328    10.1457
  322.5000    96.1095     2.5549     0.0254     8.5848     0.0990   -51.9926    15.6005     9.7103    10.1823
  323.0000    94.4283     2.5531     0.0152     8.5848     0.0988   -52.2215    13.7257     9.5490    10.2172
  323.5000    93.6950     2.5123     0.0094     8.5848     0.1010   -52.4312    12.6250     9.3646    10.2170
  324.0000    93.5035     2.5017     0.0113     8.5848     0.1097   -52.4348    12.2812     9.1847    10.0873
  324.5000    94.6818     2.4851     0.0133     8.5848     0.1160   -52.4366    12.3947     9.0081     9.8170
  325.0000    95.7742     2.4840     0.0123     8.5848     0.1150   -52.2929    12.1281     8.8352     9.5796
  325.5000    96.0195     2.4949     0.0097     8.5848     0.1100   -52.0951    11.8322     8.7492     9.4550
  326.0000    95.7912     2.4821     0.0075     8.5848     0.1168   -51.8940    11.6181     8.6732     9.4050
  326.5000    95.5745     2.4713     0.0075     8.5848     0.1242   -51.6929    11.8033     8.5978     9.5018
  327.0000    95.7153     2.4706     0.0075     8.5848     0.1243   -51.4841    12.0592     8.5230     9.5796
  327.5000    96.4146     2.4677     0.0075     8.5848     0.1264   -51.5265    12.0565     8.4488     9.4093
  328.0000    96.8896     2.4533     0.0085     8.5848     0.1347   -51.6376    12.0573     8.3755     9.3041
  328.5000    97.0344     2.4516     0.0143     8.5848     0.1375   -51.7496    11.9060     8.3243     9.2179
  329.0000    97.1290     2.4695     0.0220     8.5848     0.1296   -51.8210    11.7136     8.2892     9.1324
  329.5000    97.7977     2.4899     0.0304     8.5848     0.1160   -51.6988    11.5243     8.2542     9.0477
  330.0000    99.5545     2.5085     0.0420     8.5848     0.0992   -51.5798    11.3380     8.2193     8.9639
  330.5000   100.9164     2.5094     0.0434     8.5848     0.1051   -51.4586    11.1822     8.1925     8.8950
  331.0000   101.1851     2.4886     0.0387     8.5848     0.1148   -51.5219    11.0968     8.1680     8.8756
  331.5000   100.4943     2.4885     0.0338     8.5848     0.1123   -51.6174    11.2653     8.1442     8.8560
  332.0000    99.6763     2.5065     0.0344     8.5848     0.1019   -51.7135    11.4288     8.1176     8.8361
  332.5000    99.4327     2.5142     0.0362     8.5848     0.0948   -51.8102    11.5161     8.1420     8.8183
  333.0000   100.9669     2.5173     0.0392     8.5848     0.0970   -51.8389    11.4242     8.1699     8.6877
  333.5000   102.2990     2.5128     0.0380     8.5848     0.1020   -51.8394    11.3536     8.1982     8.5419
  334.0000   102.4589     2.5094     0.0348     8.5848     0.1032   -51.8391    11.2642     8.2267     8.4901
  334.5000   101.7805     2.5041     0.0320     8.5848     0.1057   -51.8944    11.2016     8.2681     8.4713
  335.0000   101.1401     2.4980     0.0294     8.5848     0.1090   -51.9999    11.2646     8.2407     8.4525
  335.5000   100.6017     2.5028     0.0272     8.5848     0.1053   -52.1060    11.3052     8.1882     8.4338
  336.0000    99.6325     2.5057     0.0246     8.5848     0.1040   -52.2191    11.0974     8.1363     8.4030
  336.5000    99.5420     2.4992     0.0203     8.5848     0.1094   -52.0307    11.1427     8.0848     8.3510
  337.0000    98.9114     2.4880     0.0160     8.5848     0.1146   -51.7643    11.2569     8.0134     8.2993
  337.5000    98.9679     2.4778     0.0118     8.5848     0.1197   -51.4970    11.3052     7.8551     8.2249
