~VERSION INFORMATION
 VERS.                2.0:   CWLS LOG ASCII STANDARD - VERSION 2.0
 WRAP.                 NO:   ONE LINE PER DEPTH STEP
~WELL INFORMATION
#MNEM.UNIT      DATA TYPE    INFORMATION
#----------   ------------   ------------------------------
 STRT.F           95.0000:   START DEPTH
 STOP.F          922.0000:   STOP DEPTH
 STEP.F            0.5000:   STEP LENGTH
 NULL.          -999.2500:   NO VALUE
 COMP.          U.S. NAVY:   COMPANY
 WELL. RES 3 TEAPOT DOM #57S-11:   WELL
 FLD .             TEAPOT:   FIELD
 LOC .      S11 T38N R78W:   LOCATION
 CNTY.            NATRONA:   COUNTY
 STAT.            WYOMING:   STATE
 CTRY. UNITED STATES OF AMERICA:   COUNTRY
 SRVC.       Schlumberger:   SERVICE COMPANY
 DATE.        02-AUG-1961:   LOGDATE
 API .       490250632800:   API NUMBER
~CURVE INFORMATION
#MNEM.UNIT       API CODE    CURVE DESCRIPTION
#----------   ------------   ------------------------------
 DEPT.F                  :   
 GR  .GAPI   30 310 01 00:   GAMMA RAY
 SPR .MV     05 010 01 00:   SPONTANEOUS POTENTIAL FROM RES.
 CILD.MMHO   05 110 46 00:   CONDUCTIVITY INDUCTION LOG DEEP
 ASN .OHMM   05 041 16 00:   AMPLIFIED SHORT NORMAL 16"
 ILD .OHMM   05 120 46 00:   INDUCTION LOG DEEP
~PARAMETER INFORMATION
#MNEM.UNIT          VALUE    DESCRIPTION
#----------   ------------   ------------------------------
 PD  .                 GL:   PERMANENT DATUM
 EPD .F              5213:   ELEVATION PERMANENT DATUM
 LMF .                 KB:   LOG MEASURED FROM
 DAPD.F                 6:   FEET ABOVE PERMANENT DATUM
 DMF .                 KB:   DRILLING MEASURED FROM
 EKB .F              5219:   KELLING BUSHING
 EGL .F              5213:   GROUND LEVEL
 DATE.             8-2-61:   RUN DATE
 RUN .                  1:   RUN NUMBER
 DD  .F               920:   DEPTH DRILLER
 DL  .F               921:   DEPTH LOGGER
 BLI .F               920:   BOTTOM LOG INTERVAL
 TLI .F               100:   TOP LOG INTERVAL
 BS  .IN             6.75:   BIT SIZE
 BSD .F               920:   BIT SIZE AT DEPTH
 DFT .       OIL EMULSION:   DRILLING FLUID TYPE
 DFD .                9.2:   DRILLING FLUID DENSITY
 DFV .                 55:   DRILLING FLUID VISCOSITY
 MFSS.                  M:   MUD FILTRATE SAMPLE SOURCE
 MCSS.                  M:   MUD CAKE SAMPLE SOURCE
 RMB .OHMM            .75:   RESISTIVITY MUD AT BHT
 BHT .F                80:   BOTTOM HOLE TEMPERATURE
 TCS .HRS               1:   TIME CURCULATED STOPPED
 MRT .F                80:   MAXIMUM RECORDED TEMPERATURE
 LUN .               2552:   LOGGING UNIT NUMBER
 LUL .                RIV:   LOGGING UNIT LOCATION
 ENGI.             RANDLE:   RECORDING ENGINEER
 WITN.          VORGENSEN:   WITNESSED BY
 CLNT.            A2DTECH:   CLIENT CODE
 ORIG.       2", 5" PRINT:   ORIGIN OF DATA
 UWI .       490250632800:   UNIQUE WELL ID
 DICO. A2D Technologies, Inc.:   DIGITIZING COMPANY
~OTHER INFORMATION
~A   DEPT       GR        SPR       CILD        ASN        ILD   
# ...
  278.0000  -999.2500   -51.8237   191.0755     5.2423     5.0367
  278.5000  -999.2500   -51.8646   190.5625     5.1650     5.2295
  279.0000  -999.2500   -51.8993   193.7274     5.0780     5.4166
  279.5000  -999.2500   -51.9373   196.8924     5.0246     5.5892
  280.0000  -999.2500   -51.9727   199.8998     5.1570     5.8038
  280.5000  -999.2500   -52.0055   200.9018     5.2632     5.7120
  281.0000  -999.2500   -51.9760   202.9058     5.1423     5.3475
  281.5000  -999.2500   -51.9192   205.9118     5.0438     5.0395
  282.0000  -999.2500   -51.8726   212.9259     4.9339     4.7032
  282.5000  -999.2500   -51.8193   221.5431     4.8118     4.3839
  283.0000  -999.2500   -51.8037   235.9920     4.6908     4.0517
  283.5000  -999.2500   -51.7886   255.1252     4.5688     3.7573
  284.0000  -999.2500   -51.7576   274.2585     4.3853     3.5612
  284.5000  -999.2500   -51.7322   293.3918     4.2066     3.3806
  285.0000  -999.2500   -51.7050   312.5251     4.0283     3.2057
  285.5000  -999.2500   -51.6773   331.6583     3.9015     3.0190
  286.0000  -999.2500   -51.6534   339.1784     3.8111     2.9480
  286.5000  -999.2500   -51.6211   328.7661     3.7566     2.9950
  287.0000  -999.2500   -51.6203   319.2556     3.7574     3.2111
  287.5000  -999.2500   -51.7443   309.7965     3.8152     3.4509
  288.0000  -999.2500   -51.8693   300.3293     3.9873     3.6022
  288.5000  -999.2500   -51.9826   277.9624     4.5762     4.0804
  289.0000  -999.2500   -52.1203   248.0151     5.0069     4.3906
  289.5000  -999.2500   -52.1384   217.9601     5.1332     4.5790
  290.0000  -999.2500   -51.5595   189.3287     5.3100     4.7675
  290.5000  -999.2500   -51.4472   178.7659     5.4642     4.9969
  291.0000  -999.2500   -51.5840   177.0875     5.5496     5.1929
  291.5000  -999.2500   -51.6679   175.4091     5.5793     5.3690
  292.0000  -999.2500   -51.7786   174.8497     5.6153     5.2304
  292.5000  -999.2500   -51.8720   182.6987     5.6463     4.9712
  293.0000  -999.2500   -51.9771   189.8664     5.6174     4.7542
  293.5000  -999.2500   -51.9987   195.8918     5.3934     4.5270
  294.0000  -999.2500   -51.9280   224.5090     5.0789     4.2039
  294.5000  -999.2500   -51.8683   248.6774     4.7897     3.8952
  295.0000  -999.2500   -51.8051   268.0361     4.4975     3.6433
  295.5000  -999.2500   -51.7435   296.2091     4.2113     3.4639
  296.0000  -999.2500   -51.6817   307.3748     3.9205     3.3008
  296.5000  -999.2500   -51.6202   313.4168     3.8298     3.2515
  297.0000  -999.2500   -51.6010   317.1343     3.8634     3.2519
  297.5000  -999.2500   -51.6030   318.1363     3.9140     3.2775
  298.0000  -999.2500   -51.6030   318.1363     3.9951     3.4755
  298.5000  -999.2500   -51.6014   290.2931     4.1383     3.6521
  299.0000  -999.2500   -51.6050   267.6353     4.4890     3.8349
  299.5000  -999.2500   -51.5974   244.9774     4.6472     4.0042
  300.0000  -999.2500   -51.6621   227.9559     4.7810     4.0891
  300.5000  -999.2500   -51.7698   209.9198     4.9306     4.2797
  301.0000  -999.2500   -51.8551   207.3409     5.0573     4.4622
  301.5000  -999.2500   -51.9556   205.0808     5.1481     4.6382
  302.0000  -999.2500   -52.0383   202.8206     5.2556     4.8379
  302.5000  -999.2500   -52.1524   200.5605     5.3605     4.8542
  303.0000  -999.2500   -52.1601   198.8978     5.3118     4.8025
  303.5000  -999.2500   -51.9703   198.8978     5.2022     4.7622
  304.0000  -999.2500   -51.7940   201.3427     5.1061     4.7143
  304.5000  -999.2500   -51.6059   207.9158     5.0027     4.6611
  305.0000  -999.2500   -51.4281   219.7194     4.8900     4.4717
  305.5000  -999.2500   -51.2234   234.7577     4.7329     4.2117
  306.0000  -999.2500   -51.2305   249.9566     4.5365     3.9646
  306.5000  -999.2500   -51.3524   265.1717     4.3443     3.6883
  307.0000  -999.2500   -51.4625   283.7068     4.1511     3.6001
  307.5000  -999.2500   -51.5818   285.7431     3.9409     3.5396
  308.0000  -999.2500   -51.4383   289.8455     3.8633     3.4695
  308.5000  -999.2500   -51.1963   297.2127     3.8005     3.4046
  309.0000  -999.2500   -50.9913   306.4628     3.7372     3.3366
  309.5000  -999.2500   -50.7335   315.7086     3.6639     3.2609
  310.0000  -999.2500   -50.6062   324.1483     3.7296     3.1329
  310.5000  -999.2500   -50.6818   329.1583     3.7421     2.9718
  311.0000  -999.2500   -50.7297   332.1643     3.5951     2.8151
  311.5000  -999.2500   -50.7905   342.6829     3.4637     2.6565
  312.0000  -999.2500   -50.6983   358.2164     3.3233     2.4977
  312.5000  -999.2500   -50.5542   402.5864     3.1860     2.3406
  313.0000  -999.2500   -50.4315   467.4349     3.0465     2.1708
  313.5000  -999.2500   -50.2750   475.9678     2.8744     2.1512
  314.0000  -999.2500   -50.2228   486.0930     2.7493     2.1476
  314.5000  -999.2500   -50.3299   468.9749     2.7698     2.2250
  315.0000  -999.2500   -50.4190   447.9044     2.7954     2.3235
  315.5000  -999.2500   -50.5185   426.6997     2.9481     2.4624
  316.0000  -999.2500   -50.6124   405.4930     3.1754     2.7796
  316.5000  -999.2500   -50.7096   377.7953     3.6431     3.1067
  317.0000  -999.2500   -50.8050   336.9213     4.2548     3.4164
  317.5000  -999.2500   -50.9020   295.5876     4.3308     3.7726
  318.0000  -999.2500   -50.9965   247.9960     4.3169     4.0088
  318.5000  -999.2500   -51.0953   231.9639     4.3194     4.0968
  319.0000  -999.2500   -51.1891   233.9679     4.2705     4.1606
  319.5000  -999.2500   -51.2132   239.1483     4.2245     3.9578
  320.0000  -999.2500   -51.1329   251.2024     4.1217     3.7158
  320.5000  -999.2500   -50.9320   265.0301     3.9690     3.4736
  321.0000  -999.2500   -50.7285   285.9339     3.8114     3.2322
  321.5000  -999.2500   -50.5346   310.4439     3.6548     2.9738
  322.0000  -999.2500   -50.3121   327.1543     3.4902     2.7839
  322.5000  -999.2500   -50.1910   400.3006     3.3953     2.5778
  323.0000  -999.2500   -50.2510   414.4272     3.3046     2.3868
  323.5000  -999.2500   -50.3003   442.2186     3.2101     2.1599
  324.0000  -999.2500   -50.3593   470.0100     3.1187     2.0458
  324.5000  -999.2500   -50.4131   486.4730     3.0212     2.0451
  325.0000  -999.2500   -50.4696   470.6143     3.0247     2.1282
  325.5000  -999.2500   -50.5249   449.0544     3.1718     2.3193
  326.0000  -999.2500   -50.5807   419.7164     3.3909     2.4957
  326.5000  -999.2500   -50.6363   386.3558     3.4423     2.8911
  327.0000  -999.2500   -50.6917   353.1143     3.8228     3.2744
  327.5000  -999.2500   -50.7474   311.9541     4.6751     3.6622
  328.0000  -999.2500   -50.8025   252.2918     5.0037     4.0557
  328.5000  -999.2500   -50.8588   231.3605     5.1644     4.4303
  329.0000  -999.2500   -50.9127   198.1313     5.3244     4.8514
  329.5000  -999.2500   -50.9723   191.0997     5.4847     5.1179
  330.0000  -999.2500   -51.0074   184.0681     5.6464     5.1963
  330.5000  -999.2500   -50.9821   177.8557     5.8058     5.3019
  331.0000  -999.2500   -50.9318   174.8497     5.9808     5.4749
  331.5000  -999.2500   -50.8817   171.0725     6.2074     5.7673
  332.0000  -999.2500   -50.8302   166.8999     6.4586     6.0524
  332.5000  -999.2500   -50.7817   162.7274     6.7049     6.3348
  333.0000  -999.2500   -50.7276   158.5548     6.9696     6.3531
  333.5000  -999.2500   -50.6838   154.3822     7.1475     6.3283
  334.0000  -999.2500   -50.6194   150.2097     7.2135     6.3140
  334.5000  -999.2500   -50.6639   147.7956     7.3006     6.2946
  335.0000  -999.2500   -50.8430   148.0795     7.3682     6.2780
  335.5000  -999.2500   -51.0033   148.7976     7.3879     6.2597
  336.0000  -999.2500   -51.1776   149.7295     7.3778     6.2423
  336.5000  -999.2500   -51.3377   150.7340     7.3597     6.2245
  337.0000  -999.2500   -51.5201   151.7385     7.3418     6.2071
  337.5000  -999.2500   -51.6140   152.7430     7.3235     6.1896
  338.0000  -999.2500   -51.5917   153.8076     7.3068     6.1722
  338.5000  -999.2500   -51.4740   154.3227     7.3085     6.1512
