~VERSION INFORMATION
 VERS.                2.0:   CWLS LOG ASCII STANDARD - VERSION 2.0
 WRAP.                 NO:   ONE LINE PER DEPTH STEP
~WELL INFORMATION
#MNEM.UNIT      DATA TYPE    INFORMATION
#----------   ------------   ------------------------------
 STRT.F           31.0000:   START DEPTH
 STOP.F          590.0000:   STOP DEPTH
 STEP.F            0.1000:   STEP LENGTH
 NULL.          -999.2500:   NO VALUE
 COMP. LAWRENCE/ALLISON INC:   COMPANY
 WELL. NPR 3 73-61 SX #3-3:   WELL
 FLD .             TEAPOT:   FIELD
 LOC .       S3 T38N R78W:   LOCATION
 CNTY.            NATRONA:   COUNTY
 STAT.            WYOMING:   STATE
 CTRY. UNITED STATES OF AMERICA:   COUNTRY
 SRVC.           Gearhart:   SERVICE COMPANY
 DATE.        14-AUG-1988:   LOGDATE
 API .       490251124200:   API NUMBER
~CURVE INFORMATION
#MNEM.UNIT       API CODE    CURVE DESCRIPTION
#----------   ------------   ------------------------------
 DEPT.F                  :   
 GRR .GAPI   07 310 01 00:   GAMMA RAY
 RILD.OHMM   07 120 46 00:   INDUCTION LOG DEEP RESISTIVITY
 RILM.OHMM   07 120 44 00:   INDUCTION LOG MEDIUM RESISTIVITY
~PARAMETER INFORMATION
#MNEM.UNIT          VALUE    DESCRIPTION
#----------   ------------   ------------------------------
 PD  .                 GL:   PERMANENT DATUM
 EPD .F              5136:   ELEVATION PERMANENT DATUM
 LMF .                 KB:   LOG MEASURED FROM
 DAPD.F                10:   FEET ABOVE PERMANENT DATUM
 DMF .                 KB:   DRILLING MEASURED FROM
 EKB .F              5146:   KELLING BUSHING
 EDF .F              5144:   DRILLING FLOOR
 EGL .F              5136:   GROUND LEVEL
 DATE.        14-AUG-1988:   RUN DATE
 RUN .                  1:   RUN NUMBER
 DD  .F               597:   DEPTH DRILLER
 DL  .F               598:   DEPTH LOGGER
 BLI .F               590:   BOTTOM LOG INTERVAL
 TLI .F                50:   TOP LOG INTERVAL
 CS  .IN            9.625:   CASING SIZE
 CBD .F                50:   CASING BOTTOM DRILLER
 CBL .F                50:   CASING BOTTOM LOGGER
 BS  .IN             8.75:   BIT SIZE
 BSD .F               597:   BIT SIZE AT DEPTH
 DFT .                AIR:   DRILLING FLUID TYPE
 TCS .HRS            1930:   TIME CURCULATED STOPPED
 TLAB.HRS            2030:   TIME LOGGER AT BOTTOM
 MRT .F                70:   MAXIMUM RECORDED TEMPERATURE
 LUN .               7597:   LOGGING UNIT NUMBER
 LUL .           GILLETTE:   LOGGING UNIT LOCATION
 ENGI.         WEATHERMON:   RECORDING ENGINEER
 WITN.             STRONG:   WITNESSED BY
 CLNT.            A2DTECH:   CLIENT CODE
 ORIG.           5" PRINT:   ORIGIN OF DATA
 UWI .       490251124200:   UNIQUE WELL ID
 DICO. A2D Technologies, Inc.:   DIGITIZING COMPANY
~OTHER INFORMATION
~A   DEPT       GRR      RILD       RILM   
# ...
  158.4000   117.8272     8.3945     8.0617
  158.5000   117.8308     8.3937     8.0178
  158.6000   117.8344     8.3928     8.0047
  158.7000   117.8380     8.3919     7.9796
  158.8000   117.8424     8.3912     7.9480
  158.9000   117.8453     8.3904     7.9473
  159.0000   117.6938     8.3896     7.9466
  159.1000   117.5504     8.3888     7.9036
  159.2000   117.5541     8.3879     7.8904
  159.3000   117.5635     8.3870     7.8898
  159.4000   117.8641     8.3863     7.8744
  159.5000   118.0755     8.3855     7.8339
  159.6000   118.1728     8.3847     7.8333
  159.7000   118.2855     8.3839     7.8327
  159.8000   118.6007     8.3830     7.8320
  159.9000   119.0994     8.3822     7.8314
  160.0000   119.3963     8.3815     7.8307
  160.1000   119.6114     8.3806     7.8300
  160.2000   119.8674     8.4032     7.8294
  160.3000   120.1235     8.4374     7.8288
  160.4000   120.3794     8.4365     7.8281
  160.5000   120.6224     8.4356     7.8275
  160.6000   120.6265     8.4781     7.8411
  160.7000   120.8454     8.4927     7.8807
  160.8000   121.1014     8.5158     7.8799
  160.9000   121.3574     8.5502     7.9211
  161.0000   121.6132     8.5537     7.9335
  161.1000   121.8525     8.6079     7.9564
  161.2000   121.8567     8.6072     7.9874
  161.3000   121.8598     8.6408     7.9918
  161.4000   121.6938     8.6654     8.0416
  161.5000   121.4451     8.6792     8.0833
  161.6000   121.1963     8.7241     8.0962
  161.7000   120.9475     8.7231     8.1193
  161.8000   120.6699     8.7224     8.1656
  161.9000   120.6731     8.7566     8.2073
  162.0000   120.3305     8.7813     8.2065
  162.1000   119.8293     8.7805     8.2489
  162.2000   119.4755     8.7796     8.2623
  162.3000   119.4312     8.7787     8.2617
  162.4000   118.8789     8.7780     8.2754
  162.5000   118.4289     8.7771     8.3178
  162.6000   117.9277     8.7762     8.3170
  162.7000   117.4266     8.7753     8.3597
  162.8000   116.9256     8.7745     8.3735
  162.9000   116.4248     8.7736     8.3729
  163.0000   115.8795     8.7728     8.3722
  163.1000   115.8828     8.7720     8.3714
  163.2000   115.8864     8.7711     8.3707
  163.3000   115.8901     8.7702     8.3701
  163.4000   115.8937     8.7640     8.3694
  163.5000   115.9286     8.7079     8.3450
  163.6000   116.2033     8.7071     8.3101
  163.7000   116.4404     8.7062     8.3051
  163.8000   116.6964     8.7054     8.2513
  163.9000   116.9524     8.7045     8.2506
  164.0000   117.2930     8.7037     8.2172
  164.1000   117.7665     8.7028     8.1923
  164.2000   118.0377     8.7020     8.1916
  164.3000   118.2786     8.7012     8.1869
  164.4000   118.5346     8.7004     8.1335
  164.5000   118.9287     8.6995     8.1329
  164.6000   119.3487     8.6986     8.1002
  164.7000   119.6045     8.6977     8.0754
  164.8000   119.8721     8.6969     8.0747
  164.9000   119.8755     8.6961     8.0740
  165.0000   120.0705     8.6953     8.0733
  165.1000   120.1849     8.6944     8.0318
  165.2000   120.2804     8.6936     8.0162
  165.3000   120.4943     8.6927     8.0156
  165.4000   120.4980     8.6919     8.0021
  165.5000   120.7462     8.6910     7.9588
  165.6000   120.8073     8.6902     7.9581
  165.7000   120.6658     8.6893     7.9575
  165.8000   120.4170     8.6885     7.9569
  165.9000   120.1682     8.6876     7.9562
  166.0000   119.9155     8.6868     7.9555
  166.1000   119.6707     8.6860     7.9549
  166.2000   119.2233     8.6852     7.9541
  166.3000   118.8710     8.6843     7.9535
  166.4000   118.6223     8.6901     7.9529
  166.5000   118.3246     8.7430     7.9522
  166.6000   117.8224     8.7422     7.9515
  166.7000   117.5246     8.7413     7.9509
  166.8000   117.1232     8.7405     7.9501
  166.9000   116.7744     8.7396     7.9895
  167.0000   116.4229     8.7388     8.0043
  167.1000   116.0278     8.7379     8.0251
  167.2000   116.0314     8.7371     8.0586
  167.3000   115.7336     8.7363     8.0609
  167.4000   115.5306     8.7354     8.1132
  167.5000   115.4381     8.7345     8.1126
  167.6000   115.4417     8.7337     8.1120
  167.7000   115.4453     8.7328     8.1328
  167.8000   115.4557     8.7320     8.1670
  167.9000   115.7553     8.7312     8.1664
  168.0000   115.9678     8.7303     8.1656
  168.1000   116.0641     8.7295     8.2055
  168.2000   116.1777     8.7286     8.2212
  168.3000   116.4940     8.7277     8.2205
  168.4000   116.9916     8.7269     8.2198
  168.5000   117.2876     8.7261     8.2192
  168.6000   117.5036     8.7252     8.2183
  168.7000   117.7597     8.7244     8.2177
  168.8000   118.0157     8.7236     8.2171
  168.9000   118.2717     8.7226     8.2164
  169.0000   118.5277     8.7218     8.2157
  169.1000   118.8198     8.7210     8.2150
  169.2000   119.0398     8.7201     8.2142
  169.3000   119.2958     8.7193     8.2136
  169.4000   119.5517     8.7185     8.1825
  169.5000   119.8076     8.7176     8.1555
  169.6000   120.0460     8.7168     8.1548
  169.7000   120.0500     8.6779     8.1542
  169.8000   120.2735     8.6548     8.1534
  169.9000   120.5295     8.6540     8.1528
  170.0000   120.7856     8.6532     8.1521
  170.1000   120.9704     8.6523     8.1514
  170.2000   120.9740     8.6515     8.1395
  170.3000   120.9781     8.6507     8.0938
  170.4000   121.2052     8.6498     8.0930
  170.5000   121.4612     8.6490     8.0924
  170.6000   121.5928     8.6481     8.0918
  170.7000   121.6711     8.6472     8.0911
  170.8000   121.9271     8.5983     8.0904
  170.9000   122.2082     8.5859     8.0897
  171.0000   122.2114     8.5850     8.0889
  171.1000   122.2151     8.5842     8.0883
  171.2000   122.3468     8.5834     8.0583
  171.3000   122.6027     8.5825     8.0311
  171.4000   122.8302     8.5817     8.0304
  171.5000   122.8341     8.5809     8.0298
  171.6000   123.0686     8.5800     8.0290
  171.7000   123.1432     8.5792     8.0284
  171.8000   123.0151     8.5784     8.0278
  171.9000   122.7663     8.5775     8.0271
  172.0000   122.5176     8.5767     8.0369
  172.1000   122.2516     8.5759     8.0817
  172.2000   122.0202     8.5750     8.0809
  172.3000   121.7715     8.5742     8.0803
  172.4000   121.5228     8.5734     8.0796
  172.5000   121.2739     8.5725     8.0789
  172.6000   121.0605     8.5233     8.0783
  172.7000   121.0648     8.5116     8.0776
  172.8000   121.0683     8.5108     8.0768
  172.9000   121.0719     8.5100     8.1145
  173.0000   121.0755     8.5091     8.1318
  173.1000   121.0792     8.5083     8.1311
  173.2000   121.0828     8.5075     8.1406
  173.3000   121.0866     8.5066     8.1864
  173.4000   121.0900     8.5058     8.1855
  173.5000   121.0936     8.5050     8.1850
  173.6000   121.0973     8.5041     8.2133
  173.7000   121.0080     8.5033     8.2406
  173.8000   120.8018     8.5026     8.2399
  173.9000   120.8061     8.5017     8.2392
  174.0000   120.8097     8.5009     8.2384
  174.1000   120.6174     8.5001     8.2764
  174.2000   120.5148     8.4992     8.2945
  174.3000   120.4220     8.4984     8.2938
  174.4000   120.2193     8.4976     8.2931
  174.5000   120.2236     8.4967     8.2924
  174.6000   119.9778     8.4959     8.2916
  174.7000   119.9287     8.4951     8.2911
  174.8000   119.7824     8.4943     8.2903
  174.9000   119.5336     8.4935     8.2896
  175.0000   119.2848     8.4927     8.2890
  175.1000   119.0361     8.4918     8.2883
  175.2000   118.7391     8.4910     8.2876
  175.3000   118.1325     8.4902     8.2869
  175.4000   117.6858     8.4893     8.2862
  175.5000   117.3333     8.4885     8.2855
  175.6000   116.8321     8.4875     8.2849
  175.7000   116.3353     8.4868     8.2841
  175.8000   116.0417     8.4860     8.2834
  175.9000   115.8378     8.4852     8.2828
  176.0000   115.4320     8.4844     8.2821
  176.1000   115.0384     8.4836     8.2813
  176.2000   114.7320     8.4826     8.2807
  176.3000   114.2387     8.4819     8.2800
  176.4000   113.9486     8.4811     8.2793
  176.5000   113.9517     8.4803     8.2786
