~VERSION INFORMATION
 VERS.                2.0:   CWLS LOG ASCII STANDARD - VERSION 2.0
 WRAP.                 NO:   ONE LINE PER DEPTH STEP
~WELL INFORMATION
#MNEM.UNIT      DATA TYPE    INFORMATION
#----------   ------------   ------------------------------
 STRT.F          936.5000:   START DEPTH
 STOP.F         2325.5000:   STOP DEPTH
 STEP.F            0.5000:   STEP LENGTH
 NULL.          -999.2500:   NO VALUE
 COMP. LAWRENCE/ALLISON INC:   COMPANY
 WELL.  NPR 3 #45-1-SHX-3:   WELL
 FLD .             TEAPOT:   FIELD
 LOC .       S3 T38N R78W:   LOCATION
 CNTY.            NATRONA:   COUNTY
 STAT.            WYOMING:   STATE
 CTRY. UNITED STATES OF AMERICA:   COUNTRY
 SRVC.            Unknown:   SERVICE COMPANY
 DATE.        10-OCT-1991:   LOGDATE
 API .       490251092300:   API NUMBER
~CURVE INFORMATION
#MNEM.UNIT       API CODE    CURVE DESCRIPTION
#----------   ------------   ------------------------------
 DEPT.F                  :   
 TGAS.UNITS  91 830 01 00:   TOTAL GAS FROM HOTWIRE
 ROP .MIN/FT 91 810 01 00:   RATE OF DRILLING PENETRATION
~PARAMETER INFORMATION
#MNEM.UNIT          VALUE    DESCRIPTION
#----------   ------------   ------------------------------
 EKB .F              5199:   KELLING BUSHING
 EGL .F              5189:   GROUND LEVEL
 DATE.           10-10-91:   RUN DATE
 DD  .F              2325:   DEPTH DRILLER
 BLI .F              2324:   BOTTOM LOG INTERVAL
 TLI .F              1920:   TOP LOG INTERVAL
 CS  .IN            9.625:   CASING SIZE
 CBD .F               498:   CASING BOTTOM DRILLER
 ENGI.               HUSK:   RECORDING ENGINEER
 WITN.              TOWER:   WITNESSED BY
 CLNT.            A2DTECH:   CLIENT CODE
 ORIG.           5" PRINT:   ORIGIN OF DATA
 UWI .       490251092300:   UNIQUE WELL ID
 DICO. A2D Technologies, Inc.:   DIGITIZING COMPANY
~OTHER INFORMATION
~A   DEPT     TGAS          ROP 
# ...
 1787.0000  -999.2500     0.9628
 1787.5000  -999.2500     0.9628
 1788.0000  -999.2500     0.9627
 1788.5000  -999.2500     0.9626
 1789.0000  -999.2500     0.9625
 1789.5000  -999.2500     0.9625
 1790.0000  -999.2500     0.9624
 1790.5000  -999.2500     0.9623
 1791.0000  -999.2500     0.9622
 1791.5000  -999.2500     0.9622
 1792.0000  -999.2500     0.9621
 1792.5000  -999.2500     0.9620
 1793.0000  -999.2500     0.9619
 1793.5000  -999.2500     0.9619
 1794.0000  -999.2500     0.9618
 1794.5000  -999.2500     0.9617
 1795.0000  -999.2500     0.9616
 1795.5000  -999.2500     0.9616
 1796.0000  -999.2500     0.9615
 1796.5000  -999.2500     0.9614
 1797.0000  -999.2500     0.9613
 1797.5000  -999.2500     0.9613
 1798.0000  -999.2500     1.1875
 1798.5000  -999.2500     1.1883
 1799.0000  -999.2500     1.1889
 1799.5000  -999.2500     1.1895
 1800.0000  -999.2500     1.1902
 1800.5000  -999.2500     1.1904
 1801.0000  -999.2500     1.1906
 1801.5000  -999.2500     1.1909
 1802.0000  -999.2500     1.1911
 1802.5000  -999.2500     1.1913
 1803.0000  -999.2500     1.1915
 1803.5000  -999.2500     1.1918
 1804.0000  -999.2500     1.1920
 1804.5000  -999.2500     1.1922
 1805.0000  -999.2500     1.1924
 1805.5000  -999.2500     1.1927
 1806.0000  -999.2500     1.1929
 1806.5000  -999.2500     1.1931
 1807.0000  -999.2500     1.1933
 1807.5000  -999.2500     1.1936
 1808.0000  -999.2500     1.1938
 1808.5000  -999.2500     1.1940
 1809.0000  -999.2500     1.1943
 1809.5000  -999.2500     1.1945
 1810.0000  -999.2500     1.1947
 1810.5000  -999.2500     1.1949
 1811.0000  -999.2500     1.1952
 1811.5000  -999.2500     1.1954
 1812.0000  -999.2500     1.1956
 1812.5000  -999.2500     1.1958
 1813.0000  -999.2500     1.1961
 1813.5000  -999.2500     1.1963
 1814.0000  -999.2500     1.1965
 1814.5000  -999.2500     1.1968
 1815.0000  -999.2500     1.1970
 1815.5000  -999.2500     1.1972
 1816.0000  -999.2500     1.1974
 1816.5000  -999.2500     1.1977
 1817.0000  -999.2500     1.1979
 1817.5000  -999.2500     1.1981
 1818.0000  -999.2500     1.1983
 1818.5000  -999.2500     1.1986
 1819.0000  -999.2500     1.1988
 1819.5000  -999.2500     1.1990
 1820.0000  -999.2500     1.1992
 1820.5000  -999.2500     1.1995
 1821.0000  -999.2500     1.1997
 1821.5000  -999.2500     1.1999
 1822.0000  -999.2500     1.2002
 1822.5000  -999.2500     1.2004
 1823.0000  -999.2500     1.2006
 1823.5000  -999.2500     1.2008
 1824.0000  -999.2500     1.2011
 1824.5000  -999.2500     1.2013
 1825.0000  -999.2500     1.2015
 1825.5000  -999.2500     1.2017
 1826.0000  -999.2500     1.2020
 1826.5000  -999.2500     1.2022
 1827.0000  -999.2500     1.2024
 1827.5000  -999.2500     1.2027
 1828.0000  -999.2500     1.2029
 1828.5000  -999.2500     1.2031
 1829.0000  -999.2500     1.2033
 1829.5000  -999.2500     1.2036
 1830.0000  -999.2500     1.2038
 1830.5000  -999.2500     1.2040
 1831.0000  -999.2500     1.2042
 1831.5000  -999.2500     1.2045
 1832.0000  -999.2500     1.2047
 1832.5000  -999.2500     1.2049
 1833.0000  -999.2500     1.2051
 1833.5000  -999.2500     1.2054
 1834.0000  -999.2500     1.2056
 1834.5000  -999.2500     1.2058
 1835.0000  -999.2500     1.2061
 1835.5000  -999.2500     1.2063
 1836.0000  -999.2500     1.2065
 1836.5000  -999.2500     1.2067
 1837.0000  -999.2500     1.2070
 1837.5000  -999.2500     1.2072
 1838.0000  -999.2500     1.2074
 1838.5000  -999.2500     1.2076
 1839.0000  -999.2500     1.2079
 1839.5000  -999.2500     1.2081
 1840.0000  -999.2500     1.2083
 1840.5000  -999.2500     1.2085
 1841.0000  -999.2500     1.2088
 1841.5000  -999.2500     1.2090
 1842.0000  -999.2500     1.2092
 1842.5000  -999.2500     1.2095
 1843.0000  -999.2500     1.2097
 1843.5000  -999.2500     1.2099
 1844.0000  -999.2500     1.2101
 1844.5000  -999.2500     1.2104
 1845.0000  -999.2500     1.2106
 1845.5000  -999.2500     1.2108
 1846.0000  -999.2500     1.2110
 1846.5000  -999.2500     1.2113
 1847.0000  -999.2500     1.2115
 1847.5000  -999.2500     1.2117
 1848.0000  -999.2500     1.2120
 1848.5000  -999.2500     1.2122
 1849.0000  -999.2500     1.2124
 1849.5000  -999.2500     1.2126
 1850.0000  -999.2500     1.2129
 1850.5000  -999.2500     1.2114
 1851.0000  -999.2500     1.2094
 1851.5000  -999.2500     1.2074
 1852.0000  -999.2500     1.2055
 1852.5000  -999.2500     1.2035
 1853.0000  -999.2500     1.2015
 1853.5000  -999.2500     1.1995
 1854.0000  -999.2500     1.1975
 1854.5000  -999.2500     1.1956
 1855.0000  -999.2500     1.1936
 1855.5000  -999.2500     1.1916
 1856.0000  -999.2500     1.1896
 1856.5000  -999.2500     1.1876
 1857.0000  -999.2500     1.1856
 1857.5000  -999.2500     1.1837
 1858.0000  -999.2500     1.1817
 1858.5000  -999.2500     0.9480
 1859.0000  -999.2500     0.9484
 1859.5000  -999.2500     0.9488
 1860.0000  -999.2500     0.9492
 1860.5000  -999.2500     0.9495
 1861.0000  -999.2500     0.9499
 1861.5000  -999.2500     0.9503
 1862.0000  -999.2500     0.9507
 1862.5000  -999.2500     0.9510
 1863.0000  -999.2500     0.9514
 1863.5000  -999.2500     0.9518
 1864.0000  -999.2500     0.9522
 1864.5000  -999.2500     0.9525
 1865.0000  -999.2500     0.9529
 1865.5000  -999.2500     0.9533
 1866.0000  -999.2500     0.9537
 1866.5000  -999.2500     0.9540
 1867.0000  -999.2500     0.9544
 1867.5000  -999.2500     0.9548
 1868.0000  -999.2500     0.9552
 1868.5000  -999.2500     0.9556
 1869.0000  -999.2500     0.9559
 1869.5000  -999.2500     0.9563
 1870.0000  -999.2500     0.9567
 1870.5000  -999.2500     0.9571
 1871.0000  -999.2500     0.9574
 1871.5000  -999.2500     0.9578
 1872.0000  -999.2500     0.9582
 1872.5000  -999.2500     0.9586
 1873.0000  -999.2500     0.9589
 1873.5000  -999.2500     0.9593
 1874.0000  -999.2500     0.9597
 1874.5000  -999.2500     0.9601
 1875.0000  -999.2500     0.9605
 1875.5000  -999.2500     0.9608
 1876.0000  -999.2500     0.9612
 1876.5000  -999.2500     0.9616
 1877.0000  -999.2500     0.9620
 1877.5000  -999.2500     0.9623
 1878.0000  -999.2500     0.9627
 1878.5000  -999.2500     0.9631
 1879.0000  -999.2500     0.9635
 1879.5000  -999.2500     0.9638
 1880.0000  -999.2500     0.9642
 1880.5000  -999.2500     0.9646
 1881.0000  -999.2500     0.9650
 1881.5000  -999.2500     0.9653
 1882.0000  -999.2500     0.9657
 1882.5000  -999.2500     0.9661
 1883.0000  -999.2500     0.9665
 1883.5000  -999.2500     0.9669
 1884.0000  -999.2500     0.9672
 1884.5000  -999.2500     0.9676
 1885.0000  -999.2500     0.9680
 1885.5000  -999.2500     0.9684
 1886.0000  -999.2500     0.9687
 1886.5000  -999.2500     0.9691
 1887.0000  -999.2500     0.9695
 1887.5000  -999.2500     0.9699
 1888.0000  -999.2500     0.9702
 1888.5000  -999.2500     0.9706
 1889.0000  -999.2500     0.9710
 1889.5000  -999.2500     0.9714
 1890.0000  -999.2500     0.9718
 1890.5000  -999.2500     0.9721
 1891.0000  -999.2500     0.9725
 1891.5000  -999.2500     0.9729
 1892.0000  -999.2500     0.9733
 1892.5000  -999.2500     0.9736
 1893.0000  -999.2500     0.9740
 1893.5000  -999.2500     0.9744
 1894.0000  -999.2500     0.9748
 1894.5000  -999.2500     0.9751
 1895.0000  -999.2500     0.9755
 1895.5000  -999.2500     0.9759
 1896.0000  -999.2500     0.9763
 1896.5000  -999.2500     0.9766
 1897.0000  -999.2500     0.9770
 1897.5000  -999.2500     0.9774
 1898.0000  -999.2500     0.9778
 1898.5000  -999.2500     0.9782
 1899.0000  -999.2500     0.9785
 1899.5000  -999.2500     0.9789
 1900.0000  -999.2500     0.9793
 1900.5000  -999.2500     0.9798
 1901.0000  -999.2500     0.9806
 1901.5000  -999.2500     0.9814
 1902.0000  -999.2500     0.9822
 1902.5000  -999.2500     0.9830
 1903.0000  -999.2500     0.9838
 1903.5000  -999.2500     0.9846
 1904.0000  -999.2500     0.9853
 1904.5000  -999.2500     0.9861
 1905.0000  -999.2500     0.9869
 1905.5000  -999.2500     0.9877
 1906.0000  -999.2500     0.9885
 1906.5000  -999.2500     0.9893
 1907.0000  -999.2500     0.9901
 1907.5000  -999.2500     0.9908
 1908.0000  -999.2500     0.9916
