~VERSION INFORMATION
 VERS.                2.0:   CWLS LOG ASCII STANDARD - VERSION 2.0
 WRAP.                 NO:   ONE LINE PER DEPTH STEP
~WELL INFORMATION
#MNEM.UNIT      DATA TYPE    INFORMATION
#----------   ------------   ------------------------------
 STRT.F            0.0000:   START DEPTH
 STOP.F          883.0000:   STOP DEPTH
 STEP.F            0.5000:   STEP LENGTH
 NULL.          -999.2500:   NO VALUE
 COMP.       F D SERV INC:   COMPANY
 WELL. N P R 3 SX-35 #26-1-35:   WELL
 FLD .             TEAPOT:   FIELD
 LOC .      S35 T39N R78W:   LOCATION
 CNTY.            NATRONA:   COUNTY
 STAT.            WYOMING:   STATE
 CTRY. UNITED STATES OF AMERICA:   COUNTRY
 SRVC.     Atlas Wireline:   SERVICE COMPANY
 DATE.        21-NOV-1991:   LOGDATE
 API .       490252247800:   API NUMBER
~CURVE INFORMATION
#MNEM.UNIT       API CODE    CURVE DESCRIPTION
#----------   ------------   ------------------------------
 DEPT.F                  :   
 GRR .GAPI   07 310 01 00:   GAMMA RAY
 RILD.OHMM   07 120 46 00:   INDUCTION LOG DEEP RESISTIVITY
 RILM.OHMM   07 120 44 00:   INDUCTION LOG MEDIUM RESISTIVITY
 SPR .MV     07 010 01 00:   SPONTANEOUS POTENTIAL
 RFOC.OHMM   07 270 04 00:   RESISTIVITY FOCUSED LOG
~PARAMETER INFORMATION
#MNEM.UNIT          VALUE    DESCRIPTION
#----------   ------------   ------------------------------
 PD  .                 GL:   PERMANENT DATUM
 EPD .F              5098:   ELEVATION PERMANENT DATUM
 LMF .                 KB:   LOG MEASURED FROM
 DAPD.F                10:   FEET ABOVE PERMANENT DATUM
 DMF .                 KB:   DRILLING MEASURED FROM
 EKB .F              5108:   KELLING BUSHING
 EGL .F              5098:   GROUND LEVEL
 DATE.        21-NOV-1991:   RUN DATE
 RUN .                  1:   RUN NUMBER
 DD  .F               939:   DEPTH DRILLER
 DL  .F               887:   DEPTH LOGGER
 BLI .F               884:   BOTTOM LOG INTERVAL
 CS  .IN            9.625:   CASING SIZE
 CBD .F                40:   CASING BOTTOM DRILLER
 CBL .F                47:   CASING BOTTOM LOGGER
 BS  .IN             8.75:   BIT SIZE
 BSD .F               939:   BIT SIZE AT DEPTH
 DFT .               LSND:   DRILLING FLUID TYPE
 MSS .            MUDTANK:   MUD SAMPLE SOURCE
 RMS .OHMM           0.32:   RESISTIVITY MUD SAMPLE
 MST .F                90:   MUD SAMPLE TEMPERATURE
 RMB .OHMM           0.27:   RESISTIVITY MUD AT BHT
 BHT .F               103:   BOTTOM HOLE TEMPERATURE
 TCS .HRS               2:   TIME CURCULATED STOPPED
 MRT .F               103:   MAXIMUM RECORDED TEMPERATURE
 LUN .            HL 6307:   LOGGING UNIT NUMBER
 LUL .             CASPER:   LOGGING UNIT LOCATION
 ENGI.            WADDELL:   RECORDING ENGINEER
 WITN.             STRONG:   WITNESSED BY
 CLNT.            A2DTECH:   CLIENT CODE
 ORIG.           5" PRINT:   ORIGIN OF DATA
 UWI .       490252247800:   UNIQUE WELL ID
 DICO. A2D Technologies, Inc.:   DIGITIZING COMPANY
~OTHER INFORMATION
~A    DEPT      GRR      RILD       RILM        SPR       RFOC   
# ...
  183.0000   111.4593     4.5887     5.3263   -44.8135     5.5422
  183.5000   111.9101     4.5561     5.2879   -44.7461     5.3879
  184.0000   113.9543     4.5238     5.2135   -44.5888     5.3117
  184.5000   115.3156     4.5232     5.1044   -44.3439     5.1279
  185.0000   115.2959     4.4911     5.0326   -44.2183     4.9505
  185.5000   113.0295     4.4593     5.0718   -43.7668     4.8127
  186.0000   110.9765     4.4949     5.1727   -43.6172     4.8791
  186.5000   112.3378     4.5523     5.2447   -43.4684     5.0171
  187.0000   114.8371     4.5837     5.3543   -43.1679     5.1619
  187.5000   116.6536     4.6152     5.3910   -43.0197     5.3384
  188.0000   118.2426     4.6469     5.4655   -43.1745     5.4500
  188.5000   118.2595     4.6788     5.4643   -43.6419     5.4485
  189.0000   116.6282     4.6780     5.3875   -44.1174     5.4856
  189.5000   115.2703     4.6449     5.2371   -44.3981     5.5613
  190.0000   116.4028     4.5777     5.0879   -44.7045     5.4441
  190.5000   116.6271     4.4841     4.9511   -45.1627     5.2557
  191.0000   115.0283     4.3906     4.8138   -45.4692     5.0732
  191.5000   115.7067     4.2691     4.6802   -45.9274     4.8598
  192.0000   118.4337     4.2388     4.5823   -45.7786     4.7951
  192.5000   119.5674     4.1503     4.4551   -45.6297     4.6616
  193.0000   119.3353     4.0637     4.4232   -45.3172     4.6604
  193.5000   117.6647     4.0349     4.3610   -44.7259     4.7578
  194.0000   113.8626     4.0063     4.3911   -44.2737     4.8576
  194.5000   110.4439     3.9779     4.4515   -44.0926     4.8559
  195.0000   108.3909     3.9773     4.4818   -43.6726     4.7539
  195.5000   107.9324     3.9767     4.5123   -43.6755     4.6867
  196.0000   112.2516     4.0041     4.5430   -43.2232     4.7222
  196.5000   116.5719     4.0316     4.5418   -43.0744     4.8844
  197.0000   115.6570     4.0593     4.5409   -43.0774     4.9868
  197.5000   113.3612     4.0872     4.5400   -43.3991     5.0553
  198.0000   112.4615     4.1440     4.6029   -43.8428     4.9838
  198.5000   113.1388     4.1870     4.6668   -44.3010     4.9133
  199.0000   115.6382     4.2306     4.7313   -44.7591     4.8100
  199.5000   115.8625     4.2596     4.7301   -45.3691     4.8425
  200.0000   115.1741     4.2589     4.7292   -45.5238     4.9437
  200.5000   117.4459     4.2883     4.6953   -45.8302     4.9770
  201.0000   117.6692     4.3178     4.7275   -45.9849     5.0105
  201.5000   116.9757     4.3778     4.7263   -45.9879     5.1869
  202.0000   116.0334     4.4078     4.6598   -45.9909     5.5221
  202.5000   114.2405     4.4381     4.6538   -46.1462     5.5597
  203.0000   113.7808     4.5004     4.7173   -45.9967     5.4046
  203.5000   114.9142     4.5986     4.7910   -45.5452     5.2911
  204.0000   118.3241     4.7239     4.9165   -45.2446     5.4777
  204.5000   119.6854     4.8233     4.9823   -44.6406     5.6709
  205.0000   120.3639     4.8906     5.0498   -44.0366     5.7092
  205.5000   121.7252     4.9242     5.0831   -43.7360     5.7072
  206.0000   121.4931     4.9580     5.0811   -43.2837     5.5873
  206.5000   113.4490     4.8884     5.0436   -43.1350     5.5858
  207.0000   108.2814     4.8878     4.9371   -43.1386     5.5842
  207.5000   117.1541     4.7525     4.8666   -43.1416     5.5827
  208.0000   122.6125     4.6486     4.7638   -43.9033     5.5038
  208.5000   120.3319     4.4929     4.5660   -44.5132     5.3881
  209.0000   115.3200     4.3382     4.3465   -44.9714     5.2382
  209.5000   111.9013     4.1307     4.1374   -45.4296     4.9458
  210.0000   110.2883     3.9606     3.9385   -45.7360     4.6486
  210.5000   109.1600     3.8242     3.7491   -45.8978     4.5192
  211.0000   107.7899     3.6159     3.5938   -46.1335     4.4553
  211.5000   105.5093     3.3969     3.5178   -46.2008     4.3616
  212.0000   109.8296     3.4193     3.5969   -46.2038     4.2700
  212.5000   111.8738     3.4903     3.8486   -46.2067     4.1223
  213.0000   113.0076     3.5628     4.0966   -46.0572     4.0075
  213.5000   113.2360     3.6622     4.4218   -45.9084     4.0064
  214.0000   112.9621     3.7399     4.6096   -45.5448     4.3098
  214.5000   112.5390     3.9235     4.6400   -45.1563     4.7684
  215.0000   114.3545     4.1183     4.7359   -44.8457     5.2939
  215.5000   117.3091     4.3837     4.7681   -44.1008     5.4050
  216.0000   119.8085     4.6661     4.8714   -43.7995     5.2755
  216.5000   120.9423     4.8979     5.0717   -43.6507     5.3265
  217.0000   121.4022     5.0699     5.2132   -43.8061     5.5920
  217.5000   115.9672     5.1033     5.3587   -44.4160     5.7493
  218.0000   106.5880     5.1730     5.4705   -44.7225     5.7881
  218.5000   105.6742     5.2431     5.5835   -45.0289     5.5099
  219.0000   109.3106     5.3519     5.6204   -45.4871     5.3941
  219.5000   109.0785     5.4630     5.7370   -45.6550     5.5069
  220.0000   106.7980     5.5764     5.8555   -46.1007     5.7012
  220.5000   106.3383     5.6921     5.8947   -46.3677     5.8204
  221.0000   109.2319     5.8103     5.9746   -46.8412     5.9007
  221.5000   116.3436     5.8079     6.0986   -47.3238     5.7764
  222.0000   117.4784     5.7646     6.2694   -47.4784     5.6550
  222.5000   113.6034     5.6428     6.2226   -47.6324     5.5750
  223.0000   111.7791     5.5623     5.9234   -47.4836     5.5347
  223.5000   115.8708     5.4829     5.6736   -47.0320     5.4946
  224.0000   117.0046     5.4425     5.4044   -46.7315     5.4545
  224.5000   116.2967     5.2537     5.1087   -46.2736     5.3774
  225.0000   114.8710     5.0010     4.8971   -45.6500     5.2644
  225.5000   110.1616     4.6858     4.6943   -44.9201     5.1899
  226.0000   105.3783     4.3452     4.4374   -44.4671     5.0455
  226.5000   110.1528     4.1362     4.1946   -44.3183     4.9395
  227.0000   114.4731     3.9927     4.0485   -44.3219     4.8341
  227.5000   115.4135     3.8541     3.9004   -44.4766     4.7338
  228.0000   110.3672     3.6945     3.6943   -44.7830     4.6668
  228.5000   108.3142     3.5415     3.4922   -45.1012     4.5370
  229.0000   111.7230     3.4650     3.3710   -45.5484     4.0559
  229.5000   114.6776     3.3695     3.2768   -45.7031     3.6259
  230.0000   116.9494     3.3447     3.1631   -46.1612     3.2414
  230.5000   114.8965     3.3433     3.2063   -46.3159     3.3098
  231.0000   112.6159     3.4127     3.3435   -46.6224     3.9084
  231.5000   111.2458     3.4835     3.5077   -46.6253     4.6253
  232.0000   110.3126     3.7080     3.8664   -46.3247     4.7554
  232.5000   108.9597     3.9194     4.3217   -45.8724     4.6878
  233.0000   109.1829     4.1217     4.4423   -45.4209     4.6215
  233.5000   110.3166     4.3482     4.5345   -45.1196     4.6530
  234.0000   109.6293     4.5325     4.5645   -44.6680     4.7500
  234.5000   109.1697     4.5948     4.6918   -44.3675     4.7486
  235.0000   110.3034     4.5288     4.7559   -44.3704     4.7807
  235.5000   112.6085     4.4331     4.8541   -44.0699     4.7791
  236.0000   114.8469     4.3698     4.9548   -44.2246     4.7445
  236.5000   114.1586     4.4007     4.9880   -44.3792     4.6448
  237.0000   112.1056     4.4587     4.9163   -44.2304     4.5156
  237.5000   109.1422     4.4882     4.9144   -44.3859     4.3593
  238.0000   107.7721     4.4237     4.8105   -44.5405     4.2380
  238.5000   107.9955     4.1525     4.5464   -44.5435     4.2366
  239.0000   108.4461     3.8440     3.9931   -45.0017     4.2950
  239.5000   106.5024     3.2269     3.2267   -45.3081     4.2939
  240.0000   102.9734     2.7663     2.7661   -45.9282     4.0311
  240.5000   103.6518     2.3959     2.4046   -46.6804     3.5786
  241.0000   107.5169     2.1494     2.1646   -47.2903     2.8607
  241.5000   110.0163     2.0894     2.2250   -47.5968     2.2076
  242.0000   110.6959     2.0885     2.5220   -47.7507     1.9880
  242.5000   108.4142     2.1468     2.9232   -47.2991     2.1612
  243.0000   102.6404     2.2222     3.3316   -46.9985     2.7981
  243.5000    99.0720     2.4324     3.5961   -46.3945     3.7516
