~VERSION INFORMATION
 VERS.                2.0:   CWLS LOG ASCII STANDARD - VERSION 2.0
 WRAP.                 NO:   ONE LINE PER DEPTH STEP
~WELL INFORMATION
#MNEM.UNIT      DATA TYPE    INFORMATION
#----------   ------------   ------------------------------
 STRT.F           30.0000:   START DEPTH
 STOP.F          506.0000:   STOP DEPTH
 STEP.F            0.5000:   STEP LENGTH
 NULL.          -999.2500:   NO VALUE
 COMP. FENIX & SCISSON INC:   COMPANY
 WELL.    42 SX-3F1 #55-3:   WELL
 FLD .             TEAPOT:   FIELD
 LOC .       S3 T38N R78W:   LOCATION
 CNTY.            NATRONA:   COUNTY
 STAT.            WYOMING:   STATE
 CTRY. UNITED STATES OF AMERICA:   COUNTRY
 SRVC.              Welex:   SERVICE COMPANY
 DATE.        26-MAY-1980:   LOGDATE
 API .       490251082900:   API NUMBER
~CURVE INFORMATION
#MNEM.UNIT       API CODE    CURVE DESCRIPTION
#----------   ------------   ------------------------------
 DEPT.F                  :   
 GRD .GAPI   45 310 01 00:   GAMMA RAY FROM DENSITY LOG
 CALD.IN     45 280 60 00:   CALIPER
 RHOB.G/C3   45 350 01 00:   BULK DENSITY
 CORR.G/C3   45 356 01 00:   DENSITY CORRECTION
 DPHI.DEC    45 890 12 00:   DENSITY POROSITY SANDSTONE
 NPHI.DEC    42 890 03 00:   NEUTRON POROSITY SANDSTONE
 GURD.OHMM   07 220 05 00:   GUARD RESISTIVITY
 ILD .OHMM   07 120 46 00:   INDUCTION LOG DEEP
 ILM .OHMM   07 120 44 00:   INDUCTION LOG MEDIUM
 SPR .MV     07 010 01 00:   SPONTANEOUS POTENTIAL
~PARAMETER INFORMATION
#MNEM.UNIT          VALUE    DESCRIPTION
#----------   ------------   ------------------------------
 PD  .                 GL:   PERMANENT DATUM
 EPD .F              5161:   ELEVATION PERMANENT DATUM
 LMF .                 KB:   LOG MEASURED FROM
 DAPD.F                 4:   FEET ABOVE PERMANENT DATUM
 DMF .                 KB:   DRILLING MEASURED FROM
 EKB .F              5165:   KELLING BUSHING
 EGL .F              5161:   GROUND LEVEL
 DATE.            5-26-80:   RUN DATE
 RUN .                  1:   RUN NUMBER
 DD  .F               500:   DEPTH DRILLER
 DL  .F               502:   DEPTH LOGGER
 BLI .F               500:   BOTTOM LOG INTERVAL
 TLI .F                34:   TOP LOG INTERVAL
 BS  .IN            9.875:   BIT SIZE
 BSD .F               500:   BIT SIZE AT DEPTH
 DFT .          KCL WATER:   DRILLING FLUID TYPE
 DFD .                9.5:   DRILLING FLUID DENSITY
 DFV .                 45:   DRILLING FLUID VISCOSITY
 MSS .            MUD PIT:   MUD SAMPLE SOURCE
 RMS .OHMM            .39:   RESISTIVITY MUD SAMPLE
 MST .F                75:   MUD SAMPLE TEMPERATURE
 RMF .OHMM           .312:   RESISTIVITY MUD FILTRATE SAMPLE
 MFST.F                75:   MUD FILTRATE SAMPLE TEMPERATURE
 RMC .OHMM           .468:   RESISTIVITY MUD CAKE
 MCST.F                75:   MUD CAKE SAMPLE TEMPERATURE
 MFSS.           MEASURED:   MUD FILTRATE SAMPLE SOURCE
 MCSS.           MEASURED:   MUD CAKE SAMPLE SOURCE
 RMB .OHMM            .39:   RESISTIVITY MUD AT BHT
 BHT .F                75:   BOTTOM HOLE TEMPERATURE
 TCS .HRS               2:   TIME CURCULATED STOPPED
 MRT .F                75:   MAXIMUM RECORDED TEMPERATURE
 LUN .               9685:   LOGGING UNIT NUMBER
 LUL .             CASPER:   LOGGING UNIT LOCATION
 ENGI.            TOTHILL:   RECORDING ENGINEER
 WITN.            RHOADES:   WITNESSED BY
 CLNT.            A2DTECH:   CLIENT CODE
 ORIG.           5" PRINT:   ORIGIN OF DATA
 UWI .       490251082900:   UNIQUE WELL ID
 DICO. A2D Technologies, Inc.:   DIGITIZING COMPANY
~OTHER INFORMATION
~A   DEPT      GRD       CALD       RHOB       CORR         DPHI       NPHI      GURD        ILD        ILM       SPR   
# ...
  231.0000   113.9215    10.1042     2.4741     0.0527     0.1156     0.2823     4.3268     4.9953     5.6213   -36.7819
  231.5000   113.7776    10.0590     2.4710     0.0498     0.1199     0.2822     4.1473     5.0145     5.8454   -36.4763
  232.0000   114.6083    10.0174     2.4879     0.0561     0.1300     0.2849     6.3275     5.0823     6.0778   -36.2473
  232.5000   115.4732    10.0850     2.4919     0.0510     0.1396     0.2883     7.1012     5.2778     6.3201   -36.2362
  233.0000   116.3348    10.1292     2.4851     0.0382     0.1334     0.2941     7.3622     5.4809     6.5715   -36.2217
  233.5000   117.1974    10.1066     2.4662     0.0257     0.1252     0.2990     7.5589     5.6918     6.8207   -36.2070
  234.0000   118.0569    10.0849     2.4558     0.0115     0.1212     0.2926     7.7389     5.9312     6.9652   -36.1923
  234.5000   118.8066    10.0632     2.4453    -0.0029     0.1139     0.2905     7.5964     6.1402     7.1256   -36.1775
  235.0000   118.7467    10.0414     2.4749     0.0199     0.1061     0.2889     7.4601     6.3788     7.1777   -36.1628
  235.5000   118.6979    10.0187     2.4801     0.0323     0.0979     0.2883     7.4601     6.6266     7.2350   -36.1480
  236.0000   118.6518    10.0204     2.4938     0.0423     0.0930     0.2875     7.4589     6.8841     7.2928   -36.1333
  236.5000   118.6058    10.0291     2.5072     0.0521     0.0987     0.2837     8.1045     7.0774     7.3510   -36.1185
  237.0000   118.5591    10.0381     2.5203     0.0585     0.1010     0.2787     8.0051     7.1278     7.4097   -36.1038
  237.5000   118.5151    10.0470     2.5274     0.0500     0.0914     0.2799     7.8822     7.1789     7.4601   -36.0887
  238.0000   118.5761    10.0534     2.5147     0.0425     0.1034     0.2823     7.9023     7.2299     7.5033   -36.0728
  238.5000   118.9290    10.0533     2.5230     0.0545     0.1090     0.2815     7.9389     7.2811     7.5612   -36.0644
  239.0000   119.2740    10.0533     2.5237     0.0627     0.1084     0.2783     7.9756     7.3242     7.6196   -36.2954
  239.5000   119.2717    10.0533     2.4973     0.0410     0.1152     0.2783     8.0281     7.2649     7.6682   -36.5445
  240.0000   119.1209    10.0532     2.4982     0.0396     0.1267     0.2745     8.0068     7.2144     7.6386   -36.8017
  240.5000   118.9661    10.0579     2.5043     0.0279     0.1364     0.2733     7.9700     7.1641     7.6136   -36.6576
  241.0000   118.8113    10.0648     2.4733     0.0147     0.1280     0.2789     7.9333     7.1141     7.5885   -36.4193
  241.5000   118.6568    10.0718     2.4532     0.0010     0.1166     0.2816     7.8967     7.0644     7.5635   -36.1787
  242.0000   118.5025    10.0788     2.4514    -0.0073     0.1083     0.2853     7.8531     6.9961     7.5385   -35.9388
  242.5000   118.3486    10.0858     2.4848     0.0216     0.1002     0.2895     7.8050     7.0042     7.4988   -35.6986
  243.0000   118.1909    10.0925     2.4965     0.0354     0.1169     0.2938     7.7389     7.0177     7.4495   -35.4598
  243.5000   117.9336    10.0927     2.5135     0.0465     0.1132     0.2936     7.8221     7.0312     7.4006   -35.2755
  244.0000   117.6751    10.0927     2.4888     0.0382     0.1065     0.2919     7.9588     7.0447     7.3520   -35.3170
  244.5000   117.4107    10.0927     2.4854     0.0296     0.0982     0.2879     8.0991     7.0603     7.3245   -35.3542
  245.0000   117.5979    10.0927     2.5005     0.0447     0.1035     0.2863     8.1761     7.0062     7.3446   -35.3908
  245.5000   118.0824    10.0927     2.5190     0.0610     0.1106     0.2870     7.9876     6.9420     7.3587   -35.4258
  246.0000   118.5715    10.0927     2.5000     0.0512     0.1160     0.2896     7.8586     6.8782     7.3722   -35.4528
  246.5000   119.0614    10.0962     2.4914     0.0401     0.1190     0.2947     7.7389     6.7310     7.3829   -35.8928
  247.0000   119.5491    10.1065     2.4844     0.0386     0.1185     0.2999     7.6851     6.5729     7.1306   -36.3921
  247.5000   120.0411    10.1166     2.4791     0.0369     0.1230     0.3050     7.6346     6.4185     6.7522   -36.2399
  248.0000   120.2873    10.1267     2.4815     0.0403     0.1248     0.2997     7.0536     6.2677     6.4695   -35.9927
  248.5000   120.3695    10.1368     2.4716     0.0413     0.1209     0.2965     5.3787     6.1205     6.2804   -35.7424
  249.0000   120.4471    10.1470     2.4794     0.0509     0.1296     0.2895     4.3819     5.9767     6.0968   -35.4921
  249.5000   120.5248    10.1480     2.4704     0.0500     0.1157     0.2892     6.3843     5.8551     6.0410   -35.6439
  250.0000   120.5770    10.1408     2.4636     0.0212     0.1085     0.2914     6.9961     5.7805     7.1256   -35.8436
  250.5000   119.7663    10.1335     2.4943     0.0325     0.1090     0.2961     6.9318     5.7069     6.9368   -36.0484
  251.0000   118.6403    10.1263     2.5028     0.0471     0.1074     0.3005     6.8689     5.6342     6.7694   -36.0462
  251.5000   117.5078    10.1190     2.5018     0.0493     0.1098     0.3050     7.0835     5.5624     6.6060   -36.0289
  252.0000   116.3761    10.1102     2.5003     0.0595     0.1104     0.3090     7.2576     5.4916     6.2867   -36.0126
  252.5000   115.2447    10.0920     2.5057     0.0649     0.1044     0.3037     6.8077     5.4216     5.9004   -35.9967
  253.0000   114.1096    10.0734     2.4965     0.0650     0.0966     0.3038     5.9268     5.3619     5.4917   -35.9807
  253.5000   112.9763    10.0548     2.5062     0.0744     0.0923     0.2966     4.5155     5.3864     5.3129   -35.9648
  254.0000   111.9583    10.0363     2.5119     0.0834     0.1034     0.2914     3.8538     5.4080     5.6931   -35.9488
  254.5000   112.5573    10.0178     2.5305     0.0788     0.1106     0.2882     6.2668     5.4295     6.0485   -35.9329
  255.0000   113.1983     9.9985     2.5101     0.0437     0.1169     0.2876     6.9961     5.4516     6.4417   -35.9170
  255.5000   113.8354     9.9941     2.4939     0.0234     0.1181     0.2827     7.2456     5.5592     6.6395   -35.9010
  256.0000   114.4715     9.9940     2.4819     0.0140     0.1117     0.2857     7.3189     5.7396     6.8259   -35.8852
  256.5000   115.0967     9.9941     2.4866     0.0124     0.1062     0.2865     7.3920     5.9252     7.0175   -35.8684
  257.0000   115.4061     9.9941     2.4941     0.0263     0.1010     0.2851     7.4056     6.1168     7.0606   -35.9268
  257.5000   114.9705     9.9941     2.5041     0.0413     0.0888     0.2863     7.4191     6.3146     7.0606   -36.0363
  258.0000   114.5458     9.9941     2.5141     0.0470     0.0944     0.2836     7.4328     6.5187     7.0606   -36.1474
  258.5000   114.4318     9.9941     2.5335     0.0659     0.1018     0.2844     7.4468     6.5609     7.0606   -36.2479
  259.0000   114.5768     9.9941     2.5256     0.0685     0.1153     0.2897     7.4599     6.5111     7.0624   -36.1104
  259.5000   114.7249     9.9975     2.5114     0.0597     0.1226     0.2957     7.3991     6.2751     7.0639   -35.9626
  260.0000   114.8695    10.0037     2.4939     0.0507     0.1272     0.3017     7.3391     6.0478     6.8098   -35.8158
  260.5000   114.6485    10.0100     2.4773     0.0416     0.1254     0.3077     7.2796     5.8284     6.4156   -35.6694
  261.0000   113.7588    10.0163     2.4705     0.0382     0.1182     0.3205     6.6214     5.6172     6.0455   -35.5219
  261.5000   112.8778    10.0225     2.4711     0.0435     0.1096     0.3159     4.9465     5.4137     5.6135   -35.4495
  262.0000   111.9960    10.0288     2.4845     0.0571     0.0994     0.3101     3.9252     5.2599     5.7499   -35.4166
  262.5000   111.1147    10.0351     2.5022     0.0719     0.1060     0.3009     5.7070     5.2407     5.9696   -35.3845
  263.0000   110.2327    10.0414     2.5117     0.0601     0.1152     0.2900     6.8062     5.2172     6.1976   -35.3523
  263.5000   109.3468    10.0476     2.5138     0.0527     0.1237     0.2802     5.8234     5.3140     6.3919   -35.3201
  264.0000   108.4624    10.0539     2.4924     0.0409     0.1221     0.2791     6.5307     5.4626     6.5411   -35.2878
