~VERSION INFORMATION
 VERS.                2.0:   CWLS LOG ASCII STANDARD - VERSION 2.0
 WRAP.                 NO:   ONE LINE PER DEPTH STEP
~WELL INFORMATION
#MNEM.UNIT      DATA TYPE    INFORMATION
#----------   ------------   ------------------------------
 STRT.F           80.0000:   START DEPTH
 STOP.F         1056.0000:   STOP DEPTH
 STEP.F            0.5000:   STEP LENGTH
 NULL.          -999.2500:   NO VALUE
 COMP. U S NAVY-INTEX OIL:   COMPANY
 WELL.      NPR 3 #68-S-2:   WELL
 FLD .        TEAPOT DOME:   FIELD
 LOC .       S2 T38N R78W:   LOCATION
 CNTY.            NATRONA:   COUNTY
 STAT.            WYOMING:   STATE
 CTRY. UNITED STATES OF AMERICA:   COUNTRY
 SRVC.       Schlumberger:   SERVICE COMPANY
 DATE.        21-JUL-1964:   LOGDATE
 API .       490250638800:   API NUMBER
~CURVE INFORMATION
#MNEM.UNIT       API CODE    CURVE DESCRIPTION
#----------   ------------   ------------------------------
 DEPT.F                  :   
 SPR .MV     05 010 01 00:   SPONTANEOUS POTENTIAL FROM RES.
 ASN .OHMM   05 041 16 00:   AMPLIFIED SHORT NORMAL 16"
 ILD .OHMM   05 120 46 00:   INDUCTION LOG DEEP
 CILD.MMHO   05 110 46 00:   CONDUCTIVITY INDUCTION LOG DEEP
 GR  .GAPI   30 310 01 00:   GAMMA RAY
 CALS.IN     60 280 50 00:   CALIPER FROM SONIC LOG
 DT  .US/F   60 520 00 00:   INTERVAL TRANSIT TIME
~PARAMETER INFORMATION
#MNEM.UNIT          VALUE    DESCRIPTION
#----------   ------------   ------------------------------
 PD  .                 GL:   PERMANENT DATUM
 EPD .F              5201:   ELEVATION PERMANENT DATUM
 LMF .                 KB:   LOG MEASURED FROM
 DAPD.F                 5:   FEET ABOVE PERMANENT DATUM
 DMF .                 KB:   DRILLING MEASURED FROM
 EKB .F              5206:   KELLING BUSHING
 EGL .F              5201:   GROUND LEVEL
 DATE.          8-12-1964:   RUN DATE
 RUN .                  1:   RUN NUMBER
 DD  .F              1055:   DEPTH DRILLER
 DL  .F              1057:   DEPTH LOGGER
 BLI .F              1055:   BOTTOM LOG INTERVAL
 TLI .F               450:   TOP LOG INTERVAL
 CS  .IN              4.5:   CASING SIZE
 BS  .IN             6.75:   BIT SIZE
 DFT .            GEL OIL:   DRILLING FLUID TYPE
 DFD .                9.3:   DRILLING FLUID DENSITY
 DFV .                 48:   DRILLING FLUID VISCOSITY
 DFPH.                 10:   DRILLING FLUID PH
 DFL .                 10:   DRILLING FLUID LOSS
 MSS .           FLOWLINE:   MUD SAMPLE SOURCE
 RMS .OHMM           1.07:   RESISTIVITY MUD SAMPLE
 MST .F                95:   MUD SAMPLE TEMPERATURE
 RMF .OHMM            .67:   RESISTIVITY MUD FILTRATE SAMPLE
 MFST.F                95:   MUD FILTRATE SAMPLE TEMPERATURE
 RMC .OHMM           1.44:   RESISTIVITY MUD CAKE
 MCST.F                95:   MUD CAKE SAMPLE TEMPERATURE
 MFSS.                 FP:   MUD FILTRATE SAMPLE SOURCE
 MCSS.                 FP:   MUD CAKE SAMPLE SOURCE
 TCS .HRS               1:   TIME CURCULATED STOPPED
 LUN .               4507:   LOGGING UNIT NUMBER
 LUL .               CSPR:   LOGGING UNIT LOCATION
 ENGI.             DANNER:   RECORDING ENGINEER
 WITN.         JORGENESEN:   WITNESSED BY
 CLNT.            A2DTECH:   CLIENT CODE
 ORIG.           2" PRINT:   ORIGIN OF DATA
 UWI .       490250638800:   UNIQUE WELL ID
 DICO. A2D Technologies, Inc.:   DIGITIZING COMPANY
~OTHER INFORMATION
~A   DEPT      SPR          ASN        ILD      CILD        GR       CALS         DT   
# ...
  990.0000   -33.0997    11.2969     9.1168   112.5744    49.2396     6.6901    89.4436
  990.5000   -33.0991    11.2980     9.1175   112.5632    56.1006     6.6905    89.3661
  991.0000   -33.0983    11.2991     9.0761   112.5521    57.5943     6.6759    89.3639
  991.5000   -33.3247    11.3004     9.0441   112.5393    47.1677     6.6765    89.1328
  992.0000   -33.5618    11.3014     9.1199   112.2520    42.2541     6.6769    88.9083
  992.5000   -33.8412    11.3025     9.1205   111.7744    41.8104     6.6774    88.8220
  993.0000   -34.4277    11.4685     9.1213   111.3341    46.1942     6.6778    88.8401
  993.5000   -35.3301    11.6345     9.1635   111.0082    50.9106     6.6783    89.0804
  994.0000   -35.8540    11.9057     9.2954   109.5074    51.6602     6.6787    89.8011
  994.5000   -36.0738    12.0416     9.5727   107.1579    49.2802     6.6791    90.1753
  995.0000   -36.2219    12.2076     9.7755   104.2782    49.1356     6.6796    90.1725
  995.5000   -36.2214    12.4487    10.1729   100.2940    48.9911     6.6800    90.0951
  996.0000   -36.3695    12.8996    10.8683    96.2598    46.1639     6.6805    90.9951
  996.5000   -36.5909    13.7854    11.6724    92.3386    47.3607     6.6794    91.3694
  997.0000   -36.8411    14.0712    12.5705    88.9363    43.9374     6.6665    91.1410
  997.5000   -37.4104    14.3122    13.1225    84.8772    42.8987     6.6520    91.6651
  998.0000   -38.1073    14.5982    13.6198    81.3094    39.0283     6.6375    92.6403
  998.5000   -39.7935    15.8437    14.0811    77.5778    31.8793     6.6083    93.6907
  999.0000   -39.7223    17.0144    14.4107    72.9376    29.0522     6.5937    94.3652
  999.5000   -39.6431    17.5851    14.9694    69.8064    28.7586     6.5793    94.9645
 1000.0000   -39.9677    17.9160    15.2560    66.2202    31.0296     6.5947    96.0427
 1000.5000   -40.7465    18.1228    15.5506    65.0272    28.6140     6.5873    97.3666
 1001.0000   -41.5254    18.3674    15.8698    63.9881    28.1669     6.5809    96.6871
 1001.5000   -42.3043    18.5537    15.8007    64.7321    28.1669     6.5815    97.2112
 1002.0000   -43.2129    18.8246    15.5569    65.7838    27.7198     6.5996    97.2923
 1002.5000   -42.4168    19.0444    15.0487    67.7331    29.8063     6.6126    96.6015
 1003.0000   -41.4217    19.1198    14.5405    70.1191    27.8689     6.6281    95.6059
 1003.5000   -40.7347    18.5960    14.0772    72.5047    21.9076     6.6138    95.3978
 1004.0000   -40.1669    18.1859    13.8184    75.1488    19.8212     6.5994    95.9219
 1004.5000   -39.6287    17.9155    13.6245    76.2129    19.3980     6.5850    95.3177
 1005.0000   -39.4784    17.6988    13.5554    77.3810    23.5469     6.5858    95.0147
 1005.5000   -39.6259    17.4812    13.4614    77.3810    27.2727     6.5713    95.8395
 1006.0000   -39.7635    17.3254    13.3324    77.3810    29.3592     6.5721    95.6869
 1006.5000   -39.1361    17.1379    13.3331    76.6369    31.5946     6.5875    94.9328
 1007.0000   -38.4290    17.0269    13.3338    76.6369    37.4069     6.6179    94.4795
 1007.5000   -38.0303    17.0279    13.3346    75.8929    36.9598     6.6483    94.4773
 1008.0000   -37.8300    16.9534    13.3353    75.8929    29.3592     6.6787    94.5508
 1008.5000   -37.6001    16.9543    13.4110    75.1488    25.9314     6.6942    91.9165
 1009.0000   -37.5292    17.0300    13.4865    75.1488    25.3343     6.6948    92.5909
 1009.5000   -38.2725    17.0308    13.5621    75.1488    27.8802     6.6954    93.7917
 1010.0000   -39.1158    17.0316    13.5629    75.1488    31.3268     6.6960    94.6166
 1010.5000   -38.7168    17.0070    13.6384    75.6473    35.0531     6.6966    95.1065
 1011.0000   -38.3378    16.9580    13.6393    75.8929    36.9807     6.6972    96.3409
 1011.5000   -37.9687    16.7339    13.6051    75.8929    37.8540     6.7127    96.5648
 1012.0000   -37.9670    16.5737    13.5658    76.9941    38.5382     6.7133    94.8327
 1012.5000   -37.9657    16.4356    13.5167    78.1870    41.2817     6.6989    93.9282
 1013.0000   -38.1132    16.3349    13.3977    79.6131    35.3204     6.6995    93.4749
 1013.5000   -38.1118    16.2122    13.3435    80.5728    36.8107     6.7001    93.2471
 1014.0000   -38.2792    16.0960    13.0499    81.1012    31.0135     6.6860    93.3201
 1014.5000   -38.8537    15.9643    12.7313    82.2149    29.5082     6.6865    94.0698
 1015.0000   -39.1008    15.8396    12.4226    83.4076    32.4888     6.6871    95.1202
 1015.5000   -39.1590    15.7099    12.1290    84.0774    34.2772     6.6727    95.2055
 1016.0000   -39.0680    15.4663    11.9252    85.0495    29.5082     6.6734    95.3413
 1016.5000   -38.6592    15.1124    11.7413    86.3095    25.0373     6.6740    96.6925
 1017.0000   -38.1011    14.7526    11.6222    87.0536    20.5663     6.6595    96.9158
 1017.5000   -37.7521    14.4191    11.5032    87.8844    20.2683     6.6603    96.5201
 1018.0000   -37.3531    14.2119    11.4591    89.2857    18.9270     6.6609    95.4823
 1018.5000   -37.1232    14.0457    11.3302    90.0298    11.1773     6.6615    94.5026
 1019.0000   -36.7541    13.8521    11.2959    90.0298    -0.4471     6.6620    93.2222
 1019.5000   -36.6033    13.7473    11.2567    91.1681    -3.5768     6.6476    92.3177
 1020.0000   -36.5524    13.6733    11.2076    92.3612     7.3025     6.6483    91.9396
 1020.5000   -36.3025    13.5990    11.0886    93.0060    14.7541     6.6489    91.2607
 1021.0000   -36.3010    13.5242    11.0344    93.2589    18.6289     6.6495    91.4840
 1021.5000   -36.2996    13.4505    10.9603    93.7500    21.3115     6.6352    91.8577
 1022.0000   -36.2978    13.4513    10.8812    94.1567    28.9121     6.6358    92.1562
 1022.5000   -36.2966    13.3771    10.8121    95.3498    28.1669     6.6364    92.3797
 1023.0000   -36.2950    13.3463    10.7181    95.9821    29.5082     6.6370    92.5278
 1023.5000   -36.0651    13.3019    10.6639    95.9821    28.6140     6.6376    92.5255
 1024.0000   -35.9742    13.2294    10.6298    96.7262    34.8733     6.6381    92.4481
 1024.5000   -35.6942    13.1551    10.5157    97.1452  -999.2500     6.6387    92.2882
 1025.0000   -35.6433    13.0810    10.4666    98.2143  -999.2500     6.6393    91.9799
 1025.5000   -35.3934    12.9740    10.3674    98.2143  -999.2500     6.6401    91.6139
 1026.0000   -35.3124    12.8576    10.3683    98.9583  -999.2500     6.6555    91.2357
 1026.5000   -34.9235    12.8101    10.2941    98.9583  -999.2500     6.6561    91.3839
 1027.0000   -34.6436    12.6906    10.2200   100.1338  -999.2500     6.6567    91.4574
 1027.5000   -34.4436    12.5600    10.1709   101.3268  -999.2500     6.6573    90.9283
 1028.0000   -34.1937    12.5607    10.1466   101.9345  -999.2500     6.6429    90.6253
 1028.5000   -33.9637    12.4823    10.0727   102.9687  -999.2500     6.6138    90.4727
 1029.0000   -33.8728    12.4123    10.0733   103.4226  -999.2500     6.5846    90.0946
 1029.5000   -33.7419    12.3380    10.0691   104.6108  -999.2500     6.5552    89.7164
 1030.0000   -33.6910    12.2639    10.0000   104.9107  -999.2500     6.5559    89.4886
 1030.5000   -33.5901    12.2646    10.0007   104.9107  -999.2500     6.5565    89.3361
 1031.0000   -33.5887    12.2653    10.0016   104.9107  -999.2500     6.4379    89.1078
 1031.5000   -33.5872    12.2661    10.0022   104.9107  -999.2500     6.3787    88.8747
 1032.0000   -33.7345    12.2668    10.0030   104.9107  -999.2500     6.6477    88.5664
 1032.5000   -33.7332    12.1927    10.0037   104.9107  -999.2500     6.7228    88.1988
 1033.0000   -33.7317    12.1934    10.0045   104.9107  -999.2500     6.7234    87.8958
 1033.5000   -33.7303    12.1941    10.0053   104.9107  -999.2500     6.7240    87.6681
 1034.0000   -33.7288    12.1950    10.0060   104.9107  -999.2500     6.7097    87.6658
 1034.5000   -33.7270    12.1956    10.0067   104.9107  -999.2500     6.7103    87.7388
 1035.0000   -33.7258    12.1964    10.0075   104.9107  -999.2500     6.6960    87.8870
