~VERSION INFORMATION
 VERS.                2.0:   CWLS LOG ASCII STANDARD - VERSION 2.0
 WRAP.                 NO:   ONE LINE PER DEPTH STEP
~WELL INFORMATION
#MNEM.UNIT      DATA TYPE    INFORMATION
#----------   ------------   ------------------------------
 STRT.F          550.0000:   START DEPTH
 STOP.F         2078.5000:   STOP DEPTH
 STEP.F            0.5000:   STEP LENGTH
 NULL.          -999.2500:   NO VALUE
 COMP. BROWN JOHN E&C INC:   COMPANY
 WELL. 58-61 STX-10 #58-10:   WELL
 FLD .             TEAPOT:   FIELD
 LOC .      S10 T38N R78W:   LOCATION
 CNTY.            NATRONA:   COUNTY
 STAT.            WYOMING:   STATE
 CTRY. UNITED STATES OF AMERICA:   COUNTRY
 SRVC.            Unknown:   SERVICE COMPANY
 DATE.        07-SEP-1991:   LOGDATE
 API .       490251108000:   API NUMBER
~CURVE INFORMATION
#MNEM.UNIT       API CODE    CURVE DESCRIPTION
#----------   ------------   ------------------------------
 DEPT.F                  :   
 ROP .MIN/FT 91 810 01 00:   RAT OF DRILLING PENETRATION
 TGAS.UNITS  91 830 01 00:   TOTAL GAS FROM HOTWIRE
~PARAMETER INFORMATION
#MNEM.UNIT          VALUE    DESCRIPTION
#----------   ------------   ------------------------------
 EKB .F              5216:   KELLING BUSHING
 EGL .F              5206:   GROUND LEVEL
 DATE.             9-7-91:   RUN DATE
 DD  .F              2079:   DEPTH DRILLER
 TCS .HRS            1815:   TIME CURCULATED STOPPED
 TLAB.HRS            1930:   TIME LOGGER AT BOTTOM
 ENGI.         HUSK/TOWER:   RECORDING ENGINEER
 WITN.             HENDRY:   WITNESSED BY
 CLNT.            A2DTECH:   CLIENT CODE
 ORIG.           5" PRINT:   ORIGIN OF DATA
 UWI .       490251108000:   UNIQUE WELL ID
 DICO. A2D Technologies, Inc.:   DIGITIZING COMPANY
~OTHER INFORMATION
~A   DEPT        ROP       TGAS 
# ...
 2008.0000     0.9176     2.3842
 2008.5000     0.9724     2.3659
 2009.0000     1.0271     2.3475
 2009.5000     1.0819     2.3291
 2010.0000     1.1361     2.3107
 2010.5000     1.1827     2.2953
 2011.0000     1.1740     2.2697
 2011.5000     1.1664     2.2031
 2012.0000     1.1589     2.7566
 2012.5000     1.1513     2.7803
 2013.0000     1.1437     2.8199
 2013.5000     1.1360     2.8505
 2014.0000     1.1317     2.8800
 2014.5000     1.1552     2.9103
 2015.0000     1.2406     2.9405
 2015.5000     1.3228     2.9708
 2016.0000     1.4050     3.0010
 2016.5000     1.4874     3.0312
 2017.0000     1.5696     3.0615
 2017.5000     1.6525     3.0917
 2018.0000     1.7381     3.1220
 2018.5000     1.7357     3.1522
 2019.0000     1.4734     3.1825
 2019.5000     1.2177     3.2127
 2020.0000     0.9847     3.2429
 2020.5000     0.9798     3.2732
 2021.0000     0.9810     3.3034
 2021.5000     0.9812     3.3337
 2022.0000     0.9812     3.3639
 2022.5000     0.9809     3.3942
 2023.0000     0.9824     3.4244
 2023.5000     1.0220     3.4546
 2024.0000     1.0623     3.4849
 2024.5000     1.1025     3.5151
 2025.0000     1.1425     3.5454
 2025.5000     1.1827     3.5756
 2026.0000     1.2227     3.6058
 2026.5000     1.2508     3.6361
 2027.0000     1.2757     3.6663
 2027.5000     1.3005     3.6966
 2028.0000     1.3254     3.7268
 2028.5000     1.3502     3.7571
 2029.0000     1.3751     3.7873
 2029.5000     1.3999     3.8175
 2030.0000     1.4248     3.8478
 2030.5000     1.4503     3.8780
 2031.0000     1.4565     3.9083
 2031.5000     1.4553     3.9385
 2032.0000     1.3926     3.9688
 2032.5000     1.3209     3.9990
 2033.0000     1.2494     4.0292
 2033.5000     1.1780     4.0595
 2034.0000     1.1065     4.0897
 2034.5000     1.0351     4.1200
 2035.0000     0.9637     4.1502
 2035.5000     0.8894     4.1804
 2036.0000     0.8692     4.2107
 2036.5000     0.8992     4.2418
 2037.0000     0.9348     4.2466
 2037.5000     0.9711     4.2345
 2038.0000     0.9788     4.2225
 2038.5000     0.9152     4.2105
 2039.0000     0.8507     4.1985
 2039.5000     0.7867     4.1865
 2040.0000     0.7228     4.1746
 2040.5000     0.6587     4.1626
 2041.0000     0.5943     4.1506
 2041.5000     0.5329     4.1386
 2042.0000     0.5528     4.1267
 2042.5000     0.6733     4.1147
 2043.0000     0.7926     4.1027
 2043.5000     0.9116     4.0908
 2044.0000     1.0306     4.0788
 2044.5000     1.1495     4.0668
 2045.0000     1.2685     4.0548
 2045.5000     1.3874     4.0429
 2046.0000     1.5067     4.0309
 2046.5000     1.6284     4.0189
 2047.0000     1.6546     4.0069
 2047.5000     1.5793     3.9950
 2048.0000     1.4062     3.9830
 2048.5000     1.2376     3.9710
 2049.0000     1.0689     3.9590
 2049.5000     0.9194     3.9471
 2050.0000     0.9231     3.9351
 2050.5000     0.9710     3.9231
 2051.0000     1.0189     3.9111
 2051.5000     1.0681     3.8992
 2052.0000     1.0828     3.8872
 2052.5000     0.9616     3.8752
 2053.0000     0.7698     3.8632
 2053.5000     0.5768     3.8513
 2054.0000     0.5441     3.8393
 2054.5000     0.5672     3.8273
 2055.0000     0.6189     3.8153
 2055.5000     0.6777     3.8034
 2056.0000     0.7378     3.7914
 2056.5000     0.8312     3.7794
 2057.0000     0.9237     3.7675
 2057.5000     1.0165     3.7555
 2058.0000     1.1094     3.7435
 2058.5000     1.2022     3.7315
 2059.0000     1.2952     3.7195
 2059.5000     1.3885     3.7076
 2060.0000     1.4790     3.6956
 2060.5000     1.4542     3.6836
 2061.0000     1.4126     3.6717
 2061.5000     1.3798     3.6597
 2062.0000     1.4185     3.6477
 2062.5000     1.4747     3.6357
 2063.0000     1.5308     3.6238
 2063.5000     1.5264     3.6118
 2064.0000     1.4848     3.5998
 2064.5000     1.4394     3.5878
 2065.0000     1.3943     3.5759
 2065.5000     1.3440     3.5639
 2066.0000     1.2867     3.5519
 2066.5000     1.2296     3.5399
 2067.0000     1.1725     3.5280
 2067.5000     1.1154     3.5160
 2068.0000     1.0584     3.5040
 2068.5000     1.0013     3.4920
 2069.0000     0.9440     3.4801
 2069.5000     0.8865     3.4681
 2070.0000     0.8340     3.4561
 2070.5000     0.9037     3.4441
 2071.0000     1.0019     3.4322
 2071.5000     1.0981     3.4202
 2072.0000     1.1814     3.4082
 2072.5000     1.1429     3.3963
 2073.0000     1.0999     3.3843
 2073.5000     1.0573     3.3723
 2074.0000     1.0140     3.3603
 2074.5000     1.0202     3.3484
 2075.0000     1.0430     3.3364
 2075.5000     1.0660     3.3244
 2076.0000     1.0893     3.3124
 2076.5000     1.0806     3.3005
 2077.0000     1.0593     3.2885
 2077.5000     1.0378     3.2765
 2078.0000     1.0161     3.2645
 2078.5000     0.9946     3.2524
