~VERSION INFORMATION
 VERS.                2.0:   CWLS LOG ASCII STANDARD - VERSION 2.0
 WRAP.                 NO:   ONE LINE PER DEPTH STEP
~WELL INFORMATION
#MNEM.UNIT      DATA TYPE    INFORMATION
#----------   ------------   ------------------------------
 STRT.F           34.0000:   START DEPTH
 STOP.F         1014.5000:   STOP DEPTH
 STEP.F            0.5000:   STEP LENGTH
 NULL.          -999.2500:   NO VALUE
 COMP. FENIX & SCISSON INC:   COMPANY
 WELL.       NPR-3 #54-14:   WELL
 FLD .             TEAPOT:   FIELD
 LOC .      S14 T38N R78W:   LOCATION
 CNTY.            NATRONA:   COUNTY
 STAT.            WYOMING:   STATE
 CTRY. UNITED STATES OF AMERICA:   COUNTRY
 SRVC.            Unknown:   SERVICE COMPANY
 DATE.        20-APR-1978:   LOGDATE
 API .       490251062100:   API NUMBER
~CURVE INFORMATION
#MNEM.UNIT       API CODE    CURVE DESCRIPTION
#----------   ------------   ------------------------------
 DEPT.F                  :   
 SPR .MV     05 010 01 00:   SPONTANEOUS POTENTIAL FROM RES.
 SN  .OHMM   05 040 16 00:   SHORT NORMAL 16"
 ILD .OHMM   05 120 46 00:   INDUCTION LOG DEEP
 CALD.IN     45 280 60 00:   CALIPER
 GRD .GAPI   45 310 01 00:   GAMMA RAY FROM DENSITY LOG
 RHOB.G/C3   45 350 01 00:   BULK DENSITY
 DPOR.DEC    45 890 12 00:   DENSITY POROSITY SANDSTONE
 CORR.G/C3   45 356 01 00:   DENSITY CORRECTION
~PARAMETER INFORMATION
#MNEM.UNIT          VALUE    DESCRIPTION
#----------   ------------   ------------------------------
 PD  .                 GL:   PERMANENT DATUM
 EPD .F              5268:   ELEVATION PERMANENT DATUM
 LMF .                 KB:   LOG MEASURED FROM
 DAPD.F                 4:   FEET ABOVE PERMANENT DATUM
 DMF .                 KB:   DRILLING MEASURED FROM
 EKB .F              5272:   KELLING BUSHING
 EGL .F              5268:   GROUND LEVEL
 DATE.          4-20-1978:   RUN DATE
 RUN .                  1:   RUN NUMBER
 DD  .F              1030:   DEPTH DRILLER
 DL  .F              1021:   DEPTH LOGGER
 BLI .F              1014:   BOTTOM LOG INTERVAL
 TLI .F                50:   TOP LOG INTERVAL
 CS  .IN            8.625:   CASING SIZE
 CBD .F                40:   CASING BOTTOM DRILLER
 BS  .IN            7.875:   BIT SIZE
 BSD .F              1030:   BIT SIZE AT DEPTH
 DFT .                KCL:   DRILLING FLUID TYPE
 DFD .                8.6:   DRILLING FLUID DENSITY
 DFV .                 33:   DRILLING FLUID VISCOSITY
 DFPH.                 10:   DRILLING FLUID PH
 DFL .                  8:   DRILLING FLUID LOSS
 MSS .          FLOW LINE:   MUD SAMPLE SOURCE
 RMS .OHMM            .34:   RESISTIVITY MUD SAMPLE
 MST .F                64:   MUD SAMPLE TEMPERATURE
 RMF .OHMM            .36:   RESISTIVITY MUD FILTRATE SAMPLE
 MFST.F                60:   MUD FILTRATE SAMPLE TEMPERATURE
 RMC .OHMM            .48:   RESISTIVITY MUD CAKE
 MCST.F                68:   MUD CAKE SAMPLE TEMPERATURE
 MFSS.               MEAS:   MUD FILTRATE SAMPLE SOURCE
 MCSS.               MEAS:   MUD CAKE SAMPLE SOURCE
 RMB .OHMM            .29:   RESISTIVITY MUD AT BHT
 BHT .F                74:   BOTTOM HOLE TEMPERATURE
 TCS .HRS               6:   TIME CURCULATED STOPPED
 MRT .F                74:   MAXIMUM RECORDED TEMPERATURE
 LUN .               2958:   LOGGING UNIT NUMBER
 LUL .               CASP:   LOGGING UNIT LOCATION
 ENGI.             MILLER:   RECORDING ENGINEER
 WITN.           MCGINELY:   WITNESSED BY
 CLNT.            A2DTECH:   CLIENT CODE
 ORIG.       2", 5" PRINT:   ORIGIN OF DATA
 UWI .       490251062100:   UNIQUE WELL ID
 DICO. A2D Technologies, Inc.:   DIGITIZING COMPANY
~OTHER INFORMATION
~A   DEPT      SPR         SN        ILD       CALD         GRD      RHOB       DPOR       CORR   
# ...
  641.5000   -29.2295    10.5430     9.0761     7.7209   100.2587     2.4957     0.1140     0.0065
  642.0000   -29.1703    10.6908     9.2536     7.7011    99.5091     2.4910     0.1150     0.0084
  642.5000   -29.1338    10.8403     9.4346     7.6628    96.9786     2.4881     0.1146     0.0109
  643.0000   -29.0966    11.0244     9.6191     7.5831    97.0525     2.4940     0.1132     0.0149
  643.5000   -29.0596    11.0231     9.8072     7.5048    97.6174     2.4943     0.1134     0.0213
  644.0000   -29.0226    11.0114     9.9990     7.4256    98.1892     2.4913     0.1139     0.0329
  644.5000   -28.9856    10.9834    10.1448     7.3445    98.3246     2.4968     0.1101     0.0438
  645.0000   -28.9486    10.9553    10.1448     7.3621    95.8345     2.5022     0.1072     0.0553
  645.5000   -28.9116    10.9274    10.1448     7.5438    93.3104     2.5078     0.1068     0.0560
  646.0000   -28.8745    10.8996    10.1448     7.7079    93.1985     2.5109     0.1064     0.0447
  646.5000   -28.8376    10.8719    10.1448     7.7189    95.1822     2.5047     0.1110     0.0339
  647.0000   -28.8003    10.8442    10.1451     7.7044    99.3203     2.4869     0.1225     0.0375
  647.5000   -28.7851    10.7968    10.1444     7.6859   104.7290     2.4693     0.1324     0.0501
  648.0000   -28.7848    10.6636    10.1476     7.6674   106.7234     2.4556     0.1336     0.0625
  648.5000   -28.7848    10.5320     9.9936     7.6488   101.6961     2.4616     0.1220     0.0703
  649.0000   -28.7849    10.4019     9.6463     7.6366    99.8537     2.4748     0.1216     0.0675
  649.5000   -28.7849    10.3281     9.3363     7.7203   101.4471     2.4789     0.1208     0.0593
  650.0000   -28.7849    10.3164     9.2905     7.8141   103.2214     2.4782     0.1200     0.0540
  650.5000   -28.7849    10.3046     9.2482     7.9022   101.1523     2.4852     0.1159     0.0489
  651.0000   -28.7849    10.2928     9.2060     7.9201    97.7706     2.4932     0.1112     0.0439
  651.5000   -28.7849    10.2810     9.1641     7.9396    96.2225     2.5012     0.1072     0.0392
  652.0000   -28.7849    10.2691     9.1223     7.9565    97.5772     2.5094     0.1060     0.0436
  652.5000   -28.7849    10.2565     9.0807     7.9777   101.0609     2.5081     0.1060     0.0566
  653.0000   -28.7849    10.2457     9.0393     7.9469   104.4202     2.5069     0.1064     0.0696
  653.5000   -28.7848    10.1297     8.9982     7.8816   104.2468     2.5092     0.1087     0.0776
  654.0000   -28.7849    10.0619     8.9572     7.8171   103.3935     2.5045     0.1119     0.0702
  654.5000   -28.7844     9.9947     8.9163     7.7531   102.3345     2.4959     0.1151     0.0588
  655.0000   -28.8221     9.9278     8.8757     7.6910   100.2770     2.4872     0.1160     0.0472
  655.5000   -28.8798     9.8614     8.8352     7.5826    98.3978     2.4842     0.1160     0.0404
  656.0000   -28.9381     9.7955     8.7950     7.5143    98.2067     2.4860     0.1160     0.0358
  656.5000   -28.9964     9.7300     8.7523     7.4788    98.6850     2.4885     0.1160     0.0297
  657.0000   -29.0547     9.6649     8.6532     7.4645   101.6739     2.4864     0.1165     0.0223
  657.5000   -29.1130     9.6003     8.5485     7.3703   103.5944     2.4841     0.1175     0.0148
  658.0000   -29.1712     9.5361     8.4450     7.2650   101.9293     2.4809     0.1204     0.0071
  658.5000   -29.2295     9.4723     8.3428     7.2267   100.7324     2.4702     0.1274     0.0045
  659.0000   -29.2878     9.4090     8.2418     7.2321   102.8949     2.4589     0.1344     0.0036
  659.5000   -29.3457     9.3460     8.2050     7.2528   106.7893     2.4475     0.1413     0.0043
  660.0000   -29.3896     9.2835     8.2045     7.2731   103.9573     2.4362     0.1496     0.0050
  660.5000   -29.4072     9.2214     8.1769     7.2933    98.7418     2.4233     0.1464     0.0049
  661.0000   -29.4253     9.1598     8.1548     7.3134    97.6885     2.4302     0.1446     0.0016
  661.5000   -29.4433     9.0985     8.1328     7.3336    98.1541     2.4367     0.1452    -0.0015
  662.0000   -29.4614     9.0377     8.1108     7.3536    97.2468     2.4278     0.1499    -0.0016
  662.5000   -29.4794     8.9773     8.0888     7.3805    95.5658     2.4172     0.1540    -0.0004
  663.0000   -29.4974     8.9172     8.0669     7.4105    95.8693     2.4160     0.1540     0.0009
  663.5000   -29.5155     8.8576     8.0451     7.4411    96.3955     2.4176     0.1532     0.0068
  664.0000   -29.5335     8.8229     8.0233     7.4708    94.0386     2.4202     0.1519     0.0169
  664.5000   -29.5515     8.7979     8.0017     7.5224    89.1917     2.4281     0.1495     0.0262
  665.0000   -29.5696     8.7725     7.9807     7.5227    87.2380     2.4328     0.1496     0.0275
  665.5000   -29.6007     8.7471     7.9456     7.5279    90.3976     2.4203     0.1538     0.0294
  666.0000   -29.6607     8.7219     7.9116     7.5333    95.2218     2.4150     0.1563     0.0400
  666.5000   -29.7207     8.6967     7.8779     7.5401    98.5954     2.4359     0.1387     0.0493
  667.0000   -29.7779     8.6716     7.8443     7.4802    97.1374     2.4515     0.1292     0.0402
  667.5000   -29.7396     8.6466     7.8109     7.4031    94.9667     2.4659     0.1302     0.0312
  668.0000   -29.6961     8.6216     7.7776     7.3395    92.7812     2.4640     0.1300     0.0222
  668.5000   -29.6530     8.5968     7.7629     7.3411    90.6505     2.4639     0.1284     0.0195
  669.0000   -29.6100     8.5720     7.7629     7.3427    90.2909     2.4655     0.1276     0.0194
  669.5000   -29.5670     8.5473     7.6878     7.2812    98.6838     2.4673     0.1284     0.0195
  670.0000   -29.5240     8.5225     7.6688     7.2335    99.8671     2.4679     0.1311     0.0254
  670.5000   -29.4809     8.4694     7.6499     7.2151    99.4099     2.4601     0.1340     0.0318
  671.0000   -29.4379     8.3683     7.6310     7.1917    98.9851     2.4529     0.1348     0.0454
  671.5000   -29.3898     8.2683     7.5444     7.1507   100.7199     2.4529     0.1320     0.0609
  672.0000   -29.5528     8.1696     7.3826     7.1218   106.7095     2.4625     0.1284     0.0747
  672.5000   -29.7923     8.0720     7.2243     7.2225   112.2013     2.4692     0.1296     0.0795
  673.0000   -30.0327     7.9756     7.0694     7.4143   109.9875     2.4644     0.1308     0.0846
  673.5000   -30.2747     7.8804     6.9178     7.5183   106.6936     2.4602     0.1304     0.0894
  674.0000   -30.3768     7.7862     6.7694     7.5560   106.0746     2.4620     0.1295     0.0898
  674.5000   -30.3788     7.6908     6.6243     7.5919   103.0732     2.4663     0.1315     0.0902
  675.0000   -30.3787     7.6918     6.4822     7.6278   103.3232     2.4552     0.1340     0.0906
  675.5000   -30.3785     7.6909     6.4547     7.6640   105.8823     2.4622     0.1289     0.0909
  676.0000   -30.3785     7.7677     6.3926     7.6979   107.3212     2.4703     0.1250     0.0914
  676.5000   -30.3785     7.8439     6.3966     7.6950   106.1083     2.4813     0.1212     0.0880
  677.0000   -30.3785     7.9205     6.5271     7.6753   105.6641     2.4925     0.1164     0.0763
  677.5000   -30.3785     7.9978     6.7386     7.6562   107.8306     2.4865     0.1195     0.0598
  678.0000   -30.3785     8.0759     6.8887     7.6412   109.0919     2.4765     0.1250     0.0434
  678.5000   -30.3785     8.1340     6.9201     7.6143   104.8655     2.4665     0.1304     0.0333
  679.0000   -30.3785     8.1482     6.9516     7.5587   103.7219     2.4565     0.1328     0.0398
  679.5000   -30.3785     8.1623     6.9833     7.4447   104.4433     2.4500     0.1351     0.0497
  680.0000   -30.3785     8.1765     7.0151     7.3171   105.1317     2.4606     0.1324     0.0491
  680.5000   -30.3785     8.1908     7.0470     7.2671   105.8169     2.4708     0.1270     0.0348
  681.0000   -30.3785     8.2051     7.0791     7.5361   107.3284     2.4701     0.1264     0.0206
  681.5000   -30.3785     8.2193     7.1114     7.6565   109.4842     2.4705     0.1260     0.0112
