~VERSION INFORMATION
 VERS.                2.0:   CWLS LOG ASCII STANDARD - VERSION 2.0
 WRAP.                 NO:   ONE LINE PER DEPTH STEP
~WELL INFORMATION
#MNEM.UNIT      DATA TYPE    INFORMATION
#----------   ------------   ------------------------------
 STRT.F           36.0000:   START DEPTH
 STOP.F          557.0000:   STOP DEPTH
 STEP.F            0.5000:   STEP LENGTH
 NULL.          -999.2500:   NO VALUE
 COMP. FENIX & SCISSON U.S. NAVY:   COMPANY
 WELL.        NPR #62-S-3:   WELL
 FLD .             TEAPOT:   FIELD
 LOC .       S3 T38N R78W:   LOCATION
 CNTY.            NATRONA:   COUNTY
 STAT.            WYOMING:   STATE
 CTRY. UNITED STATES OF AMERICA:   COUNTRY
 SRVC.              Welex:   SERVICE COMPANY
 DATE.        07-MAY-1977:   LOGDATE
 API .       490251035000:   API NUMBER
~CURVE INFORMATION
#MNEM.UNIT       API CODE    CURVE DESCRIPTION
#----------   ------------   ------------------------------
 DEPT.F                  :   
 SPR .MV     07 010 01 00:   SPONTANEOUS POTENTIAL
 ILD .OHMM   07 120 46 00:   INDUCTION LOG DEEP
 ILM .OHMM   07 120 44 00:   INDUCTION LOG MEDIUM
 SGRD.OHMM   07 221 05 00:   SHALLOW SHORT GUARD RESISTIVITY
 GRD .GAPI   45 310 01 00:   GAMMA RAY FROM DENSITY LOG
 CALD.IN     45 280 60 00:   CALIPER FROM DENSITY LOG
 CORR.G/C3   45 356 01 00:   DENSITY CORRECTION
 RHOB.G/C3   45 350 01 00:   BULK DENSITY
 DPHI.DEC    45 890 12 00:   DENSITY POROSITY SANDSTONE
 NEUT.NAPI   35 330 01 00:   NEUTRON
~PARAMETER INFORMATION
#MNEM.UNIT          VALUE    DESCRIPTION
#----------   ------------   ------------------------------
 PD  .                 GL:   PERMANENT DATUM
 EPD .F              5136:   ELEVATION PERMANENT DATUM
 LMF .                 GL:   LOG MEASURED FROM
 DMF .                 GL:   DRILLING MEASURED FROM
 EGL .F              5136:   GROUND LEVEL
 DATE.        07-MAY-1977:   RUN DATE
 RUN .                  1:   RUN NUMBER
 DD  .F               560:   DEPTH DRILLER
 DL  .F               560:   DEPTH LOGGER
 BLI .F               558:   BOTTOM LOG INTERVAL
 TLI .F                35:   TOP LOG INTERVAL
 CS  .IN            8.625:   CASING SIZE
 CBD .F                40:   CASING BOTTOM DRILLER
 CBL .F                42:   CASING BOTTOM LOGGER
 BS  .IN            7.875:   BIT SIZE
 BSD .F               560:   BIT SIZE AT DEPTH
 DFT .             KCLMUD:   DRILLING FLUID TYPE
 DFD .                8.8:   DRILLING FLUID DENSITY
 MSS .           FLOWLINE:   MUD SAMPLE SOURCE
 RMS .OHMM           0.24:   RESISTIVITY MUD SAMPLE
 MST .F                60:   MUD SAMPLE TEMPERATURE
 RMF .OHMM           0.20:   RESISTIVITY MUD FILTRATE SAMPLE
 MFST.F                60:   MUD FILTRATE SAMPLE TEMPERATURE
 RMC .OHMM           0.29:   RESISTIVITY MUD CAKE
 MCST.F                60:   MUD CAKE SAMPLE TEMPERATURE
 MFSS.               MEAS:   MUD FILTRATE SAMPLE SOURCE
 MCSS.               MEAS:   MUD CAKE SAMPLE SOURCE
 RMB .OHMM             17:   RESISTIVITY MUD AT BHT
 BHT .F                71:   BOTTOM HOLE TEMPERATURE
 TCS .HRS            0230:   TIME CURCULATED STOPPED
 MRT .F                71:   MAXIMUM RECORDED TEMPERATURE
 LUN .               8611:   LOGGING UNIT NUMBER
 LUL .           GILLETTE:   LOGGING UNIT LOCATION
 ENGI.            C. DOCK:   RECORDING ENGINEER
 WITN.           ROB LYON:   WITNESSED BY
 CLNT.            A2DTECH:   CLIENT CODE
 ORIG.           5" PRINT:   ORIGIN OF DATA
 UWI .       490251035000:   UNIQUE WELL ID
 DICO. A2D Technologies, Inc.:   DIGITIZING COMPANY
~OTHER INFORMATION
~A   DEPT      SPR        ILD        ILM       SGRD        GRD       CALD       CORR       RHOB       DPHI       NEUT   
# ...
  505.0000   -38.5545     9.6308    13.4390    14.1591   100.5807     7.7315     0.0179     2.4987     0.1078  -999.2500
  505.5000   -38.6990     9.1806    13.4437    14.0627   101.0392     7.7177     0.0201     2.4973     0.1098  -999.2500
  506.0000   -39.0045     8.6911    13.7302    13.9674   107.7292     7.6893     0.0211     2.4929     0.1110  -999.2500
  506.5000   -39.2991     8.2848    13.9262    14.1650   109.3713     7.6759     0.0226     2.4869     0.1119  -999.2500
  507.0000   -39.7427     7.7892    14.2230    14.1669   108.3462     7.6180     0.0211     2.4855     0.1127  -999.2500
  507.5000   -40.3353     7.2227    13.5556    14.0705   107.9145     7.5858     0.0174     2.4885     0.1130  -999.2500
  508.0000   -41.0929     6.7439     8.4736    13.7831   110.1569     7.5786     0.0138     2.4901     0.1120  -999.2500
  508.5000   -41.8356     6.3405     6.8410    12.6842   112.6926     7.5776     0.0093     2.4774     0.1128  -999.2500
  509.0000   -42.6916     6.0024     6.2120    11.3535   115.6883     7.6389     0.0049     2.4558     0.1233  -999.2500
  509.5000   -43.3209     5.6824     6.0441     9.4815   119.6840     7.6851     0.0012     2.4349     0.1412  -999.2500
  510.0000   -43.8750     5.5301     6.0045     7.4390   124.5302     7.7164    -0.0010     2.4124     0.1574  -999.2500
  510.5000   -43.8286     5.7269     6.3050     6.7047   124.2052     7.7478    -0.0039     2.4095     0.1597  -999.2500
  511.0000   -43.0770     6.1391     6.9004     8.7887   117.9436     7.7493    -0.0053     2.4103     0.1568  -999.2500
  511.5000   -42.0502     6.4906     7.7103    13.7965   110.2161     7.7507    -0.0053     2.4411     0.1385  -999.2500
  512.0000   -41.2757     6.8151     8.7353    15.8515   104.8764     7.7522    -0.0037     2.4883     0.1175  -999.2500
  512.5000   -40.5490     7.1557    10.1740    15.4199   102.1143     7.7537    -0.0028     2.4996     0.1037  -999.2500
  513.0000   -40.1222     7.5655    11.0581    14.8964   105.3918     7.7552    -0.0020     2.4922     0.1067  -999.2500
  513.5000   -39.7929     7.9987    11.7721    15.1066   105.7334     7.7567    -0.0004     2.4878     0.1108  -999.2500
  514.0000   -39.4893     8.5153    12.3602    15.9707   104.3798     7.7582    -0.0003     2.4848     0.1120  -999.2500
  514.5000   -39.0656     9.0653    12.4503    16.3087   107.3609     7.7451    -0.0002     2.4849     0.1120  -999.2500
  515.0000   -38.9112     9.4530    12.3688    15.9751   109.1547     7.7313     0.0006     2.4894     0.1096  -999.2500
  515.5000   -38.6087     9.7894    12.4589    15.7567   109.7617     7.7331     0.0014     2.4992     0.1050  -999.2500
  516.0000   -38.3061     9.9300    13.9212    15.4343   109.3300     7.7346     0.0023     2.5083     0.1002  -999.2500
  516.5000   -38.1526     9.9345    13.4528    15.4370   107.8598     7.7361     0.0031     2.5121     0.0981  -999.2500
  517.0000   -37.8501     9.9389    12.8214    15.8735   106.0928     7.7223     0.0040     2.5120     0.0992  -999.2500
  517.5000   -37.8456    10.1515    12.4760    16.3223   103.7323     7.7092     0.0040     2.5083     0.1004  -999.2500
  518.0000   -37.5431    10.5856    12.7420    17.1366   101.5203     7.7105     0.0034     2.5055     0.1007  -999.2500
  518.5000   -37.3896    10.8120    13.8492    17.7437   102.5723     7.6969     0.0019     2.5048     0.1001  -999.2500
  519.0000   -37.2361    11.1197    14.7435    17.7462   105.8498     7.6835     0.0013     2.5064     0.0994  -999.2500
  519.5000   -37.0826    11.4363    15.5874    17.7487   107.3470     7.6853    -0.0001     2.5057     0.1027  -999.2500
  520.0000   -36.7801    11.6005    16.3661    17.9991   101.8708     7.6714    -0.0008     2.5020     0.1054  -999.2500
  520.5000   -36.7756    11.7671    15.5982    18.6368   100.5456     7.6733    -0.0007     2.4976     0.1057  -999.2500
  521.0000   -36.7712    11.8539    15.7118    19.1637   101.6009     7.6596    -0.0007     2.4917     0.1098  -999.2500
  521.5000   -36.7667    12.0241    16.7265    19.8426   103.5432     7.6613    -0.0013     2.4820     0.1158  -999.2500
  522.0000   -36.6132    12.1968    17.8066    20.2626   104.1467     7.6628    -0.0012     2.4745     0.1200  -999.2500
  522.5000   -36.6088    12.2868    18.8259    20.2654   100.8994     7.6643    -0.0019     2.4754     0.1197  -999.2500
  523.0000   -36.6043    12.3775    19.3605    19.9889    98.5390     7.6658    -0.0026     2.4762     0.1187  -999.2500
  523.5000   -36.5998    12.4688    19.3672    19.7163    96.9204     7.6673    -0.0033     2.4770     0.1184  -999.2500
  524.0000   -36.5954    12.4744    18.9761    19.1796    95.1534     7.6687    -0.0032     2.4770     0.1181  -999.2500
  524.5000   -36.5909    12.4800    18.5930    18.6574    94.5700     7.6702    -0.0023     2.4771     0.1178  -999.2500
  525.0000   -36.5864    12.3983    18.0920    18.0240    97.1091     7.6717    -0.0015     2.4772     0.1183  -999.2500
  525.5000   -36.5820    12.4053    17.8497    17.6553    94.7486     7.6881    -0.0014     2.4765     0.1198  -999.2500
  526.0000   -36.5775    12.4969    17.9798    17.7807    92.8333     7.6896    -0.0006     2.4713     0.1210  -999.2500
  526.5000   -36.5730    12.5891    18.3655    18.2834    94.0337     7.6911    -0.0005     2.4766     0.1195  -999.2500
  527.0000   -36.5686    12.6820    18.8880    18.9311    97.4596     7.6926    -0.0004     2.4826     0.1146  -999.2500
  527.5000   -36.5641    12.7756    19.2914    19.3318   100.6156     7.6940    -0.0003     2.4879     0.1083  -999.2500
  528.0000   -36.7098    12.8699    19.5623    19.3542   103.9665     7.6955    -0.0002     2.4955     0.1025  -999.2500
  528.5000   -36.7042    12.7856    19.2880    18.6781   105.6568     7.6970    -0.0002     2.5038     0.0992  -999.2500
  529.0000   -36.6998    12.7048    17.9845    16.9522   104.4480     7.6836     0.0007     2.5076     0.0980  -999.2500
  529.5000   -36.6953    12.5362    16.1356    15.9285   102.8235     7.6851     0.0007     2.5054     0.1013  -999.2500
  530.0000   -36.8410    12.3698    16.4872    16.3789   101.0681     7.6866     0.0017     2.5032     0.1033  -999.2500
  530.5000   -36.8354    12.2889    17.4407    17.3158   102.4938     7.6881     0.0024     2.5018     0.1039  -999.2500
  531.0000   -36.9811    12.1258    18.1874    18.4336   105.8802     7.6896     0.0025     2.5011     0.1048  -999.2500
  531.5000   -36.8265    12.0477    18.7057    19.2195   106.1942     7.6910     0.0010     2.4877     0.1069  -999.2500
  532.0000   -36.2259    11.9702    19.0814    19.6263   101.0031     7.6926    -0.0004     2.4820     0.1149  -999.2500
  532.5000   -35.1782    11.8932    19.3538    19.3587   100.2350     7.6940    -0.0018     2.4780     0.1176  -999.2500
  533.0000   -34.8768    11.8167    19.2129    18.7014   103.8490     7.6957    -0.0024     2.4838     0.1137  -999.2500
  533.5000   -35.6164    11.6599    18.8095    17.9417   106.0879     7.6818    -0.0024     2.4934     0.1095  -999.2500
  534.0000   -35.7621    11.5051    18.0645    16.9757   107.2883     7.6838    -0.0023     2.5016     0.1055  -999.2500
  534.5000   -35.3094    11.2756    17.0975    16.0617   108.4887     7.7002    -0.0022     2.5023     0.1043  -999.2500
  535.0000   -34.2617    11.0494    16.1674    16.4016   109.5407     7.7166    -0.0006     2.5016     0.1046  -999.2500
  535.5000   -33.5121    10.9015    16.0909    17.4605   110.4444     7.7181     0.0002     2.5039     0.1036  -999.2500
  536.0000   -33.2096    10.7569    16.8128    17.7068   111.6448     7.7196     0.0011     2.5069     0.1015  -999.2500
  536.5000   -33.6522    10.5423    17.4953    17.2247   111.3615     7.7211     0.0012     2.5107     0.0988  -999.2500
  537.0000   -34.0948    10.4733    16.1663    16.6399   111.0748     7.7226     0.0012     2.5138     0.0969  -999.2500
  537.5000   -34.2405    10.3343    14.4598    16.2995   112.5753     7.7240     0.0006     2.5101     0.0990  -999.2500
  538.0000   -34.6820    10.1971    13.6378    16.4153   110.0665     7.7255    -0.0001     2.4967     0.1044  -999.2500
