~VERSION INFORMATION
 VERS.                2.0:   CWLS LOG ASCII STANDARD - VERSION 2.0
 WRAP.                 NO:   ONE LINE PER DEPTH STEP
~WELL INFORMATION
#MNEM.UNIT      DATA TYPE    INFORMATION
#----------   ------------   ------------------------------
 STRT.F          834.5000:   START DEPTH
 STOP.F         1644.0000:   STOP DEPTH
 STEP.F            0.5000:   STEP LENGTH
 NULL.          -999.2500:   NO VALUE
 COMP. LAWRENCE/ALLISON INC:   COMPANY
 WELL.      85 STX #15-15:   WELL
 FLD .            WILDCAT:   FIELD
 LOC .      S15 T38N R78W:   LOCATION
 CNTY.            NATRONA:   COUNTY
 STAT.            WYOMING:   STATE
 CTRY. UNITED STATES OF AMERICA:   COUNTRY
 SRVC.            Unknown:   SERVICE COMPANY
 DATE.        06-SEP-1987:   LOGDATE
 API .       490251116000:   API NUMBER
~CURVE INFORMATION
#MNEM.UNIT       API CODE    CURVE DESCRIPTION
#----------   ------------   ------------------------------
 DEPT.F                  :   
 TGAS.UNITS  91 830 01 00:   TOTAL GAS FROM HOTWIRE
 ROP .MIN/FT 91 810 01 00:   RAT OF DRILLING PENETRATION
~PARAMETER INFORMATION
#MNEM.UNIT          VALUE    DESCRIPTION
#----------   ------------   ------------------------------
 DATE.             9-6-87:   RUN DATE
 BLI .F              1644:   BOTTOM LOG INTERVAL
 TLI .F               834:   TOP LOG INTERVAL
 LUN .              T-146:   LOGGING UNIT NUMBER
 ENGI.               HUSK:   RECORDING ENGINEER
 WITN.              TOWER:   WITNESSED BY
 CLNT.            A2DTECH:   CLIENT CODE
 ORIG.           5" PRINT:   ORIGIN OF DATA
 UWI .       490251116000:   UNIQUE WELL ID
 DICO. A2D Technologies, Inc.:   DIGITIZING COMPANY
~OTHER INFORMATION
~A   DEPT       TGAS        ROP 
# ...
 1442.0000   154.3582     0.3111
 1442.5000   154.3045     0.3119
 1443.0000   154.2507     0.3126
 1443.5000   154.1970     0.3134
 1444.0000   154.1432     0.3142
 1444.5000   154.0895     0.3149
 1445.0000   154.0357     0.3157
 1445.5000   153.9820     0.3165
 1446.0000   153.9282     0.3172
 1446.5000   153.8745     0.3180
 1447.0000   153.8207     0.3188
 1447.5000   153.7670     0.3196
 1448.0000   153.7132     0.3203
 1448.5000   153.6595     0.3211
 1449.0000   153.6057     0.3219
 1449.5000   153.5520     0.3226
 1450.0000   153.4982     0.3234
 1450.5000   153.4445     0.3242
 1451.0000   153.3907     0.3249
 1451.5000   153.3370     0.3257
 1452.0000   153.2832     0.3265
 1452.5000   153.2295     0.3273
 1453.0000   153.1757     0.3280
 1453.5000   153.1220     0.3288
 1454.0000   153.0682     0.3296
 1454.5000   153.0145     0.3303
 1455.0000   152.9607     0.3311
 1455.5000   152.9070     0.3319
 1456.0000   152.8532     0.3326
 1456.5000   152.7995     0.3334
 1457.0000   152.7457     0.3342
 1457.5000   152.6920     0.3350
 1458.0000   152.6382     0.3357
 1458.5000   152.5845     0.3365
 1459.0000   152.5307     0.3373
 1459.5000   152.4770     0.3380
 1460.0000   152.4319     0.3388
 1460.5000   152.5403     0.3414
 1461.0000   152.6334     0.3440
 1461.5000   152.7266     0.3466
 1462.0000   152.8198     0.3492
 1462.5000   152.9130     0.3517
 1463.0000   153.0061     0.3543
 1463.5000   153.0993     0.3569
 1464.0000   153.1925     0.3595
 1464.5000   153.2857     0.3621
 1465.0000   153.3789     0.3647
 1465.5000   153.4720     0.3673
 1466.0000   153.5652     0.3698
 1466.5000   153.6584     0.3724
 1467.0000   153.7516     0.3750
 1467.5000   153.8448     0.3776
 1468.0000   153.9379     0.3802
 1468.5000   154.0311     0.3828
 1469.0000   154.1243     0.3854
 1469.5000   154.2175     0.3880
 1470.0000   154.3107     0.3905
 1470.5000   154.4038     0.3931
 1471.0000   154.4970     0.3957
 1471.5000   154.5902     0.3872
 1472.0000   154.6834     0.3676
 1472.5000   154.7766     0.3068
 1473.0000   154.8698     0.2971
 1473.5000   154.9629     0.2981
 1474.0000   155.0561     0.2886
 1474.5000   155.1493     0.2893
 1475.0000   155.2425     0.2901
 1475.5000   155.3356     0.2909
 1476.0000   155.3976     0.2916
 1476.5000   155.4235     0.2924
 1477.0000   155.4498     0.2931
 1477.5000   155.4811     0.2939
 1478.0000   157.6096     0.2947
 1478.5000   159.7381     0.2954
 1479.0000   159.7638     0.2962
 1479.5000   160.8409     0.2970
 1480.0000   162.9843     0.2977
 1480.5000   163.0865     0.2965
 1481.0000   163.1886     0.2952
 1481.5000   163.2908     0.2939
 1482.0000   163.3930     0.2926
 1482.5000   163.4951     0.2914
 1483.0000   163.5981     0.2901
 1483.5000   163.7033     0.2888
 1484.0000   163.8271     0.2875
 1484.5000   163.9293     0.2863
 1485.0000   164.0314     0.2850
 1485.5000   164.1336     0.2837
 1486.0000   164.2358     0.2824
 1486.5000   164.3379     0.2812
 1487.0000   164.4401     0.2799
 1487.5000   164.5444     0.2786
 1488.0000   164.6700     0.2773
 1488.5000   163.6952     0.2760
 1489.0000   163.8229     0.2748
 1489.5000   163.9251     0.2735
 1490.0000   164.0272     0.2722
 1490.5000   164.1294     0.2709
 1491.0000   164.2315     0.2697
 1491.5000   164.3341     0.2684
 1492.0000   164.4393     0.2671
 1492.5000   163.4866     0.2658
 1493.0000   163.6143     0.2646
 1493.5000   163.7165     0.2633
 1494.0000   163.8186     0.2620
 1494.5000   163.9208     0.2607
 1495.0000   164.0229     0.2595
 1495.5000   163.0724     0.2582
 1496.0000   163.1776     0.2569
 1496.5000   163.3036     0.2556
 1497.0000   163.4057     0.2544
 1497.5000   163.5079     0.2531
 1498.0000   163.6100     0.2518
 1498.5000   163.7122     0.2505
 1499.0000   163.8144     0.2493
 1499.5000   163.9165     0.2480
 1500.0000   162.9978     0.2465
 1500.5000   163.1782     0.2465
 1501.0000   163.3586     0.2465
 1501.5000   163.5390     0.2465
 1502.0000   163.7194     0.2465
 1502.5000   163.8998     0.2465
 1503.0000   164.0802     0.2465
 1503.5000   164.2606     0.2465
 1504.0000   164.4410     0.2465
 1504.5000   164.6232     0.2465
 1505.0000   164.8404     0.2465
 1505.5000   167.1202     0.2465
 1506.0000   170.4514     0.2465
 1506.5000   173.7826     0.2465
 1507.0000   177.1138     0.2465
 1507.5000   179.3954     0.2465
 1508.0000   182.7690     0.2465
 1508.5000   186.1002     0.2465
 1509.0000   189.4314     0.2465
 1509.5000   194.8654     0.2465
 1510.0000   197.1452     0.2464
 1510.5000   201.5278     0.2464
 1511.0000   203.7553     0.2464
 1511.5000   203.8252     0.2464
 1512.0000   203.8952     0.2464
 1512.5000   203.9651     0.2464
 1513.0000   204.0351     0.2464
 1513.5000   204.1050     0.2464
 1514.0000   204.1749     0.2464
 1514.5000   204.2449     0.2464
 1515.0000   204.3148     0.2464
 1515.5000   204.3848     0.2464
 1516.0000   204.4547     0.2464
 1516.5000   204.5246     0.2464
 1517.0000   204.5946     0.2464
 1517.5000   204.6645     0.2464
 1518.0000   204.7345     0.2464
 1518.5000   204.8044     0.2464
 1519.0000   204.8744     0.2464
 1519.5000   204.9443     0.2464
 1520.0000   205.0086     0.2464
 1520.5000   204.8804     0.2468
 1521.0000   204.7616     0.2472
 1521.5000   204.6429     0.2475
 1522.0000   204.5242     0.2479
 1522.5000   204.4054     0.2483
 1523.0000   204.2867     0.2487
 1523.5000   204.1679     0.2491
 1524.0000   204.0492     0.2494
 1524.5000   203.9305     0.2498
 1525.0000   203.8117     0.2502
 1525.5000   203.6930     0.2506
 1526.0000   203.5742     0.2509
 1526.5000   203.4555     0.2513
 1527.0000   203.3367     0.2517
 1527.5000   203.2180     0.2521
 1528.0000   203.0993     0.2524
 1528.5000   202.9805     0.2528
 1529.0000   202.8618     0.2532
 1529.5000   202.7430     0.2536
 1530.0000   202.6243     0.2540
 1530.5000   202.5056     0.2543
 1531.0000   202.3868     0.2547
 1531.5000   202.2681     0.2551
 1532.0000   202.1493     0.2555
 1532.5000   202.0306     0.2558
 1533.0000   201.9118     0.2562
 1533.5000   201.7931     0.2567
 1534.0000   201.6743     0.2567
 1534.5000   201.5556     0.2567
 1535.0000   201.4369     0.2669
 1535.5000   201.3181     0.2875
 1536.0000   201.1994     0.3285
 1536.5000   201.0806     0.3285
 1537.0000   200.9619     0.3285
 1537.5000   200.8432     0.3285
 1538.0000   201.8295     0.3285
 1538.5000   204.0737     0.3285
 1539.0000   209.4720     0.3285
 1539.5000   215.9218     0.3285
 1540.0000   220.2687     0.3285
 1540.5000   226.0568     0.3277
 1541.0000   239.5119     0.3269
 1541.5000   250.1673     0.3262
 1542.0000   259.7712     0.3254
 1542.5000   272.5294     0.3246
 1543.0000   281.0819     0.3239
 1543.5000   292.7887     0.3231
 1544.0000   288.7244     0.3223
 1544.5000   281.5059     0.3215
 1545.0000   276.3902     0.3208
 1545.5000   268.0954     0.3200
 1546.0000   256.5947     0.3192
 1546.5000   249.5131     0.3185
 1547.0000   247.5516     0.3177
 1547.5000   244.5034     0.3169
 1548.0000   243.6287     0.3161
 1548.5000   243.7700     0.3154
 1549.0000   243.9113     0.3146
 1549.5000   237.7560     0.3138
 1550.0000   234.7431     0.3131
 1550.5000   228.5761     0.3123
 1551.0000   224.5118     0.3115
 1551.5000   219.3961     0.3107
 1552.0000   216.3785     0.3100
 1552.5000   212.3175     0.3092
 1553.0000   208.2039     0.3084
 1553.5000   203.1390     0.3077
 1554.0000   200.1261     0.3069
 1554.5000   200.2789     0.3061
 1555.0000   200.4235     0.3053
 1555.5000   200.5681     0.3046
 1556.0000   200.7126     0.3038
 1556.5000   200.8572     0.3030
 1557.0000   201.0018     0.3023
 1557.5000   201.1463     0.3015
 1558.0000   201.2909     0.3007
 1558.5000   201.4355     0.2999
 1559.0000   201.5800     0.2992
 1559.5000   201.7246     0.2984
 1560.0000   201.8456     0.2977
 1560.5000   201.8157     0.2997
 1561.0000   201.7900     0.3016
 1561.5000   201.7643     0.3034
 1562.0000   201.7386     0.3053
 1562.5000   201.7129     0.3072
 1563.0000   201.6872     0.3090
