~VERSION INFORMATION
 VERS.                2.0:   CWLS LOG ASCII STANDARD - VERSION 2.0
 WRAP.                 NO:   ONE LINE PER DEPTH STEP
~WELL INFORMATION
#MNEM.UNIT      DATA TYPE    INFORMATION
#----------   ------------   ------------------------------
 STRT.F           35.0000:   START DEPTH
 STOP.F          977.0000:   STOP DEPTH
 STEP.F            0.5000:   STEP LENGTH
 NULL.          -999.2500:   NO VALUE
 COMP. FENIX & SCISSON INC:   COMPANY
 WELL.  NPR-3 "SX" #52-14:   WELL
 FLD .             TEAPOT:   FIELD
 LOC .      S14 T38N R78W:   LOCATION
 CNTY.            NATRONA:   COUNTY
 STAT.            WYOMING:   STATE
 CTRY. UNITED STATES OF AMERICA:   COUNTRY
 SRVC.            Unknown:   SERVICE COMPANY
 DATE.        13-MAR-1978:   LOGDATE
 API .       490251059900:   API NUMBER
~CURVE INFORMATION
#MNEM.UNIT       API CODE    CURVE DESCRIPTION
#----------   ------------   ------------------------------
 DEPT.F                  :   
 CALD.IN     45 280 60 00:   CALIPER FROM DENSITY LOG
 GRD .GAPI   45 310 01 00:   GAMMA RAY FROM DENSITY LOG
 CORR.G/C3   45 356 01 00:   DENSITY CORRECTION
 RHOB.G/C3   45 350 01 00:   BULK DENSITY
 DPHI.DEC    45 890 12 00:   DENSITY POROSITY SANDSTONE
 SPR .MV     07 010 01 00:   SPONTANEOUS POTENTIAL FROM RES. LOG
 ILD .OHMM   07 120 46 00:   INDUCTION LOG DEEP
 SN  .OHMM   07 040 16 00:   SHORT NORMAL 16'
~PARAMETER INFORMATION
#MNEM.UNIT          VALUE    DESCRIPTION
#----------   ------------   ------------------------------
 PD  .                 GL:   PERMANENT DATUM
 EPD .F              5223:   ELEVATION PERMANENT DATUM
 LMF .                 KB:   LOG MEASURED FROM
 DAPD.F                 4:   FEET ABOVE PERMANENT DATUM
 DMF .                 KB:   DRILLING MEASURED FROM
 EKB .F              5227:   KELLING BUSHING
 EGL .F              5223:   GROUND LEVEL
 DATE.            3-13-78:   RUN DATE
 RUN .                  1:   RUN NUMBER
 DD  .F               975:   DEPTH DRILLER
 DL  .F               977:   DEPTH LOGGER
 BLI .F               971:   BOTTOM LOG INTERVAL
 TLI .F                50:   TOP LOG INTERVAL
 CS  .IN            8.625:   CASING SIZE
 CBD .F                40:   CASING BOTTOM DRILLER
 CBL .F                40:   CASING BOTTOM LOGGER
 BS  .IN            7.875:   BIT SIZE
 BSD .F               975:   BIT SIZE AT DEPTH
 DFT .                KCL:   DRILLING FLUID TYPE
 DFD .                8.6:   DRILLING FLUID DENSITY
 DFV .                 33:   DRILLING FLUID VISCOSITY
 DFPH.               10.5:   DRILLING FLUID PH
 DFL .               11.6:   DRILLING FLUID LOSS
 MSS .          FLOW LINE:   MUD SAMPLE SOURCE
 RMS .OHMM            .34:   RESISTIVITY MUD SAMPLE
 MST .F                60:   MUD SAMPLE TEMPERATURE
 RMF .OHMM            .36:   RESISTIVITY MUD FILTRATE SAMPLE
 MFST.F                62:   MUD FILTRATE SAMPLE TEMPERATURE
 RMC .OHMM            .75:   RESISTIVITY MUD CAKE
 MCST.F                59:   MUD CAKE SAMPLE TEMPERATURE
 MFSS.               MEAS:   MUD FILTRATE SAMPLE SOURCE
 MCSS.               MEAS:   MUD CAKE SAMPLE SOURCE
 RMB .OHMM            .27:   RESISTIVITY MUD AT BHT
 BHT .F                75:   BOTTOM HOLE TEMPERATURE
 TCS .HRS               4:   TIME CURCULATED STOPPED
 MRT .F                75:   MAXIMUM RECORDED TEMPERATURE
 LUN .               2958:   LOGGING UNIT NUMBER
 LUL .               CASP:   LOGGING UNIT LOCATION
 ENGI.             MILLER:   RECORDING ENGINEER
 WITN.            RHOADES:   WITNESSED BY
 CLNT.            A2DTECH:   CLIENT CODE
 ORIG.       2", 5" PRINT:   ORIGIN OF DATA
 UWI .       490251059900:   UNIQUE WELL ID
 DICO. A2D Technologies, Inc.:   DIGITIZING COMPANY
~OTHER INFORMATION
~A   DEPT     CALD         GRD      CORR       RHOB       DPHI        SPR        ILD         SN   
   35.0000  -999.2500    74.6565  -999.2500  -999.2500  -999.2500  -999.2500  -999.2500  -999.2500
   35.5000  -999.2500    73.6970  -999.2500  -999.2500  -999.2500  -999.2500  -999.2500  -999.2500
   36.0000  -999.2500    73.2792  -999.2500  -999.2500  -999.2500  -999.2500  -999.2500  -999.2500
   36.5000  -999.2500    73.0703  -999.2500  -999.2500  -999.2500  -999.2500  -999.2500  -999.2500
   37.0000  -999.2500    77.3377  -999.2500  -999.2500  -999.2500  -999.2500  -999.2500  -999.2500
   37.5000  -999.2500    79.5526  -999.2500  -999.2500  -999.2500  -999.2500  -999.2500  -999.2500
   38.0000  -999.2500    78.4106  -999.2500  -999.2500  -999.2500  -999.2500  -999.2500  -999.2500
   38.5000  -999.2500    73.1867  -999.2500  -999.2500  -999.2500  -999.2500  -999.2500  -999.2500
   39.0000  -999.2500    73.6988  -999.2500  -999.2500  -999.2500  -999.2500  -999.2500  -999.2500
   39.5000  -999.2500    76.3270  -999.2500  -999.2500  -999.2500  -999.2500  -999.2500  -999.2500
   40.0000  -999.2500    77.3947  -999.2500  -999.2500  -999.2500  -999.2500  -999.2500  -999.2500
   40.5000  -999.2500    74.1944  -999.2500  -999.2500  -999.2500  -999.2500  -999.2500  -999.2500
   41.0000  -999.2500    70.4696  -999.2500  -999.2500  -999.2500  -999.2500  -999.2500  -999.2500
   41.5000  -999.2500    70.5281  -999.2500  -999.2500  -999.2500  -999.2500  -999.2500  -999.2500
   42.0000  -999.2500    70.8453  -999.2500  -999.2500  -999.2500  -999.2500  -999.2500  -999.2500
   42.5000  -999.2500    71.2334  -999.2500  -999.2500  -999.2500  -999.2500  -999.2500  -999.2500
   43.0000  -999.2500    72.9815  -999.2500  -999.2500  -999.2500  -999.2500  -999.2500  -999.2500
   43.5000  -999.2500    74.3904  -999.2500  -999.2500  -999.2500  -999.2500  -999.2500  -999.2500
   44.0000  -999.2500    74.9946    -0.5121  -999.2500  -999.2500  -999.2500  -999.2500  -999.2500
   44.5000  -999.2500    75.4008    -0.5108  -999.2500  -999.2500  -999.2500  -999.2500  -999.2500
   45.0000  -999.2500    73.3590    -0.5096  -999.2500  -999.2500  -999.2500  -999.2500  -999.2500
   45.5000     8.2727    70.3356    -0.5089  -999.2500  -999.2500  -999.2500  -999.2500  -999.2500
   46.0000     8.2966    67.6727    -0.4913  -999.2500  -999.2500  -999.2500  -999.2500  -999.2500
   46.5000     8.2853    68.1223    -0.4114  -999.2500  -999.2500  -999.2500  -999.2500  -999.2500
   47.0000     8.2763    72.0881    -0.3268  -999.2500  -999.2500  -999.2500  -999.2500  -999.2500
   47.5000     8.2643    76.6582    -0.0205     2.1469  -999.2500  -999.2500  -999.2500  -999.2500
   48.0000     8.2352    77.0052     0.0497     2.2863     0.2493  -999.2500  -999.2500  -999.2500
   48.5000     8.1645    78.3464     0.0619     2.3739     0.1569  -999.2500  -999.2500  -999.2500
   49.0000     8.1367    82.3315     0.0706     2.3805     0.1530  -999.2500  -999.2500  -999.2500
   49.5000     8.1361    83.8377     0.0626     2.3917     0.1535  -999.2500  -999.2500  -999.2500
   50.0000     8.1362    84.8989     0.0546     2.3862     0.1581  -999.2500     3.4373  -999.2500
   50.5000     8.1363    85.9513     0.0530     2.3845     0.1485  -999.2500     3.5393     7.2944
   51.0000     8.1363    86.1305     0.0574     2.3914     0.1477  -999.2500     3.6527     7.7165
   51.5000     8.1363    86.2661     0.0619     2.3934     0.1485   -45.9702     3.8737     8.1631
   52.0000     8.1362    86.4008     0.0665     2.3957     0.1500   -45.8764     4.8456     8.7894
   52.5000     8.1410    86.2435     0.0707     2.3921     0.1491   -44.2230     7.0416     8.7380
   53.0000     8.1478    84.7265     0.0724     2.3897     0.1476   -44.9755     6.8549     8.6212
   53.5000     8.1548    83.3637     0.0656     2.3964     0.1502   -45.5437     6.5663     8.5059
   54.0000     8.1608    85.3603     0.0578     2.3929     0.1528   -46.2937     6.2898     8.3923
   54.5000     8.1665    87.7552     0.0593     2.3861     0.1541   -46.6356     6.0250     8.2801
   55.0000     8.1724    86.9141     0.0638     2.3842     0.1551   -45.5936     5.7713     8.1694
   55.5000     8.1816    85.5270     0.0685     2.3851     0.1523   -45.4942     5.5284     8.0602
   56.0000     8.1946    84.9471     0.0611     2.3928     0.1505   -46.9097     5.2950     7.9525
   56.5000     8.1785    84.8409     0.0506     2.3997     0.1428   -48.3456     5.1384     7.7948
   57.0000     8.1629    84.7440     0.0400     2.3994     0.1454   -48.4208     5.1016     7.8525
   57.5000     8.1472    84.6460     0.0424     2.4016     0.1484   -49.4560     5.0657     7.9667
   58.0000     8.1292    84.8878     0.0483     2.4100     0.1390   -50.0887     5.0294     8.0826
   58.5000     8.1051    87.7467     0.0546     2.4184     0.1361   -50.2402     5.0029     8.2002
   59.0000     8.0802    89.0901     0.0414     2.4304     0.1295   -50.3531     5.1637     8.3194
   59.5000     8.0927    89.3840     0.0332     2.4288     0.1304   -51.1023     5.2993     8.4404
   60.0000     8.1033    88.8576     0.0342     2.4227     0.1368   -51.4528     5.4399     8.5632
   60.5000     8.1121    85.7452     0.0361     2.4234     0.1343   -51.5588     5.5837     8.6877
   61.0000     8.1079    81.5612     0.0338     2.4301     0.1336   -51.7087     5.7041     8.8403
   61.5000     8.0918    77.1042     0.0300     2.4247     0.1381   -51.9937     5.8082     9.1069
   62.0000     8.0772    76.8378     0.0288     2.4136     0.1437   -51.8725     5.9150     9.3814
   62.5000     8.0970    83.2310     0.0369     2.4027     0.1492   -52.1967     6.0237     9.6643
   63.0000     8.1181    89.9934     0.0446     2.3930     0.1500   -53.2371     6.1345    10.0958
   63.5000     8.1358    89.0803     0.0474     2.3915     0.1453   -53.6024     6.1873    10.0149
   64.0000     8.1266    87.8139     0.0457     2.3962     0.1444   -52.8594     6.1873     9.8641
   64.5000     8.1172    89.8741     0.0405     2.4011     0.1452   -51.6089     6.1873     9.7154
   65.0000     8.1372    90.8431     0.0361     2.4002     0.1457   -51.7868     6.1873     9.5691
   65.5000     8.1574    89.5906     0.0344     2.3980     0.1484   -51.4920     6.1873     9.3644
   66.0000     8.1606    86.9411     0.0326     2.4002     0.1427   -51.8514     6.1873     9.0070
   66.5000     8.1639    84.4833     0.0346     2.4067     0.1392   -52.8277     6.1873     8.6615
   67.0000     8.1673    84.5276     0.0369     2.4105     0.1399   -53.6527     6.0392     8.3294
   67.5000     8.1706    84.6498     0.0391     2.4092     0.1396   -52.6897     5.8667     8.0099
   68.0000     8.1740    82.0774     0.0414     2.4123     0.1325   -52.4549     5.6991     7.7039
   68.5000     8.1773    79.2820     0.0420     2.4215     0.1228   -53.4510     5.5363     7.4752
   69.0000     8.1807    76.4315     0.0404     2.4351     0.1140   -52.7876     5.3782     7.2981
   69.5000     8.1840    76.1645     0.0284     2.4431     0.1151   -52.0062     5.2245     7.1253
   70.0000     8.1874    77.8512     0.0045     2.4526     0.1243   -52.7347     5.0962     6.9127
   70.5000     8.1908    81.5549     0.0050     2.4250     0.1439   -53.5618     5.1275     6.9302
   71.0000     8.1940    85.1973     0.0314     2.4038     0.1340   -52.6755     5.1609     6.9541
   71.5000     8.1869    85.8213     0.0315     2.4130     0.1321   -51.1594     5.1946     6.9780
   72.0000     8.1559    85.6680     0.0251     2.4049     0.1311   -52.5626     5.2285     7.0020
   72.5000     8.1252    81.0945     0.0367     2.4139     0.1278   -52.2080     5.3125     7.0261
   73.0000     8.0967    83.4856     0.0467     2.4256     0.1210   -52.6130     5.4218     7.0503
   73.5000     8.0962    86.3289     0.0415     2.4373     0.1192   -53.2269     5.5334     7.0746
   74.0000     8.0959    83.8939     0.0314     2.4434     0.1353   -53.4069     5.6473     7.0990
   74.5000     8.0694    82.5421     0.0246     2.4061     0.1478   -52.5311     5.7636     7.1234
   75.0000     8.0401    82.9455     0.0327     2.3863     0.1604   -52.6009     5.8822     7.1479
