~VERSION INFORMATION
 VERS.                2.0:   CWLS LOG ASCII STANDARD - VERSION 2.0
 WRAP.                 NO:   ONE LINE PER DEPTH STEP
~WELL INFORMATION
#MNEM.UNIT      DATA TYPE    INFORMATION
#----------   ------------   ------------------------------
 STRT.F            1.0000:   START DEPTH
 STOP.F          886.0000:   STOP DEPTH
 STEP.F            0.5000:   STEP LENGTH
 NULL.          -999.2500:   NO VALUE
 COMP. BROWN JOHN E&C INC:   COMPANY
 WELL. NAVAL PETROLEUM RESERVE 3 SHX-1 #33-2:   WELL
 FLD .             NPR #3:   FIELD
 LOC .       S2 T38N R78W:   LOCATION
 CNTY.            NATRONA:   COUNTY
 STAT.            WYOMING:   STATE
 CTRY. UNITED STATES OF AMERICA:   COUNTRY
 SRVC.      Western Atlas:   SERVICE COMPANY
 DATE.        26-NOV-1991:   LOGDATE
 API .       490252248300:   API NUMBER
~CURVE INFORMATION
#MNEM.UNIT       API CODE    CURVE DESCRIPTION
#----------   ------------   ------------------------------
 DEPT.F                  :   
 RILD.OHMM   07 120 46 00:   INDUCTION LOG DEEP RESISTIVITY
 RILM.OHMM   07 120 44 00:   INDUCTION LOG MEDIUM RESISTIVITY
 RFOC.OHMM   07 220 04 00:   RESISTIVITY FOCUSED LOG
 SPR .MV     07 010 01 00:   SPONTANEOUS POTENTIAL
 GRR .GAPI   07 310 01 00:   GAMMA RAY
~PARAMETER INFORMATION
#MNEM.UNIT          VALUE    DESCRIPTION
#----------   ------------   ------------------------------
 PD  .                 GL:   PERMANENT DATUM
 EPD .F              5133:   ELEVATION PERMANENT DATUM
 LMF .                 KB:   LOG MEASURED FROM
 DAPD.F                10:   FEET ABOVE PERMANENT DATUM
 DMF .                 KB:   DRILLING MEASURED FROM
 EKB .F              5143:   KELLING BUSHING
 EGL .F              5133:   GROUND LEVEL
 DATE.        26-NOV-1991:   RUN DATE
 RUN .                  1:   RUN NUMBER
 DD  .F               892:   DEPTH DRILLER
 DL  .F               889:   DEPTH LOGGER
 BLI .F               837:   BOTTOM LOG INTERVAL
 CS  .IN            8.625:   CASING SIZE
 CBD .F                40:   CASING BOTTOM DRILLER
 CBL .F                55:   CASING BOTTOM LOGGER
 BS  .IN            7.875:   BIT SIZE
 BSD .F               892:   BIT SIZE AT DEPTH
 DFT .            POLYMER:   DRILLING FLUID TYPE
 DFD .                9.8:   DRILLING FLUID DENSITY
 DFV .                 38:   DRILLING FLUID VISCOSITY
 DFPH.                9.5:   DRILLING FLUID PH
 DFL .               10.6:   DRILLING FLUID LOSS
 MSS .           FLOWLINE:   MUD SAMPLE SOURCE
 RMS .OHMM           2.08:   RESISTIVITY MUD SAMPLE
 MST .F                78:   MUD SAMPLE TEMPERATURE
 RMF .OHMM           1.66:   RESISTIVITY MUD FILTRATE SAMPLE
 MFST.F                78:   MUD FILTRATE SAMPLE TEMPERATURE
 RMC .OHMM           2.60:   RESISTIVITY MUD CAKE
 MCST.F                78:   MUD CAKE SAMPLE TEMPERATURE
 MFSS.               MEAS:   MUD FILTRATE SAMPLE SOURCE
 MCSS.               CALC:   MUD CAKE SAMPLE SOURCE
 RMB .OHMM           1.08:   RESISTIVITY MUD AT BHT
 BHT .F               150:   BOTTOM HOLE TEMPERATURE
 TCS .HRS               2:   TIME CURCULATED STOPPED
 MRT .F               150:   MAXIMUM RECORDED TEMPERATURE
 LUN .            HL-6307:   LOGGING UNIT NUMBER
 LUL .         CASPER, WY:   LOGGING UNIT LOCATION
 ENGI.             ZIEGER:   RECORDING ENGINEER
 WITN.             STRONG:   WITNESSED BY
 CLNT.            A2DTECH:   CLIENT CODE
 ORIG.           5" PRINT:   ORIGIN OF DATA
 UWI .       490252248300:   UNIQUE WELL ID
 DICO. A2D Technologies, Inc.:   DIGITIZING COMPANY
~OTHER INFORMATION
~A    DEPT    RILD       RILM       RFOC        SPR         GRR  
# ...
  245.0000     5.0029     5.1509     5.0414   -98.1288   103.4990
  245.5000     5.1073     5.1491     5.0052   -97.6822   102.5918
  246.0000     5.1423     5.1477     5.0042   -98.1421   108.3196
  246.5000     5.1414     5.1463     5.0381   -98.7513   110.4283
  247.0000     5.1052     5.1450     4.9333   -98.9080   109.1905
  247.5000     5.0692     5.1436     4.7946   -99.0649   107.6621
  248.0000     5.0685     5.1422     4.7301   -98.7703   106.7989
  248.5000     5.1031     5.0700     4.7291   -98.3237   106.7959
  249.0000     5.1380     5.0298     4.7613   -97.8771   107.0954
  249.5000     5.1016     4.9971     4.8940   -97.4305   108.2983
  250.0000     5.0658     5.1009     4.9616   -97.1333   109.8044
  250.5000     5.0996     5.0293     4.7913   -96.9902   111.9068
  251.0000     5.0277     4.9587     4.7243   -96.6944   108.2759
  251.5000     4.9916     4.8890     4.6907   -96.3971   105.2506
  252.0000     4.9903     4.8874     4.7277   -96.4044   104.6385
  252.5000     4.9889     4.8523     4.8205   -96.2594   105.8364
  253.0000     4.9876     4.8510     4.8533   -96.4163   107.3360
  253.5000     4.9863     4.8497     4.6867   -96.4234   110.6455
  254.0000     4.9849     4.8825     4.5576   -96.8817   115.5756
  254.5000     5.0183     4.9491     4.5252   -97.1892   120.2789
  255.0000     5.0515     5.0529     4.5874   -97.6475   121.1773
  255.5000     5.1210     5.1985     4.8498   -97.8042   118.1497
  256.0000     5.2637     5.3739     5.1646   -97.8100   114.2194
  256.5000     5.4476     5.4478     5.3404   -97.8160   109.3841
  257.0000     5.6775     5.5609     5.2291   -97.8231   103.9455
  257.5000     5.8377     5.7154     5.1919   -97.8290   100.0000
  258.0000     5.9982     5.8746     5.1909   -97.9856   102.7192
  258.5000     5.9962     5.9965     5.2989   -98.1423   104.8221
  259.0000     5.9532     5.9948     5.4469   -98.2990   105.7205
  259.5000     5.9105     5.9515     5.4837   -98.3048   106.3128
  260.0000     5.9918     5.9087     5.4396   -97.8581   106.6079
  260.5000     6.0315     5.9071     5.2578   -97.4129   106.8989
  261.0000     6.0721     5.8647     5.1485   -96.6646   105.6771
  261.5000     6.1550     5.8632     5.1474   -95.9163   101.3214
  262.0000     6.1529     5.7809     5.1825   -95.3188    98.7254
  262.5000     6.0246     5.6964     5.1812   -95.0230   101.4316
  263.0000     5.5420     5.2793     5.0735   -94.8778   103.2350
  263.5000     4.7236     4.1982     4.8657   -95.1891   102.6207
  264.0000     3.7824     3.3851     4.7977   -95.6682   100.8020
  264.5000     2.9053     2.8455     4.7304   -95.9528   100.4807
  265.0000     2.3806     2.3264     4.0321   -96.1094   103.9819
  265.5000     2.0385     1.9020     2.7913   -96.4169   114.0466
  266.0000     1.9014     1.7736     2.3793   -96.5736   122.4843
  266.5000     1.8235     1.7370     2.3137   -97.1827   125.4921
  267.0000     1.8357     1.7854     2.2656   -97.7919   121.8635
  267.5000     1.9265     1.9398     2.2185   -98.2504   120.0448
  268.0000     2.0931     2.1519     2.3015   -98.5592   121.8460
  268.5000     2.3428     2.4714     2.6928   -99.0175   122.4405
  269.0000     3.2381     3.1278     3.4082   -99.4758   116.0948
  269.5000     4.5790     3.6933     4.0246   -99.7833   105.2263
  270.0000     5.8355     4.6539     4.7856  -100.0908    99.4860
  270.5000     6.0397     6.0396     6.3144  -100.0966    97.9690
  271.0000     6.2512     7.5384     6.5359  -100.4042    93.7370
  271.5000     6.5604     8.4208     6.8122  -100.7131    91.9183
  272.0000     6.8862     8.8989     7.0069  -100.7189    91.9095
  272.5000     7.1755     9.0841     7.1980  -100.1214    91.2519
  273.0000     7.2738     9.1443     7.2466  -100.1053    88.8733
  273.5000     7.1712     9.0673     7.0956   -99.6801    87.0546
  274.0000     6.8771     8.1224     6.8050   -99.5351    86.1430
  274.5000     6.0683     4.8268     6.6175   -99.2393    93.0702
  275.0000     5.2082     3.9738     6.4351   -99.0943    97.8880
  275.5000     4.9258     3.8374     6.0445   -99.1016   101.8008
  276.0000     4.7827     3.8363     4.0922   -99.1074   107.7162
  276.5000     4.6249     3.8620     2.9988  -100.7734   117.4674
  277.0000     4.5285     3.9421     2.9570  -101.3825   120.4753
  277.5000     4.5273     4.3126     3.6909  -101.3883   115.0367
  278.0000     4.6212     5.3087     5.3295  -101.3942    99.0400
  278.5000     5.0209     5.8080     6.9834  -101.4000    95.1096
  279.0000     5.6477     6.2667     6.7909  -101.4058    95.4027
  279.5000     6.5008     6.7617     6.5128  -101.2608    94.7712
  280.0000     7.5529     7.4492     6.4635  -101.2681    92.0646
  280.5000     8.2062     8.0941     6.5099  -101.2740    91.1509
  281.0000     8.5532     8.4939     6.7382  -101.2798    92.0493
  281.5000     8.7307     8.5507     6.9746  -101.2856    92.9433
  282.0000     8.8497     8.7276     7.3201  -101.1392    92.6329
  282.5000     9.0334     8.9087     7.5768  -101.1465    93.2277
  283.0000     9.2220     9.0313     7.7884  -101.0015    94.4314
  283.5000     9.3571     9.2187     7.7868  -101.0075    96.0192
  284.0000     9.5410     9.3443     7.7852  -101.1654    98.9306
  284.5000     9.6710     9.5382     7.8920  -101.4729    98.0169
  285.0000     9.7363     9.5350     8.0010  -101.7804    90.1650
  285.5000     9.8008     9.5994     8.1107  -102.0879    85.6313
  286.0000     9.7982     9.6636     8.2228  -102.3954    86.2259
  286.5000     9.7956     9.7283     8.2783  -102.7029    92.5520
  287.0000     9.7929     9.7934     8.3343  -102.8597    96.8004
  287.5000     9.7897     9.7901     8.3321  -103.1685    97.6627
  288.0000     9.8558     9.8556     8.3305  -103.3252    90.4119
  288.5000     9.9217     9.9215     8.3962  -103.3310    89.7999
  289.0000     9.9881     9.9879     8.5609  -103.3368    90.6961
  289.5000    10.0549    10.0547     8.6792  -103.1904    90.0840
  290.0000    10.1919    10.0513     8.8594  -103.0468    89.4719
  290.5000    10.3365    10.1192     8.9197  -102.7510    90.6698
  291.0000    10.6186    10.2571     8.9175  -102.6075    91.5639
  291.5000    10.6896    10.3258     9.0402  -102.4610    92.7618
  292.0000    10.6868    10.5507     9.1646  -102.1667    93.3585
  292.5000    10.8331    10.8329     9.2265  -102.1725    92.1409
  293.0000    10.9063    10.9812     9.3535  -102.1783    91.5289
  293.5000    11.0550    11.0554     9.4167  -102.1842    93.6317
  294.0000    11.1289    11.0517     9.4144  -102.1900    96.3459
  294.5000    11.2034    11.0488     9.4125  -102.1961    96.6308
  295.0000    11.1996    11.1227     9.4760  -102.6556    95.1116
  295.5000    11.2745    11.1276     9.9454  -102.9631    94.1979
  296.0000    11.5092    11.1941    10.5126  -103.4214    98.7140
  296.5000    11.8290    11.4256    10.8794  -103.7289   100.5152
  297.0000    12.4142    11.5821    10.5060  -104.0364    98.0932
  297.5000    13.1189    12.5839    10.2164  -104.3439    96.8778
  298.0000    14.2774    14.8589    10.3570  -104.5008    97.4724
  298.5000    15.5932    17.6674    11.0986  -104.0554    95.9531
  299.0000    16.5931    19.4799    13.1060  -103.9089    92.0228
  299.5000    17.4139    20.4251    18.9244  -103.4637    85.9809
  300.0000    18.2749    20.8498    31.8300  -103.1674    81.5692
  300.5000    18.6541    20.6833    38.2620  -103.3258    78.4143
  301.0000    18.7801    19.9909    38.6415  -103.4855    78.7013
  301.5000    18.6440    18.7775    30.5193  -103.7945    85.0215
  302.0000    17.6330    16.8018    18.7790  -103.9527    90.1351
  302.5000    16.1084    15.4570    13.2164  -104.1108    91.6290
  303.0000    15.0942    14.7215    12.5560  -103.9655    91.9158
  303.5000    14.1111    14.0210    12.7345  -103.8235    91.8975
  304.0000    13.3459    13.3514    12.7912  -103.8311    92.4862
  304.5000    12.6222    12.7061    12.3781  -103.6876    93.3765
  305.0000    12.1887    12.2819    12.0375  -103.6968    95.7752
  305.5000    11.8521    12.1103    11.7883  -103.8549    97.5705
