~VERSION INFORMATION
 VERS.                2.0:   CWLS LOG ASCII STANDARD - VERSION 2.0
 WRAP.                 NO:   ONE LINE PER DEPTH STEP
~WELL INFORMATION
#MNEM.UNIT      DATA TYPE    INFORMATION
#----------   ------------   ------------------------------
 STRT.F           26.0000:   START DEPTH
 STOP.F          476.0000:   STOP DEPTH
 STEP.F            0.5000:   STEP LENGTH
 NULL.          -999.2500:   NO VALUE
 COMP. FENIX & SCISSON INC:   COMPANY
 WELL.         SX-3 #66-3:   WELL
 FLD .             TEAPOT:   FIELD
 LOC .       S3 T38N R78W:   LOCATION
 CNTY.            NATRONA:   COUNTY
 STAT.            WYOMING:   STATE
 CTRY. UNITED STATES OF AMERICA:   COUNTRY
 SRVC.              Welex:   SERVICE COMPANY
 DATE.        02-APR-1977:   LOGDATE
 API .       490251032800:   API NUMBER
~CURVE INFORMATION
#MNEM.UNIT       API CODE    CURVE DESCRIPTION
#----------   ------------   ------------------------------
 DEPT.F                  :   
 CALD.IN     45 280 60 00:   CALIPER FROM DENSITY LOG
 GRD .GAPI   45 310 01 00:   GAMMA RAY FROM DENSITY LOG
 CORR.G/C3   45 356 01 00:   DENSITY CORRECTION
 DPHI.DEC    45 890 12 00:   DENSITY POROSITY SANDSTONE
 RHOB.G/C3   45 350 01 00:   BULK DENSITY
~PARAMETER INFORMATION
#MNEM.UNIT          VALUE    DESCRIPTION
#----------   ------------   ------------------------------
 PD  .                 GL:   PERMANENT DATUM
 LMF .                 GL:   LOG MEASURED FROM
 DMF .                 GL:   DRILLING MEASURED FROM
 EGL .F              5152:   GROUND LEVEL
 DATE.        02-APR-1977:   RUN DATE
 RUN .                  1:   RUN NUMBER
 DD  .F               485:   DEPTH DRILLER
 DL  .F               480:   DEPTH LOGGER
 BLI .F               478:   BOTTOM LOG INTERVAL
 TLI .F                34:   TOP LOG INTERVAL
 CS  .IN            8.625:   CASING SIZE
 BS  .IN            7.875:   BIT SIZE
 BSD .F               485:   BIT SIZE AT DEPTH
 DFT .                KCL:   DRILLING FLUID TYPE
 DFD .                8.9:   DRILLING FLUID DENSITY
 BHT .F                61:   BOTTOM HOLE TEMPERATURE
 TCS .HRS            0300:   TIME CURCULATED STOPPED
 MRT .F                61:   MAXIMUM RECORDED TEMPERATURE
 ENGI.            C. DOAK:   RECORDING ENGINEER
 WITN.   R. B. HARRINGTON:   WITNESSED BY
 CLNT.            A2DTECH:   CLIENT CODE
 ORIG.           5" PRINT:   ORIGIN OF DATA
 UWI .       490251032800:   UNIQUE WELL ID
 DICO. A2D Technologies, Inc.:   DIGITIZING COMPANY
~OTHER INFORMATION
~A   DEPT       CALD      GRD       CORR       DPHI       RHOB   
   26.0000     7.9617  -999.2500  -999.2500  -999.2500  -999.2500
   26.5000     7.9611    84.9369    -0.1340  -999.2500  -999.2500
   27.0000     7.9606    90.8049    -0.0635  -999.2500  -999.2500
   27.5000     7.9600    97.3192     0.0024  -999.2500  -999.2500
   28.0000     7.9594   105.0025     0.0310  -999.2500     2.2156
   28.5000     7.9589   107.8541     0.0296     0.1890     2.3231
   29.0000     7.9583   109.9961     0.0237     0.1713     2.3639
   29.5000     7.9577   109.1229     0.0358     0.1617     2.3767
   30.0000     7.9572   103.6435     0.0434     0.1575     2.3819
   30.5000     7.9566   100.9872     0.0496     0.1554     2.3857
   31.0000     7.9560   100.2580     0.0557     0.1595     2.3855
   31.5000     7.9555   101.6183     0.0617     0.1730     2.3659
   32.0000     7.9549   103.7169     0.0648     0.1834     2.3460
   32.5000     7.9543   105.8154     0.0575     0.1897     2.3296
   33.0000     7.9538   108.2112     0.0456     0.1926     2.3267
   33.5000     7.9532   110.4584     0.0397     0.1890     2.3365
   34.0000     7.9526   108.0993     0.0473     0.1424     2.4135
   34.5000     7.9521   107.6673     0.0504     0.1293     2.4270
   35.0000     7.9515   109.1761     0.0535     0.1245     2.4390
   35.5000     7.9509   110.6803     0.0566     0.1211     2.4503
   36.0000     7.9504   108.9156     0.0582     0.1190     2.4541
   36.5000     7.9498   105.9622     0.0599     0.1181     2.4584
   37.0000     7.9492   103.5884     0.0615     0.1185     2.4532
   37.5000     7.9487   102.4208     0.0616     0.1225     2.4458
   38.0000     7.9481   101.8375     0.0617     0.1291     2.4301
   38.5000     7.9475   101.5779     0.0558     0.1351     2.4114
   39.0000     7.9470   102.1952     0.0395     0.1425     2.4032
   39.5000     7.9464   106.6712     0.0111     0.1458     2.3988
   40.0000     7.9458   117.2363     0.0097     0.1395     2.4040
   40.5000     7.9453   120.1003     0.0083     0.1374     2.4093
   41.0000     7.9447   122.0579     0.0070     0.1374     2.4123
   41.5000     7.9441   122.1947     0.0026     0.1373     2.4145
   42.0000     7.9436   114.7882     0.0012     0.1382     2.4153
   42.5000     7.9430   112.5777    -0.0017     0.1394     2.4123
   43.0000     7.9429   110.9616    -0.0046     0.1406     2.4049
   43.5000     7.9440   109.0483    -0.0045     0.1441     2.3997
   44.0000     7.9453   108.6163    -0.0043     0.1486     2.3960
   44.5000     7.9462   109.9765    -0.0042     0.1492     2.3952
   45.0000     7.9475   109.6977    -0.0041     0.1474     2.3997
   45.5000     7.9486   108.0816    -0.0025     0.1456     2.4035
   46.0000     7.9497   106.3168    -0.0024     0.1482     2.4013
   46.5000     7.9357   107.2267    -0.0008     0.1503     2.3953
   47.0000     7.9371   108.7309    -0.0007     0.1506     2.3946
   47.5000     7.9381   109.9380    -0.0005     0.1473     2.3961
   48.0000     7.9241   110.4021     0.0011     0.1428     2.4030
   48.5000     7.9104   112.3521     0.0012     0.1392     2.4097
   49.0000     7.8969   116.9767     0.0028     0.1356     2.4152
   49.5000     7.8980   118.0351     0.0044     0.1341     2.4235
   50.0000     7.8991   118.3507     0.0075     0.1343     2.4261
   50.5000     7.9065   117.1763     0.0064     0.1352     2.4037
   51.0000     7.9138   116.5953     0.0055     0.1373     2.4157
   51.5000     7.9212   116.3080     0.0034     0.1416     2.4068
   52.0000     7.9285   117.8105     0.0035     0.1445     2.4008
   52.5000     7.9359   115.1492     0.0036     0.1462     2.3986
   53.0000     7.9433   113.6766     0.0022     0.1468     2.3971
   53.5000     7.9506   113.8384     0.0023     0.1482     2.3956
   54.0000     7.9580   115.0404     0.0025     0.1503     2.3949
   54.5000     7.9653   119.3628     0.0041     0.1512     2.3957
   55.0000     7.9719   123.3879     0.0042     0.1479     2.4002
   55.5000     7.9581   125.6300     0.0073     0.1449     2.4047
   56.0000     7.9598   125.9405     0.0104     0.1401     2.4107
   56.5000     7.9611   124.2942     0.0120     0.1368     2.4197
   57.0000     7.9624   123.1055     0.0122     0.1365     2.4212
   57.5000     7.9637   122.0827     0.0108     0.1379     2.4079
   58.0000     7.9651   120.6845     0.0109     0.1397     2.3921
   58.5000     7.9664   117.7301     0.0080     0.1412     2.4018
   59.0000     7.9677   117.4020     0.0082     0.1391     2.4145
   59.5000     7.9690   118.0096     0.0083     0.1307     2.4280
   60.0000     7.9704   116.6856     0.0099     0.1214     2.4437
   60.5000     7.9569   117.2932     0.0100     0.1136     2.4565
   61.0000     7.9582   115.0810     0.0101     0.1106     2.4587
   61.5000     7.9447   115.5400     0.0103     0.1114     2.4587
   62.0000     7.9460   118.3765     0.0104     0.1124     2.4573
   62.5000     7.9473   118.8322     0.0105     0.1129     2.4565
   63.0000     7.9487   117.3629     0.0121     0.1126     2.4588
   63.5000     7.9500   115.4445     0.0152     0.1102     2.4678
   64.0000     7.9513   112.1889     0.0183     0.1060     2.4768
   64.5000     7.9526   113.6880     0.0214     0.0982     2.4828
   65.0000     7.9540   115.0386     0.0261     0.0934     2.4880
   65.5000     7.9553   114.4575     0.0307     0.0934     2.4888
   66.0000     7.9567   115.3623     0.0263     0.1019     2.4765
   66.5000     7.9583   116.1185     0.0219     0.1087     2.4639
   67.0000     7.9596   117.0233     0.0175     0.1138     2.4557
   67.5000     7.9609   119.4140     0.0132     0.1186     2.4489
   68.0000     7.9623   120.9132     0.0088     0.1232     2.4403
   68.5000     7.9634   121.3689     0.0119     0.1259     2.4336
   69.0000     7.9649   119.0081     0.0120     0.1285     2.4277
   69.5000     7.9660   119.6157     0.0122     0.1258     2.4344
   70.0000     7.9676   120.3719     0.0123     0.1207     2.4472
   70.5000     7.9689   121.1281     0.0139     0.1264     2.4412
   71.0000     7.9702   121.7358     0.0140     0.1290     2.4270
   71.5000     7.9715   122.7891     0.0142     0.1242     2.4375
   72.0000     7.9728   124.1397     0.0113     0.1230     2.4442
   72.5000     7.9742   123.8534     0.0084     0.1278     2.4301
   73.0000     7.9756   123.1124     0.0070     0.1305     2.4211
   73.5000     7.9767   121.4824     0.0026     0.1298     2.4264
   74.0000     7.9781   119.5711    -0.0017     0.1265     2.4324
   74.5000     7.9794   118.8370    -0.0031     0.1256     2.4264
   75.0000     7.9660   118.2758    -0.0045     0.1301     2.4227
   75.5000     7.9674   118.4410    -0.0044     0.1256     2.4414
   76.0000     7.9686   119.7916    -0.0027     0.1190     2.4489
   76.5000     7.9700   120.2506     0.0034     0.1184     2.4497
   77.0000     7.9713   121.8984     0.0095     0.1157     2.4534
   77.5000     7.9726   123.3975     0.0141     0.1128     2.4594
   78.0000     7.9590   122.8164     0.0172     0.1106     2.4654
   78.5000     7.9604   119.5608     0.0203     0.1084     2.4692
   79.0000     7.9618   116.4537     0.0234     0.1051     2.4745
   79.5000     7.9631   116.0212     0.0265     0.0985     2.4798
   80.0000     7.9645   114.4000     0.0281     0.1009     2.4764
   80.5000     7.9657   112.3330     0.0283     0.1084     2.4666
   81.0000     7.9671   110.7118     0.0284     0.1122     2.4566
   81.5000     7.9684   109.6817     0.0285     0.1155     2.4484
   82.0000     7.9697   111.1841     0.0271     0.1167     2.4551
   82.5000     7.9562   113.8720     0.0272     0.1149     2.4619
   83.0000     7.9575   118.6401     0.0257     0.1130     2.4664
   83.5000     7.9589   121.1794     0.0230     0.1157     2.4604
   84.0000     7.9603   121.6384     0.0171     0.1193     2.4463
   84.5000     7.9468   119.8686     0.0113     0.1229     2.4381
   85.0000     7.9481   118.0988     0.0099     0.1261     2.4276
   85.5000     7.9496   115.7347     0.0055     0.1288     2.4209
   86.0000     7.9510   112.9248     0.0056     0.1303     2.4284
   86.5000     7.9521   112.6409     0.0042     0.1260     2.4366
