~VERSION INFORMATION
 VERS.                2.0:   CWLS LOG ASCII STANDARD - VERSION 2.0
 WRAP.                 NO:   ONE LINE PER DEPTH STEP
~WELL INFORMATION
#MNEM.UNIT      DATA TYPE    INFORMATION
#----------   ------------   ------------------------------
 STRT.F           10.0000:   START DEPTH
 STOP.F         2599.5000:   STOP DEPTH
 STEP.F            0.5000:   STEP LENGTH
 NULL.          -999.2500:   NO VALUE
 COMP. FENIX & SCISSON INC:   COMPANY
 WELL.   34-SHX-33 #34-33:   WELL
 FLD .             TEAPOT:   FIELD
 LOC .      S33 T39N R78W:   LOCATION
 CNTY.            NATRONA:   COUNTY
 STAT.            WYOMING:   STATE
 CTRY. UNITED STATES OF AMERICA:   COUNTRY
 SRVC.           BIRDWELL:   SERVICE COMPANY
 DATE.        20-FEB-1978:   LOGDATE
 API .       490251058400:   API NUMBER
~CURVE INFORMATION
#MNEM.UNIT       API CODE    CURVE DESCRIPTION
#----------   ------------   ------------------------------
 DEPT.F                  :   
 GR  .GAPI   30 310 01 00:   GAMMA RAY
 CALI.IN     70 280 01 00:   CALIPER
~PARAMETER INFORMATION
#MNEM.UNIT          VALUE    DESCRIPTION
#----------   ------------   ------------------------------
 PD  .                 GL:   PERMANENT DATUM
 EPD .F              5174:   ELEVATION PERMANENT DATUM
 LMF .                 KB:   LOG MEASURED FROM
 DAPD.F                10:   FEET ABOVE PERMANENT DATUM
 DMF .                 KB:   DRILLING MEASURED FROM
 EKB .F              5184:   KELLING BUSHING
 EGL .F              5174:   GROUND LEVEL
 DATE.            2-20-78:   RUN DATE
 RUN .                  1:   RUN NUMBER
 DD  .F              2590:   DEPTH DRILLER
 DL  .F              2600:   DEPTH LOGGER
 BLI .F              2600:   BOTTOM LOG INTERVAL
 CS  .IN            8.625:   CASING SIZE
 CBD .F               737:   CASING BOTTOM DRILLER
 BS  .IN            8.625:   BIT SIZE
 BSD .F              2590:   BIT SIZE AT DEPTH
 TCS .HRS               2:   TIME CURCULATED STOPPED
 LUL .             CASPER:   LOGGING UNIT LOCATION
 ENGI.             MILLER:   RECORDING ENGINEER
 WITN.           MCGINLEY:   WITNESSED BY
 CLNT.            A2DTECH:   CLIENT CODE
 ORIG.           5" PRINT:   ORIGIN OF DATA
 UWI .       490251058400:   UNIQUE WELL ID
 DICO. A2D Technologies, Inc.:   DIGITIZING COMPANY
~OTHER INFORMATION
~A   DEPT        GR      CALI   
# ...
  374.5000    92.1650  -999.2500
  375.0000    91.8444  -999.2500
  375.5000    92.3930  -999.2500
  376.0000    92.7797  -999.2500
  376.5000    90.7807  -999.2500
  377.0000    89.2602  -999.2500
  377.5000    88.9511  -999.2500
  378.0000    88.1401  -999.2500
  378.5000    86.5456  -999.2500
  379.0000    86.2046  -999.2500
  379.5000    86.2755  -999.2500
  380.0000    90.2025  -999.2500
  380.5000    93.0621  -999.2500
  381.0000    90.4655  -999.2500
  381.5000    87.3736  -999.2500
  382.0000    86.0812  -999.2500
  382.5000    87.5026  -999.2500
  383.0000    88.4862  -999.2500
  383.5000    89.4402  -999.2500
  384.0000    85.7581  -999.2500
  384.5000    81.1102  -999.2500
  385.0000    78.6835  -999.2500
  385.5000    79.0908  -999.2500
  386.0000    86.9243  -999.2500
  386.5000    94.4960  -999.2500
  387.0000    94.6292  -999.2500
  387.5000    89.7249  -999.2500
  388.0000    87.7705  -999.2500
  388.5000    88.6410  -999.2500
  389.0000    89.4885  -999.2500
  389.5000    90.5967  -999.2500
  390.0000    92.5923  -999.2500
  390.5000    94.5496  -999.2500
  391.0000    96.0545  -999.2500
  391.5000    96.5146  -999.2500
  392.0000    96.0220  -999.2500
  392.5000    95.6534  -999.2500
  393.0000    95.9755  -999.2500
  393.5000    96.8073  -999.2500
  394.0000    97.6847  -999.2500
  394.5000    94.7122  -999.2500
  395.0000    91.5282  -999.2500
  395.5000    92.2936  -999.2500
  396.0000    94.9860  -999.2500
  396.5000    97.6542  -999.2500
  397.0000    97.9581  -999.2500
  397.5000    94.7926  -999.2500
  398.0000    91.3215  -999.2500
  398.5000    89.2686  -999.2500
  399.0000    88.1004  -999.2500
  399.5000    88.1165  -999.2500
  400.0000    88.1155  -999.2500
  400.5000    87.7396  -999.2500
  401.0000    87.3091  -999.2500
  401.5000    86.9437  -999.2500
  402.0000    89.5139  -999.2500
  402.5000    92.4511  -999.2500
  403.0000    92.6107  -999.2500
  403.5000    92.3208  -999.2500
  404.0000    92.1430  -999.2500
  404.5000    92.4483  -999.2500
  405.0000    91.0831  -999.2500
  405.5000    87.7659  -999.2500
  406.0000    85.7768  -999.2500
  406.5000    87.4517  -999.2500
  407.0000    91.7805  -999.2500
  407.5000    96.0258  -999.2500
  408.0000    99.2188  -999.2500
  408.5000    97.3722  -999.2500
  409.0000    95.9422  -999.2500
  409.5000    95.7668  -999.2500
  410.0000    95.9053  -999.2500
  410.5000    95.8341  -999.2500
  411.0000    94.3385  -999.2500
  411.5000    92.8277  -999.2500
  412.0000    92.5331  -999.2500
  412.5000    93.2452  -999.2500
  413.0000    90.9249  -999.2500
  413.5000    88.3015  -999.2500
  414.0000    86.9530  -999.2500
  414.5000    90.3803  -999.2500
  415.0000    94.3482  -999.2500
  415.5000    94.5259  -999.2500
  416.0000    91.4546  -999.2500
  416.5000    89.1852  -999.2500
  417.0000    91.9555  -999.2500
  417.5000    95.0942  -999.2500
  418.0000    94.8730  -999.2500
  418.5000    93.7168  -999.2500
  419.0000    94.5114  -999.2500
  419.5000    95.2948  -999.2500
  420.0000    93.0917  -999.2500
  420.5000    91.0048  -999.2500
  421.0000    91.3938  -999.2500
  421.5000    92.9682  -999.2500
  422.0000    94.5202  -999.2500
  422.5000    95.2252  -999.2500
  423.0000    93.3501  -999.2500
  423.5000    89.8657  -999.2500
  424.0000    86.2892  -999.2500
  424.5000    86.0156  -999.2500
  425.0000    85.9352  -999.2500
  425.5000    85.8393  -999.2500
  426.0000    85.7071  -999.2500
  426.5000    87.6989  -999.2500
  427.0000    90.5103  -999.2500
  427.5000    91.5952  -999.2500
  428.0000    89.5806  -999.2500
  428.5000    87.7090  -999.2500
  429.0000    89.0864  -999.2500
  429.5000    90.6901  -999.2500
  430.0000    92.2965  -999.2500
  430.5000    93.0482  -999.2500
  431.0000    92.5278  -999.2500
  431.5000    92.0108  -999.2500
  432.0000    91.5034  -999.2500
  432.5000    91.0605  -999.2500
  433.0000    92.2714  -999.2500
  433.5000    93.3271  -999.2500
  434.0000    92.3349  -999.2500
  434.5000    91.2531  -999.2500
  435.0000    91.5940  -999.2500
  435.5000    92.1570  -999.2500
  436.0000    92.7982  -999.2500
  436.5000    90.0085  -999.2500
  437.0000    86.1364  -999.2500
  437.5000    83.4109  -999.2500
  438.0000    83.8674  -999.2500
  438.5000    84.2676  -999.2500
  439.0000    83.4917  -999.2500
  439.5000    81.9373  -999.2500
  440.0000    80.2471  -999.2500
  440.5000    78.5245  -999.2500
  441.0000    78.4391  -999.2500
  441.5000    84.0944  -999.2500
  442.0000    88.9206  -999.2500
  442.5000    87.6947  -999.2500
  443.0000    86.4757  -999.2500
  443.5000    85.7755  -999.2500
  444.0000    85.9163  -999.2500
  444.5000    86.0508  -999.2500
  445.0000    86.1395  -999.2500
  445.5000    86.1390  -999.2500
  446.0000    86.1360  -999.2500
  446.5000    86.1360  -999.2500
  447.0000    85.6781  -999.2500
  447.5000    84.8453  -999.2500
  448.0000    83.8375  -999.2500
  448.5000    83.9516  -999.2500
  449.0000    85.5411  -999.2500
  449.5000    87.2546  -999.2500
  450.0000    86.8255  -999.2500
  450.5000    86.1194  -999.2500
  451.0000    85.3511  -999.2500
  451.5000    84.6101  -999.2500
  452.0000    83.8540  -999.2500
  452.5000    84.4446  -999.2500
  453.0000    85.2234  -999.2500
  453.5000    88.6966  -999.2500
  454.0000    91.8751  -999.2500
  454.5000    90.1868  -999.2500
  455.0000    88.5574  -999.2500
  455.5000    87.7185  -999.2500
  456.0000    87.7455  -999.2500
  456.5000    87.8523  -999.2500
  457.0000    87.9521  -999.2500
  457.5000    88.0369  -999.2500
  458.0000    87.7650  -999.2500
  458.5000    86.1819  -999.2500
  459.0000    84.6244  -999.2500
  459.5000    85.8025  -999.2500
  460.0000    88.4653  -999.2500
  460.5000    91.1183  -999.2500
  461.0000    92.8930  -999.2500
  461.5000    91.4970  -999.2500
  462.0000    88.6417  -999.2500
  462.5000    83.1924  -999.2500
  463.0000    77.6858  -999.2500
  463.5000    72.2382  -999.2500
  464.0000    70.5969  -999.2500
  464.5000    70.4568  -999.2500
  465.0000    75.1307  -999.2500
  465.5000    79.9038  -999.2500
  466.0000    81.7778  -999.2500
  466.5000    82.1666  -999.2500
  467.0000    81.6844  -999.2500
  467.5000    81.1675  -999.2500
  468.0000    80.6496  -999.2500
  468.5000    80.2086  -999.2500
  469.0000    81.0660  -999.2500
  469.5000    82.0621  -999.2500
  470.0000    86.0487  -999.2500
  470.5000    90.5122  -999.2500
  471.0000    92.5112  -999.2500
  471.5000    91.0504  -999.2500
  472.0000    88.7971  -999.2500
  472.5000    86.8204  -999.2500
  473.0000    88.4574  -999.2500
  473.5000    90.4105  -999.2500
  474.0000    93.2920  -999.2500
  474.5000    96.7557  -999.2500
  475.0000    96.4547  -999.2500
  475.5000    92.8251  -999.2500
  476.0000    89.1442  -999.2500
  476.5000    85.4826  -999.2500
  477.0000    85.2114  -999.2500
  477.5000    85.5092  -999.2500
  478.0000    85.6693  -999.2500
  478.5000    83.1003  -999.2500
  479.0000    80.8718  -999.2500
  479.5000    82.1963  -999.2500
  480.0000    85.0556  -999.2500
  480.5000    88.0627  -999.2500
  481.0000    91.0987  -999.2500
  481.5000    94.1002  -999.2500
  482.0000    93.8571  -999.2500
  482.5000    92.6181  -999.2500
  483.0000    91.3755  -999.2500
  483.5000    90.1291  -999.2500
  484.0000    88.9426  -999.2500
  484.5000    89.0585  -999.2500
  485.0000    89.4577  -999.2500
  485.5000    89.8453  -999.2500
  486.0000    90.0216  -999.2500
  486.5000    89.4877  -999.2500
  487.0000    88.9746  -999.2500
  487.5000    88.5100  -999.2500
  488.0000    88.4539  -999.2500
  488.5000    88.3732  -999.2500
  489.0000    88.2993  -999.2500
  489.5000    88.2188  -999.2500
  490.0000    88.1078  -999.2500
  490.5000    88.6285  -999.2500
  491.0000    88.9003  -999.2500
  491.5000    89.1844  -999.2500
  492.0000    89.1803  -999.2500
  492.5000    88.8197  -999.2500
  493.0000    88.5260  -999.2500
  493.5000    89.3098  -999.2500
  494.0000    90.1788  -999.2500
  494.5000    91.0667  -999.2500
  495.0000    92.0220  -999.2500
  495.5000    89.8596  -999.2500
