~VERSION INFORMATION
 VERS.                2.0:   CWLS LOG ASCII STANDARD - VERSION 2.0
 WRAP.                 NO:   ONE LINE PER DEPTH STEP
~WELL INFORMATION
#MNEM.UNIT      DATA TYPE    INFORMATION
#----------   ------------   ------------------------------
 STRT.F           95.0000:   START DEPTH
 STOP.F          862.0000:   STOP DEPTH
 STEP.F            0.5000:   STEP LENGTH
 NULL.          -999.2500:   NO VALUE
 COMP. U S NAVY INTEX OIL:   COMPANY
 WELL. RES 3 TEAMPT DOME #13-S-35:   WELL
 FLD .        TEAPOT DOME:   FIELD
 LOC .      S35 T39N R78W:   LOCATION
 CNTY.            NATRONA:   COUNTY
 STAT.            WYOMING:   STATE
 CTRY. UNITED STATES OF AMERICA:   COUNTRY
 SRVC.       Schlumberger:   SERVICE COMPANY
 DATE.        27-JUL-1963:   LOGDATE
 API .       490250655000:   API NUMBER
~CURVE INFORMATION
#MNEM.UNIT       API CODE    CURVE DESCRIPTION
#----------   ------------   ------------------------------
 DEPT.F                  :   
 SPR .MV     05 010 01 00:   SPONTANEOUS POTENTIAL FROM RES.
 ILD .OHMM   05 120 46 00:   INDUCTION LOG DEEP
 ASN .OHMM   05 041 18 00:   AMPLIFIED SHORT NORMAL 18"
 CILD.MMHO   05 110 46 00:   CONDUCTIVITY INDUCTION LOG DEEP
 GR  .GAPI   30 310 01 00:   GAMMA RAY
~PARAMETER INFORMATION
#MNEM.UNIT          VALUE    DESCRIPTION
#----------   ------------   ------------------------------
 PD  .                 GL:   PERMANENT DATUM
 EPD .F              5100:   ELEVATION PERMANENT DATUM
 LMF .                 KB:   LOG MEASURED FROM
 DAPD.F               5.0:   FEET ABOVE PERMANENT DATUM
 DMF .                 KB:   DRILLING MEASURED FROM
 EKB .F              5105:   KELLING BUSHING
 EGL .F              5100:   GROUND LEVEL
 DATE.        27-JUL-1963:   RUN DATE
 RUN .                  1:   RUN NUMBER
 DD  .F               862:   DEPTH DRILLER
 DL  .F               863:   DEPTH LOGGER
 BLI .F               862:   BOTTOM LOG INTERVAL
 TLI .F               100:   TOP LOG INTERVAL
 CS  .IN            8.625:   CASING SIZE
 CBD .F                10:   CASING BOTTOM DRILLER
 BS  .IN             6.75:   BIT SIZE
 BSD .F               862:   BIT SIZE AT DEPTH
 DFT . NATURAL- GEL ADDED:   DRILLING FLUID TYPE
 DFD .                9.0:   DRILLING FLUID DENSITY
 DFV .                 38:   DRILLING FLUID VISCOSITY
 DFPH.                8.5:   DRILLING FLUID PH
 DFL .                5.6:   DRILLING FLUID LOSS
 MSS .           FLOWLINE:   MUD SAMPLE SOURCE
 RMS .OHMM            4.6:   RESISTIVITY MUD SAMPLE
 MST .F                83:   MUD SAMPLE TEMPERATURE
 RMF .OHMM            3.8:   RESISTIVITY MUD FILTRATE SAMPLE
 MFST.F                83:   MUD FILTRATE SAMPLE TEMPERATURE
 RMC .OHMM            4.8:   RESISTIVITY MUD CAKE
 MCST.F                83:   MUD CAKE SAMPLE TEMPERATURE
 MFSS.                 FP:   MUD FILTRATE SAMPLE SOURCE
 MCSS.                 FP:   MUD CAKE SAMPLE SOURCE
 TCS .HRS               1:   TIME CURCULATED STOPPED
 LUN .               2523:   LOGGING UNIT NUMBER
 LUL .               CSPR:   LOGGING UNIT LOCATION
 ENGI.            GIFFORD:   RECORDING ENGINEER
 WITN.          JORGENSON:   WITNESSED BY
 CLNT.            A2DTECH:   CLIENT CODE
 ORIG.           5" PRINT:   ORIGIN OF DATA
 UWI .       490250655000:   UNIQUE WELL ID
 DICO. A2D Technologies, Inc.:   DIGITIZING COMPANY
~OTHER INFORMATION
~A   DEPT      SPR        ILD        ASN       CILD         GR   
# ...
  156.0000   -37.1233     5.3189     6.6494   178.2916  -999.2500
  156.5000   -37.1262     5.4674     6.6640   176.0681  -999.2500
  157.0000   -36.9789     5.5410     6.6782   172.3431  -999.2500
  157.5000   -37.1327     5.8395     6.8426   165.4274  -999.2500
  158.0000   -37.5860     6.1426     7.1632   158.1434  -999.2500
  158.5000   -37.8892     6.5877     7.5159   152.9169  -999.2500
  159.0000   -38.1923     6.8114     7.9202   147.6903  -999.2500
  159.5000   -38.3454     6.9604     7.8896   143.9653  -999.2500
  160.0000   -38.3283     7.1083     7.8440   138.7387  -999.2500
  160.5000   -38.0508     7.1815     8.3232   136.5152  -999.2500
  161.0000   -37.6040     7.0984     8.3526   136.5511  -999.2500
  161.5000   -37.1564     6.8753     7.9771   141.0843  -999.2500
  162.0000   -36.7088     6.5720     7.8716   147.1190  -999.2500
  162.5000   -36.8619     6.1933     7.6311   150.9015  -999.2500
  163.0000   -37.1658     5.9652     7.4357   154.8353  -999.2500
  163.5000   -37.1686     5.8125     7.2996   161.4766  -999.2500
  164.0000   -37.0206     5.7279     7.1645   165.2591  -999.2500
  164.5000   -37.0242     5.5817     7.1189   167.5401  -999.2500
  165.0000   -37.0271     5.6548     7.0584   168.3195  -999.2500
  165.5000   -36.8798     5.6526     7.0278   167.5975  -999.2500
  166.0000   -36.7326     5.7263     7.0123   164.6304  -999.2500
  166.5000   -36.7362     5.8742     7.0425   162.4068  -999.2500
  167.0000   -36.7391     6.1065     7.2359   160.1833  -999.2500
  167.5000   -36.7419     6.3217     7.4902   157.9597  -999.2500
  168.0000   -36.7448     6.5454     7.7595   154.9855  -999.2500
  168.5000   -36.7478     6.7686     7.9388   151.0866  -999.2500
  169.0000   -36.7513     6.9924     8.0732   145.2903  -999.2500
  169.5000   -37.0545     7.2161     8.2567   137.8115  -999.2500
  170.0000   -37.3576     7.4498     8.4467   132.5850  -999.2500
  170.5000   -37.3605     7.5877     8.5660   130.3604  -999.2500
  171.0000   -37.3634     7.5856     8.6854   129.6394  -999.2500
  171.5000   -37.3844     7.5081     8.7748   129.6753  -999.2500
  172.0000   -37.5200     7.2800     8.8042   131.2055  -999.2500
  172.5000   -37.5229     6.9013     8.6086   137.2402  -999.2500
  173.0000   -37.3756     6.3605     8.3682   144.0257  -999.2500
  173.5000   -37.2284     6.1435     8.0677   148.5589  -999.2500
  174.0000   -36.7808     5.9907     7.7073   154.8942  -999.2500
  174.5000   -36.3332     5.9132     7.4447   161.3863  -999.2500
  175.0000   -36.9374     5.9864     7.2413   163.6673  -999.2500
  175.5000   -37.3907     5.9842     7.1058   163.6960  -999.2500
  176.0000   -37.3936     6.1321     7.0304   162.2232  -999.2500
  176.5000   -36.9460     6.1299     7.2096   160.7504  -999.2500
  177.0000   -36.9529     6.2036     7.3443   157.0325  -999.2500
  177.5000   -37.5531     6.2767     7.5081   152.5567  -999.2500
  178.0000   -37.5560     6.4999     7.8224   148.8317  -999.2500
  178.5000   -37.7090     6.4978     7.9719   148.1025  -999.2500
  179.0000   -37.7119     6.3444     7.6114   148.8891  -999.2500
  179.5000   -37.7148     6.1164     7.4009   150.6453  -999.2500
  180.0000   -37.5675     5.8883     7.3853   154.9597  -999.2500
  180.5000   -37.5711     5.6602     7.3696   159.4930  -999.2500
  181.0000   -37.8743     5.5075     7.3390   164.7769  -999.2500
  181.5000   -37.4267     5.5053     7.2785   169.3102  -999.2500
  182.0000   -37.2787     5.4273     7.1130   171.6418  -999.2500
  182.5000   -37.2823     5.4251     6.9175   173.8793  -999.2500
  183.0000   -37.2853     5.4230     6.7938   174.6587  -999.2500
  183.5000   -37.2888     5.4966     6.6764   176.1889  -999.2500
  184.0000   -37.2917     5.4939     6.7208   176.9684  -999.2500
  184.5000   -37.2946     5.5671     6.7951   178.4986  -999.2500
  185.0000   -37.4476     5.5643     6.8547   179.2852  -999.2500
  185.5000   -37.9009     5.5622     6.8390   178.5560  -999.2500
  186.0000   -38.0540     5.6359     6.7590   177.8412  -999.2500
  186.5000   -38.2077     5.6331     6.6728   177.8699  -999.2500
  187.0000   -37.9103     5.6310     6.5822   177.1472  -999.2500
  187.5000   -37.1624     5.6288     6.5067   176.4258  -999.2500
  188.0000   -36.7148     5.6261     6.4611   174.9602  -999.2500
  188.5000   -36.4154     5.6239     6.5357   173.4874  -999.2500
  189.0000   -36.2701     5.6218     6.6697   172.7582  -999.2500
  189.5000   -36.2737     5.6196     6.7591   172.7941  -999.2500
  190.0000   -36.2766     5.5421     6.8485   174.3243  -999.2500
  190.5000   -36.1286     5.4568     6.8631   178.8647  -999.2500
  191.0000   -36.4159     5.3867     6.8474   182.6472  -999.2500
  191.5000   -36.3363     5.3845     6.7536   184.9282  -999.2500
  192.0000   -35.8859     5.3823     6.4263   188.7106  -999.2500
  192.5000   -35.2853     5.3049     6.2458   192.4931  -999.2500
  193.0000   -35.2853     5.1521     6.0653   197.8531  -999.2500
  193.5000   -35.4354     4.9992     5.9448   200.8159  -999.2500
  194.0000   -35.5856     4.9213     5.8842   203.8477  -999.2500
  194.5000   -35.5856     4.8438     5.8537   205.3779  -999.2500
  195.0000   -35.5856     4.7664     5.8380   206.1574  -999.2500
  195.5000   -35.5856     4.6889     5.8674   205.4229  -999.2500
  196.0000   -35.5856     4.6867     5.9868   203.9625  -999.2500
  196.5000   -35.7357     4.6845     5.9862   201.7390  -999.2500
  197.0000   -36.2092     4.7577     5.9706   199.5226  -999.2500
  197.5000   -36.7868     4.8308     5.9700   198.0498  -999.2500
  198.0000   -36.9369     4.8281     5.9845   197.3273  -999.2500
  198.5000   -37.0871     4.9013     6.0437   197.3573  -999.2500
  199.0000   -37.0871     4.8991     6.1331   198.1432  -999.2500
  199.5000   -36.6161     4.8968     6.1476   197.4139  -999.2500
  200.0000   -36.1862     5.0306     6.0870   194.7201  -999.2500
  200.5000   -36.1862     5.2696     6.0563   191.4498  -999.2500
  201.0000   -36.1862     5.2681     6.2653   186.9524  -999.2500
  201.5000   -35.8859     5.3420     6.4595   183.2058  -999.2500
  202.0000   -35.4354     5.4911     6.4138   177.2087  -999.2500
  202.5000   -35.4354     5.7153     6.3378   171.2098  -999.2500
  203.0000   -35.4354     6.0150     6.8769   166.7124  -999.2500
  203.5000   -35.8859     6.3233     7.0861   162.9658  -999.2500
  204.0000   -36.3363     6.4640     7.1604   159.9498  -999.2500
  204.5000   -36.7868     6.4622     7.1748   156.9741  -999.2500
  205.0000   -36.6366     6.4607     7.1739   156.9830  -999.2500
  205.5000   -36.4865     6.3840     7.1131   157.7409  -999.2500
  206.0000   -36.3363     6.3825     7.0374   159.2495  -999.2500
  206.5000   -36.1862     6.3055     6.9767   160.7582  -999.2500
  207.0000   -36.0230     6.1535     6.9460   163.0193  -999.2500
  207.5000   -35.8859     6.0014     6.9303   166.0294  -999.2500
  208.0000   -35.8859     5.8494     6.8844   169.7903  -999.2500
  208.5000   -35.8859     5.4711     6.7938   175.8035  -999.2500
  209.0000   -35.8859     5.2438     6.6281   182.7383  -999.2500
  209.5000   -35.8859     4.9411     6.4025   190.8345  -999.2500
  210.0000   -35.8859     4.7138     6.1579   202.1029  -999.2500
  210.5000   -35.8859     4.5612     5.9062   210.3683  -999.2500
  211.0000   -35.8859     4.3341     5.6806   217.8830  -999.2500
  211.5000   -35.8859     4.2573     5.4849   226.9009  -999.2500
  212.0000   -35.7357     4.1806     5.3343   235.9170  -999.2500
  212.5000   -35.5856     4.1792     5.2423   242.6809  -999.2500
  213.0000   -35.2853     4.1777     5.1528   244.1895  -999.2500
  213.5000   -35.1351     4.1759     5.0621   243.4409  -999.2500
  214.0000   -34.9850     4.1745     5.1514   231.4428  -999.2500
  214.5000   -34.9905     4.2487     5.3755   228.4452  -999.2500
  215.0000   -35.1351     4.3975     5.2954   224.7003  -999.2500
  215.5000   -35.1351     4.7083     4.7742   214.9477  -999.2500
  216.0000   -35.1351     5.3732     5.9579   197.3688  -999.2500
  216.5000   -35.4354     5.6734     7.3365   178.9277  -999.2500
