~VERSION INFORMATION
 VERS.                2.0:   CWLS LOG ASCII STANDARD - VERSION 2.0
 WRAP.                 NO:   ONE LINE PER DEPTH STEP
~WELL INFORMATION
#MNEM.UNIT      DATA TYPE    INFORMATION
#----------   ------------   ------------------------------
 STRT.F            0.0000:   START DEPTH
 STOP.F          586.0000:   STOP DEPTH
 STEP.F            0.5000:   STEP LENGTH
 NULL.          -999.2500:   NO VALUE
 COMP. Fluor Daniel (NPOSR) Inc:   COMPANY
 WELL.    NPR 3 #52-6-X-3:   WELL
 FLD .             TEAPOT:   FIELD
 LOC .       S3 T38N R78W:   LOCATION
 CNTY.            NATRONA:   COUNTY
 STAT.            WYOMING:   STATE
 CTRY. UNITED STATES OF AMERICA:   COUNTRY
 SRVC.      Western Atlas:   SERVICE COMPANY
 DATE.        17-APR-1996:   LOGDATE
 API .       490252277700:   API NUMBER
~CURVE INFORMATION
#MNEM.UNIT       API CODE    CURVE DESCRIPTION
#----------   ------------   ------------------------------
 DEPT.F                  :   
 GRR .GAPI   07 310 01 00:   GAMMA RAY FROM RES. LOG.
 RILD.OHMM   07 120 46 00:   INDUCTION LOG DEEP RESISTIVITY
 RILM.OHMM   07 120 44 00:   INDUCTION LOG MEDIUM
~PARAMETER INFORMATION
#MNEM.UNIT          VALUE    DESCRIPTION
#----------   ------------   ------------------------------
 PD  .                 GL:   PERMANENT DATUM
 EPD .F              5070:   ELEVATION PERMANENT DATUM
 LMF .                 KB:   LOG MEASURED FROM
 DAPD.F                10:   FEET ABOVE PERMANENT DATUM
 DMF .                 KB:   DRILLING MEASURED FROM
 EKB .F              5080:   KELLING BUSHING
 EDF .F              5079:   DRILLING FLOOR
 EGL .F              5070:   GROUND LEVEL
 DATE.            4-17-96:   RUN DATE
 RUN .                  1:   RUN NUMBER
 DD  .F               594:   DEPTH DRILLER
 DL  .F               594:   DEPTH LOGGER
 BLI .F               586:   BOTTOM LOG INTERVAL
 CS  .IN            9.625:   CASING SIZE
 CBD .F                58:   CASING BOTTOM DRILLER
 CBL .F                59:   CASING BOTTOM LOGGER
 BS  .IN             8.75:   BIT SIZE
 BSD .F               594:   BIT SIZE AT DEPTH
 DFT .                AIR:   DRILLING FLUID TYPE
 MRT .F                86:   MAXIMUM RECORDED TEMPERATURE
 LUN .            HL-6530:   LOGGING UNIT NUMBER
 LUL .             CASPER:   LOGGING UNIT LOCATION
 ENGI.             RAUTIO:   RECORDING ENGINEER
 WITN.              HARDY:   WITNESSED BY
 CLNT.            A2DTECH:   CLIENT CODE
 ORIG.       2", 5" PRINT:   ORIGIN OF DATA
 UWI .       490252277700:   UNIQUE WELL ID
 DICO. A2D Technologies, Inc.:   DIGITIZING COMPANY
~OTHER INFORMATION
~A    DEPT      GRR      RILD       RILM   
# ...
  455.0000   147.1702     6.0866     5.9059
  455.5000   139.8994     6.1175     6.4797
  456.0000   129.3627     6.2930     7.1146
  456.5000   121.0869     6.6395     7.8327
  457.0000   115.8307     7.3545     8.6232
  457.5000   111.7464     8.3605     9.4917
  458.0000   108.7057     9.3760    10.1702
  458.5000   107.3211     9.9434    10.6443
  459.0000   110.1304    10.3361    10.6422
  459.5000   113.8687    10.5054    10.8403
  460.0000   113.4369    10.6776    10.9613
  460.5000   112.8583    10.8525    11.0827
  461.0000   114.5449    11.0303    11.2094
  461.5000   116.6539    11.2111    11.4672
  462.0000   115.6000    11.3947    11.7157
  462.5000   113.0413    11.5814    11.9667
  463.0000   111.9721    11.7712    12.2231
  463.5000   114.1926    11.9641    12.4852
  464.0000   113.7197    12.1601    12.7528
  464.5000   112.0091    12.3593    13.0326
  465.0000   111.6147    12.5618    13.2186
  465.5000   114.5545    12.7676    13.3978
  466.0000   118.7519    12.8483    13.3979
  466.5000   117.2375    12.9102    13.3977
  467.0000   113.2419    12.9725    13.4941
  467.5000   109.7342    13.0350    13.5958
  468.0000   111.3298    13.0975    13.6983
  468.5000   113.5172    13.1578    13.8016
  469.0000   113.9309    13.1905    13.9057
  469.5000   113.2050    13.2239    14.0105
  470.0000   112.4363    13.2573    14.0291
  470.5000   111.6316    13.2746    13.9272
  471.0000   110.1193    13.2750    13.8569
  471.5000   108.3354    13.2744    13.7869
  472.0000   109.8920    13.2539    13.7173
  472.5000   112.4888    13.2326    13.6481
  473.0000   113.1061    13.2114    13.5792
  473.5000   112.0353    13.1901    13.5217
  474.0000   112.1936    13.1695    13.5614
  474.5000   113.1675    13.1338    13.5958
  475.0000   114.1532    13.0551    13.6468
  475.5000   114.7623    12.9769    13.5639
  476.0000   112.0910    12.8991    13.4062
  476.5000   108.8270    12.8218    13.2503
  477.0000   108.5094    12.6736    13.0962
  477.5000   111.0162    12.4888    12.9440
  478.0000   113.5178    12.3066    12.7935
  478.5000   115.1946    12.1271    12.6456
  479.0000   116.8127    11.9503    12.4699
  479.5000   116.7525    11.7760    12.2640
  480.0000   115.3120    11.6043    12.0603
  480.5000   114.5533    11.4627    11.8604
  481.0000   114.9757    11.3306    11.6689
  481.5000   114.7922    11.2007    11.5971
  482.0000   113.8202    11.0722    11.5276
  482.5000   113.2275    10.9452    11.4559
  483.0000   114.1220    10.8196    11.2807
  483.5000   116.4949    10.6955    11.1014
  484.0000   118.3953    10.5728    10.9249
  484.5000   119.4969    10.4515    10.7406
  485.0000   118.1386    10.3510    10.6335
  485.5000   118.3141    10.2714    10.5449
  486.0000   119.4396    10.1888    10.6332
  486.5000   120.2995    10.0700    10.7057
  487.0000   120.0540    10.0808    10.7413
  487.5000   120.5997    10.1010    10.7408
  488.0000   121.1913    10.1212    10.7402
  488.5000   121.0847    10.1413    10.7421
  489.0000   118.6366    10.1623    10.6024
  489.5000   117.3319    10.1324    10.4750
  490.0000   118.3524    10.1004    10.3497
  490.5000   121.8006    10.0700    10.2261
  491.0000   125.5420     9.8620    10.1039
  491.5000   127.7060     9.6699     9.9832
  492.0000   128.0524     9.4816     9.8639
  492.5000   126.7458     9.2969     9.7461
  493.0000   122.2750     9.2543     9.7058
  493.5000   114.7476     9.2321     9.7973
  494.0000   108.1144     9.2100     9.8862
  494.5000   102.9025     9.1878     9.7205
  495.0000    99.4593     9.0105     9.4460
  495.5000    98.3501     8.8043     9.1798
  496.0000   100.6632     8.6028     8.9220
  496.5000   103.9292     8.4060     8.6714
  497.0000   105.4736     8.2136     8.4278
  497.5000   107.9214     8.1458     8.2991
  498.0000   110.9358     8.2552     8.4831
  498.5000   110.2679     8.4175     8.6115
  499.0000   107.2355     8.5808     8.8161
  499.5000   105.7267     8.8431     9.1417
  500.0000   107.1877     9.1352     9.4805
  500.5000   108.7307     9.4370     9.8317
  501.0000   107.8479     9.7487    10.1956
  501.5000   106.8759    10.0708    10.5731
  502.0000   106.8165    10.3376    10.8400
  502.5000   105.5971    10.5246    11.0415
  503.0000   104.2019    10.7149    11.1657
  503.5000   103.4285    10.8400    11.1972
  504.0000   103.1160    10.8400    11.2287
  504.5000   102.7927    10.8400    11.2468
  505.0000   103.6773    10.8400    11.1269
  505.5000   105.1260    10.8189    11.0415
  506.0000   107.4685    10.7501    10.9810
  506.5000   109.0023    10.6818    10.9155
  507.0000   109.2739    10.6140    10.8505
  507.5000   108.4523    10.5465    10.7859
  508.0000   104.8469    10.4525    10.7406
  508.5000   101.1587    10.5669    10.9426
  509.0000    99.8592    10.6535    11.1287
  509.5000    98.9818    10.7347    11.3181
  510.0000    98.6283    10.8169    11.3505
  510.5000   101.5929    10.9403    10.9960
  511.0000   104.7339    10.8669    10.7206
  511.5000   106.4960    10.7262    10.4516
  512.0000   105.5439    10.5084    10.1895
  512.5000   103.6163    10.1788     9.9340
  513.0000   101.6151     9.8601     9.7058
  513.5000   100.9606     9.5504     9.2686
  514.0000   101.8119     9.1467     8.8830
  514.5000   101.6976     8.5738     8.5136
  515.0000   103.0777     8.0380     8.1587
  515.5000   106.0494     7.5357     7.8244
  516.0000   108.9990     6.7723     7.2976
  516.5000   111.4792     5.8289     6.2342
  517.0000   112.6642     5.0255     5.2544
  517.5000   111.8574     4.4101     4.4286
  518.0000   109.2818     3.7208     3.7326
  518.5000   104.5539     3.4088     3.0976
  519.0000   101.1155     3.2276     2.9757
  519.5000    99.9904     3.1701     2.9020
  520.0000    98.2585     3.1552     2.9020
  520.5000    94.3866     3.2924     3.3970
  521.0000    91.9881     3.4663     3.7976
  521.5000    89.9106     3.7206     4.2870
  522.0000    89.3718     4.1877     4.8840
  522.5000    92.1352     4.8756     5.5640
  523.0000    94.2624     5.6765     6.3418
  523.5000    93.7447     6.6090     7.1283
  524.0000    93.6697     7.7809     7.7603
  524.5000    96.3846     8.1034     8.4452
  525.0000    99.3433     8.4664     8.6264
  525.5000    99.9926     8.7111     8.6470
  526.0000    97.8469     8.8748     8.6677
  526.5000    97.9867     9.0425     8.6902
  527.0000    99.9087     9.2125     8.7093
  527.5000   101.8502     9.3541     8.7301
  528.0000   102.2251     9.2704     8.7510
  528.5000   101.1984     9.2000     8.7706
  529.0000   100.7909     9.1297     8.9265
  529.5000   100.9474     9.0595     8.8557
  530.0000   101.3360     9.0166     8.7854
  530.5000   101.7216     9.0474     8.6902
  531.0000   102.1031     9.0702     8.7231
  531.5000   102.4920     9.1000     8.7706
  532.0000   103.2439     8.9580     8.5822
  532.5000   105.4033     8.7594     8.4129
  533.0000   107.5142     8.5669     8.2470
  533.5000   108.1080     8.3898     8.0834
  534.0000   108.3449     8.2991     7.9968
  534.5000   109.5339     8.4264     8.0903
  535.0000   107.9633     8.5277     8.2276
  535.5000   104.4911     8.6302     8.3656
  536.0000   103.3241     8.7339     8.5058
  536.5000   104.6132     8.7706     8.6109
  537.0000   104.1412     8.7706     8.5646
  537.5000   102.1946     8.7706     8.5214
  538.0000   100.6730     8.7327     8.4785
  538.5000   103.1636     8.6662     8.4258
  539.0000   105.6816     8.6001     8.3589
  539.5000   107.8020     8.5346     8.2926
  540.0000   107.5892     8.4696     8.2230
  540.5000   107.0009     8.2574     8.0613
  541.0000   106.4002     7.9407     7.8298
  541.5000   105.8202     7.6361     7.4233
  542.0000   106.6264     7.3432     7.0378
  542.5000   108.9730     7.0878     6.6724
  543.0000   110.9154     7.0203     6.3260
  543.5000   112.8403     6.9535     6.1239
  544.0000   113.5046     6.8874     6.3726
  544.5000   112.8372     6.8396     6.5400
  545.0000   112.1856     6.8750     6.7107
  545.5000   110.8580     6.9520     6.8860
