~VERSION INFORMATION
 VERS.                2.0:   CWLS LOG ASCII STANDARD - VERSION 2.0
 WRAP.                 NO:   ONE LINE PER DEPTH STEP
~WELL INFORMATION
#MNEM.UNIT      DATA TYPE    INFORMATION
#----------   ------------   ------------------------------
 STRT.F           28.0000:   START DEPTH
 STOP.F          791.0000:   STOP DEPTH
 STEP.F            0.5000:   STEP LENGTH
 NULL.          -999.2500:   NO VALUE
 COMP. LAWRENCE/ALLISON INC:   COMPANY
 WELL.    34-61 SX #11-11:   WELL
 FLD .             TEAPOT:   FIELD
 LOC .      S11 T38N R78W:   LOCATION
 CNTY.            NATRONA:   COUNTY
 STAT.            WYOMING:   STATE
 CTRY. UNITED STATES OF AMERICA:   COUNTRY
 SRVC.           Gearhart:   SERVICE COMPANY
 DATE.        29-JUL-1987:   LOGDATE
 API .       490251112500:   API NUMBER
~CURVE INFORMATION
#MNEM.UNIT       API CODE    CURVE DESCRIPTION
#----------   ------------   ------------------------------
 DEPT.F                  :   
 GRR .GAPI   07 310 01 00:   GAMMA RAY FROM RESISTIVITY
 RILD.OHMM   07 120 46 00:   RESISTIVITY INDUCTION LOG DEEP
 RILM.OHMM   07 120 44 00:   RESISTIVITY INDUCTION LOG MEDIUM
 RLL .OHMM   07 220 00 00:   RESISTIVITY LATEROLOG
~PARAMETER INFORMATION
#MNEM.UNIT          VALUE    DESCRIPTION
#----------   ------------   ------------------------------
 PD  .                 GL:   PERMANENT DATUM
 EPD .F              5172:   ELEVATION PERMANENT DATUM
 LMF .                 KB:   LOG MEASURED FROM
 DAPD.F                 7:   FEET ABOVE PERMANENT DATUM
 DMF .                 KB:   DRILLING MEASURED FROM
 EKB .F              5180:   KELLING BUSHING
 EDF .F              5178:   DRILLING FLOOR
 EGL .F              5172:   GROUND LEVEL
 DATE.        29-JUL-1987:   RUN DATE
 RUN .                  1:   RUN NUMBER
 DD  .F               793:   DEPTH DRILLER
 DL  .F               792:   DEPTH LOGGER
 BLI .F               791:   BOTTOM LOG INTERVAL
 TLI .F                30:   TOP LOG INTERVAL
 CS  .IN            8.625:   CASING SIZE
 CBL .F                50:   CASING BOTTOM LOGGER
 BS  .IN            7.875:   BIT SIZE
 BSD .F               793:   BIT SIZE AT DEPTH
 DFT .                MUD:   DRILLING FLUID TYPE
 DFD .                0.5:   DRILLING FLUID DENSITY
 MSS .           FLOWLINE:   MUD SAMPLE SOURCE
 RMS .OHMM           1.92:   RESISTIVITY MUD SAMPLE
 MST .F                71:   MUD SAMPLE TEMPERATURE
 RMF .OHMM            1.4:   RESISTIVITY MUD FILTRATE SAMPLE
 MFST.F                72:   MUD FILTRATE SAMPLE TEMPERATURE
 RMC .OHMM            2.2:   RESISTIVITY MUD CAKE
 MCST.F                72:   MUD CAKE SAMPLE TEMPERATURE
 MFSS.              CHART:   MUD FILTRATE SAMPLE SOURCE
 MCSS.              CHART:   MUD CAKE SAMPLE SOURCE
 TCS .HRS            2200:   TIME CURCULATED STOPPED
 MRT .F                60:   MAXIMUM RECORDED TEMPERATURE
 LUN .               7397:   LOGGING UNIT NUMBER
 LUL .           GILLETTE:   LOGGING UNIT LOCATION
 ENGI.         WEATHERMON:   RECORDING ENGINEER
 WITN.             STRONG:   WITNESSED BY
 CLNT.            A2DTECH:   CLIENT CODE
 ORIG.           5" PRINT:   ORIGIN OF DATA
 UWI .       490251112500:   UNIQUE WELL ID
 DICO. A2D Technologies, Inc.:   DIGITIZING COMPANY
~OTHER INFORMATION
~A   DEPT      GRR       RILD       RILM        RLL   
# ...
  393.0000    74.6891    10.7427    10.7653    10.8088
  393.5000    76.4918    10.7412    10.6980    10.7309
  394.0000    76.7954    10.7397    10.6210    10.6536
  394.5000    77.4041    10.6625    10.6195    10.5768
  395.0000    78.6236    10.5857    10.6181    10.5006
  395.5000    80.1497    10.5843    10.6166    10.4991
  396.0000    80.4526    10.5078    10.5401    10.3494
  396.5000    78.0025    10.4322    10.4639    10.2748
  397.0000    76.4705    10.4307    10.3886    10.2008
  397.5000    75.8559    10.3557    10.3138    10.1994
  398.0000    75.5472    10.2812    10.2395    10.1259
  398.5000    75.2384    10.1351    10.0939    10.0529
  399.0000    75.2355    10.0622    10.0199     9.9772
  399.5000    76.1492     9.9189     9.8785     9.9082
  400.0000    78.8996     9.8404     9.8009     9.7580
  400.5000    79.2113     9.7477     9.7163     9.6391
  401.0000    79.5230     9.6549     9.6316     9.5203
  401.5000    80.4822     9.5622     9.5470     9.4820
  402.0000    78.9246     9.4695     9.5277     9.4700
  402.5000    76.4840     9.3645     9.5264     9.4580
  403.0000    74.3493     9.3632     9.5251     9.4460
  403.5000    73.1319     9.3619     9.5238     9.4340
  404.0000    73.1378     9.2946     9.5225     9.4220
  404.5000    73.7605     9.2933     9.5212     9.4099
  405.0000    74.0673     9.2917     9.4414     9.3979
  405.5000    74.3802     9.2249     9.3842     9.3859
  406.0000    75.3035     9.2236     9.3166     9.3739
  406.5000    76.2269     9.2224     9.3154     9.3619
  407.0000    76.8444     9.2211     9.3141     9.3498
  407.5000    76.5443     9.2198     9.3128     9.3404
  408.0000    76.5708     9.2183     9.3115     9.3389
  408.5000    77.7810     9.2170     9.3100     9.3376
  409.0000    78.3985     9.1507     9.2429     9.2703
  409.5000    79.6276     9.0207     9.1115     9.1384
  410.0000    80.2451     8.7675     8.9185     8.9447
  410.5000    81.1685     8.5760     8.5459     8.6317
  411.0000    82.0918     8.2818     8.2471     8.3823
  411.5000    83.3209     7.9925     8.0658     7.9812
  412.0000    82.1051     7.7681     7.8454     7.7568
  412.5000    81.1935     7.4967     7.6792     7.5387
  413.0000    79.9762     7.4428     7.5701     7.4843
  413.5000    79.0646     7.4947     7.5690     7.4833
  414.0000    77.5415     7.4934     7.6218     7.5892
  414.5000    75.0907     7.5996     7.6208     7.6964
  415.0000    74.8010     7.7067     7.7377     7.7504
  415.5000    77.5606     7.7607     7.8379     7.8601
  416.0000    79.4014     7.8146     7.9485     7.8588
  416.5000    80.0189     7.8722     7.9474     7.9137
  417.0000    80.3306     7.9803     8.0031     7.9689
  417.5000    80.0306     8.0359     8.0587     8.0246
  418.0000    80.0367     8.0920     8.1149     8.0806
  418.5000    79.7367     8.1484     8.1715     8.1370
  419.0000    79.4368     8.2633     8.2285     8.2522
  419.5000    79.4441     8.2621     8.2860     8.3098
  420.0000    79.4500     8.3197     8.3438     8.4272
  420.5000    79.7617     8.3778     8.4020     8.4860
  421.0000    80.3792     8.4962     8.5205     8.5450
  421.5000    81.3384     8.5554     8.5193     8.5438
  422.0000    83.4506     8.5539     8.5788     8.5427
  422.5000    84.9856     8.5528     8.6384     8.5415
  423.0000    87.4379     8.6124     8.6372     8.6012
  423.5000    90.5019     8.6109     8.6360     8.6000
  424.0000    92.6485     8.6098     8.6349     8.5377
  424.5000    88.3580     8.4875     8.6327     8.5365
  425.0000    85.8818     8.4264     8.5109     8.4151
  425.5000    85.0209     8.3658     8.4494     8.3545
  426.0000    85.9457     8.3646     8.3885     8.3533
  426.5000    89.0097     8.4230     8.4473     8.4117
  427.0000    84.1227     8.4817     8.5063     8.5307
  427.5000    79.5414     8.6016     8.6877     8.6515
  428.0000    75.8369     8.7228     8.8106     8.8361
  428.5000    74.9660     8.7217     8.8720     8.8981
  429.0000    75.5850     8.6589     8.7456     8.8337
  429.5000    76.2026     8.5963     8.6826     8.6464
  430.0000    76.8201     8.5345     8.6201     8.5234
  430.5000    77.4376     8.4731     8.4976     8.4019
  431.0000    78.3609     8.4719     8.4964     8.4008
  431.5000    79.3200     8.4707     8.4952     8.3402
  432.0000    82.3497     8.4098     8.4338     8.2801
  432.5000    84.1905     8.3490     8.3731     8.2790
  433.0000    83.2789     8.2889     8.3719     8.2189
  433.5000    80.8383     8.2293     8.3116     8.1600
  434.0000    78.7036     8.2282     8.2518     8.1010
  434.5000    78.0978     8.1113     8.1924     8.0426
  435.0000    78.4098     8.0472     8.1333     8.0415
  435.5000    79.0285     7.9383     8.0175     7.9836
  436.0000    79.9519     7.8255     7.9597     7.9261
  436.5000    81.1810     7.7144     7.8466     7.8133
  437.0000    82.4101     7.6048     7.7901     7.7019
  437.5000    81.8044     7.4968     7.5712     7.5923
  438.0000    82.4220     7.3340     7.4074     7.4314
  438.5000    83.3467     7.0815     7.1010     7.2224
  439.0000    84.8817     6.8827     6.8043     6.8715
  439.5000    85.8050     6.5954     6.5664     6.5802
  440.0000    85.1993     6.4102     6.3819     6.2198
  440.5000    83.9819     6.2302     6.3360     6.2189
  441.0000    84.2936     6.2294     6.3802     6.3971
  441.5000    84.9470     6.4074     6.5218     6.5804
  442.0000    85.5301     6.6847     6.7985     6.8171
  442.5000    84.3128     6.9248     7.0429     7.0624
  443.0000    82.4838     7.1229     7.2445     7.1694
  443.5000    81.2665     7.2236     7.3472     7.3152
  444.0000    82.1898     7.3277     7.5039     7.4187
  444.5000    84.0357     7.4292     7.5571     7.5237
  445.0000    85.0051     7.5339     7.6721     7.5765
  445.5000    85.2671     7.5329     7.7712     7.6292
  446.0000    84.9657     7.5319     7.7701     7.6281
  446.5000    83.4440     7.5308     7.7691     7.6268
  447.0000    83.7557     7.5298     7.7131     7.5719
  447.5000    84.9848     7.4754     7.6576     7.5708
  448.0000    86.2345     7.4744     7.5487     7.5698
  448.5000    86.8330     7.4206     7.4941     7.5152
  449.0000    85.9214     7.3672     7.3876     7.4600
  449.5000    84.3983     7.3142     7.2826     7.3547
  450.0000    82.5688     7.2103     7.2199     7.3019
  450.5000    81.6514     7.0083     7.1267     7.2492
  451.0000    82.5688     6.8601     6.9753     7.2482
  451.5000    83.7920     6.6682     6.7789     7.1957
  452.0000    84.7135     6.4357     6.6330     7.2462
  452.5000    85.6269     6.1674     6.3120     7.1937
  453.0000    86.8502     5.9103     6.0051     7.0413
  453.5000    87.1560     5.5843     5.6327     6.7469
  454.0000    86.8502     5.3495     5.3970     6.3725
  454.5000    85.0153     5.1284     5.1347     6.0209
  455.0000    81.6208     5.1280     5.0256     5.8102
  455.5000    78.5933     5.1642     5.0961     5.7684
  456.0000    78.2875     5.2747     5.2416     5.8917
  456.5000    79.5107     5.4259     5.4683     6.1909
  457.0000    81.0398     5.5834     5.7454     6.5559
  457.5000    82.8746     5.8234     6.0365     6.8354
  458.0000    84.4037     6.0759     6.3047     6.9321
  458.5000    85.0153     6.3844     6.6163     7.0303
  459.0000    84.0979     6.6612     6.8052     7.0796
  459.5000    83.4862     6.9009     6.9501     7.1796
  460.0000    84.0979     7.0520     7.0981     7.2846
  460.5000    85.0153     7.3022     7.2515     7.4368
  461.0000    85.0153     7.4586     7.4032     7.5955
  461.5000    84.0979     7.5645     7.5608     7.7579
  462.0000    82.5688     7.6721     7.6676     7.8677
  462.5000    79.8165     7.7809     7.8862     7.9791
  463.0000    78.8991     7.8962     7.9972     8.0398
  463.5000    81.3456     8.0035     8.1098     8.1485
  464.0000    83.8492     8.1171     8.1077     8.1472
  464.5000    85.9327     8.1743     8.1637     8.2043
  465.0000    86.2385     8.1736     8.1621     8.2029
  465.5000    83.7920     8.2312     8.1604     8.2018
