~VERSION INFORMATION
 VERS.                2.0:   CWLS LOG ASCII STANDARD - VERSION 2.0
 WRAP.                 NO:   ONE LINE PER DEPTH STEP
~WELL INFORMATION
#MNEM.UNIT      DATA TYPE    INFORMATION
#----------   ------------   ------------------------------
 STRT.F           23.0000:   START DEPTH
 STOP.F         1106.0000:   STOP DEPTH
 STEP.F            0.5000:   STEP LENGTH
 NULL.          -999.2500:   NO VALUE
 COMP. FENIX & SCISSON INC:   COMPANY
 WELL.       NPR-3 #67-11:   WELL
 FLD . TEAPOT DOME NPR #3:   FIELD
 LOC .      S11 T38N R78W:   LOCATION
 CNTY.            NATRONA:   COUNTY
 STAT.            WYOMING:   STATE
 CTRY. UNITED STATES OF AMERICA:   COUNTRY
 SRVC.            Unknown:   SERVICE COMPANY
 DATE.        06-MAR-1978:   LOGDATE
 API .       490251059100:   API NUMBER
~CURVE INFORMATION
#MNEM.UNIT       API CODE    CURVE DESCRIPTION
#----------   ------------   ------------------------------
 DEPT.F                  :   
 ILD .OHMM   05 120 46 00:   INDUCTION LOG DEEP
 SN  .OHMM   05 040 16 00:   SHORT NORMAL 16"
 SPR .MV     05 010 01 00:   SPONTANEOUS POTENTIAL FROM RES.
 CALD.IN     45 280 60 00:   CALIPER
 GRD .GAPI   45 310 01 00:   GAMMA RAY FROM DENSITY LOG
 CORR.G/C3   45 356 01 00:   DENSITY CORRECTION
 DPHI.DEC    45 890 12 00:   DENSITY POROSITY SANDSTONE
 RHOB.G/C3   45 350 01 00:   BULK DENSITY
~PARAMETER INFORMATION
#MNEM.UNIT          VALUE    DESCRIPTION
#----------   ------------   ------------------------------
 PD  .                 GL:   PERMANENT DATUM
 EPD .F              5243:   ELEVATION PERMANENT DATUM
 LMF .                 KB:   LOG MEASURED FROM
 DAPD.F                 4:   FEET ABOVE PERMANENT DATUM
 DMF .                 KB:   DRILLING MEASURED FROM
 EKB .F              5247:   KELLING BUSHING
 EGL .F              5243:   GROUND LEVEL
 DATE.           3-6-1978:   RUN DATE
 RUN .                  1:   RUN NUMBER
 DD  .F              1104:   DEPTH DRILLER
 DL  .F              1108:   DEPTH LOGGER
 BLI .F              1102:   BOTTOM LOG INTERVAL
 TLI .F                40:   TOP LOG INTERVAL
 CS  .IN            8.625:   CASING SIZE
 CBD .F                40:   CASING BOTTOM DRILLER
 CBL .F                40:   CASING BOTTOM LOGGER
 BS  .IN            7.875:   BIT SIZE
 BSD .F              1104:   BIT SIZE AT DEPTH
 DFT .         LIGNO/SULF:   DRILLING FLUID TYPE
 DFD .                8.6:   DRILLING FLUID DENSITY
 DFV .                 31:   DRILLING FLUID VISCOSITY
 DFL .                  8:   DRILLING FLUID LOSS
 MSS .            MUD PIT:   MUD SAMPLE SOURCE
 RMS .OHMM              2:   RESISTIVITY MUD SAMPLE
 MST .F                58:   MUD SAMPLE TEMPERATURE
 RMF .OHMM            1.2:   RESISTIVITY MUD FILTRATE SAMPLE
 MFST.F                64:   MUD FILTRATE SAMPLE TEMPERATURE
 RMC .OHMM              3:   RESISTIVITY MUD CAKE
 MCST.F                64:   MUD CAKE SAMPLE TEMPERATURE
 MFSS.               MEAS:   MUD FILTRATE SAMPLE SOURCE
 RMB .OHMM            1.5:   RESISTIVITY MUD AT BHT
 BHT .F                78:   BOTTOM HOLE TEMPERATURE
 TCS .HRS               4:   TIME CURCULATED STOPPED
 MRT .F                78:   MAXIMUM RECORDED TEMPERATURE
 LUN .               2959:   LOGGING UNIT NUMBER
 LUL .               CASP:   LOGGING UNIT LOCATION
 ENGI.             MILLER:   RECORDING ENGINEER
 WITN.           MCGINLEY:   WITNESSED BY
 CLNT.            A2DTECH:   CLIENT CODE
 ORIG.       2", 5" PRINT:   ORIGIN OF DATA
 UWI .       490251059100:   UNIQUE WELL ID
 DICO. A2D Technologies, Inc.:   DIGITIZING COMPANY
~OTHER INFORMATION
~A   DEPT      ILD         SN        SPR       CALD         GRD      CORR       DPHI       RHOB   
# ...
  873.5000     5.9157     7.1071   -25.2273     7.5996   104.8560     0.0321     0.1259     2.4510
  874.0000     5.9110     7.1069   -25.3382     7.5996   103.6921     0.0342     0.1241     2.4591
  874.5000     5.8927     7.1065   -25.6673     7.5996   101.7768     0.0339     0.1228     2.4645
  875.0000     5.8439     7.1074   -25.9925     7.5996    99.9222     0.0321     0.1238     2.4577
  875.5000     5.7954     7.1069   -26.1340     7.5996   100.5131     0.0316     0.1247     2.4525
  876.0000     5.7473     6.9893   -26.0647     7.5996   101.8464     0.0346     0.1257     2.4575
  876.5000     5.6996     6.8834   -26.5187     7.5996   103.0517     0.0358     0.1266     2.4623
  877.0000     5.5506     6.7651   -26.0597     7.5996   103.4178     0.0288     0.1276     2.4595
  877.5000     5.3631     6.6417   -25.3634     7.5996   103.7780     0.0217     0.1296     2.4488
  878.0000     5.1913     6.4228   -25.1102     7.5996   106.4076     0.0170     0.1318     2.4459
  878.5000     5.1786     6.1618   -25.0125     7.5996   109.7945     0.0197     0.1296     2.4448
  879.0000     5.1638     6.0078   -25.1130     7.5996   111.8596     0.0271     0.1273     2.4561
  879.5000     5.1491     5.9564   -25.1245     7.5996   111.9582     0.0323     0.1250     2.4633
  880.0000     5.1139     5.9080   -24.8052     7.5996   111.8271     0.0271     0.1309     2.4541
  880.5000     4.9782     5.9232   -24.8058     7.5996   107.6439     0.0226     0.1378     2.4444
  881.0000     4.8457     5.9479   -24.9282     7.5996   106.0770     0.0212     0.1456     2.4339
  881.5000     4.5698     5.9652   -25.4287     7.5996   106.4855     0.0196     0.1547     2.4192
  882.0000     4.2481     5.6414   -25.7038     7.5996   105.9758     0.0215     0.1638     2.4044
  882.5000     4.1207     5.2211   -25.2488     7.5996   105.0327     0.0257     0.1766     2.3897
  883.0000     4.1207     4.8214   -25.0422     7.5996   105.9522     0.0300     0.1557     2.3757
  883.5000     4.1207     4.7771   -25.1298     7.5996   108.5024     0.0464     0.1239     2.3698
  884.0000     4.1207     4.8214   -25.1131     7.5996   109.2367     0.0828     0.1175     2.4208
  884.5000     4.1207     4.9406   -24.6760     7.5991   103.1738     0.0475     0.1109     2.4497
  885.0000     4.1207     5.0494   -24.6619     7.5962   101.5099     0.0158     0.1098     2.4599
  885.5000     4.3434     5.5202   -24.7388     7.5935   104.5940     0.0152     0.1105     2.4678
  886.0000     4.6792     6.1517   -24.9501     7.5907   106.9564     0.0154     0.1112     2.4771
  886.5000     5.0409     6.5463   -25.7745     7.5880   105.3455     0.0157     0.1119     2.4763
  887.0000     5.3867     6.5663   -26.0400     7.5852   102.7474     0.0159     0.1125     2.4750
  887.5000     5.5894     6.5864   -26.2827     7.5824   102.8760     0.0161     0.1130     2.4736
  888.0000     5.6413     6.6006   -26.4038     7.5797   102.6463     0.0163     0.1168     2.4722
  888.5000     5.3186     6.4972   -25.6323     7.5766    98.1840     0.0166     0.1208     2.4699
  889.0000     5.0395     6.3500   -25.5921     7.5736    93.1636     0.0168     0.1248     2.4675
  889.5000     4.7750     6.2062   -25.5961     7.5705    92.7395     0.0164     0.1288     2.4599
  890.0000     4.4573     5.8546   -25.5962     7.5674    98.8148     0.0209     0.1350     2.4489
  890.5000     4.2758     5.3013   -25.4240     7.5644   106.5168     0.0286     0.1456     2.4320
  891.0000     4.2758     4.8003   -25.0758     7.5613   108.2391     0.0369     0.1507     2.4168
  891.5000     4.2758     4.3466   -24.7265     7.5582   107.1227     0.0516     0.1303     2.4337
  892.0000     4.2758     4.1589   -24.4152     7.5552    99.7746     0.0635     0.1254     2.4545
  892.5000     4.3165     4.6493   -24.6189     7.5521    97.6576     0.0347     0.1203     2.4731
  893.0000     4.3556     5.2027   -24.8300     7.5490   100.0599     0.0150     0.1152     2.4730
  893.5000     4.3960     5.6795   -25.0372     7.5459   102.2972     0.0150     0.1135     2.4733
  894.0000     4.7654     6.1808   -25.2257     7.5429   102.7623     0.0150     0.1131     2.4751
  894.5000     5.1497     6.7264   -25.3262     7.5398    94.6370     0.0136     0.1109     2.4804
  895.0000     5.5521     7.0156   -25.4294     7.5367    96.2563     0.0111     0.1081     2.4857
  895.5000     5.9276     7.2332   -25.5311     7.5337    98.6153     0.0112     0.1050     2.4908
  896.0000     6.3249     7.4576   -25.6059     7.5306   101.0086     0.0117     0.1083     2.4932
  896.5000     6.4480     7.6889   -25.9220     7.5276   102.5400     0.0122     0.1118     2.4885
  897.0000     6.4924     7.9274   -26.0489     7.5245    98.0905     0.0127     0.1151     2.4837
  897.5000     6.5371     8.0895   -26.1218     7.5215    91.6540     0.0150     0.1156     2.4764
  898.0000     6.5834     8.0990   -26.1928     7.5028    90.7732     0.0190     0.1183     2.4685
  898.5000     6.6300     8.1085   -26.1960     7.4695    99.6775     0.0251     0.1232     2.4616
  899.0000     6.6619     8.1180   -26.1950     7.4002   101.8769     0.0332     0.1286     2.4545
  899.5000     6.6516     8.1275   -26.1948     7.3165    98.7222     0.0413     0.1420     2.4436
  900.0000     6.6439     8.1370   -26.2038     7.2336    94.2824     0.0539     0.1461     2.4224
  900.5000     6.6361     8.1466   -25.6863     7.2407    89.6425     0.0780     0.1291     2.4584
  901.0000     6.6284     8.1561   -25.8107     7.3374    87.7212     0.1017     0.1168     2.4660
  901.5000     6.6206     8.1634   -25.9178     7.4452    90.1663     0.1232     0.1147     2.5388
  902.0000     6.6127     8.1632   -25.5572     7.5576    93.7969     0.0931     0.1125     2.5171
  902.5000     6.6008     8.1632   -25.2107     7.5612    95.0677     0.0357     0.1105     2.4881
  903.0000     6.6251     8.1632   -25.0017     7.5618    95.6602     0.0284     0.1094     2.4880
  903.5000     6.6858     8.1632   -25.0012     7.5629    95.9582     0.0285     0.1095     2.4873
  904.0000     6.7469     8.1634   -24.9997     7.5641    96.2661     0.0283     0.1096     2.4867
  904.5000     6.8720     8.1632   -24.9998     7.5654    96.4999     0.0280     0.1097     2.4860
  905.0000     7.1150     8.1632   -25.0000     7.5666    95.8882     0.0277     0.1099     2.4849
  905.5000     7.3667     8.1632   -25.0000     7.5679    90.8787     0.0274     0.1183     2.4797
  906.0000     7.6521     7.9873   -25.0000     7.5691    86.5951     0.0271     0.1261     2.4700
  906.5000     7.4192     7.6572   -25.0000     7.5704    88.0352     0.0266     0.1346     2.4605
  907.0000     6.9991     7.3408   -25.0000     7.5716    89.4810     0.0260     0.1430     2.4434
  907.5000     6.1848     6.6791   -25.0000     7.5729    91.6483     0.0255     0.1631     2.4251
  908.0000     5.5062     5.9231   -25.0002     7.5741    94.3902     0.0248     0.1854     2.3961
  908.5000     4.7383     5.2522   -24.9998     7.5754    96.3090     0.0303     0.2076     2.3574
  909.0000     4.4767     5.0949   -24.9943     7.5766   100.4392     0.0365     0.2284     2.3184
  909.5000     4.4780     5.1672   -25.1790     7.5779   105.9198     0.0648     0.2031     2.2823
  910.0000     4.5384     5.2284   -25.3900     7.5791   109.6658     0.1015     0.1759     2.3563
  910.5000     4.6038     5.3014   -25.3495     7.5777   102.6404     0.1294     0.1486     2.4259
  911.0000     4.4780     5.4367   -25.2963     7.5740    96.5211     0.0580     0.1213     2.4498
  911.5000     4.6038     6.5375   -25.2428     7.5703    91.1389     0.0400     0.1013     2.4723
  912.0000     5.0915     8.7894   -25.2043     7.5666    91.0320     0.0446     0.0973     2.4952
  912.5000     6.3906     9.1972   -25.5974     7.5629    94.4939     0.0439     0.0937     2.5014
  913.0000     7.6312     9.6647   -25.9910     7.5592    96.9421     0.0424     0.0927     2.5001
  913.5000     8.0589     9.9109   -25.9978     7.5555    96.9595     0.0409     0.1034     2.4987
