~VERSION INFORMATION
 VERS.                2.0:   CWLS LOG ASCII STANDARD - VERSION 2.0
 WRAP.                 NO:   ONE LINE PER DEPTH STEP
~WELL INFORMATION
#MNEM.UNIT      DATA TYPE    INFORMATION
#----------   ------------   ------------------------------
 STRT.F           36.0000:   START DEPTH
 STOP.F          518.0000:   STOP DEPTH
 STEP.F            0.5000:   STEP LENGTH
 NULL.          -999.2500:   NO VALUE
 COMP.    FENIX & SCISSON:   COMPANY
 WELL.        NPR #57S-10:   WELL
 FLD .             TEAPOT:   FIELD
 LOC .      S10 T38N R78W:   LOCATION
 CNTY.            NATRONA:   COUNTY
 STAT.            WYOMING:   STATE
 CTRY. UNITED STATES OF AMERICA:   COUNTRY
 SRVC.              Welex:   SERVICE COMPANY
 DATE.        11-MAR-1977:   LOGDATE
 API .       490251029100:   API NUMBER
~CURVE INFORMATION
#MNEM.UNIT       API CODE    CURVE DESCRIPTION
#----------   ------------   ------------------------------
 DEPT.F                  :   
 SPR .MV     07 010 01 00:   SPONTANEOUS POTENTIAL
 ILD .OHMM   07 120 46 00:   INDUCTION LOG DEEP
 ILM .OHMM   07 120 44 00:   INDUCTION LOG MEDIUM
 SGUR.OHMM   07 220 01 00:   SHORT GUARD RESISITIVITY
 CORR.G/C3   45 356 01 00:   DENSITY CORRECTION
 CALD.IN     45 280 60 00:   CALIPER
 GRD .GAPI   45 310 01 00:   GAMMA RAY FROM DENSITY LOG
 RHOB.G/C3   45 350 01 00:   BULK DENSITY
 DPOR.DEC    45 890 12 00:   DENSITY POROSITY SANDSTONE
~PARAMETER INFORMATION
#MNEM.UNIT          VALUE    DESCRIPTION
#----------   ------------   ------------------------------
 PD  .                 GL:   PERMANENT DATUM
 EPD .F              5244:   ELEVATION PERMANENT DATUM
 LMF .                 GL:   LOG MEASURED FROM
 DMF .                 GL:   DRILLING MEASURED FROM
 EGL .F              5244:   GROUND LEVEL
 DATE.          3-11-1977:   RUN DATE
 RUN .                  1:   RUN NUMBER
 DD  .F               530:   DEPTH DRILLER
 DL  .F               522:   DEPTH LOGGER
 BLI .F               520:   BOTTOM LOG INTERVAL
 TLI .F                35:   TOP LOG INTERVAL
 CS  .IN            8.625:   CASING SIZE
 CBD .F                40:   CASING BOTTOM DRILLER
 CBL .F                44:   CASING BOTTOM LOGGER
 BS  .IN            7.875:   BIT SIZE
 BSD .F               530:   BIT SIZE AT DEPTH
 DFT .            KCL MUD:   DRILLING FLUID TYPE
 DFD .                8.8:   DRILLING FLUID DENSITY
 DFV .                  8:   DRILLING FLUID VISCOSITY
 DFPH.                 10:   DRILLING FLUID PH
 DFL .               12.4:   DRILLING FLUID LOSS
 MSS .           FLOWLINE:   MUD SAMPLE SOURCE
 RMS .OHMM           .398:   RESISTIVITY MUD SAMPLE
 MST .F                50:   MUD SAMPLE TEMPERATURE
 RMF .OHMM           .276:   RESISTIVITY MUD FILTRATE SAMPLE
 MFST.F                60:   MUD FILTRATE SAMPLE TEMPERATURE
 RMC .OHMM            .42:   RESISTIVITY MUD CAKE
 MCST.F                60:   MUD CAKE SAMPLE TEMPERATURE
 MFSS.           MEASURED:   MUD FILTRATE SAMPLE SOURCE
 RMB .OHMM            .31:   RESISTIVITY MUD AT BHT
 BHT .F                64:   BOTTOM HOLE TEMPERATURE
 TCS .HRS             2.5:   TIME CURCULATED STOPPED
 MRT .F                64:   MAXIMUM RECORDED TEMPERATURE
 LUN .               8611:   LOGGING UNIT NUMBER
 LUL .           GILLETTE:   LOGGING UNIT LOCATION
 ENGI.               DOAK:   RECORDING ENGINEER
 WITN.         STUEBINGER:   WITNESSED BY
 CLNT.            A2DTECH:   CLIENT CODE
 ORIG.      2" & 5" PRINT:   ORIGIN OF DATA
 UWI .       490251029100:   UNIQUE WELL ID
 DICO. A2D Technologies, Inc.:   DIGITIZING COMPANY
~OTHER INFORMATION
~A   DEPT      SPR        ILD        ILM       SGUR        CORR        CALD      GRD       RHOB       DPOR   
# ...
  291.5000   -32.6602     7.0882    10.3114    11.7315     0.0424     7.9509   133.3185     2.4926     0.0918
  292.0000   -32.7228     7.1175    10.4350    11.7260     0.0432     7.9552   132.5385     2.4984     0.0906
  292.5000   -32.8270     7.1469    10.5562    11.2008     0.0440     7.9595   130.2141     2.5048     0.0806
  293.0000   -32.9310     7.1765    10.6788    11.3031     0.0447     7.9610   127.9954     2.5086     0.0816
  293.5000   -33.0458     7.2061    10.8028    11.4233     0.0455     7.9583   125.8067     2.5103     0.0826
  294.0000   -33.4040     7.2359    10.9283    11.5605     0.0463     7.9556   124.8588     2.5131     0.0834
  294.5000   -33.7607     7.2657    11.0552    11.7508     0.0470     7.9530   124.5221     2.5160     0.0808
  295.0000   -34.2982     7.2958    11.1860    11.9419     0.0477     7.9503   126.6556     2.5190     0.0776
  295.5000   -34.8578     7.3260    11.3032    12.1365     0.0494     7.9476   129.6428     2.5202     0.0759
  296.0000   -35.4317     7.4348    10.9210    12.2812     0.0513     7.9449   128.5818     2.5214     0.0750
  296.5000   -35.3388     7.5856    10.5670    12.2812     0.0511     7.9422   127.8148     2.5162     0.0826
  297.0000   -35.5224     7.7395    10.2269    11.5793     0.0499     7.9395   131.2380     2.5042     0.0898
  297.5000   -35.9712     7.8965     9.8977    11.1250     0.0488     7.9368   132.0125     2.4923     0.1010
  298.0000   -35.4651     8.0431     9.6682    10.8967     0.0490     7.9341   128.3502     2.4869     0.0973
  298.5000   -34.8355     8.0195    10.0111    11.4077     0.0535     7.9314   124.7035     2.4929     0.0894
  299.0000   -34.2051     7.9977    10.2869    11.9125     0.0580     7.9287   121.0894     2.5067     0.0816
  299.5000   -33.6021     7.9760    10.6000    12.5246     0.0625     7.9260   118.0803     2.5179     0.0767
  300.0000   -32.9527     7.6649    10.4385    13.0983     0.0670     7.9233   119.6369     2.5196     0.0847
  300.5000   -32.6385     7.2482    10.2112    12.7352     0.0713     7.9206   122.1348     2.5015     0.0919
  301.0000   -32.6389     6.8542     9.9889    12.5381     0.0668     7.9179   124.4159     2.4778     0.0991
  301.5000   -32.6387     6.4816     9.7714    13.0381     0.0611     7.9152   126.6316     2.4509     0.1064
  302.0000   -32.6386     6.1293     9.3035    14.6206     0.0553     7.9125   128.8931     2.4180     0.1160
  302.5000   -32.6055     5.8262     6.9444    10.4499     0.0496     7.9099   139.5064     2.3712     0.1321
  303.0000   -32.4869     5.8094     5.1834     6.7686     0.0438     7.9073   136.9074     2.3835     0.1406
  303.5000   -32.3685     5.7929     4.2238     6.8627     0.0461     7.9043   132.9946     2.4239     0.1161
  304.0000   -32.2557     5.7763     4.6096     8.6235     0.0524     7.8899   125.5790     2.4636     0.0966
  304.5000   -32.5382     5.9567     7.5552    14.0988     0.0586     7.8318   112.0186     2.5034     0.0772
  305.0000   -32.8695     6.1659     9.0019    13.8873     0.0595     7.8314   113.7171     2.5342     0.0707
  305.5000   -33.2010     6.4972     9.9223    13.6161     0.0556     7.8417   115.3924     2.5198     0.0763
  306.0000   -33.5317     6.9695    10.9321    13.5893     0.0518     7.8523   117.1206     2.5060     0.0831
  306.5000   -33.8625     7.4756    12.1687    14.5506     0.0479     7.8628   118.7788     2.5066     0.0854
  307.0000   -34.1941     8.0185    12.0020    14.6244     0.0511     7.8733   119.0521     2.5143     0.0814
  307.5000   -34.5255     8.5153    11.7678    14.6183     0.0551     7.8838   118.8270     2.5222     0.0763
  308.0000   -34.8005     8.8346    11.5366    14.7356     0.0592     7.8942   118.0598     2.5255     0.0734
  308.5000   -34.6191     9.1658    11.8435    13.6848     0.0633     7.9047   115.4894     2.5224     0.0850
  309.0000   -34.4312     9.4050    12.3034    13.6206     0.0673     7.9152   112.4600     2.5183     0.0783
  309.5000   -34.2448     9.4050    12.7799    13.4803     0.0714     7.9257   108.9831     2.5142     0.0759
  310.0000   -34.0587     9.8512    13.2750    13.9055     0.0754     7.9362   103.0239     2.5011     0.0814
  310.5000   -33.8726    10.8390    13.7892    14.7701     0.0795     7.9465    97.0581     2.4807     0.0932
  311.0000   -33.6837    11.9257    15.9530    15.7850     0.0836     7.9569    91.0987     2.4602     0.1058
  311.5000   -33.6555    13.3109    17.3617    19.7194     0.0778     7.9385    85.1479     2.4395     0.1226
  312.0000   -33.6887    15.0714    17.5625    25.0654     0.0711     7.8938    79.1991     2.4126     0.1434
  312.5000   -33.7232    16.8978    20.7498    30.9984     0.0645     7.8490    73.2241     2.3797     0.1642
  313.0000   -33.7573    18.7603    21.2326    29.5366     0.0579     7.8040    68.7003     2.3465     0.1787
  313.5000   -33.7902    20.1642    21.4508    32.2421     0.0520     7.7591    68.9208     2.3411     0.1824
  314.0000   -33.8275    19.8371    22.6915    30.8680     0.0547     7.7139    72.3586     2.3742     0.1735
  314.5000   -34.1716    20.3558    23.5904    27.7261     0.0582     7.6693    76.6925     2.3817     0.1661
  315.0000   -34.5537    21.4783    23.3983    26.8474     0.0552     7.6999    75.7039     2.3610     0.1711
  315.5000   -34.9360    22.4507    23.5793    38.4367     0.0500     7.7422    74.2579     2.3327     0.1819
  316.0000   -35.3178    21.5649    23.9699    28.3712     0.0468     7.7848    76.1643     2.3410     0.1848
  316.5000   -35.7043    21.1473    24.3670    31.7076     0.0513     7.8273    78.7201     2.3675     0.1707
  317.0000   -35.7834    21.3183    24.5646    33.8602     0.0556     7.8692    81.1178     2.3699     0.1630
  317.5000   -35.7278    21.4412    24.6765    29.9816     0.0599     7.8972    80.7532     2.3656     0.1676
  318.0000   -35.6699    21.9643    26.8759    34.1083     0.0642     7.8653    78.5836     2.3662     0.1653
  318.5000   -35.5441    23.4843    29.9323    38.8066     0.0632     7.8348    76.4219     2.3843     0.1596
  319.0000   -34.8672    25.1096    29.2517    32.2762     0.0588     7.8044    76.1703     2.3787     0.1590
  319.5000   -34.1809    26.8474    28.7750    31.1374     0.0543     7.7738    78.4107     2.3674     0.1682
  320.0000   -33.5029    28.7111    24.9452    31.6462     0.0501     7.7439    80.1783     2.3747     0.1648
  320.5000   -33.2929    28.9044    19.3458    31.1311     0.0540     7.7428    81.9059     2.3877     0.1560
  321.0000   -33.1425    28.1218    18.3634    30.0569     0.0584     7.7430    81.5160     2.4009     0.1472
  321.5000   -33.0836    27.4277    17.9505    32.0350     0.0627     7.7431    81.1861     2.4141     0.1346
  322.0000   -33.2630    26.7541    17.2820    30.3808     0.0670     7.7431    82.1380     2.4217     0.1373
  322.5000   -33.4383    26.0970    15.0581    26.9149     0.0713     7.7428    83.5512     2.4148     0.1422
  323.0000   -33.6134    25.4564    14.2291    29.5582     0.0756     7.7420    82.1806     2.4075     0.1472
  323.5000   -33.7886    24.8315    13.4458    33.2305     0.0713     7.7052    80.6875     2.4002     0.1525
  324.0000   -33.9636    24.2225    13.2193    34.6570     0.0663     7.7337    79.2210     2.3967     0.1525
  324.5000   -34.1387    23.1863    16.7921    24.7137     0.0612     7.7683    78.4496     2.4078     0.1459
  325.0000   -34.2554    22.0148    19.8472    27.7261     0.0611     7.8022    79.5396     2.4217     0.1393
  325.5000   -34.3137    20.9037    20.0000    34.6092     0.0627     7.8361    80.5706     2.4301     0.1373
  326.0000   -34.3722    20.3685    20.0000    39.5125     0.0644     7.8700    81.6019     2.4222     0.1396
  326.5000   -34.4304    20.3672    20.0000    34.8096     0.0658     7.9043    82.6629     2.4115     0.1434
  327.0000   -34.4888    20.3678    20.0000    29.0800     0.0642     7.9377    82.6589     2.4008     0.1473
  327.5000   -34.5471    21.5808    20.1716    25.6402     0.0627     7.8771    81.3995     2.3902     0.1509
