~VERSION INFORMATION
 VERS.                2.0:   CWLS LOG ASCII STANDARD - VERSION 2.0
 WRAP.                 NO:   ONE LINE PER DEPTH STEP
~WELL INFORMATION
#MNEM.UNIT      DATA TYPE    INFORMATION
#----------   ------------   ------------------------------
 STRT.F           86.0000:   START DEPTH
 STOP.F          708.0000:   STOP DEPTH
 STEP.F            0.5000:   STEP LENGTH
 NULL.          -999.2500:   NO VALUE
 COMP. U S NAVY/INTEX OIL CO:   COMPANY
 WELL.      33 S-11 #3-11:   WELL
 FLD .             TEAPOT:   FIELD
 LOC .      S11 T38N R78W:   LOCATION
 CNTY.            NATRONA:   COUNTY
 STAT.            WYOMING:   STATE
 CTRY. UNITED STATES OF AMERICA:   COUNTRY
 SRVC.       Schlumberger:   SERVICE COMPANY
 DATE.        11-JUL-1962:   LOGDATE
 API .       490250636000:   API NUMBER
~CURVE INFORMATION
#MNEM.UNIT       API CODE    CURVE DESCRIPTION
#----------   ------------   ------------------------------
 DEPT.F                  :   
 SPR .MV     05 010 01 00:   SPONTANEOUS POTENTIAL FROM RES.
 CILD.MMHO   05 110 46 00:   CONDUCTIVITY INDUCTION LOG DEEP
 ILD .OHMM   05 120 46 00:   INDUCTION LOG DEEP
 ASN .OHMM   05 041 16 00:   AMPLIFIED SHORT NORMAL 16"
 GR  .GAPI   30 310 01 00:   GAMMA RAY
~PARAMETER INFORMATION
#MNEM.UNIT          VALUE    DESCRIPTION
#----------   ------------   ------------------------------
 PD  .                 GL:   PERMANENT DATUM
 EPD .F              5171:   ELEVATION PERMANENT DATUM
 LMF .                 KB:   LOG MEASURED FROM
 DAPD.F                 5:   FEET ABOVE PERMANENT DATUM
 DMF .                 KB:   DRILLING MEASURED FROM
 EKB .F              5176:   KELLING BUSHING
 EGL .F              5171:   GROUND LEVEL
 DATE.            7-11-62:   RUN DATE
 RUN .                  1:   RUN NUMBER
 DD  .F               710:   DEPTH DRILLER
 DL  .F               709:   DEPTH LOGGER
 BLI .F               708:   BOTTOM LOG INTERVAL
 TLI .F                86:   TOP LOG INTERVAL
 BS  .IN             6.75:   BIT SIZE
 BSD .F               710:   BIT SIZE AT DEPTH
 DFT .            GEL/OIL:   DRILLING FLUID TYPE
 DFD .               10.3:   DRILLING FLUID DENSITY
 DFV .                 50:   DRILLING FLUID VISCOSITY
 DFL .                3.7:   DRILLING FLUID LOSS
 RMS .OHMM           5.66:   RESISTIVITY MUD SAMPLE
 MST .F                77:   MUD SAMPLE TEMPERATURE
 RMF .OHMM           4.44:   RESISTIVITY MUD FILTRATE SAMPLE
 MFST.F                77:   MUD FILTRATE SAMPLE TEMPERATURE
 RMC .OHMM            5.9:   RESISTIVITY MUD CAKE
 MCST.F                77:   MUD CAKE SAMPLE TEMPERATURE
 TCS .HRS               1:   TIME CURCULATED STOPPED
 LUN .               2503:   LOGGING UNIT NUMBER
 LUL .               CSPR:   LOGGING UNIT LOCATION
 ENGI.             DANNER:   RECORDING ENGINEER
 WITN.          JORGENSEN:   WITNESSED BY
 CLNT.            A2DTECH:   CLIENT CODE
 ORIG.       2", 5" PRINT:   ORIGIN OF DATA
 UWI .       490250636000:   UNIQUE WELL ID
 DICO. A2D Technologies, Inc.:   DIGITIZING COMPANY
~OTHER INFORMATION
~A   DEPT      SPR        CILD         ILD        ASN       GR   
# ...
  391.0000   -57.6632    92.5973    10.0475    10.7014  -999.2500
  391.5000   -57.5323    93.4343    10.0275    10.6666  -999.2500
  392.0000   -57.4524    93.4343    10.0061    10.6327  -999.2500
  392.5000   -57.2986    93.4343     9.9848    10.5986  -999.2500
  393.0000   -57.1428    93.4343     9.9635    10.5646  -999.2500
  393.5000   -56.9882    93.4343     9.9423    10.5305  -999.2500
  394.0000   -57.0637    93.4343     9.9210    10.4965  -999.2500
  394.5000   -57.9171    93.4343     9.8997    10.4628  -999.2500
  395.0000   -58.7455    93.4343     9.8783    10.3983  -999.2500
  395.5000   -58.5093    93.4343     9.8576    10.3255  -999.2500
  396.0000   -58.4255    93.4279     9.7856    10.2514  -999.2500
  396.5000   -58.3292    94.1219     9.6816    10.1768  -999.2500
  397.0000   -58.2355    94.9700     9.5771    10.0531  -999.2500
  397.5000   -58.1420    95.8249     9.4725     9.9574  -999.2500
  398.0000   -58.0485    96.9887     9.3679     9.8094  -999.2500
  398.5000   -57.9549    99.0933     9.2634     9.6719  -999.2500
  399.0000   -57.8616   101.1979     9.1588     9.5814  -999.2500
  399.5000   -57.7654   103.3024     9.0534     9.5310  -999.2500
  400.0000   -57.8213   104.0863     8.9448     9.4798  -999.2500
  400.5000   -57.9369   104.7058     8.9115     9.4280  -999.2500
  401.0000   -57.9439   105.3254     8.8821     9.3863  -999.2500
  401.5000   -57.9438   105.9449     8.8522     9.3273  -999.2500
  402.0000   -57.9491   106.5644     8.8221     9.2687  -999.2500
  402.5000   -57.6572   107.1840     8.7920     9.2384  -999.2500
  403.0000   -57.2838   107.8035     8.7620     9.1533  -999.2500
  403.5000   -57.3355   108.4230     8.7319     9.0244  -999.2500
  404.0000   -57.9042   109.0425     8.7018     9.0462  -999.2500
  404.5000   -57.8618   109.6621     8.6718     9.0778  -999.2500
  405.0000   -57.7216   110.2816     8.6417     8.9626  -999.2500
  405.5000   -57.5827   110.9011     8.6116     8.8445  -999.2500
  406.0000   -57.4447   111.5207     8.5816     8.7848  -999.2500
  406.5000   -57.3069   111.4671     8.5516     8.8228  -999.2500
  407.0000   -57.1633   111.2918     8.5353     8.8602  -999.2500
  407.5000   -57.3529   111.1148     8.5354     8.8925  -999.2500
  408.0000   -57.6686   110.9376     8.5353     8.8234  -999.2500
  408.5000   -57.9501   110.7615     8.5353     8.4102  -999.2500
  409.0000   -57.9430   110.6031     8.5354     8.4171  -999.2500
  409.5000   -57.9479   111.1560     8.5359     8.8600  -999.2500
  410.0000   -58.2480   111.7588     8.5359     8.8004  -999.2500
  410.5000   -59.0748   112.3601     8.4991     8.7113  -999.2500
  411.0000   -59.4636   113.7293     8.2423     8.6314  -999.2500
  411.5000   -58.8242   117.4901     7.9859     8.5493  -999.2500
  412.0000   -58.2073   122.4249     7.7302     8.3448  -999.2500
  412.5000   -57.7919   127.3598     7.4751     8.0880  -999.2500
  413.0000   -58.1057   132.2943     7.2533     7.8301  -999.2500
  413.5000   -58.4016   137.2289     7.0834     7.5722  -999.2500
  414.0000   -58.5557   142.2554     6.9125     7.3120  -999.2500
  414.5000   -58.4843   145.9596     6.7430     7.1721  -999.2500
  415.0000   -58.3875   146.0354     6.6268     7.1178  -999.2500
  415.5000   -58.2888   146.9697     6.6920     7.1131  -999.2500
  416.0000   -58.1900   146.9697     6.7530     7.1051  -999.2500
  416.5000   -58.1649   145.1276     6.8137     7.1734  -999.2500
  417.0000   -58.2803   141.4160     6.8743     7.3276  -999.2500
  417.5000   -58.3434   137.9791     6.9349     7.3654  -999.2500
  418.0000   -58.0721   134.8485     6.9956     7.3833  -999.2500
  418.5000   -57.7875   134.0795     7.0562     7.4164  -999.2500
  419.0000   -57.8360   133.2551     7.1169     7.4756  -999.2500
  419.5000   -58.0711   132.4308     7.1775     7.5265  -999.2500
  420.0000   -58.1314   131.6064     7.2382     7.5309  -999.2500
  420.5000   -57.8039   130.7820     7.2987     7.5379  -999.2500
  421.0000   -57.4738   129.9576     7.3653     7.5494  -999.2500
  421.5000   -57.1513   128.7932     7.4358     7.6185  -999.2500
  422.0000   -56.9874   126.3487     7.5063     7.7096  -999.2500
  422.5000   -57.5565   123.9043     7.5768     7.8698  -999.2500
  423.0000   -57.9486   121.4598     7.6467     8.0054  -999.2500
  423.5000   -57.9423   119.0154     7.7119     8.0640  -999.2500
  424.0000   -57.9432   118.6869     7.9488     8.1231  -999.2500
  424.5000   -57.9440   119.1292     8.2044     8.1822  -999.2500
  425.0000   -57.8398   120.0466     8.1583     8.2127  -999.2500
  425.5000   -57.6688   120.9640     8.0529     8.1879  -999.2500
  426.0000   -57.5339   121.8814     7.9459     8.1542  -999.2500
  426.5000   -57.5416   122.7988     7.8391     8.1014  -999.2500
  427.0000   -57.7501   123.7161     7.7295     8.0344  -999.2500
  427.5000   -57.8526   124.6335     7.5880     7.9926  -999.2500
  428.0000   -57.9798   125.5509     7.5263     7.9408  -999.2500
  428.5000   -58.1206   125.9170     7.5251     7.8900  -999.2500
  429.0000   -58.3709   126.1933     7.5251     7.8384  -999.2500
  429.5000   -58.4213   126.4696     7.5252     7.7926  -999.2500
  430.0000   -58.4782   126.7458     7.5252     7.8583  -999.2500
  430.5000   -58.5392   127.0221     7.5252     7.9714  -999.2500
  431.0000   -58.5998   127.2984     7.5252     8.0339  -999.2500
  431.5000   -58.6590   127.5747     7.5252     8.0737  -999.2500
  432.0000   -58.7211   127.8509     7.5252     8.0028  -999.2500
  432.5000   -58.8857   128.1272     7.5252     7.9231  -999.2500
  433.0000   -59.5848   128.4035     7.5252     7.8437  -999.2500
  433.5000   -59.9859   128.6798     7.5252     7.7865  -999.2500
  434.0000   -59.8711   128.9560     7.5253     7.8088  -999.2500
  434.5000   -59.7430   129.2312     7.5253     7.8270  -999.2500
  435.0000   -59.6135   129.5086     7.5250     7.7230  -999.2500
  435.5000   -59.4848   129.7980     7.5061     7.6235  -999.2500
  436.0000   -59.3189   131.3471     7.4487     7.6106  -999.2500
  436.5000   -58.9116   132.9734     7.3920     7.5667  -999.2500
  437.0000   -58.5439   134.5996     7.3351     7.5231  -999.2500
  437.5000   -58.5524   136.2259     7.2784     7.4791   102.7181
  438.0000   -58.5548   136.8687     7.2221     7.4255    97.0291
  438.5000   -58.4462   136.8687     7.1648     7.3274   108.1542
  439.0000   -58.2593   137.7355     7.0680     7.2308   103.8578
  439.5000   -58.0712   141.4527     6.8064     7.1334   101.4077
  440.0000   -57.8838   144.9495     6.5504     7.0482    98.9012
  440.5000   -57.7358   151.0133     6.2942     6.9005   102.1433
  441.0000   -57.7389   156.7378     6.0417     6.7448    96.2118
  441.5000   -57.7392   162.4622     5.9342     6.5915    99.1089
  442.0000   -57.7392   168.1867     5.8492     6.4382   102.0194
  442.5000   -57.7383   173.3670     5.7639     6.2847   103.4028
  443.0000   -57.7377   174.5028     5.6788     6.1281   107.1917
  443.5000   -57.7954   174.5286     5.6091     6.0238   111.6914
  444.0000   -58.2771   172.3990     5.6506     6.0448   117.8684
  444.5000   -58.7621   170.2020     5.6891     6.1479   123.6416
  445.0000   -59.1691   164.5101     5.8543     6.2771   120.4362
  445.5000   -58.7962   158.6323     6.1092     6.5398   118.0116
  446.0000   -58.4089   152.7545     6.3657     6.7890   118.2333
  446.5000   -58.0251   146.9697     6.6117     6.8670   112.5474
  447.0000   -57.7452   145.3009     6.6750     6.9495   107.8679
  447.5000   -57.7408   143.6580     6.7309     6.9632   105.7339
  448.0000   -57.7309   142.0152     6.7874     6.9249   105.1222
  448.5000   -58.2633   140.3723     6.8442     6.9736   108.6565
  449.0000   -59.0531   138.7234     6.9011     7.0822   103.0409
  449.5000   -59.7831   137.8741     6.9588     7.1641    95.2153
  450.0000   -59.3208   137.8685     7.0167     7.1314   103.5879
  450.5000   -58.7998   139.6970     6.9207     7.0971   108.0615
  451.0000   -58.3396   142.2727     6.8087     7.0627   108.2084
  451.5000   -58.2436   144.8485     6.6970     7.0294   106.1387
