~VERSION INFORMATION
 VERS.                2.0:   CWLS LOG ASCII STANDARD - VERSION 2.0
 WRAP.                 NO:   ONE LINE PER DEPTH STEP
~WELL INFORMATION
#MNEM.UNIT      DATA TYPE    INFORMATION
#----------   ------------   ------------------------------
 STRT.F           30.0000:   START DEPTH
 STOP.F          547.0000:   STOP DEPTH
 STEP.F            0.5000:   STEP LENGTH
 NULL.          -999.2500:   NO VALUE
 COMP.   FINIX & SCISSION:   COMPANY
 WELL. SX-11 NPR #3 #11-11:   WELL
 FLD .             TEAPOT:   FIELD
 LOC .      S11 T38N R78W:   LOCATION
 CNTY.            NATRONA:   COUNTY
 STAT.            WYOMING:   STATE
 CTRY. UNITED STATES OF AMERICA:   COUNTRY
 SRVC.       Schlumberger:   SERVICE COMPANY
 DATE.        01-MAR-1977:   LOGDATE
 API .       490251058500:   API NUMBER
~CURVE INFORMATION
#MNEM.UNIT       API CODE    CURVE DESCRIPTION
#----------   ------------   ------------------------------
 DEPT.F                  :   
 ILD .OHMM               :   INDUCTION LOG DEEP
 ILM .OHMM   07 120 44 00:   INDUCTION LOG MEDIUM
 LL8 .OHMM   07 220 08 00:   
 SPR .MV     07 010 01 00:   SPONTANEOUS POTENTIAL
 CALD.IN     45 280 60 00:   CALIPER FROM DENSITY LOG
 CORR.G/C3   45 356 01 00:   DENSITY CORRECTION
 DPHI.DEC    45 890 12 00:   DENSITY POROSITY SANDSTONE
 GRD .GAPI   45 310 01 00:   GAMMA RAY FROM DENSITY LOG
 RHOB.G/C3   45 350 01 00:   BULK DENSITY
~PARAMETER INFORMATION
#MNEM.UNIT          VALUE    DESCRIPTION
#----------   ------------   ------------------------------
 PD  .                 GL:   PERMANENT DATUM
 EPD .F              5158:   ELEVATION PERMANENT DATUM
 LMF .                 GL:   LOG MEASURED FROM
 DMF .                 GL:   DRILLING MEASURED FROM
 EKB .F              5161:   KELLING BUSHING
 EGL .F              5158:   GROUND LEVEL
 DATE.        01-MAR-1977:   RUN DATE
 RUN .                  1:   RUN NUMBER
 DD  .F               575:   DEPTH DRILLER
 DL  .F               548:   DEPTH LOGGER
 BLI .F               547:   BOTTOM LOG INTERVAL
 TLI .F                45:   TOP LOG INTERVAL
 CS  .IN            8.625:   CASING SIZE
 CBD .F                40:   CASING BOTTOM DRILLER
 CBL .F                45:   CASING BOTTOM LOGGER
 BS  .IN            7.875:   BIT SIZE
 BSD .F               575:   BIT SIZE AT DEPTH
 DFT .                PIT:   DRILLING FLUID TYPE
 DFD .                8.7:   DRILLING FLUID DENSITY
 DFV .                 46:   DRILLING FLUID VISCOSITY
 DFPH.                  8:   DRILLING FLUID PH
 DFL .                6.8:   DRILLING FLUID LOSS
 MSS .                PIT:   MUD SAMPLE SOURCE
 RMS .OHMM          0.632:   RESISTIVITY MUD SAMPLE
 MST .F                65:   MUD SAMPLE TEMPERATURE
 RMF .OHMM          0.465:   RESISTIVITY MUD FILTRATE SAMPLE
 MFST.F                65:   MUD FILTRATE SAMPLE TEMPERATURE
 MFSS.               MEAS:   MUD FILTRATE SAMPLE SOURCE
 RMB .OHMM          0.635:   RESISTIVITY MUD AT BHT
 BHT .F                68:   BOTTOM HOLE TEMPERATURE
 TCS .HRS              12:   TIME CURCULATED STOPPED
 MRT .F                68:   MAXIMUM RECORDED TEMPERATURE
 LUN .               5642:   LOGGING UNIT NUMBER
 LUL .               CSPR:   LOGGING UNIT LOCATION
 ENGI.         JIM MARTIN:   RECORDING ENGINEER
 WITN.         STUEBINGER:   WITNESSED BY
 CLNT.            A2DTECH:   CLIENT CODE
 ORIG.           5" PRINT:   ORIGIN OF DATA
 UWI .       490251058500:   UNIQUE WELL ID
 DICO. A2D Technologies, Inc.:   DIGITIZING COMPANY
~OTHER INFORMATION
~A   DEPT      ILD        ILM        LL8        SPR       CALD       CORR       DPHI         GRD      RHOB   
# ...
  285.5000     8.1577     8.1412     8.3452   -34.3121     8.1103     0.0176     0.1180    90.1756     2.4544
  286.0000     7.9358     7.9203     8.2306   -34.2919     8.1263     0.0244     0.1228    86.2879     2.4409
  286.5000     7.7200     7.6000     8.1740   -34.2757     8.1274     0.0348     0.1189    84.6477     2.4514
  287.0000     7.3054     7.3429     8.0059   -34.2595     8.1434     0.0273     0.1144    84.5096     2.4552
  287.5000     6.7712     6.7130     7.7836   -34.2433     8.1445     0.0266     0.1234    86.3568     2.4349
  288.0000     6.1899     6.1531     7.5674   -34.0778     8.1455     0.0355     0.1282    88.0330     2.4207
  288.5000     5.5722     5.6107     7.3692   -34.0614     8.0993     0.0288     0.1435    89.6857     2.4102
  289.0000     4.9073     5.0241     7.1683   -34.0449     8.0131     0.0243     0.1537    88.4519     2.3959
  289.5000     4.2047     4.5860     6.9249   -34.0290     7.9542     0.0205     0.1631    87.5627     2.3817
  290.0000     3.8438     4.1302     6.5980   -34.6075     7.9852     0.0370     0.1688    86.8235     2.3592
  290.5000     3.4896     3.6076     6.2431   -34.7451     8.0461     0.0340     0.1861    86.3841     2.3374
  291.0000     3.1681     3.2082     5.2527   -34.9032     8.0771     0.0310     0.2026    86.5444     2.3185
  291.5000     2.9162     2.8728     4.0120   -35.1619     8.0931     0.0459     0.2101    87.0046     2.3008
  292.0000     2.7405     2.5903     3.3522   -34.9920     8.0789     0.0556     0.2242    87.6751     2.2767
  292.5000     2.5933     2.4177     2.8597   -34.5267     8.0801     0.0676     0.2377    88.0723     2.2572
  293.0000     2.5054     2.3521     2.5079   -34.3608     8.0811     0.0571     0.2437    86.1363     2.2482
  293.5000     2.7985     2.6094     2.8014   -34.9435     8.0823     0.0331     0.2473    84.9473     2.2722
  294.0000     3.1475     2.9553     3.3675   -35.3764     8.0832     0.0144     0.2356    84.2080     2.3045
  294.5000     3.6645     3.3704     3.5921   -35.7246     8.0844     0.0234     0.1929    84.6682     2.3390
  295.0000     4.1789     3.8972     3.2161   -35.7934     8.0854     0.0181     0.1764    86.7776     2.3525
  295.5000     4.7049     4.5064     4.3288   -35.9267     8.0814     0.0266     0.1668    88.5871     2.3788
  296.0000     5.2214     4.9703     5.5130   -35.5988     8.0661     0.0411     0.1413    89.9468     2.4155
  296.5000     5.5171     5.3303     6.1151   -35.2086     8.0585     0.0360     0.1200    90.4070     2.4471
  297.0000     5.7441     5.5468     6.5525   -34.9706     8.0596     0.0240     0.1242    90.8671     2.4171
  297.5000     5.9464     5.7426     6.9729   -34.8129     8.0457     0.0278     0.1308    91.7771     2.4313
  298.0000     6.1134     5.9452     7.2681   -34.7939     8.0467     0.0233     0.1366    92.9869     2.4126
  298.5000     6.2852     6.1127     7.0213   -34.7777     8.0478     0.0315     0.1361    94.0468     2.4133
  299.0000     6.4618     6.2848     6.5074   -34.6118     8.0638     0.0419     0.1224    94.3570     2.4433
  299.5000     6.5975     6.5066     6.6437   -34.5529     8.0648     0.0389     0.1122    94.3728     2.4674
  300.0000     6.7361     6.6804     7.0213   -34.3323     8.0825     0.0509     0.1059    93.6282     2.4966
  300.5000     6.6645     6.5030     7.5241   -33.6649     8.0900     0.0299     0.1189    93.4901     2.4662
  301.0000     6.2019     5.9815     8.2889   -33.3492     8.0980     0.0172     0.1280    97.0345     2.4374
  301.5000     5.5921     5.4976     9.3873   -33.0334     8.0690     0.0112     0.1355    99.6635     2.4127
  302.0000     5.1478     5.0256     8.1200   -32.5679     8.0701     0.0127     0.1476   101.1745     2.3707
  302.5000     4.7389     4.7253     5.8688   -32.2522     8.0711     0.0186     0.1533   101.1863     2.3182
  303.0000     4.4847     4.4213     4.3908   -32.6849     8.0722     0.0246     0.1584   101.1981     2.3017
  303.5000     4.6429     4.5455     4.8707   -33.4171     8.0732     0.0186     0.1560    99.1110     2.3309
  304.0000     5.6738     5.3657     6.2899   -33.9995     8.0743     0.0134     0.1491    97.4736     2.3745
  304.5000     5.2532     4.9734     5.2877   -34.2826     8.0755     0.0189     0.1512    96.4359     2.3985
  305.0000     4.8987     4.7808     4.6998   -34.4162     8.0813     0.0231     0.1533    94.0489     2.3917
  305.5000     4.6135     4.6100     4.4843   -34.1001     8.0924     0.0191     0.1452    92.4115     2.4045
  306.0000     5.0675     4.9596     5.0295   -33.6347     8.1085     0.0154     0.1306    91.5237     2.4285
  306.5000     5.7569     5.6336     5.5878   -33.3189     8.1096     0.0185     0.1209    91.3718     2.4563
  307.0000     6.0849     6.2062     6.1211   -33.7545     8.0954     0.0290     0.1102    91.9971     2.4848
  307.5000     6.4316     6.6968     6.4694   -34.0394     8.0814     0.0402     0.1008    91.6791     2.5023
  308.0000     6.7047     6.9807     6.7726   -34.2495     8.0675     0.0529     0.0960    89.7182     2.5248
  308.5000     6.9128     7.1768     7.1563   -34.3847     8.0537     0.0589     0.0912    88.1373     2.5554
  309.0000     7.0876     7.2271     7.5330   -34.4347     8.0550     0.0559     0.0960    89.9482     2.5659
  309.5000     7.1561     7.2276     7.8198   -34.4177     8.0709     0.0633     0.1089    93.1084     2.5172
  310.0000     7.1883     7.2782     8.1686   -34.3979     8.0719     0.0296     0.1167    96.4186     2.4587
  310.5000     7.1892     7.2787     8.5185   -34.2181     8.0729     0.0139     0.1212    97.6297     2.4429
  311.0000     7.1903     7.3296     8.8329   -33.9161     8.0740     0.0221     0.1131    97.4887     2.4602
  311.5000     7.1912     7.3301     9.0739   -33.7500     8.0750     0.0333     0.1014    97.0536     2.4842
  312.0000     7.1922     7.3815     9.2719   -33.5881     8.0760     0.0438     0.0912    96.9125     2.5067
  312.5000     7.2619     7.3820     9.0823   -34.0167     8.0773     0.0414     0.0975    97.2271     2.5165
  313.0000     7.2942     7.4158     8.9364   -34.1501     8.0692     0.0346     0.1035    97.2924     2.4970
  313.5000     7.2953     7.4342     8.7147   -34.2875     8.0641     0.0318     0.1074    95.4516     2.4820
  314.0000     7.2963     7.3821     8.5955   -34.2711     8.0654     0.0385     0.1053    93.6643     2.4888
  314.5000     7.1518     7.1801     8.4199   -34.4246     8.0664     0.0407     0.1026    93.6942     2.4993
  315.0000     6.9786     6.9826     8.2477   -34.5359     8.0674     0.0355     0.1002    96.1469     2.4854
  315.5000     6.8116     6.7474     8.1351   -34.6692     8.0684     0.0310     0.1149    97.6237     2.4703
  316.0000     6.6272     6.5593     8.0796   -34.8024     8.0695     0.0280     0.1116    97.3126     2.4919
  316.5000     6.4880     6.3446     8.0246   -34.6344     8.0706     0.0399     0.1075    97.4743     2.4791
  317.0000     6.2115     6.0873     7.9698   -34.4683     8.0717     0.0234     0.1246    97.0363     2.4484
  317.5000     5.7996     5.7207     8.0294   -34.1526     8.0727     0.0257     0.1324    96.4484     2.4259
  318.0000     5.3525     5.3762     8.2511   -33.8368     8.0753     0.0234     0.1384    96.1603     2.4056
  318.5000     5.0305     4.9487     7.1657   -33.6707     8.0855     0.0189     0.1483    96.0192     2.3899
  319.0000     4.7278     4.5869     5.4720   -33.3550     8.0907     0.0256     0.1552    95.8811     2.3464
  319.5000     4.4128     4.3405     4.4621   -32.9875     8.0919     0.0376     0.1585    95.7430     2.3149
  320.0000     4.2634     4.1645     4.2517   -32.5738     8.0930     0.0216     0.1402    96.0576     2.3547
  320.5000     4.8623     4.5248     4.9844   -32.1083     8.0939     0.0226     0.1273    96.8190     2.4335
  321.0000     5.3200     4.9847     5.6449   -31.6428     8.0950     0.0256     0.1207    96.9895     2.4522
  321.5000     5.9839     5.6064     6.2187   -31.7762     8.0961     0.0293     0.1153    96.0915     2.4643
