~VERSION INFORMATION
 VERS.                2.0:   CWLS LOG ASCII STANDARD - VERSION 2.0
 WRAP.                 NO:   ONE LINE PER DEPTH STEP
~WELL INFORMATION
#MNEM.UNIT      DATA TYPE    INFORMATION
#----------   ------------   ------------------------------
 STRT.F           11.5000:   START DEPTH
 STOP.F          697.0000:   STOP DEPTH
 STEP.F            0.5000:   STEP LENGTH
 NULL.          -999.2500:   NO VALUE
 COMP. FENIX & SCISSON INC:   COMPANY
 WELL.    NPR3 SX-2 #12-2:   WELL
 FLD .             TEAPOT:   FIELD
 LOC .       S2 T38N R78W:   LOCATION
 CNTY.            NATRONA:   COUNTY
 STAT.            WYOMING:   STATE
 CTRY. UNITED STATES OF AMERICA:   COUNTRY
 SRVC.           BIRDWELL:   SERVICE COMPANY
 DATE.        13-JAN-1978:   LOGDATE
 API .       490251055000:   API NUMBER
~CURVE INFORMATION
#MNEM.UNIT       API CODE    CURVE DESCRIPTION
#----------   ------------   ------------------------------
 DEPT.F                  :   
 CALD.IN     45 280 60 00:   CALIPER FROM DENSITY LOG
 CORR.G/C3   45 356 01 00:   DENSITY CORRECTION
 RHOB.G/C3   45 350 01 00:   BULK DENSITY
 GRD .GAPI   45 310 01 00:   GAMMA RAY FROM DENSITY LOG
 DPHI.DEC    45 890 12 00:   DENSITY POROSITY SANDSTONE
 ILD .OHMM   05 120 46 00:   INDUCTION LOG DEEP
 SN  .OHMM   05 040 16 00:   SHORT NORMAL 16"
 SPR .MV     05 010 01 00:   SPONTANEOUS POTENTIAL FROM RES.
~PARAMETER INFORMATION
#MNEM.UNIT          VALUE    DESCRIPTION
#----------   ------------   ------------------------------
 PD  .                 GL:   PERMANENT DATUM
 EPD .F              5094:   ELEVATION PERMANENT DATUM
 LMF .                 KB:   LOG MEASURED FROM
 DAPD.F                 4:   FEET ABOVE PERMANENT DATUM
 DMF .                 KB:   DRILLING MEASURED FROM
 EKB .F              5098:   KELLING BUSHING
 EGL .F              5094:   GROUND LEVEL
 DATE.        13-JAN-1978:   RUN DATE
 RUN .                  1:   RUN NUMBER
 DD  .F               695:   DEPTH DRILLER
 DL  .F               697:   DEPTH LOGGER
 BLI .F               692:   BOTTOM LOG INTERVAL
 TLI .F                30:   TOP LOG INTERVAL
 CS  .IN            8.625:   CASING SIZE
 CBD .F                35:   CASING BOTTOM DRILLER
 CBL .F                35:   CASING BOTTOM LOGGER
 BS  .IN            7.875:   BIT SIZE
 BSD .F               695:   BIT SIZE AT DEPTH
 DFT .                KCL:   DRILLING FLUID TYPE
 DFD .                8.6:   DRILLING FLUID DENSITY
 DFV .                 32:   DRILLING FLUID VISCOSITY
 DFPH.                9.5:   DRILLING FLUID PH
 DFL .                 12:   DRILLING FLUID LOSS
 MSS .           FLOWLINE:   MUD SAMPLE SOURCE
 RMS .OHMM            0.3:   RESISTIVITY MUD SAMPLE
 MST .F                59:   MUD SAMPLE TEMPERATURE
 RMF .OHMM           0.24:   RESISTIVITY MUD FILTRATE SAMPLE
 MFST.F                70:   MUD FILTRATE SAMPLE TEMPERATURE
 RMC .OHMM           0.56:   RESISTIVITY MUD CAKE
 MCST.F                63:   MUD CAKE SAMPLE TEMPERATURE
 MFSS.               MEAS:   MUD FILTRATE SAMPLE SOURCE
 MCSS.               MEAS:   MUD CAKE SAMPLE SOURCE
 RMB .OHMM           0.26:   RESISTIVITY MUD AT BHT
 BHT .F                72:   BOTTOM HOLE TEMPERATURE
 TCS .HRS               2:   TIME CURCULATED STOPPED
 MRT .F                72:   MAXIMUM RECORDED TEMPERATURE
 LUN .               2958:   LOGGING UNIT NUMBER
 LUL .             CASPER:   LOGGING UNIT LOCATION
 ENGI.           MARTINEZ:   RECORDING ENGINEER
 WITN.       MR. MCGINLEY:   WITNESSED BY
 CLNT.            A2DTECH:   CLIENT CODE
 ORIG.           5" PRINT:   ORIGIN OF DATA
 UWI .       490251055000:   UNIQUE WELL ID
 DICO. A2D Technologies, Inc.:   DIGITIZING COMPANY
~OTHER INFORMATION
~A   DEPT     CALD       CORR       RHOB         GRD      DPHI        ILD         SN        SPR   
# ...
   52.0000     8.7438     0.1139     2.2249    95.8081     0.2436     3.8553     5.1100   -12.9971
   52.5000     8.8043     0.1047     2.2083    93.5587     0.2568     3.8817     5.0394   -12.9985
   53.0000     8.8503     0.0878     2.1904    88.4566     0.2763     3.8014     4.9014   -13.0000
   53.5000     8.8814     0.0679     2.1599    87.2583     0.2772     3.4501     4.8003   -13.0015
   54.0000     8.9386     0.0477     2.1251    89.0631     0.2592     3.1098     4.6688   -13.0033
   54.5000     8.9686     0.0627     2.0906    92.5195     0.2610     2.7837     4.5410   -12.8533
   55.0000     9.0135     0.1197     2.0621    90.8959     0.2748     2.6518     4.3559   -12.8552
   55.5000     9.0886     0.2067     2.0506    86.3699     0.2793     2.6884     4.2073   -12.8566
   56.0000     9.3140     0.2907     2.0556    85.3218     0.2757     2.7444     4.1205   -13.0092
   56.5000    10.1259     0.3658     2.1431    85.4749     0.2473     2.8015     4.0636   -13.0106
   57.0000     9.8701     0.4048     2.2383    86.0784     0.2116     2.8997     4.1200   -13.1632
   57.5000     9.1481     0.3822     2.3348    87.4327     0.1752     3.0642     4.2668   -13.1647
   58.0000     8.6968     0.3221     2.4138    88.1864     0.1719     3.2157     4.5125   -13.0154
   58.5000     8.6666     0.2800     2.3709    88.3395     0.1749     3.4454     4.8055   -13.0169
   59.0000     8.6364     0.2484     2.3357    88.4926     0.1920     3.9593     5.0760   -13.0183
   59.5000     8.6212     0.2274     2.3083    88.0451     0.2088     4.7498     5.3213   -12.8270
   60.0000     8.6060     0.2668     2.2936    85.4955     0.2199     5.0377     5.3952   -12.5677
   60.5000     8.5908     0.2693     2.2869    82.9209     0.2316     4.9334     5.3948   -12.4181
   61.0000     8.5906     0.2603     2.2592    81.7227     0.2505     4.7651     5.3944   -12.1179
   61.5000     8.6055     0.2647     2.2210    81.6004     0.2607     4.2655     5.3198   -11.8147
   62.0000     8.6054     0.2902     2.2262    82.3548     0.2787     3.6127     5.1741   -11.4965
   62.5000     8.6203     0.3112     2.1797    83.5590     0.2853     3.4895     5.0324   -10.9138
   63.0000     8.6652     0.3231     2.1812    86.2646     0.2766     3.3938     4.8946   -10.3114
   63.5000     8.7253     0.3096     2.2209   101.5829     0.2322     3.2781     4.6627    -9.7086
   64.0000     9.0108     0.2795     2.1722    98.7330     0.2133     3.1012     4.4417    -9.4076
   64.5000    10.4242     0.2344     2.2442    89.7269     0.2019     2.9137     4.3804    -9.1074
   65.0000     9.5970     0.2629     2.2584    87.9280     0.1932     2.7565     4.4412    -9.1088
   65.5000     8.8901     0.2238     2.2576    88.3814     0.1971     2.7183     4.2601    -9.1103
   66.0000     8.7095     0.1547     2.2569    99.9460     0.2070     2.7558     4.0864    -9.4139
   66.5000     8.7244     0.1442     2.2707    93.3798     0.2247     2.8327     4.0580    -9.8689
   67.0000     8.7543     0.1521     2.2823    88.8659     0.2109     2.9319     4.1143   -10.1725
   67.5000     8.7692     0.1801     2.3963    86.1417     0.1923     3.0983     4.1714   -10.6271
   68.0000     8.7841     0.2311     2.4248    84.9434     0.1491     3.2995     4.2292   -10.7796
   68.5000     8.7839     0.1515     2.4195    84.6453     0.1412     3.4885     4.3213   -11.0832
   69.0000     8.7988     0.0944     2.4225    85.5499     0.1410     3.7013     4.5702   -11.2357
   69.5000     8.7986     0.0838     2.4247    87.2045     0.1479     4.3153     4.8385   -11.2195
   70.0000     8.8136     0.0598     2.4067    88.7090     0.1614     4.6557     5.2769   -11.2387
   70.5000     8.8134     0.0462     2.3910    86.7599     0.1659     4.9883     5.9357   -11.2402
   71.0000     8.8132     0.0552     2.4007    83.6097     0.1503     5.2350     6.1873   -11.2420
   71.5000     8.8131     0.0641     2.4187    82.5616     0.1422     5.3811     6.2297   -11.0920
   72.0000     8.8129     0.0686     2.4190    83.1652     0.1485     5.4555     6.3162   -10.7917
   72.5000     8.8128     0.0640     2.4067    84.2567     0.1551     5.5307     6.4931   -10.3400
   73.0000     8.8277     0.0579     2.4007    87.1251     0.1548     5.6457     6.6290    -9.8883
   73.5000     8.8275     0.0549     2.4054    88.4300     0.1509     5.8032     6.7677    -9.7384
   74.0000     8.8273     0.0594     2.4074    89.3338     0.1530     6.0065     6.9573    -9.5891
   74.5000     8.8422     0.0684     2.3984    90.0875     0.1584     6.2170     7.3024    -9.5906
   75.0000     8.8421     0.0923     2.3939    90.8412     0.1594     6.4794     7.6116    -9.5921
   75.5000     8.8419     0.1343     2.3932    91.1444     0.1599     6.8470     7.9340    -9.4425
   76.0000     8.8267     0.1718     2.3917    90.0963     0.1599     7.2355     8.1563    -9.7464
   76.5000     8.8116     0.2138     2.3902    87.0963     0.1599     7.6463     8.2126    -9.8990
   77.0000     8.7964     0.2378     2.3894    84.9971     0.1617     8.0307     8.2119    -9.9004
   77.5000     8.7962     0.2918     2.3894    84.2493     0.1587     8.3696     8.0984   -10.2040
   78.0000     8.7810     0.3428     2.3939    84.7027     0.1539     8.6558     7.9864   -10.5076
   78.5000     8.7508     0.3833     2.4059    85.9319     0.1539     8.7749     7.8760   -10.9622
   79.0000     8.7056     0.4028     2.4058    87.3864     0.1491     8.8349     7.7672   -11.2659
   79.5000     8.6453     0.4178     2.4134    90.4180     0.1422     8.8949     7.7130   -11.5698
   80.0000     8.5689     0.4207     2.4403    92.9735     0.1383     8.9554     7.6593   -11.7223
   80.5000     8.4925     0.4085     2.4279    90.7242     0.1338     9.0162     7.6059   -11.8748
   81.0000     8.4192     0.4056     2.4201    88.0244     0.1269     9.0777     7.6053   -11.8763
   81.5000     8.3740     0.3981     2.4658    85.9252     0.1149     9.0761     7.6577   -12.0288
   82.0000     8.3588     0.3620     2.4560    84.2765     0.1245     9.0749     7.7639   -12.3324
   82.5000     8.3586     0.3139     2.4380    85.1804     0.1365     9.0737     7.8174   -12.4849
   83.0000     8.3736     0.2673     2.4268    86.8350     0.1397     9.0724     7.9259   -12.6375
   83.5000     8.4335     0.2417     2.4260    87.1382     0.1509     9.0712     7.9804   -12.6390
   84.0000     8.5086     0.2192     2.4208    86.0901     0.1515     9.1329     8.0910   -12.3383
   84.5000     8.5986     0.1981     2.4118    84.3914     0.1380     9.1316     8.1468   -12.4912
   85.0000     8.6586     0.2010     2.4298    82.8929     0.1263     9.1304     8.2029   -12.7947
   85.5000     8.7186     0.2010     2.4635    81.8954     0.1170     9.1291     8.3166   -13.2494
   86.0000     8.7786     0.1950     2.4897    81.1476     0.1083     9.1279     8.3739   -13.4019
   86.5000     8.7935     0.1753     2.4995    79.9494     0.1002     9.1266     8.4901   -13.4034
   87.0000     8.7934     0.1506     2.4879    79.6513     0.1023     9.2522     8.6676   -13.2538
   87.5000     8.7932     0.1150     2.4710    80.5559     0.1137     9.3797     8.9724   -12.9531
   88.0000     8.8081     0.0761     2.4515    82.2104     0.1242     9.5094     9.2238   -12.8036
   88.5000     8.8079     0.0596     2.4417    84.4649     0.1317     9.6405     9.5481   -12.9564
   89.0000     8.8229     0.0625     2.4394    82.3665     0.1323     9.7734     9.7479   -13.4111
   89.5000     8.8227     0.0670     2.4394    79.8169     0.1341     9.9765     9.8149   -13.8657
   90.0000     8.8225     0.0730     2.4372    78.6186     0.1389    10.0447     9.8142   -14.0182
   90.5000     8.8178     0.0774     2.4319    78.7718     0.1431    10.0430     9.8818   -14.0197
   91.0000     8.8072     0.0819     2.4237    78.2743     0.1488    10.1117     9.8921   -14.0212
   91.5000     8.8071     0.0879     2.4057    75.4750     0.1551    10.1100    10.0182   -14.0227
   92.0000     8.8069     0.0968     2.3832    74.4262     0.1695     9.9697    10.0872   -13.8731
