~VERSION INFORMATION
 VERS.                2.0:   CWLS LOG ASCII STANDARD - VERSION 2.0
 WRAP.                 NO:   ONE LINE PER DEPTH STEP
~WELL INFORMATION
#MNEM.UNIT      DATA TYPE    INFORMATION
#----------   ------------   ------------------------------
 STRT.F            0.0000:   START DEPTH
 STOP.F          789.0000:   STOP DEPTH
 STEP.F            0.5000:   STEP LENGTH
 NULL.          -999.2500:   NO VALUE
 COMP. U S NAVY-INTEX OIL:   COMPANY
 WELL.        NPR #35-S-2:   WELL
 FLD .             TEAPOT:   FIELD
 LOC .       S2 T38N R78W:   LOCATION
 CNTY.            NATRONA:   COUNTY
 STAT.            WYOMING:   STATE
 CTRY. UNITED STATES OF AMERICA:   COUNTRY
 SRVC.      NL McCullough:   SERVICE COMPANY
 DATE.        14-AUG-1961:   LOGDATE
 API .       490250644100:   API NUMBER
~CURVE INFORMATION
#MNEM.UNIT       API CODE    CURVE DESCRIPTION
#----------   ------------   ------------------------------
 DEPT.F                  :   
 GR  .GAPI   42 310 01 00:   GAMMA RAY
 NPHI.DEC    42 890 00 00:   NEUTRON POROSITY
~PARAMETER INFORMATION
#MNEM.UNIT          VALUE    DESCRIPTION
#----------   ------------   ------------------------------
 PD  .                 GL:   PERMANENT DATUM
 EPD .F              5133:   ELEVATION PERMANENT DATUM
 LMF .                 KB:   LOG MEASURED FROM
 DAPD.F                 6:   FEET ABOVE PERMANENT DATUM
 DMF .                 KB:   DRILLING MEASURED FROM
 EKB .F              5139:   KELLING BUSHING
 EGL .F              5133:   GROUND LEVEL
 DATE.        14-AUG-1961:   RUN DATE
 RUN .                  1:   RUN NUMBER
 DD  .F               790:   DEPTH DRILLER
 DL  .F               791:   DEPTH LOGGER
 BLI .F             789.5:   BOTTOM LOG INTERVAL
 BS  .IN            7.875:   BIT SIZE
 BSD .F               790:   BIT SIZE AT DEPTH
 DFT .        OIL EMULSON:   DRILLING FLUID TYPE
 DFD .                9.5:   DRILLING FLUID DENSITY
 TCS .HRS             1.5:   TIME CURCULATED STOPPED
 LUN .               1206:   LOGGING UNIT NUMBER
 ENGI.            JACKSON:   RECORDING ENGINEER
 WITN.          JORGENDEN:   WITNESSED BY
 CLNT.            A2DTECH:   CLIENT CODE
 ORIG.           2" PRINT:   ORIGIN OF DATA
 UWI .       490250644100:   UNIQUE WELL ID
 DICO. A2D Technologies, Inc.:   DIGITIZING COMPANY
~OTHER INFORMATION
~A    DEPT        GR     NPHI   
# ...
  607.5000     5.2421     0.1467
  608.0000     5.3780     0.1319
  608.5000     5.5968     0.1458
  609.0000     5.4976     0.1491
  609.5000     5.3264     0.1583
  610.0000     5.1838     0.1656
  610.5000     5.1163     0.1607
  611.0000     5.2598     0.1755
  611.5000     5.4635     0.1661
  612.0000     5.2832     0.1637
  612.5000     5.1856     0.1453
  613.0000     5.0128     0.1435
  613.5000     5.1261     0.1417
  614.0000     5.0398     0.1396
  614.5000     4.9461     0.1411
  615.0000     5.1876     0.1504
  615.5000     5.2857     0.1480
  616.0000     5.2260     0.1398
  616.5000     5.3167     0.1437
  617.0000     5.1189     0.1437
  617.5000     5.2420     0.1368
  618.0000     5.0843     0.1274
  618.5000     5.3338     0.1190
  619.0000     5.1133     0.1142
  619.5000     4.6311     0.1157
  620.0000     4.1597     0.0991
  620.5000     3.7459     0.0864
  621.0000     3.6484     0.0714
  621.5000     3.5057     0.0678
  622.0000     3.3856     0.0714
  622.5000     3.0772     0.0834
  623.0000     2.8743     0.0813
  623.5000     2.9198     0.0758
  624.0000     2.7696     0.0894
  624.5000     2.9237     0.0911
  625.0000     3.0414     0.0779
  625.5000     3.3431     0.0806
  626.0000     3.2983     0.0989
  626.5000     3.1857     0.0914
  627.0000     3.3517     0.0866
  627.5000     3.2617     0.0721
  628.0000     2.7576     0.0537
  628.5000     2.6600     0.0363
  629.0000     2.4721     0.0104
  629.5000     2.4803     0.0230
  630.0000     2.6722     0.0296
  630.5000     3.0306     0.0353
  631.0000     3.3397     0.0389
  631.5000     3.1744     0.0502
  632.0000     3.3630     0.0467
  632.5000     3.3783     0.0533
  633.0000     3.3939     0.0602
  633.5000     3.3039     0.0560
  634.0000     2.8449     0.0698
  634.5000     2.8756     0.0626
  635.0000     3.0361     0.0701
  635.5000     2.8687     0.0719
  636.0000     2.9820     0.0628
  636.5000     3.1104     0.0585
  637.0000     3.2011     0.0375
  637.5000     3.1411     0.0336
  638.0000     3.0588     0.0495
  638.5000     3.1646     0.0631
  639.0000     3.4661     0.0781
  639.5000     3.5267     0.0729
  640.0000     3.4433     0.0850
  640.5000     3.4145     0.0916
  641.0000     3.4526     0.1039
  641.5000     3.2271     0.1054
  642.0000     3.4835     0.0897
  642.5000     3.5140     0.0873
  643.0000     3.4616     0.0837
  643.5000     3.2135     0.0933
  644.0000     3.3946     0.0836
  644.5000     3.3988     0.0854
  645.0000     3.2221     0.0869
  645.5000     3.3695     0.0860
  646.0000     3.4412     0.0878
  646.5000     3.5245     0.0959
  647.0000     3.6153     0.0908
  647.5000     3.6457     0.0874
  648.0000     3.6687     0.0748
  648.5000     3.4808     0.0836
  649.0000     3.3381     0.0724
  649.5000     3.3370     0.0633
  650.0000     3.1958     0.0603
  650.5000     3.4490     0.0483
  651.0000     3.5580     0.0380
  651.5000     3.4002     0.0302
  652.0000     3.3479     0.0145
  652.5000     3.3106    -0.0270
  653.0000     3.4240    -0.0532
  653.5000     3.7551    -0.0778
  654.0000     3.3780    -0.0848
  654.5000     3.5600    -0.0724
  655.0000     3.7033    -0.0523
  655.5000     3.7940    -0.0262
  656.0000     3.8723     0.0343
  656.5000     4.0554     0.0683
  657.0000     4.0810     0.0872
  657.5000     3.9608     0.0919
  658.0000     3.9913     0.1037
  658.5000     3.9314     0.0992
  659.0000     3.9090     0.1007
  659.5000     4.1955     0.1052
  660.0000     4.2635     0.1139
  660.5000     3.6690     0.1073
  661.0000     3.9931     0.1021
  661.5000     3.9934     0.1133
  662.0000     3.8491     0.1003
  662.5000     3.5986     0.0994
  663.0000     3.6103     0.0994
  663.5000     3.9118     0.0897
  664.0000     4.0025     0.0921
  664.5000     3.7317     0.0840
  665.0000     3.7922     0.0897
  665.5000     3.6042     0.0909
  666.0000     3.6347     0.0927
  666.5000     3.9157     0.0961
  667.0000     3.7256     0.0906
  667.5000     3.7184     0.0833
  668.0000     3.8470     0.0907
  668.5000     4.0051     0.1032
  669.0000     4.1410     0.1004
  669.5000     4.3370     0.1025
  670.0000     4.3901     0.0974
  670.5000     4.4958     0.0953
  671.0000     4.4735     0.1010
  671.5000     4.3458     0.1043
  672.0000     4.1880     0.0917
  672.5000     4.2033     0.0882
  673.0000     3.8346     0.0757
  673.5000     3.4584     0.0829
  674.0000     3.7720     0.0970
  674.5000     4.0314     0.0934
  675.0000     4.1747     0.0928
  675.5000     4.0018     0.0856
  676.0000     3.9043     0.0810
  676.5000     4.0250     0.0801
  677.0000     3.9199     0.0846
  677.5000     4.0181     0.0870
  678.0000     4.2851     0.0786
  678.5000     4.3048     0.0699
  679.0000     4.6440     0.0653
  679.5000     4.2565     0.0764
  680.0000     3.8314     0.0788
  680.5000     4.0124     0.0797
  681.0000     4.1256     0.0848
  681.5000     3.9678     0.0794
  682.0000     3.6669     0.0725
  682.5000     3.5542     0.0797
  683.0000     3.4716     0.0827
  683.5000     3.4344     0.0813
  684.0000     3.3669     0.0862
  684.5000     3.4575     0.0904
  685.0000     3.9031     0.0934
  685.5000     3.9262     0.0766
  686.0000     4.3696     0.0766
  686.5000     4.2494     0.0772
  687.0000     4.4079     0.0832
  687.5000     4.1296     0.0943
  688.0000     4.2728     0.0867
  688.5000     4.0699     0.0834
  689.0000     4.0551     0.0774
  689.5000     4.0554     0.0879
  690.0000     4.2515     0.0912
  690.5000     4.1836     0.0828
  691.0000     4.1542     0.0855
  691.5000     4.3805     0.0779
  692.0000     4.6067     0.0915
  692.5000     4.6521     0.0909
  693.0000     4.5018     0.0896
  693.5000     4.4418     0.0908
  694.0000     4.3744     0.0863
  694.5000     3.7573     0.0794
  695.0000     3.7801     0.0875
  695.5000     3.9386     0.0902
  696.0000     3.9010     0.0772
  696.5000     4.0601     0.0926
  697.0000     4.3385     0.0992
  697.5000     4.1958     0.0999
  698.0000     4.1058     0.0922
  698.5000     4.2491     0.1044
  699.0000     4.2419     0.1184
  699.5000     4.1443     0.1126
  700.0000     4.0692     0.0970
  700.5000     4.5214     0.1015
  701.0000     4.3335     0.0967
  701.5000     4.2963     0.0927
  702.0000     4.1385     0.0954
  702.5000     4.1164     0.0993
  703.0000     4.0188     0.1005
  703.5000     4.0041     0.1008
  704.0000     4.3208     0.0905
  704.5000     4.0652     0.0809
  705.0000     3.6589     0.0942
  705.5000     3.7421     0.0960
  706.0000     4.0136     0.0882
  706.5000     3.6902     0.0803
  707.0000     3.7056     0.0845
  707.5000     3.5252     0.0863
  708.0000     3.3599     0.0739
  708.5000     3.4808     0.0676
  709.0000     3.4209     0.0667
  709.5000     3.5720     0.0694
  710.0000     3.5949     0.0775
  710.5000     3.4672     0.0844
  711.0000     3.1814     0.0800
  711.5000     3.3098     0.0760
  712.0000     3.1446     0.0600
  712.5000     3.2981     0.0510
  713.0000     3.4315     0.0431
  713.5000     3.5147     0.0332
  714.0000     3.1813     0.0016
  714.5000     2.8754    -0.0249
  715.0000     3.0641    -0.0128
  715.5000     2.9515     0.0001
  716.0000     3.1853     0.0259
  716.5000     3.3664     0.0677
  717.0000     3.4345     0.0939
  717.5000     3.6005     0.1023
  718.0000     3.5708     0.0978
  718.5000     3.5804     0.1011
  719.0000     3.9495     0.0974
  719.5000     4.2422     0.0968
  720.0000     4.3404     0.0929
  720.5000     4.5064     0.0974
  721.0000     4.2583     0.0986
  721.5000     4.2210     0.0938
  722.0000     3.9955     0.0883
  722.5000     4.0260     0.0811
  723.0000     4.0715     0.0841
  723.5000     4.0415     0.0985
  724.0000     4.0110     0.1033
  724.5000     3.6134     0.1105
  725.0000     3.4255     0.0919
  725.5000     3.3881     0.0912
  726.0000     3.4940     0.1009
  726.5000     4.0892     0.1107
  727.0000     3.9766     0.1093
  727.5000     3.9883     0.1005
  728.0000     3.7741     0.1011
  728.5000     3.8847     0.0954
