~VERSION INFORMATION
 VERS.                2.0:   CWLS LOG ASCII STANDARD - VERSION 2.0
 WRAP.                 NO:   ONE LINE PER DEPTH STEP
~WELL INFORMATION
#MNEM.UNIT      DATA TYPE    INFORMATION
#----------   ------------   ------------------------------
 STRT.F           32.0000:   START DEPTH
 STOP.F          662.0000:   STOP DEPTH
 STEP.F            0.5000:   STEP LENGTH
 NULL.          -999.2500:   NO VALUE
 COMP.    FENIX & SCISSON:   COMPANY
 WELL.   NPR 67SX34 #3-34:   WELL
 FLD .             TEAPOT:   FIELD
 LOC .      S34 T39N R78W:   LOCATION
 CNTY.            NATRONA:   COUNTY
 STAT.            WYOMING:   STATE
 CTRY. UNITED STATES OF AMERICA:   COUNTRY
 SRVC.            Unknown:   SERVICE COMPANY
 DATE.        03-SEP-1978:   LOGDATE
 API .       490251070500:   API NUMBER
~CURVE INFORMATION
#MNEM.UNIT       API CODE    CURVE DESCRIPTION
#----------   ------------   ------------------------------
 DEPT.F                  :   
 ILD .OHMM   05 120 46 00:   INDUCTION LOG DEEP
 SN  .OHMM   05 040 00 00:   SHORT NORMAL
 SPR .MV     05 010 01 00:   SPONTANEOUS POTENTIAL FROM RES.
 CALD.IN     45 280 60 00:   CALIPER FROM DENSITY LOG
 DEN .G/C3   45 350 01 00:   COMPENSATED BULK DENSTIY
 DPHI.DEC    45 890 12 00:   DENSITY POROSITY SANDSTONE
 DRHO.G/C3   45 356 01 00:   DENSITY CORRECTION
 GRD .GAPI   45 310 01 00:   GAMMA RAY FROM DENSITY LOG
~PARAMETER INFORMATION
#MNEM.UNIT          VALUE    DESCRIPTION
#----------   ------------   ------------------------------
 PD  .                 GL:   PERMANENT DATUM
 EPD .F              5076:   ELEVATION PERMANENT DATUM
 LMF .                 KB:   LOG MEASURED FROM
 DAPD.F                 4:   FEET ABOVE PERMANENT DATUM
 DMF .                 KB:   DRILLING MEASURED FROM
 EKB .F              5080:   KELLING BUSHING
 EGL .F              5076:   GROUND LEVEL
 DATE.        03-SEP-1978:   RUN DATE
 RUN .                  1:   RUN NUMBER
 DD  .F               660:   DEPTH DRILLER
 DL  .F               662:   DEPTH LOGGER
 BLI .F               662:   BOTTOM LOG INTERVAL
 TLI .F                40:   TOP LOG INTERVAL
 CS  .IN            8.625:   CASING SIZE
 CBD .F                40:   CASING BOTTOM DRILLER
 BS  .IN            7.875:   BIT SIZE
 BSD .F               660:   BIT SIZE AT DEPTH
 DFT .                KCL:   DRILLING FLUID TYPE
 DFD .                9.0:   DRILLING FLUID DENSITY
 DFV .                 34:   DRILLING FLUID VISCOSITY
 MSS .           FLOWLINE:   MUD SAMPLE SOURCE
 RMS .OHMM            1.4:   RESISTIVITY MUD SAMPLE
 MST .F                65:   MUD SAMPLE TEMPERATURE
 RMF .OHMM            3.2:   RESISTIVITY MUD FILTRATE SAMPLE
 MFST.F                77:   MUD FILTRATE SAMPLE TEMPERATURE
 RMC .OHMM            2.1:   RESISTIVITY MUD CAKE
 MCST.F                78:   MUD CAKE SAMPLE TEMPERATURE
 MFSS.               MEAS:   MUD FILTRATE SAMPLE SOURCE
 TCS .HRS               1:   TIME CURCULATED STOPPED
 LUN .               3006:   LOGGING UNIT NUMBER
 LUL .               CASP:   LOGGING UNIT LOCATION
 ENGI.             MILLER:   RECORDING ENGINEER
 WITN.           MCGINLEY:   WITNESSED BY
 CLNT.            A2DTECH:   CLIENT CODE
 ORIG.        2" 5" PRINT:   ORIGIN OF DATA
 UWI .       490251070500:   UNIQUE WELL ID
 DICO. A2D Technologies, Inc.:   DIGITIZING COMPANY
~OTHER INFORMATION
~A   DEPT      ILD         SN        SPR       CALD        DEN       DPHI       DRHO         GRD  
# ...
  437.0000     5.3390     6.0112   -11.3563     7.7008     2.3797     0.2106    -0.0033    89.0344
  437.5000     5.4133     6.1361   -10.8897     7.6568     2.3564     0.2124    -0.0034    93.8077
  438.0000     5.5651     6.3950    -9.8461     7.6423     2.3557     0.2014     0.0061   104.3040
  438.5000     5.9225     6.8044    -8.7907     7.6878     2.4157     0.1793     0.0446   102.4613
  439.0000     6.4795     7.2400    -8.1863     7.7033     2.4533     0.1317     0.0160    95.4612
  439.5000     7.1381     8.0850    -7.8827     7.7039     2.4946     0.1160     0.0190    86.6726
  440.0000     7.8461     9.0915    -7.5784     7.7046     2.5246     0.0971     0.0219    85.1866
  440.5000     8.8445     9.5408    -7.5756     7.7052     2.5271     0.1128     0.0174    82.8065
  441.0000     9.3476     9.6057    -7.7238     7.7207     2.5149     0.1143     0.0128    82.0556
  441.5000     9.6764     9.6044    -7.8707     7.7561     2.5096     0.1110     0.0083    83.4411
  442.0000     9.6097     9.6029    -7.8671     7.7666     2.5066     0.1164     0.0082    85.6521
  442.5000     9.5435     9.7355    -7.4131     7.7970     2.5014     0.1173     0.0112    85.5063
  443.0000     9.6764     9.8694    -7.1096     7.8125     2.5006     0.1145     0.0141    85.2126
  443.5000     9.9478    10.0061    -6.8060     7.8132     2.5044     0.1176     0.0171    84.6219
  444.0000    10.2977    10.3554    -6.3513     7.8138     2.5052     0.1290     0.0201    84.3271
  444.5000    10.9589    10.6442    -5.8973     7.8144     2.4969     0.1317     0.0185    84.3325
  445.0000    11.5822    11.0933    -5.4433     7.8150     2.4864     0.1365     0.0185    84.3368
  445.5000    12.3259    11.6415    -4.5383     7.8156     2.4803     0.1395     0.0186    83.2185
  446.0000    13.3000    12.4723    -3.4507     7.8161     2.4654     0.1524     0.0214    76.5969
  446.5000    14.2681    13.0887    -1.9755     7.8167     2.4542     0.1617     0.0228    67.6594
  447.0000    15.3786    13.6409    -0.9200     7.8174     2.4391     0.1656     0.0243    59.9141
  447.5000    16.4796    14.0213    -0.0149     7.8180     2.4301     0.1714     0.0242    58.4270
  448.0000    17.4169    14.4203     0.7479     7.7886     2.4249     0.1880     0.0257    59.4756
  448.5000    18.0296    14.9165     1.0441     7.7742     2.4024     0.2187     0.0212    60.2251
  449.0000    18.4075    15.4389     1.3477     7.7750     2.3672     0.2427     0.0120    61.1435
  449.5000    18.9237    15.7602     1.6513     7.7606     2.3123     0.2445     0.0226    60.5329
  450.0000    19.1885    15.9774     1.8045     7.7612     2.3071     0.2328     0.0420    55.7675
  450.5000    19.5908    16.5377     2.2556     7.7412     2.3062     0.1947     0.0529    53.5320
  451.0000    19.8842    16.8832     2.5564     7.7173     2.3025     0.1797     0.0645    50.4024
  451.5000    20.0044    17.4752     2.7068     7.7028     2.3018     0.1788     0.0719    49.0611
  452.0000    20.1445    17.9638     2.8571     7.7033     2.3055     0.1806     0.0644    48.6140
  452.5000    20.4263    17.9623     2.5564     7.7038     2.2965     0.1836     0.0538    48.6140
  453.0000    20.5818    17.9612     2.4060     7.6744     2.2755     0.1908     0.0583    49.2101
  453.5000    21.0023    17.9600     2.4060     7.6449     2.2695     0.1929     0.0688    50.4332
  454.0000    21.2961    18.0834     2.4060     7.6155     2.2740     0.1911     0.0852    57.5559
  454.5000    21.1504    17.9574     2.4060     7.5858     2.2929     0.1836     0.0912    54.7243
  455.0000    20.7179    17.8325     2.5564     7.5269     2.3002     0.1800     0.0746    52.6379
  455.5000    20.5764    17.8314     2.5564     7.4677     2.3002     0.1794     0.0641    51.5946
  456.0000    20.2952    17.7074     2.7068     7.4382     2.3010     0.1812     0.0370    50.7004
  456.5000    20.1566    17.4633     3.0075     7.4237     2.2649     0.1866     0.0009    48.7630
  457.0000    20.0194    17.4619     3.0075     7.4391     2.2567     0.2079    -0.0021    47.4218
  457.5000    20.0210    17.4607     3.0075     7.4396     2.2657     0.2281     0.0008    46.2295
  458.0000    20.1612    17.4596     3.3083     7.4250     2.2701     0.2412     0.0023    46.8535
  458.5000    20.4433    17.4584     3.3083     7.4106     2.3092     0.2364     0.0022    50.2534
  459.0000    20.5865    17.4570     3.3083     7.4110     2.3160     0.2301     0.0037    51.8927
  459.5000    20.3051    17.4559     3.3083     7.3943     2.3287     0.2268     0.0052    52.9359
  460.0000    20.1666    17.3346     3.3083     7.3821     2.3317     0.2319     0.0036    51.7437
  460.5000    20.0289    17.3334     3.3083     7.3826     2.3174     0.2376     0.0036    51.1475
  461.0000    19.7553    17.3320     3.3083     7.4129     2.3114     0.2436     0.0020    51.2966
  461.5000    19.6205    17.2116     3.0075     7.4283     2.3069     0.2446     0.0020    52.7869
  462.0000    19.3526    16.8574     2.8571     7.4585     2.3121     0.2306     0.0019    57.5559
  462.5000    18.9563    16.5105     2.8571     7.4739     2.3211     0.2318     0.0018    60.1019
  463.0000    18.4406    16.0591     3.1579     7.5042     2.3219     0.2337     0.0003    59.3443
  463.5000    18.1886    15.9475     3.4586     7.5354     2.3220     0.2325     0.0003    59.0462
  464.0000    18.1900    15.8366     3.7594     7.5648     2.3249     0.2027     0.0002    59.6423
  464.5000    18.1912    15.8356     3.0075     7.5952     2.3068     0.1719    -0.0013    58.5991
  465.0000    18.1924    15.6170     2.8571     7.5956     2.2933     0.1845    -0.0029    56.9598
  465.5000    18.1936    15.2956     2.5564     7.5960     2.2790     0.1884    -0.0044    53.9791
  466.0000    18.0694    15.0847     2.3900     7.6114     2.2505     0.2010     0.0001    53.3830
  466.5000    17.9461    14.7743     2.1053     7.6118     2.2535     0.2118     0.0215    53.5320
  467.0000    17.4579    14.4700     1.9549     7.5973     2.2738     0.2181     0.0435    54.2990
  467.5000    16.9828    14.2705     1.8045     7.5679     2.3098     0.2007     0.0525    56.6617
  468.0000    16.2940    13.8806     1.8045     7.5373     2.3796     0.1926     0.0419    59.3443
  468.5000    15.3119    13.5949     1.8045     7.4942     2.3841     0.1959     0.0419    61.7288
  469.0000    14.8951    13.4075     1.9549     7.4947     2.3818     0.2004     0.0433    64.2623
  469.5000    14.7934    13.3141     1.9549     7.5250     2.3766     0.2025     0.0433    66.1997
  470.0000    14.7945    13.2215     1.8045     7.5403     2.3758     0.1932     0.0477    64.8584
  470.5000    14.7956    13.1297     1.8045     7.5408     2.3796     0.1830     0.0583    61.7288
  471.0000    14.8993    13.0384     1.8045     7.5561     2.3886     0.1770     0.0702    61.2817
  471.5000    15.0036    12.9476     1.8045     7.5864     2.3961     0.1833     0.0791    61.8873
  472.0000    15.1087    12.9467     1.8045     7.6167     2.4058     0.1884     0.0911    62.7978
  472.5000    15.1100    12.9459     1.8045     7.6321     2.3968     0.1859     0.0956    63.2191
  473.0000    15.1109    12.9450     1.9549     7.6326     2.3998     0.1812     0.0985    63.5171
  473.5000    15.0075    12.9441     2.1053     7.6331     2.4036     0.1764     0.1015    63.9642
  474.0000    14.9053    12.9431     2.2556     7.6335     2.4103     0.1713     0.1074    63.5171
  474.5000    14.9066    13.0322     2.2556     7.6426     2.4155     0.1653     0.1212    62.9210
  475.0000    15.0110    13.0312     2.4060     7.6643     2.4215     0.1671     0.1404    65.0075
  475.5000    14.9083    12.9404     2.4060     7.6796     2.4290     0.1719     0.1328    65.7611
  476.0000    15.0129    12.9395     2.4060     7.6800     2.4162     0.1743     0.1058    64.8345
  476.5000    15.1183    13.0286     2.4060     7.6654     2.4110     0.1953     0.0847    63.0457
  477.0000    15.1193    12.9379     2.5564     7.6660     2.3855     0.2043     0.0741    61.2817
