~VERSION INFORMATION
 VERS.                2.0:   CWLS LOG ASCII STANDARD - VERSION 2.0
 WRAP.                 NO:   ONE LINE PER DEPTH STEP
~WELL INFORMATION
#MNEM.UNIT      DATA TYPE    INFORMATION
#----------   ------------   ------------------------------
 STRT.F           28.0000:   START DEPTH
 STOP.F          687.0000:   STOP DEPTH
 STEP.F            0.5000:   STEP LENGTH
 NULL.          -999.2500:   NO VALUE
 COMP. LAWRENCE/ALLISON INC:   COMPANY
 WELL.      41 STX #15-15:   WELL
 FLD .             TEAPOT:   FIELD
 LOC .      S15 T38N R78W:   LOCATION
 CNTY.            NATRONA:   COUNTY
 STAT.            WYOMING:   STATE
 CTRY. UNITED STATES OF AMERICA:   COUNTRY
 SRVC.           Gearhart:   SERVICE COMPANY
 DATE.        24-AUG-1987:   LOGDATE
 API .       490251118800:   API NUMBER
~CURVE INFORMATION
#MNEM.UNIT       API CODE    CURVE DESCRIPTION
#----------   ------------   ------------------------------
 DEPT.F                  :   
 GRR .GAPI   07 310 01 00:   GAMMA RAY
 ILD .OHMM   07 120 46 00:   INDUCTION LOG DEEP
 ILM .OHMM   07 120 44 00:   INDUCTION LOG MEDIUM
~PARAMETER INFORMATION
#MNEM.UNIT          VALUE    DESCRIPTION
#----------   ------------   ------------------------------
 PD  .                 GL:   PERMANENT DATUM
 EPD .F              5230:   ELEVATION PERMANENT DATUM
 LMF .                 KB:   LOG MEASURED FROM
 DAPD.F              10.5:   FEET ABOVE PERMANENT DATUM
 DMF .                 KB:   DRILLING MEASURED FROM
 EKB .F            5240.5:   KELLING BUSHING
 EDF .F            5239.5:   DRILLING FLOOR
 EGL .F              5230:   GROUND LEVEL
 DATE.        24-AUG-1987:   RUN DATE
 RUN .                  1:   RUN NUMBER
 DD  .F               693:   DEPTH DRILLER
 DL  .F               695:   DEPTH LOGGER
 BLI .F               687:   BOTTOM LOG INTERVAL
 TLI .F                30:   TOP LOG INTERVAL
 CS  .IN            9.625:   CASING SIZE
 CBD .F                48:   CASING BOTTOM DRILLER
 CBL .F                48:   CASING BOTTOM LOGGER
 BS  .IN             8.75:   BIT SIZE
 BSD .F               693:   BIT SIZE AT DEPTH
 DFT .                AIR:   DRILLING FLUID TYPE
 TCS .HRS            0700:   TIME CURCULATED STOPPED
 TLAB.HRS            0617:   TIME LOGGER AT BOTTOM
 MRT .F                80:   MAXIMUM RECORDED TEMPERATURE
 LUN .               7597:   LOGGING UNIT NUMBER
 LUL .           GILLETTE:   LOGGING UNIT LOCATION
 ENGI.         WEATHERMON:   RECORDING ENGINEER
 WITN.             STRONG:   WITNESSED BY
 CLNT.            A2DTECH:   CLIENT CODE
 ORIG.       2", 5" PRINT:   ORIGIN OF DATA
 UWI .       490251118800:   UNIQUE WELL ID
 DICO. A2D Technologies, Inc.:   DIGITIZING COMPANY
~OTHER INFORMATION
~A   DEPT       GRR       ILD        ILM   
# ...
  392.0000   147.2870     8.0220     7.9888
  392.5000   150.2742     7.7498     7.8253
  393.0000   153.0051     7.7509     7.5596
  393.5000   155.7360     7.6405     7.3027
  394.0000   158.4669     7.3187     7.0024
  394.5000   154.5513     6.9404     6.8081
  395.0000   151.8441     6.8456     6.6763
  395.5000   151.5509     6.6136     6.5852
  396.0000   152.1699     6.2578     6.4059
  396.5000   153.3903     6.0452     6.0191
  397.0000   156.4233     6.0043     5.5392
  397.5000   160.6647     6.0891     5.3509
  398.0000   156.3262     6.1323     5.5024
  398.5000   148.1994     6.2620     5.9808
  399.0000   144.9933     6.4389     6.1498
  399.5000   143.1925     6.7599     6.3677
  400.0000   143.8079     6.9509     6.9213
  400.5000   146.8438     7.2558     7.2666
  401.0000   148.6713     7.4607     7.1111
  401.5000   150.8009     7.5045     7.2686
  402.0000   151.4199     7.3003     7.2723
  402.5000   149.1692     7.2008     7.3212
  403.0000   140.2749     7.1521     7.1221
  403.5000   138.1749     6.6743     6.5998
  404.0000   137.5818     6.1001     6.0316
  404.5000   140.0172     5.9754     5.4364
  405.0000   142.1467     5.8939     4.9000
  405.5000   145.1827     5.8136     4.7664
  406.0000   146.7080     5.7743     4.9013
  406.5000   141.2848     5.7751     5.1458
  407.0000   139.7890     5.8162     5.3667
  407.5000   139.8038     5.8982     5.6420
  408.0000   144.7332     6.4105     5.9967
  408.5000   147.9910     7.0158     6.3838
  409.0000   148.0089     7.2642     6.8908
  409.5000   146.8152     7.4178     7.1845
  410.0000   143.5068     7.8417     7.2859
  410.5000   138.9898     8.1193     7.3886
  411.0000   135.0771     8.2910     7.7572
  411.5000   132.0708     8.4079     8.0321
  412.0000   133.8982     8.6502     8.2020
  412.5000   135.1215     8.7168     8.2032
  413.0000   136.0426     8.8297     8.1476
  413.5000   135.7553     8.8513     8.2056
  414.0000   137.3375     8.8935     8.2068
  414.5000   138.5589     8.8947     8.2079
  415.0000   139.1266     8.8345     8.2090
  415.5000   139.7456     8.8357     8.1534
  416.0000   139.7604     8.7150     8.0981
  416.5000   138.8688     8.6562     8.1556
  417.0000   136.1646     8.6606     8.2706
  417.5000   133.7625     8.6586     8.3873
  418.0000   132.5688     8.7200     8.2645
  418.5000   133.4899     8.7215     8.0476
  419.0000   135.9216     8.6621     7.9381
  419.5000   137.7774     8.7238     7.9944
  420.0000   138.9728     8.6645     8.0511
  420.5000   135.6675     8.6658     8.1647
  421.0000   130.8485     8.6671     8.1657
  421.5000   129.3527     8.5490     8.2237
  422.0000   128.1590     8.2019     8.1680
  422.5000   126.9617     7.7070     8.1126
  423.0000   127.2822     7.4455     7.9343
  423.5000   130.9224     7.4983     7.3133
  424.0000   135.1668     7.6041     6.6375
  424.5000   146.6619     7.7114     6.5467
  425.0000   148.1873     7.7125     6.8261
  425.5000   140.5711     7.8212     7.2165
  426.0000   133.3372     8.4419     7.6292
  426.5000   124.0662     8.9864     8.2352
  427.0000   124.9873     9.1765     8.7062
  427.5000   125.9084     9.4357     9.2682
  428.0000   125.9232     9.9749     9.4696
  428.5000   125.6322    10.1859     9.6647
  429.0000   125.3449    10.2581     9.6662
  429.5000   126.2697    10.3473     9.6675
  430.0000   129.6077    11.3854     9.8721
  430.5000   129.6364    12.2040    10.2219
  431.0000   128.0905    12.8124    10.2944
  431.5000   121.3424    13.4511    10.8833
  432.0000   108.5225    14.6196    12.4179
  432.5000   101.5887    16.9121    14.4668
  433.0000    91.6337    18.2543    16.9711
  433.5000    84.6998    19.7030    18.8343
  434.0000    75.3491    22.4790    21.9418
  434.5000    68.4152    24.2629    24.1836
  435.0000    66.3115    25.6615    25.7615
  435.5000    66.6321    26.2201    26.1075
  436.0000    70.5744    26.3786    26.1110
  436.5000    73.3082    26.1991    26.1145
  437.0000    74.2537    26.2035    26.1181
  437.5000    75.2517    26.2071    25.0569
  438.0000    78.4922    26.2106    24.3738
  438.5000    80.6218    26.2142    24.8905
  439.0000    81.8450    26.2178    25.2416
  439.5000    83.0683    26.5873    25.4207
  440.0000    83.0831    26.9620    25.7793
  440.5000    82.4936    27.1532    25.7829
  441.0000    80.6957    27.1570    25.6089
  441.5000    78.8978    27.3504    25.4345
  442.0000    73.1724    27.9288    25.6158
  442.5000    69.2597    28.5194    25.7976
  443.0000    70.8217    28.5233    26.1614
  443.5000    70.5014    28.3291    26.1648
  444.0000    69.9120    28.1373    26.1685
  444.5000    70.2289    27.7538    26.1721
  445.0000    71.7542    27.3764    25.8150
  445.5000    72.0674    26.8167    25.2643
  446.0000    71.7801    26.2685    24.4292
  446.5000    72.7049    25.7209    23.5998
  447.0000    75.7409    25.3807    22.4844
  447.5000    79.9853    25.2089    21.5709
  448.0000    81.8127    25.0382    21.4240
  448.5000    81.8278    24.5263    21.5768
  449.0000    81.8429    24.1920    21.7299
  449.5000    81.8608    24.0282    21.7328
  450.0000    81.6222    23.9988    21.7357
  450.5000    80.3734    23.8690    21.7374
  451.0000    80.0832    23.3810    21.7388
  451.5000    81.9108    22.9038    21.7403
  452.0000    83.7353    22.7480    21.0008
  452.5000    84.6536    22.4386    20.5650
  453.0000    85.2697    22.1328    20.2878
  453.5000    87.0943    21.8311    19.7095
  454.0000    91.6379    21.3848    19.1954
  454.5000    93.7645    20.7997    19.1970
  455.0000    94.9849    20.3637    19.0656
  455.5000    95.2989    19.9611    18.6743
  456.0000    92.7332    19.8259    18.5462
  456.5000    88.9812    19.5564    18.4193
  457.0000    90.5037    19.2898    18.0415
  457.5000    93.8388    19.0269    17.4278
  458.0000    96.8719    18.7675    16.9521
  458.5000   100.8113    18.6398    16.7197
  459.0000   102.3337    18.6430    16.7209
  459.5000   103.2519    18.7752    16.6064
  460.0000   102.0554    18.7777    16.4776
  460.5000    97.2334    18.7803    16.2667
  461.0000    96.6381    18.6531    16.3813
  461.5000    98.4657    18.7981    16.4964
  462.0000   100.2902    19.3162    16.8444
  462.5000   100.6042    19.5890    16.9628
  463.0000   100.6161    19.7279    17.2009
  463.5000    99.0373    19.5936    17.4423
  464.0000    97.3166    19.5970    17.6872
  464.5000    97.9357    19.5996    17.8115
  465.0000    98.8539    19.6023    17.8127
  465.5000    99.7722    19.6050    17.9379
  466.0000    97.0650    19.4716    17.8151
  466.5000    95.8655    19.3403    17.5709
  467.0000    97.6930    19.2094    17.3301
  467.5000    98.9134    19.0772    17.0928
  468.0000    97.7168    18.5483    16.9755
  468.5000    95.0067    18.0341    16.7431
  469.0000    94.4169    17.6861    16.2861
  469.5000    99.2630    17.3252    15.8416
  470.0000   101.2387    16.9710    15.4092
  470.5000   101.4016    16.7391    15.4102
  471.0000   100.5072    16.6257    15.3045
  471.5000    99.9178    16.6286    15.2000
  472.0000    96.3043    16.6308    15.0960
  472.5000    94.5035    16.6331    15.0970
  473.0000    94.2103    16.6354    15.1023
  473.5000    96.0378    16.2953    15.2042
  474.0000    97.8624    16.2975    15.2055
  474.5000    98.1734    16.2998    15.3123
  475.0000    96.9798    16.1708    15.3134
  475.5000    96.0824    15.9687    15.2086
  476.0000    96.0973    15.8605    15.1042
  476.5000    96.7134    15.7531    14.8974
  477.0000    98.2358    15.5389    14.6930
  477.5000   100.0604    15.4332    14.3916
  478.0000   101.9054    15.4358    14.3926
  478.5000   101.8570    15.4379    14.4938
  479.0000    99.7969    15.4400    14.5956
  479.5000    97.0898    15.2296    14.5966
  480.0000    95.8902    15.1264    14.1917
  480.5000    98.6241    15.0240    13.7974
  481.0000    99.5424    14.9223    13.6214
  481.5000    98.9500    14.8212    13.5282
  482.0000    97.4484    14.7209    13.5293
  482.5000    98.0675    14.7234    13.5302
