~VERSION INFORMATION
 VERS.                2.0:   CWLS LOG ASCII STANDARD - VERSION 2.0
 WRAP.                 NO:   ONE LINE PER DEPTH STEP
~WELL INFORMATION
#MNEM.UNIT      DATA TYPE    INFORMATION
#----------   ------------   ------------------------------
 STRT.F            6.0000:   START DEPTH
 STOP.F          534.0000:   STOP DEPTH
 STEP.F            0.5000:   STEP LENGTH
 NULL.          -999.2500:   NO VALUE
 COMP. LAWRENCE/ALLISON INC:   COMPANY
 WELL.     NPR3 #33-66 SX:   WELL
 FLD .          MPR NO. 3:   FIELD
 LOC .      S10 T38N R78W:   LOCATION
 CNTY.            NATRONA:   COUNTY
 STAT.            WYOMING:   STATE
 CTRY. UNITED STATES OF AMERICA:   COUNTRY
 SRVC.           Gearhart:   SERVICE COMPANY
 DATE.        20-JUN-1986:   LOGDATE
 API .       490251109300:   API NUMBER
~CURVE INFORMATION
#MNEM.UNIT       API CODE    CURVE DESCRIPTION
#----------   ------------   ------------------------------
 DEPT.F                  :   
 GRR .GAPI   07 310 01 00:   GAMMA RAY
 RILD.OHMM   07 120 46 00:   INDUCTION LOG DEEP
 RILM.OHMM   07 120 44 00:   INDUCTION LOG MEDIUM
~PARAMETER INFORMATION
#MNEM.UNIT          VALUE    DESCRIPTION
#----------   ------------   ------------------------------
 PD  .                 GL:   PERMANENT DATUM
 EPD .F              5213:   ELEVATION PERMANENT DATUM
 LMF .                 KB:   LOG MEASURED FROM
 DMF .                 KB:   DRILLING MEASURED FROM
 EKB .F              5218:   KELLING BUSHING
 EGL .F              5213:   GROUND LEVEL
 DATE.        20-JUN-1986:   RUN DATE
 RUN .                  1:   RUN NUMBER
 DD  .F               555:   DEPTH DRILLER
 DL  .F               548:   DEPTH LOGGER
 BLI .F               539:   BOTTOM LOG INTERVAL
 CS  .IN            8.625:   CASING SIZE
 CBD .F                47:   CASING BOTTOM DRILLER
 CBL .F                39:   CASING BOTTOM LOGGER
 BS  .IN            7.875:   BIT SIZE
 BSD .F               555:   BIT SIZE AT DEPTH
 DFT .                AIR:   DRILLING FLUID TYPE
 TCS .HRS            0300:   TIME CURCULATED STOPPED
 TLAB.HRS            0500:   TIME LOGGER AT BOTTOM
 MRT .F                64:   MAXIMUM RECORDED TEMPERATURE
 LUN .               7609:   LOGGING UNIT NUMBER
 LUL .           GILLETTE:   LOGGING UNIT LOCATION
 ENGI.            WANGLER:   RECORDING ENGINEER
 WITN.              FIVAS:   WITNESSED BY
 CLNT.            A2DTECH:   CLIENT CODE
 ORIG.           5" PRINT:   ORIGIN OF DATA
 UWI .       490251109300:   UNIQUE WELL ID
 DICO. A2D Technologies, Inc.:   DIGITIZING COMPANY
~OTHER INFORMATION
~A    DEPT     GRR       RILD       RILM   
# ...
  279.0000   130.1430     6.7517     7.4672
  279.5000   127.4449     6.5186     7.4141
  280.0000   126.6370     6.2936     7.3099
  280.5000   127.8394     6.1190     7.0574
  281.0000   125.6895     5.9910     6.5791
  281.5000   126.5876     5.8657     6.2634
  282.0000   128.3988     5.7430     5.9629
  282.5000   130.2139     5.7024     5.8791
  283.0000   125.6287     5.8224     5.8373
  283.5000   123.1820     5.9451     5.9188
  284.0000   124.3844     6.1559     6.1289
  284.5000   126.8007     6.4191     6.3911
  285.0000   125.2634     6.6934     6.7113
  285.5000   119.4644     6.9309     7.0475
  286.0000   116.1006     7.2778     7.3490
  286.5000   114.2589     7.6422     7.6099
  287.0000   112.7216     7.6948     7.8800
  287.5000   112.4020     7.5338     8.0462
  288.0000   113.6045     7.2230     8.0451
  288.5000   114.5025     6.9250     7.7129
  289.0000   116.3138     6.6428     6.8462
  289.5000   119.3427     6.3611     6.8452
  290.0000   121.7628     6.0601     6.7490
  290.5000   123.2697     5.9750     6.0751
  291.0000   124.1715     5.9325     6.0319
  291.5000   119.5863     5.9734     5.9889
  292.0000   116.8314     6.0147     6.0302
  292.5000   114.3808     6.1844     6.0731
  293.0000   116.4965     6.3590     6.2920
  293.5000   121.9608     6.6774     6.8600
  294.0000   122.8626     6.9143     8.0892
  294.5000   121.6259     7.2604     9.3183
  295.0000   121.3063     7.5179    10.9273
  295.5000   122.8132     7.7303    12.4809
  296.0000   124.9289     7.8932    13.1067
  296.5000   122.1739     8.0034    12.7424
  297.0000   121.2455     8.2294    11.7959
  297.5000   121.5385     8.4029    10.3972
  298.0000   123.9548     8.5201     9.4910
  298.5000   124.2478     8.6393     9.2275
  299.0000   121.1847     8.6378     9.2262
  299.5000   116.9076     8.5764     9.2249
  300.0000   115.3742     8.6357     9.2120
  300.5000   115.6622     8.6350     9.1398
  301.0000   114.7262     8.6342     9.0279
  301.5000   113.7948     8.5734     8.9630
  302.0000   114.0810     8.5728     8.9611
  302.5000   112.8451     8.6326     8.8967
  303.0000   111.3049     8.6446     8.8949
  303.5000   110.6824     8.6589     8.8930
  304.0000   114.9215     8.6732     8.8911
  304.5000   119.4695     8.6875     8.8893
  305.0000   121.2785     8.7511     8.8874
  305.5000   120.0419     8.8120     8.9480
  306.0000   118.8061     8.9982     8.9462
  306.5000   118.4835     8.8725     9.0705
  307.0000   118.4653     8.5668     9.1970
  307.5000   117.8383     8.0997     9.1946
  308.0000   117.2113     7.7120     8.6917
  308.5000   115.9754     7.2915     7.9894
  309.0000   115.0440     6.8940     7.3954
  309.5000   115.0208     6.6565     6.8937
  310.0000   118.6606     6.5635     6.5625
  310.5000   129.3069     6.5173     6.2911
  311.0000   129.5831     6.5627     6.4685
  311.5000   119.9147     6.7484     6.9851
  312.0000   109.9624     7.0373     7.9220
  312.5000   106.0375     7.6323     9.3048
  313.0000   104.8524     8.3318    11.6400
  313.5000   104.7986     9.0313    13.2941
  314.0000   103.5170     9.7258    13.7650
  314.5000   102.6674    10.3488    13.7706
  315.0000   105.8448    10.7305    12.7390
  315.5000   110.1594    11.1926    11.3861
  316.0000   113.2673    11.5603    10.8391
  316.5000   112.0269    11.7224    10.9897
  317.0000   108.9646    11.9705    11.3800
  317.5000   105.9022    12.3958    11.8704
  318.0000    99.4913    13.1087    12.4725
  318.5000    88.5143    14.1568    13.3733
  319.0000    83.9298    15.1067    14.5861
  319.5000    82.6940    16.9201    16.8805
  320.0000    81.7626    18.7336    18.7393
  320.5000    74.4384    20.5470    20.6970
  321.0000    63.4613    22.3604    22.8092
  321.5000    60.3990    24.0871    24.6412
  322.0000    61.2941    25.4725    26.6854
  322.5000    63.1024    26.7496    28.0205
  323.0000    68.8680    26.9361    28.6111
  323.5000    74.6337    27.1234    28.6036
  324.0000    80.0950    27.1210    28.1998
  324.5000    77.0327    27.5019    27.8017
  325.0000    72.1439    28.0829    27.7959
  325.5000    66.3418    28.6768    27.9869
  326.0000    65.4104    29.0795    28.5737
  326.5000    63.5657    29.4869    29.5859
  327.0000    61.1122    29.6924    30.6339
  327.5000    59.2675    30.1088    31.4977
  328.0000    58.6405    30.7450    32.1599
  328.5000    60.1444    30.9593    33.2991
  329.0000    61.9527    30.9566    33.5279
  329.5000    63.4566    30.7386    33.2852
  330.0000    65.5693    30.0978    32.1330
  330.5000    67.3776    29.2649    30.3756
  331.0000    69.1859    28.4550    28.7144
  331.5000    70.0855    27.4746    27.5270
  332.0000    70.0627    26.5279    26.5741
  332.5000    69.7401    25.4352    25.8345
  333.0000    68.8087    24.9050    25.4698
  333.5000    67.8773    24.7296    25.1103
  334.0000    66.9458    24.5554    24.9298
  334.5000    65.4056    24.7262    25.1011
  335.0000    66.3006    25.0730    25.2709
  335.5000    66.8913    25.4246    25.6220
  336.0000    68.6995    25.6014    26.1606
  336.5000    71.4211    25.9605    26.8983
  337.0000    75.6647    25.9586    27.0820
  337.5000    78.9951    25.9568    26.8871
  338.0000    79.8904    25.5942    26.3225
  338.5000    79.8719    25.0607    25.5899
  339.0000    79.5493    24.5383    24.8777
  339.5000    78.9223    24.1955    24.5265
  340.0000    78.5997    24.0251    24.1803
  340.5000    76.7448    23.6895    24.0065
  341.0000    73.9868    23.3586    23.6676
  341.5000    71.2390    23.1860    23.4975
  342.0000    71.3019    22.8594    23.0020
  342.5000    76.1746    22.6958    22.6794
  343.0000    81.0472    22.2356    22.3509
  343.5000    84.0223    21.9250    22.0322
  344.0000    84.5425    21.6187    21.5806
  344.5000    82.6058    21.4664    21.4255
  345.0000    80.3957    21.1665    21.1230
  345.5000    78.3430    20.8709    20.9712
  346.0000    76.5504    20.7236    20.9414
  346.5000    78.3587    20.7221    20.8161
  347.0000    81.6891    20.7207    20.6656
  347.5000    84.1062    20.8651    20.5171
  348.0000    81.9571    21.0102    20.6580
  348.5000    79.1992    21.1563    20.6526
  349.0000    78.2677    21.3034    20.6483
  349.5000    76.7275    21.4515    20.6440
  350.0000    76.4094    21.4428    20.6602
  350.5000    79.1300    21.3564    20.8946
  351.0000    81.8545    21.2914    21.2150
  351.5000    83.0608    21.4365    21.2091
  352.0000    81.8242    21.4319    21.3522
  352.5000    80.2870    21.4274    21.3312
  353.0000    79.0542    21.4229    21.1912
  353.5000    78.1258    21.3905    21.0374
  354.0000    79.3321    21.2637    20.8847
  354.5000    80.5346    21.1110    20.7071
  355.0000    81.4326    20.8132    20.2952
  355.5000    78.6740    20.5196    19.8677
  356.0000    75.9191    20.2302    19.7235
  356.5000    75.5995    19.9448    19.5804
  357.0000    75.8888    19.6635    19.4383
  357.5000    76.7869    19.6594    19.2973
  358.0000    77.9893    19.3821    19.1572
  358.5000    77.6698    19.1087    19.1519
  359.0000    80.0899    19.1047    19.0129
  359.5000    82.5101    18.9675    19.0076
  360.0000    83.1076    18.9635    18.8697
  360.5000    80.3489    18.9596    18.7328
  361.0000    80.0293    18.8234    18.8605
  361.5000    81.5362    18.8195    18.7223
  362.0000    81.8255    18.8156    18.7171
  362.5000    81.8103    18.9438    18.7119
  363.0000    80.8819    18.9398    18.7067
  363.5000    81.1712    18.9359    18.8342
  364.0000    82.9825    18.9319    18.6962
  364.5000    86.0115    18.9280    18.6910
  365.0000    89.0405    18.9240    18.2973
  365.5000    90.5474    18.7881    18.0377
  366.0000    88.7057    18.5231    18.0327
  366.5000    82.6023    18.5192    17.7769
  367.0000    77.1077    18.5154    17.5247
  367.5000    73.7440    18.5115    17.5199
  368.0000    73.4244    18.5077    17.5150
  368.5000    74.6269    18.4277    17.3879
  369.0000    76.7426    18.2697    17.5064
  369.5000    78.5540    18.1116    17.7484
