~VERSION INFORMATION
 VERS.                2.0:   CWLS LOG ASCII STANDARD - VERSION 2.0
 WRAP.                 NO:   ONE LINE PER DEPTH STEP
~WELL INFORMATION
#MNEM.UNIT      DATA TYPE    INFORMATION
#----------   ------------   ------------------------------
 STRT.F           60.0000:   START DEPTH
 STOP.F          482.0000:   STOP DEPTH
 STEP.F            0.5000:   STEP LENGTH
 NULL.          -999.2500:   NO VALUE
 COMP. BROWN JOHN E&C INC:   COMPANY
 WELL. NPR 3 68 SX-3 #68-1-3:   WELL
 FLD .             TEAPOT:   FIELD
 LOC .       S3 T38N R78W:   LOCATION
 CNTY.            NATRONA:   COUNTY
 STAT.            WYOMING:   STATE
 CTRY. UNITED STATES OF AMERICA:   COUNTRY
 SRVC.     Atlas Wireline:   SERVICE COMPANY
 DATE.        29-SEP-1991:   LOGDATE
 API .       490252244800:   API NUMBER
~CURVE INFORMATION
#MNEM.UNIT       API CODE    CURVE DESCRIPTION
#----------   ------------   ------------------------------
 DEPT.F                  :   
 CALD.IN     45 280 60 00:   CALIPER FROM DENSITY LOG
 CNC .DEC    42 890 03 00:   NEUTRON POROSITY SANDSTONE
 CORR.G/C3   45 356 01 00:   DENSITY CORRECTION
 GRD .GAPI   45 310 01 00:   GAMMA RAY FROM DENSITY LOG
 PORD.DEC    45 890 12 00:   POROSITY DENSITY SANDSTONE
 RHOB.G/C3   45 350 01 00:   BULK DENSITY
 RFOC.OHMM   07 220 04 00:   RESISTIVITY FOCUSED LOG
 RILD.OHMM   07 120 46 00:   RESISTIVITY INDUCTION LOG DEEP
 RILM.OHMM   07 120 44 00:   RESISTIVITY INDUCTION LOG MEDIUM
~PARAMETER INFORMATION
#MNEM.UNIT          VALUE    DESCRIPTION
#----------   ------------   ------------------------------
 PD  .                 GL:   PERMANENT DATUM
 EPD .F              5153:   ELEVATION PERMANENT DATUM
 LMF .                 KB:   LOG MEASURED FROM
 DAPD.F                10:   FEET ABOVE PERMANENT DATUM
 DMF .                 KB:   DRILLING MEASURED FROM
 EKB .F              5163:   KELLING BUSHING
 EGL .F              5153:   GROUND LEVEL
 DATE.        29-SEP-1991:   RUN DATE
 RUN .                  1:   RUN NUMBER
 DD  .F               485:   DEPTH DRILLER
 DL  .F               485:   DEPTH LOGGER
 BLI .F               482:   BOTTOM LOG INTERVAL
 CS  .IN            8.625:   CASING SIZE
 CBD .F                98:   CASING BOTTOM DRILLER
 CBL .F               100:   CASING BOTTOM LOGGER
 BS  .IN            7.875:   BIT SIZE
 BSD .F               485:   BIT SIZE AT DEPTH
 DFT .           CHEM GEL:   DRILLING FLUID TYPE
 DFD .               15.4:   DRILLING FLUID DENSITY
 DFV .                 38:   DRILLING FLUID VISCOSITY
 DFPH.                9.0:   DRILLING FLUID PH
 DFL .                8.0:   DRILLING FLUID LOSS
 MSS .           FLOWLINE:   MUD SAMPLE SOURCE
 RMS .OHMM           1.65:   RESISTIVITY MUD SAMPLE
 MST .F                90:   MUD SAMPLE TEMPERATURE
 RMF .OHMM           1.32:   RESISTIVITY MUD FILTRATE SAMPLE
 MFST.F                90:   MUD FILTRATE SAMPLE TEMPERATURE
 RMC .OHMM           2.06:   RESISTIVITY MUD CAKE
 MCST.F                90:   MUD CAKE SAMPLE TEMPERATURE
 MFSS.               CALC:   MUD FILTRATE SAMPLE SOURCE
 MCSS.               CALC:   MUD CAKE SAMPLE SOURCE
 RMB .OHMM           1.65:   RESISTIVITY MUD AT BHT
 BHT .F                90:   BOTTOM HOLE TEMPERATURE
 TCS .HRS               1:   TIME CURCULATED STOPPED
 MRT .F                90:   MAXIMUM RECORDED TEMPERATURE
 LUN .            HL 6272:   LOGGING UNIT NUMBER
 LUL .             CASPER:   LOGGING UNIT LOCATION
 ENGI. WADDELL/ OTTERHOLT:   RECORDING ENGINEER
 WITN.             STRONG:   WITNESSED BY
 CLNT.            A2DTECH:   CLIENT CODE
 ORIG.           5" PRINT:   ORIGIN OF DATA
 UWI .       490252244800:   UNIQUE WELL ID
 DICO. A2D Technologies, Inc.:   DIGITIZING COMPANY
~OTHER INFORMATION
~A   DEPT     CALD        CNC       CORR         GRD      PORD       RHOB       RFOC       RILD       RILM   
# ...
  315.5000     8.0045     0.2812     0.0197    74.6409     0.1295     2.4391    13.8541    13.2730    12.6280
  316.0000     8.0198     0.2815     0.0258    74.9412     0.1274     2.4421    13.7632    13.0927    12.6324
  316.5000     8.0196     0.2796     0.0289    74.6349     0.1273     2.4428    13.7680    13.0060    12.6375
  317.0000     8.0195     0.2766     0.0259    74.0267     0.1255     2.4412    13.7738    13.0095    12.6418
  317.5000     8.0193     0.2753     0.0168    74.0238     0.1246     2.4458    13.7784    13.0130    12.6460
  318.0000     8.0192     0.2735     0.0061    75.2310     0.1228     2.4488    13.5915    12.9252    12.6503
  318.5000     8.0190     0.2711     0.0001    76.1365     0.1209     2.4503    13.5961    12.9295    12.6545
  319.0000     8.0189     0.2695    -0.0032    77.0412     0.1197     2.4465    13.6007    12.9330    12.6588
  319.5000     8.0187     0.2692    -0.0075    77.8124     0.1226     2.4373    13.7971    12.9365    12.6641
  320.0000     8.0185     0.2692    -0.0075    78.6385     0.1275     2.4320    13.8018    12.9408    12.6683
  320.5000     8.0184     0.2692    -0.0071    78.8477     0.1290     2.4350    13.8076    12.9443    12.6726
  321.0000     8.0337     0.2688    -0.0044    78.5414     0.1287     2.4388    13.5252    12.9478    12.5888
  321.5000     8.0335     0.2673    -0.0013    78.5384     0.1274     2.4426    13.4343    12.7718    12.4186
  322.0000     8.0285     0.2661     0.0018    78.5354     0.1244     2.4464    13.3463    12.0817    11.8311
  322.5000     8.0178     0.2660     0.0064    78.8357     0.1219     2.4487    12.7125    11.6706    11.2648
  323.0000     8.0176     0.2663     0.0094    78.5294     0.1201     2.4494    11.6924    11.2673    10.9650
  323.5000     8.0175     0.2672     0.0034    78.0908     0.1201     2.4494    11.2941    10.8149    10.7416
  324.0000     8.0173     0.2690    -0.0027    77.0105     0.1207     2.4493    12.2031    10.4469    10.5964
  324.5000     8.0172     0.2714    -0.0042    75.7972     0.1218     2.4485    12.4662    10.0914    10.1665
  325.0000     8.0170     0.2738    -0.0034    73.9788     0.1212     2.4486    12.0416     9.8163     9.7533
  325.5000     8.0014     0.2762    -0.0011    73.6732     0.1185     2.4524    11.0753     9.6822     9.2918
  326.0000     8.0012     0.2789     0.0020    73.6944     0.1169     2.4577    10.3302     9.6855     9.0393
  326.5000     8.0011     0.2816     0.0020    75.5189     0.1148     2.4623    10.0483     9.6882     9.0431
  327.0000     7.9854     0.2846     0.0020    75.7823     0.1132     2.4660     9.9121     9.6914     9.1094
  327.5000     7.9853     0.2864     0.0005    75.7785     0.1108     2.4698    10.0560     9.6940     9.2405
  328.0000     7.9851     0.2840    -0.0010    76.3814     0.1092     2.4721    10.3450     9.6966     9.3734
  328.5000     7.9850     0.2803    -0.0040    78.1931     0.1083     2.4729    10.7923     9.8355     9.6417
  329.0000     7.9848     0.2761    -0.0071    79.4011     0.1080     2.4713    11.1805     9.9764     9.9177
  329.5000     7.9847     0.2724    -0.0086    78.1871     0.1089     2.4683    11.6639    10.1902    10.2025
  330.0000     7.9804     0.2651    -0.0070    73.0404     0.1107     2.4652    12.0834    10.4913    10.4216
  330.5000     7.9689     0.2627    -0.0039    72.7348     0.1155     2.4614    12.2645    10.8572    10.7950
  331.0000     7.9533     0.2620    -0.0009    72.7318     0.1179     2.4591    12.4359    11.0898    11.1817
  331.5000     7.9532     0.2608    -0.0009    72.7288     0.1182     2.4552    12.4401    11.3275    11.4219
  332.0000     7.9530     0.2590    -0.0039    73.9361     0.1178     2.4537    12.6197    11.4898    11.5057
  332.5000     7.9374     0.2593    -0.0038    76.0511     0.1187     2.4529    12.5348    11.4929    11.5096
  333.0000     7.9527     0.2604    -0.0038    77.2584     0.1199     2.4514    12.4516    11.4160    11.5144
  333.5000     7.9525     0.2616    -0.0038    77.8613     0.1214     2.4505    12.6325    11.4065    11.4372
  334.0000     7.9524     0.2622    -0.0038    77.8576     0.1189     2.4516    12.6368    11.2646    11.3625
  334.5000     7.9522     0.2625    -0.0053    77.5520     0.1117     2.4704    12.3794    11.1886    11.2090
  335.0000     7.9521     0.2625    -0.0068    77.2464     0.1068     2.4742    11.6266    11.0365    10.9806
  335.5000     7.9365     0.2622    -0.0098    77.2435     0.1055     2.4711    11.5495    10.8865    10.6822
  336.0000     7.9518     0.2633    -0.0098    77.2405     0.1070     2.4665    11.4728    10.7391    10.4965
  336.5000     7.9672     0.2645    -0.0067    77.5400     0.1094     2.4635    11.4455    10.5903    10.3240
  337.0000     7.9982     0.2660    -0.0036    77.8275     0.1118     2.4650    11.4014    10.3773    10.2549
  337.5000     8.0144     0.2692     0.0010    78.7443     0.1106     2.4711    11.3242    10.2362    10.1871
  338.0000     8.0439     0.2742     0.0041    79.3465     0.1051     2.4771    11.2505    10.0971    10.1197
  338.5000     8.0283     0.2769     0.0056    79.6461     0.0999     2.4847    11.1762     9.8906    10.0535
  339.0000     8.0126     0.2796     0.0071    79.9456     0.0981     2.4870    11.1026     9.8933    10.0593
  339.5000     7.9816     0.2805     0.0056    79.9425     0.1014     2.4801    11.1064     9.9652    10.4181
  340.0000     7.9828     0.2789     0.0026    79.9389     0.1050     2.4748    11.1881    10.0472    10.7164
  340.5000     7.9968     0.2755     0.0011    79.9359     0.1056     2.4740    11.4294    10.5437    11.0231
  341.0000     7.9897     0.2719     0.0026    79.6303     0.1041     2.4755    11.6902    10.9210    11.4180
  341.5000     7.9810     0.2713     0.0011    78.7196     0.1040     2.4763    12.4402    11.7133    11.9932
  342.0000     7.9808     0.2779    -0.0019    78.4140     0.1040     2.4640    13.4403    12.8290    12.7741
  342.5000     7.9807     0.2858    -0.0049    77.5033     0.1069     2.4196    14.6228    14.2483    13.8133
  343.0000     7.9805     0.2912    -0.0064    75.0798     0.1464     2.3902    15.7983    16.1594    14.7995
  343.5000     7.9494     0.2933    -0.0079    72.9588     0.1594     2.3620    16.8311    17.1142    15.6537
  344.0000     7.8875     0.2939    -0.0079    72.0488     0.1806     2.3421    17.8064    18.0790    17.2646
  344.5000     7.8873     0.2848    -0.0094    73.5587     0.1812     2.3551    18.8622    18.5957    18.2611
  345.0000     7.8872     0.2633    -0.0110    71.4369     0.1784     2.3634    20.6412    19.5317    19.1809
  345.5000     7.8870     0.2496    -0.0172    61.4490     0.1447     2.4046    22.1451    20.6586    20.1470
  346.0000     7.8869     0.2342    -0.0245    58.4211     0.1172     2.4533    22.6207    21.6985    20.8884
  346.5000     7.8655     0.2302    -0.0245    59.6276     0.1293     2.4121    21.3980    21.8563    21.7694
  347.0000     7.8247     0.2412    -0.0214    61.1375     0.1444     2.3718    21.2542    21.8441    21.4752
  347.5000     7.8091     0.2722    -0.0153    61.7404     0.1862     2.3428    21.8668    21.5650    21.0377
  348.0000     7.7626     0.2862    -0.0123    62.0393     0.1880     2.3382    23.1339    20.8326    20.1826
  348.5000     7.7470     0.2904    -0.0138    62.9439     0.1886     2.3367    21.1309    19.9839    19.3622
  349.0000     7.7005     0.2907    -0.0153    63.2435     0.1891     2.3389    20.1274    19.3039    18.7008
  349.5000     7.6774     0.2958    -0.0213    63.8457     0.1840     2.3427    19.3062    18.7776    18.0718
  350.0000     7.6383     0.3003    -0.0256    64.1452     0.1806     2.3458    18.8267    18.1387    17.8276
  350.5000     7.6156     0.3033    -0.0304    65.6551     0.1808     2.3511    18.3098    17.6459    17.2063
  351.0000     7.5755     0.3100    -0.0350    66.2573     0.1809     2.3503    17.7928    17.6518    16.8686
  351.5000     7.5751     0.3103    -0.0380    66.8588     0.1809     2.3488    17.4087    17.4051    16.8743
