~VERSION INFORMATION
 VERS.                2.0:   CWLS LOG ASCII STANDARD - VERSION 2.0
 WRAP.                 NO:   ONE LINE PER DEPTH STEP
~WELL INFORMATION
#MNEM.UNIT      DATA TYPE    INFORMATION
#----------   ------------   ------------------------------
 STRT.F           30.0000:   START DEPTH
 STOP.F         2423.0000:   STOP DEPTH
 STEP.F            0.5000:   STEP LENGTH
 NULL.          -999.2500:   NO VALUE
 COMP. DEPARTMENT OF ENERGY:   COMPANY
 WELL.   NPR-3 #35-1 X 10:   WELL
 FLD .        TEAPOT DOME:   FIELD
 LOC .      S10 T38N R78W:   LOCATION
 CNTY.            NATRONA:   COUNTY
 STAT.            WYOMING:   STATE
 CTRY. UNITED STATES OF AMERICA:   COUNTRY
 SRVC.       Schlumberger:   SERVICE COMPANY
 DATE.        15-JAN-1999:   LOGDATE
 API .       490252282200:   API NUMBER
~CURVE INFORMATION
#MNEM.UNIT       API CODE    CURVE DESCRIPTION
#----------   ------------   ------------------------------
 DEPT.F                  :   
 GRR .GAPI   06 310 01 00:   GAMMA RAY FROM RESISTIVITY
 SPR .MV     06 010 01 00:   SPONTANEOUS POTENTIAL FROM RES.
 HD  .IN     06 280 01 00:   HOLE DIAMETER
 AT90.OHMM   06 120 90 00:   90-IN. RESISTIVITY, 2-FT RESOLUTION
 AT30.OHMM   06 120 30 00:   30-IN. RESISTIVITY, 2-FT RESOLUTION
 AT10.OHMM   06 120 10 00:   10-IN. RESISTIVITY, 2-FT RESOLUTION
~PARAMETER INFORMATION
#MNEM.UNIT          VALUE    DESCRIPTION
#----------   ------------   ------------------------------
 PD  .                 GL:   PERMANENT DATUM
 EPD .F              5228:   ELEVATION PERMANENT DATUM
 LMF .                 KB:   LOG MEASURED FROM
 DAPD.F                10:   FEET ABOVE PERMANENT DATUM
 DMF .                 KB:   DRILLING MEASURED FROM
 EKB .F              5238:   KELLING BUSHING
 EDF .F              5237:   DRILLING FLOOR
 EGL .F              5228:   GROUND LEVEL
 DATE.        15-JAN-1999:   RUN DATE
 RUN .                  1:   RUN NUMBER
 DD  .F              2400:   DEPTH DRILLER
 DL  .F              2421:   DEPTH LOGGER
 BLI .F              2393:   BOTTOM LOG INTERVAL
 TLI .F                30:   TOP LOG INTERVAL
 CS  .IN            9.625:   CASING SIZE
 CBD .F               778:   CASING BOTTOM DRILLER
 CBL .F               773:   CASING BOTTOM LOGGER
 BS  .IN              8.5:   BIT SIZE
 BSD .F              2400:   BIT SIZE AT DEPTH
 DFT .            GEL/KCL:   DRILLING FLUID TYPE
 DFD .                8.9:   DRILLING FLUID DENSITY
 DFV .                 39:   DRILLING FLUID VISCOSITY
 DFPH.                  9:   DRILLING FLUID PH
 DFL .                8.8:   DRILLING FLUID LOSS
 MSS .            MUD PIT:   MUD SAMPLE SOURCE
 RMS .OHMM            .29:   RESISTIVITY MUD SAMPLE
 MST .F                65:   MUD SAMPLE TEMPERATURE
 RMF .OHMM            .22:   RESISTIVITY MUD FILTRATE SAMPLE
 MFST.F                65:   MUD FILTRATE SAMPLE TEMPERATURE
 RMC .OHMM            .43:   RESISTIVITY MUD CAKE
 MCST.F                65:   MUD CAKE SAMPLE TEMPERATURE
 MFSS.          MUD PRESS:   MUD FILTRATE SAMPLE SOURCE
 MCSS.         CALCULATED:   MUD CAKE SAMPLE SOURCE
 RMB .OHMM           .195:   RESISTIVITY MUD AT BHT
 BHT .F               100:   BOTTOM HOLE TEMPERATURE
 TCS .HRS            2015:   TIME CURCULATED STOPPED
 TLAB.HRS            2315:   TIME LOGGER AT BOTTOM
 MRT .F               100:   MAXIMUM RECORDED TEMPERATURE
 LUN .               2102:   LOGGING UNIT NUMBER
 LUL .             CASPER:   LOGGING UNIT LOCATION
 ENGI.    TISOVEC/PIERSON:   RECORDING ENGINEER
 WITN.           ESMERSON:   WITNESSED BY
 CLNT.            A2DTECH:   CLIENT CODE
 ORIG.       2", 5" PRINT:   ORIGIN OF DATA
 UWI .       490252282200:   UNIQUE WELL ID
 DICO. A2D Technologies, Inc.:   DIGITIZING COMPANY
~OTHER INFORMATION
~A   DEPT       GRR       SPR         HD       AT90       AT30       AT10   
# ...
 1382.0000   112.3530    -5.6031     8.6566     8.9243     8.6693     8.0587
 1382.5000   111.5864    -5.7168     8.6566     8.9243     8.7603     8.0587
 1383.0000   111.6529    -5.8689     8.6566     8.9243     8.8095     8.1044
 1383.5000   109.6974    -5.9591     8.6566     9.0419     8.8836     8.2710
 1384.0000   106.4190    -6.0648     8.6566     9.3480     8.9584     8.5199
 1384.5000   103.7547    -6.1890     8.6566     9.3060     9.0075     8.4470
 1385.0000   104.6062    -6.5050     8.6566     9.1862     8.9095     8.2861
 1385.5000   107.2582    -6.8392     8.6566     9.0914     8.8420     8.2421
 1386.0000   110.1075    -6.9850     8.6566     9.2617     9.0042     8.1864
 1386.5000   110.9743    -6.9654     8.6566     9.2021     8.9622     8.1310
 1387.0000   108.1287    -6.9748     8.6566     9.0687     8.8513     8.0587
 1387.5000   105.7094    -6.9654     8.6566     8.9243     8.7420     8.1020
 1388.0000   103.8835    -6.8937     8.6566     8.9658     8.6346     8.1912
 1388.5000   106.9260    -6.7943     8.6566     9.0472     8.5236     8.2861
 1389.0000   111.5432    -6.7027     8.6566     9.1294     8.6932     8.3277
 1389.5000   112.3294    -6.6050     8.6566     9.2124     9.0029     8.3633
 1390.0000   110.7558    -6.5479     8.6566     9.3480     8.8975     8.0587
 1390.5000   109.2588    -6.5237     8.6566     9.2094     8.7077     8.0920
 1391.0000   107.6256    -6.4947     8.6566     8.9933     8.5213     8.1338
 1391.5000   106.3203    -6.4684     8.6566     8.7823     8.2866     7.7652
 1392.0000   105.4894    -6.4401     8.6566     8.6795     8.3653     7.7962
 1392.5000   105.6278    -6.4134     8.6566     8.6795     8.2943     7.8376
 1393.0000   106.9869    -6.3843     8.6566     8.4028     8.0989     7.6852
 1393.5000   108.9190    -6.3646     8.6566     8.2096     7.9801     7.5521
 1394.0000   110.5468    -6.3604     8.6566     8.2843     8.0944     7.8144
 1394.5000   112.1954    -6.3667     8.6566     8.4727     8.2409     8.1338
 1395.0000   110.6079    -6.3528     8.6566     8.6655     8.3899     8.0489
 1395.5000   107.1890    -6.4421     8.6566     8.9243     8.5414     7.9489
 1396.0000   104.4215    -6.7053     8.6566     8.9135     8.6788     7.8502
 1396.5000   104.9000    -7.0092     8.6566     8.8978     8.6475     7.7652
 1397.0000   105.8857    -7.2018     8.6566     8.8822     8.6131     7.9153
 1397.5000   106.3923    -7.2167     8.6566     8.8666     8.5801     8.0507
 1398.0000   106.1531    -7.2667     8.6566     8.8510     8.5462     8.1338
 1398.5000   105.4810    -7.2990     8.6565     8.7775     8.5199     8.1338
 1399.0000   107.9401    -7.3417     8.6556     8.6251     8.3564     8.0305
 1399.5000   106.5952    -7.3681     8.6546     8.4753     8.2250     7.8709
 1400.0000   102.5585    -7.2921     8.6536     8.2861     8.0587     7.7145
 1400.5000    99.4358    -7.1919     8.6526     8.3545     8.1081     7.5521
 1401.0000   100.4651    -7.0956     8.6516     8.4515     8.1781     7.7075
 1401.5000   104.6666    -6.9980     8.6506     8.5498     8.2486     7.8760
 1402.0000   108.9134    -6.9011     8.6496     8.6491     8.3210     8.0471
 1402.5000   110.5064    -6.8033     8.6486     8.7603     8.4399     8.2077
 1403.0000   109.7415    -6.7066     8.6477     8.6940     8.4213     8.0090
 1403.5000   106.3311    -6.6079     8.6467     8.6205     8.3513     7.8313
 1404.0000   103.0827    -6.5127     8.6457     8.5476     8.2817     7.6250
 1404.5000   103.1915    -6.4104     8.6447     8.4753     8.2125     7.7167
 1405.0000   103.5432    -6.3541     8.6437     8.4036     8.1441     7.8429
 1405.5000   102.2194    -6.3688     8.6427     8.3325     8.0588     7.7595
 1406.0000    98.6724    -6.3488     8.6417     8.2861     8.0652     7.5566
 1406.5000    95.6890    -6.4784     8.6407     8.2861     8.0749     7.6053
 1407.0000    95.8968    -6.7238     8.6398     8.2861     8.0848     7.6694
 1407.5000    97.3113    -6.9451     8.6388     8.2861     8.0947     7.7334
 1408.0000   103.1652    -7.1732     8.6378     8.2861     8.1045     7.7652
 1408.5000   113.0012    -7.4051     8.6368     8.2861     8.1142     7.8255
 1409.0000   118.7445    -7.6210     8.6363     8.2879     8.1240     7.9073
 1409.5000   117.4427    -7.8757     8.6364     8.2844     8.1336     7.9106
 1410.0000   113.3040    -7.9284     8.6363     8.1973     8.1057     7.7348
 1410.5000   110.5375    -7.7448     8.6364     8.1129     8.0786     7.5929
 1411.0000   110.7005    -7.5987     8.6364     8.0567     8.0515     7.5521
 1411.5000   111.0262    -7.4303     8.6364     8.0939     8.0243     7.5521
 1412.0000   109.5657    -7.2785     8.6364     8.1333     7.9969     7.5071
 1412.5000   106.4552    -7.1084     8.6364     8.1075     7.9695     7.4314
 1413.0000   104.7849    -6.9854     8.6363     8.0657     7.9443     7.3565
 1413.5000   105.4871    -6.8958     8.6363     8.0235     7.9106     7.2771
 1414.0000   110.3220    -6.7683     8.6363     7.9872     7.9874     7.3237
 1414.5000   116.6805    -6.6492     8.6364     8.2013     8.0930     7.4133
 1415.0000   121.7811    -6.5832     8.6363     8.3900     8.1999     7.6465
 1415.5000   120.8749    -6.7384     8.6367     8.5832     8.3633     7.8473
 1416.0000   116.8442    -6.8741     8.6404     8.7595     8.3134     7.9106
 1416.5000   109.4523    -7.0181     8.6441     8.5286     8.2140     7.9106
 1417.0000   106.8423    -7.1547     8.6479     8.2861     8.1338     7.7671
 1417.5000   108.3242    -7.3002     8.6516     8.3573     8.1696     7.4824
 1418.0000   108.5936    -7.4228     8.6554     8.4413     8.2096     7.6225
 1418.5000   107.1144    -7.5587     8.6567     8.3633     8.1761     7.5521
 1419.0000   105.8689    -7.7179     8.6565     8.4909     8.1338     7.6889
 1419.5000   105.1442    -7.7889     8.6566     8.8420     8.3242     8.2096
 1420.0000   103.4580    -7.8400     8.6566     8.7518     8.5993     8.0856
 1420.5000    99.9957    -7.9462     8.6566     8.5328     8.3583     7.8821
 1421.0000    97.6902    -7.9446     8.6566     8.3194     8.0758     7.6838
 1421.5000    96.6311    -7.8451     8.6566     8.0777     7.8376     7.5521
 1422.0000    96.9467    -7.7592     8.6566     8.1166     7.9179     7.6902
 1422.5000    98.2837    -7.6670     8.6566     8.1952     7.9896     7.8376
 1423.0000   102.2213    -7.5770     8.6566     8.2861     8.0587     7.7191
 1423.5000   108.2812    -7.4881     8.6566     8.2313     7.9073     7.4513
 1424.0000   112.1603    -7.3969     8.6566     7.9106     7.7336     7.0774
 1424.5000   113.3187    -7.3837     8.6566     7.9227     7.6225     7.0928
 1425.0000   113.0864    -7.4112     8.6566     7.9574     7.6166     7.1412
 1425.5000   114.2692    -7.4295     8.6566     7.9843     7.6280     7.1365
 1426.0000   116.5686    -7.4518     8.6566     7.8061     7.3583     6.9376
 1426.5000   117.4685    -7.4720     8.6566     7.6225     7.2089     6.9337
 1427.0000   116.9533    -7.4934     8.6566     7.6225     7.2789     6.9958
 1427.5000   116.0094    -7.5139     8.6566     7.3830     7.1574     6.5226
 1428.0000   113.8000    -7.5357     8.6566     7.1433     6.9515     6.6912
 1428.5000   109.7619    -7.5541     8.6566     7.4315     7.1677     7.1451
 1429.0000   108.5921    -7.5896     8.6566     7.6935     7.4133     7.0369
 1429.5000   109.5917    -7.7459     8.6566     7.6457     7.3498     6.6820
 1430.0000   112.8664    -7.9021     8.6566     7.5933     7.2771     6.4002
 1430.5000   114.5377    -8.0573     8.6566     7.5521     7.3274     6.8420
 1431.0000   113.7638    -8.2158     8.6566     7.6265     7.3918     7.2734
 1431.5000   113.5831    -8.3654     8.6566     7.6935     7.4133     7.1448
 1432.0000   114.3786    -8.4359     8.6566     7.3681     7.1487     6.8643
 1432.5000   114.6155    -8.5295     8.6566     7.0120     6.9144     6.6943
 1433.0000   113.0853    -8.5694     8.6566     7.0431     6.8196     6.6943
 1433.5000   112.4533    -8.4045     8.6566     7.1230     6.9145     6.6943
