~VERSION INFORMATION
 VERS.                2.0:   CWLS LOG ASCII STANDARD - VERSION 2.0
 WRAP.                 NO:   ONE LINE PER DEPTH STEP
~WELL INFORMATION
#MNEM.UNIT      DATA TYPE    INFORMATION
#----------   ------------   ------------------------------
 STRT.F           15.0000:   START DEPTH
 STOP.F         5640.0000:   STOP DEPTH
 STEP.F            0.5000:   STEP LENGTH
 NULL.          -999.2500:   NO VALUE
 COMP.       F D SERV INC:   COMPANY
 WELL. NAVAL PETROLEUM RESERVE 3 SX-1 #43-10:   WELL
 FLD .         N.P.R. #.3:   FIELD
 LOC .      S10 T38N R78W:   LOCATION
 CNTY.            NATRONA:   COUNTY
 STAT.            WYOMING:   STATE
 CTRY. UNITED STATES OF AMERICA:   COUNTRY
 SRVC.      Dresser Atlas:   SERVICE COMPANY
 DATE.        05-JUL-1986:   LOGDATE
 API .       490251101800:   API NUMBER
~CURVE INFORMATION
#MNEM.UNIT       API CODE    CURVE DESCRIPTION
#----------   ------------   ------------------------------
 DEPT.F                  :   
 GRR .GAPI   07 310 01 00:   GAMMA RAY
 ILD .OHMM   07 120 46 00:   INDUCTION LOG DEEP
 ILM .OHMM   07 120 44 00:   INDUCTION LOG MEDIUM
 CALS.IN     60 280 50 00:   CALIPER FROM SONIC LOG
 GRS .GAPI   60 310 01 00:   GAMMA RAY FROM SONIC LOG
 AC  .US/F   60 520 00 00:   ACCOUSTIC
~PARAMETER INFORMATION
#MNEM.UNIT          VALUE    DESCRIPTION
#----------   ------------   ------------------------------
 PD  .                 GL:   PERMANENT DATUM
 EPD .F              5205:   ELEVATION PERMANENT DATUM
 LMF .                 KB:   LOG MEASURED FROM
 DAPD.F                 5:   FEET ABOVE PERMANENT DATUM
 DMF .                 KB:   DRILLING MEASURED FROM
 EKB .F              5210:   KELLING BUSHING
 EGL .F              5205:   GROUND LEVEL
 DATE.        05-JUL-1986:   RUN DATE
 RUN .                  1:   RUN NUMBER
 DD  .F               560:   DEPTH DRILLER
 DL  .F               560:   DEPTH LOGGER
 BLI .F               550:   BOTTOM LOG INTERVAL
 TLI .F                15:   TOP LOG INTERVAL
 CS  .IN            8.625:   CASING SIZE
 CBD .F                47:   CASING BOTTOM DRILLER
 CBL .F                47:   CASING BOTTOM LOGGER
 BS  .IN            7.875:   BIT SIZE
 BSD .F               560:   BIT SIZE AT DEPTH
 DFT .                AIR:   DRILLING FLUID TYPE
 BHT .F                83:   BOTTOM HOLE TEMPERATURE
 TCS .HRS            2100:   TIME CURCULATED STOPPED
 TLAB.HRS            2230:   TIME LOGGER AT BOTTOM
 MRT .F                83:   MAXIMUM RECORDED TEMPERATURE
 LUN .               7609:   LOGGING UNIT NUMBER
 LUL .           GILLETTE:   LOGGING UNIT LOCATION
 ENGI.              BAURT:   RECORDING ENGINEER
 CLNT.            A2DTECH:   CLIENT CODE
 ORIG. 1" 2" 2.5", 5" PRINT:   ORIGIN OF DATA
 UWI .       490251101800:   UNIQUE WELL ID
 DICO. A2D Technologies, Inc.:   DIGITIZING COMPANY
 R2  . HEADER NOT CLEARLY VISIBLE:   REMARKS 2
~OTHER INFORMATION
~A   DEPT       GRR       ILD        ILM       CALS        GRS         AC   
# ...
  327.0000    82.0426    19.9935    20.4204  -999.2500  -999.2500  -999.2500
  327.5000    83.2665    19.7337    20.1391  -999.2500  -999.2500  -999.2500
  328.0000    86.3309    19.7516    19.8764  -999.2500  -999.2500  -999.2500
  328.5000    86.9414    20.0335    20.1750  -999.2500  -999.2500  -999.2500
  329.0000    86.9383    20.5955    20.4627  -999.2500  -999.2500  -999.2500
  329.5000    85.7082    20.9023    20.7430  -999.2500  -999.2500  -999.2500
  330.0000    83.2511    21.5018    21.0501  -999.2500  -999.2500  -999.2500
  330.5000    80.1805    22.1187    21.6442  -999.2500  -999.2500  -999.2500
  331.0000    77.1100    22.7529    22.2731  -999.2500  -999.2500  -999.2500
  331.5000    76.4934    23.0779    22.9049  -999.2500  -999.2500  -999.2500
  332.0000    76.4903    23.4073    23.2375  -999.2500  -999.2500  -999.2500
  332.5000    77.7142    23.7386    23.9001  -999.2500  -999.2500  -999.2500
  333.0000    78.9381    23.7420    23.5692  -999.2500  -999.2500  -999.2500
  333.5000    79.5491    23.7453    23.5725  -999.2500  -999.2500  -999.2500
  334.0000    79.5455    23.0881    23.2462  -999.2500  -999.2500  -999.2500
  334.5000    79.5424    22.7680    22.6037  -999.2500  -999.2500  -999.2500
  335.0000    78.9258    22.4523    21.9791  -999.2500  -999.2500  -999.2500
  335.5000    79.5368    21.8308    21.6748  -999.2500  -999.2500  -999.2500
  336.0000    81.9871    20.9293    20.7810  -999.2500  -999.2500  -999.2500
  336.5000    82.5975    20.3500    20.4933  -999.2500  -999.2500  -999.2500
  337.0000    83.2086    19.5097    19.9270  -999.2500  -999.2500  -999.2500
  337.5000    82.2342    19.5124    19.3763  -999.2500  -999.2500  -999.2500
  338.0000    82.6788    19.5152    19.1080  -999.2500  -999.2500  -999.2500
  338.5000    84.1585    19.2445    18.8433  -999.2500  -999.2500  -999.2500
  339.0000    84.4233    18.9777    18.5825  -999.2500  -999.2500  -999.2500
  339.5000    83.7535    18.7145    18.5852  -999.2500  -999.2500  -999.2500
  340.0000    82.2494    18.7172    18.8514  -999.2500  -999.2500  -999.2500
  340.5000    81.9601    18.7199    18.8541  -999.2500  -999.2500  -999.2500
  341.0000    82.2556    18.9885    18.8567  -999.2500  -999.2500  -999.2500
  341.5000    81.9540    18.9912    18.8594  -999.2500  -999.2500  -999.2500
  342.0000    81.9509    19.2637    19.1296  -999.2500  -999.2500  -999.2500
  342.5000    81.9479    19.2664    19.4036  -999.2500  -999.2500  -999.2500
  343.0000    81.9448    19.2691    19.4064  -999.2500  -999.2500  -999.2500
  343.5000    81.9417    19.2718    19.1377  -999.2500  -999.2500  -999.2500
  344.0000    82.4948    19.2745    19.1404  -999.2500  -999.2500  -999.2500
  344.5000    84.6615    19.2773    18.8754  -999.2500  -999.2500  -999.2500
  345.0000    86.2270    19.2800    18.6138  -999.2500  -999.2500  -999.2500
  345.5000    86.2239    19.0127    18.6167  -999.2500  -999.2500  -999.2500
  346.0000    85.6074    18.7488    18.3589  -999.2500  -999.2500  -999.2500
  346.5000    84.7434    18.4888    18.3615  -999.2500  -999.2500  -999.2500
  347.0000    84.3742    17.9773    18.1071  -999.2500  -999.2500  -999.2500
  347.5000    85.4551    17.7278    17.3607  -999.2500  -999.2500  -999.2500
  348.0000    86.8227    17.4820    17.1203  -999.2500  -999.2500  -999.2500
  348.5000    87.4331    17.2398    17.1227  -999.2500  -999.2500  -999.2500
  349.0000    87.2126    17.2422    17.1251  -999.2500  -999.2500  -999.2500
  349.5000    86.8129    17.2447    17.1276  -999.2500  -999.2500  -999.2500
  350.0000    87.0144    17.2471    17.1300  -999.2500  -999.2500  -999.2500
  350.5000    88.0342    17.0078    17.1324  -999.2500  -999.2500  -999.2500
  351.0000    86.8037    16.5372    16.6589  -999.2500  -999.2500  -999.2500
  351.5000    85.6288    16.5396    16.4281  -999.2500  -999.2500  -999.2500
  352.0000    82.9366    16.3100    16.2008  -999.2500  -999.2500  -999.2500
  352.5000    82.5000    16.3125    16.4329  -999.2500  -999.2500  -999.2500
  353.0000    82.4970    16.2697    16.4352  -999.2500  -999.2500  -999.2500
  353.5000    82.4939    16.3171    16.4376  -999.2500  -999.2500  -999.2500
  354.0000    81.8773    16.3195    16.4399  -999.2500  -999.2500  -999.2500
  354.5000    81.8742    16.3218    16.4422  -999.2500  -999.2500  -999.2500
  355.0000    82.6277    16.3241    16.4445  -999.2500  -999.2500  -999.2500
  355.5000    83.8456    16.3264    16.4468  -999.2500  -999.2500  -999.2500
  356.0000    84.3193    16.3287    16.4492  -999.2500  -999.2500  -999.2500
  356.5000    85.0542    16.3310    16.2211  -999.2500  -999.2500  -999.2500
  357.0000    86.1537    16.1045    15.9968  -999.2500  -999.2500  -999.2500
  357.5000    86.0378    15.6588    16.2260  -999.2500  -999.2500  -999.2500
  358.0000    85.5337    15.4417    15.7776  -999.2500  -999.2500  -999.2500
  358.5000    84.9172    15.2276    15.5591  -999.2500  -999.2500  -999.2500
  359.0000    84.3006    15.0161    15.3437  -999.2500  -999.2500  -999.2500
  359.5000    84.3855    14.8082    14.9197  -999.2500  -999.2500  -999.2500
  360.0000    86.2168    14.8103    14.7128  -999.2500  -999.2500  -999.2500
  360.5000    86.7456    14.4004    14.3065  -999.2500  -999.2500  -999.2500
  361.0000    86.0592    14.2004    14.3085  -999.2500  -999.2500  -999.2500
  361.5000    85.5122    14.0035    14.1104  -999.2500  -999.2500  -999.2500
  362.0000    85.5663    14.0058    14.1124  -999.2500  -999.2500  -999.2500
  362.5000    86.1707    13.8116    14.3146  -999.2500  -999.2500  -999.2500
  363.0000    86.8200    13.8135    14.2569  -999.2500  -999.2500  -999.2500
  363.5000    88.5676    13.8155    14.3186  -999.2500  -999.2500  -999.2500
  364.0000    89.1780    14.0137    14.1204  -999.2500  -999.2500  -999.2500
  364.5000    89.1748    14.0157    14.1224  -999.2500  -999.2500  -999.2500
  365.0000    87.9038    14.0177    14.1244  -999.2500  -999.2500  -999.2500
  365.5000    86.7148    14.2188    14.3267  -999.2500  -999.2500  -999.2500
  366.0000    86.7117    14.4228    14.3287  -999.2500  -999.2500  -999.2500
  366.5000    86.7086    14.4248    14.5340  -999.2500  -999.2500  -999.2500
  367.0000    87.9325    14.6318    14.7422  -999.2500  -999.2500  -999.2500
  367.5000    86.7024    14.8417    14.7443  -999.2500  -999.2500  -999.2500
  368.0000    86.0858    14.8438    14.9555  -999.2500  -999.2500  -999.2500
  368.5000    84.2423    14.8459    14.7485  -999.2500  -999.2500  -999.2500
  369.0000    81.7852    14.6397    14.8248  -999.2500  -999.2500  -999.2500
  369.5000    81.7821    14.4371    14.7522  -999.2500  -999.2500  -999.2500
  370.0000    83.6195    14.2369    14.5484  -999.2500  -999.2500  -999.2500
  370.5000    84.8434    14.0391    14.3470  -999.2500  -999.2500  -999.2500
  371.0000    86.6808    13.8448    13.9505  -999.2500  -999.2500  -999.2500
  371.5000    87.9048    13.6525    13.9524  -999.2500  -999.2500  -999.2500
  372.0000    89.1287    13.4632    13.5669  -999.2500  -999.2500  -999.2500
  372.5000    89.1256    13.2768    13.3786  -999.2500  -999.2500  -999.2500
  373.0000    89.2004    13.2787    13.3809  -999.2500  -999.2500  -999.2500
  373.5000    89.1194    13.3930    13.1952  -999.2500  -999.2500  -999.2500
  374.0000    90.9568    13.4707    13.1971  -999.2500  -999.2500  -999.2500
  374.5000    91.5675    13.5852    13.1990  -999.2500  -999.2500  -999.2500
  375.0000    93.4046    13.8601    13.2008  -999.2500  -999.2500  -999.2500
  375.5000    94.0154    14.0589    13.4208  -999.2500  -999.2500  -999.2500
  376.0000    92.1715    14.6141    13.8864  -999.2500  -999.2500  -999.2500
  376.5000    88.4874    15.6807    14.9321  -999.2500  -999.2500  -999.2500
  377.0000    84.8034    17.3069    15.8919  -999.2500  -999.2500  -999.2500
  377.5000    75.5978    19.2556    17.9296  -999.2500  -999.2500  -999.2500
  378.0000    64.5518    21.8591    20.2271  -999.2500  -999.2500  -999.2500
  378.5000    63.3217    24.3165    23.1851  -999.2500  -999.2500  -999.2500
