~VERSION INFORMATION
 VERS.                2.0:   CWLS LOG ASCII STANDARD - VERSION 2.0
 WRAP.                 NO:   ONE LINE PER DEPTH STEP
~WELL INFORMATION
#MNEM.UNIT      DATA TYPE    INFORMATION
#----------   ------------   ------------------------------
 STRT.F           28.0000:   START DEPTH
 STOP.F          636.0000:   STOP DEPTH
 STEP.F            0.5000:   STEP LENGTH
 NULL.          -999.2500:   NO VALUE
 COMP. FENIX & SCISSON INC:   COMPANY
 WELL.    NPR-3 #12S14-14:   WELL
 FLD .             TEAPOT:   FIELD
 LOC .      S14 T38N R78W:   LOCATION
 CNTY.            NATRONA:   COUNTY
 STAT.            WYOMING:   STATE
 CTRY. UNITED STATES OF AMERICA:   COUNTRY
 SRVC.           BIRDWELL:   SERVICE COMPANY
 DATE.        21-JUN-1978:   LOGDATE
 API .       490251065000:   API NUMBER
~CURVE INFORMATION
#MNEM.UNIT       API CODE    CURVE DESCRIPTION
#----------   ------------   ------------------------------
 DEPT.F                  :   
 SPR .MV     07 010 01 00:   SPONTANEOUS POTENTIAL
 ILD .OHMM   07 120 46 00:   INDUCTION LOG DEEP
 SN  .OHMM   07 040 16 00:   SHORT NORMAL 16"
 GRD .GAPI   45 310 01 00:   GAMMA RAY FROM DENSITY LOG
 CORR.G/C3   45 356 01 00:   DENSITY CORRECTION
 DEN .G/C3   45 350 01 00:   COMPENSATED BULK DENSTIY
 DPHI.DEC    45 890 12 00:   DENSITY POROSITY SANDSTONE
~PARAMETER INFORMATION
#MNEM.UNIT          VALUE    DESCRIPTION
#----------   ------------   ------------------------------
 PD  .                 GL:   PERMANENT DATUM
 EPD .F              5237:   ELEVATION PERMANENT DATUM
 LMF .                 KB:   LOG MEASURED FROM
 DMF .                 KB:   DRILLING MEASURED FROM
 EKB .F              5241:   KELLING BUSHING
 EGL .F              5237:   GROUND LEVEL
 DATE.        21-JUN-1978:   RUN DATE
 RUN .                  1:   RUN NUMBER
 DD  .F               637:   DEPTH DRILLER
 DL  .F               642:   DEPTH LOGGER
 BLI .F               636:   BOTTOM LOG INTERVAL
 TLI .F                40:   TOP LOG INTERVAL
 CS  .IN            8.625:   CASING SIZE
 CBD .F                40:   CASING BOTTOM DRILLER
 CBL .F                40:   CASING BOTTOM LOGGER
 BS  .IN            7.875:   BIT SIZE
 BSD .F               637:   BIT SIZE AT DEPTH
 DFT .                KCL:   DRILLING FLUID TYPE
 DFD .                8.7:   DRILLING FLUID DENSITY
 DFV .                 32:   DRILLING FLUID VISCOSITY
 DFPH.                 10:   DRILLING FLUID PH
 MSS .           FLOWLINE:   MUD SAMPLE SOURCE
 RMS .OHMM            .18:   RESISTIVITY MUD SAMPLE
 MST .F                84:   MUD SAMPLE TEMPERATURE
 RMF .OHMM            .17:   RESISTIVITY MUD FILTRATE SAMPLE
 MFST.F                72:   MUD FILTRATE SAMPLE TEMPERATURE
 RMC .OHMM            .28:   RESISTIVITY MUD CAKE
 MCST.F                82:   MUD CAKE SAMPLE TEMPERATURE
 MFSS.               MEAS:   MUD FILTRATE SAMPLE SOURCE
 MCSS.               MEAS:   MUD CAKE SAMPLE SOURCE
 BHT .F                72:   BOTTOM HOLE TEMPERATURE
 TCS .HRS            0230:   TIME CURCULATED STOPPED
 MRT .F                72:   MAXIMUM RECORDED TEMPERATURE
 LUN .               2958:   LOGGING UNIT NUMBER
 LUL .               CASP:   LOGGING UNIT LOCATION
 ENGI.             MILLER:   RECORDING ENGINEER
 WITN.           MCGINLEY:   WITNESSED BY
 CLNT.            A2DTECH:   CLIENT CODE
 ORIG.           5" PRINT:   ORIGIN OF DATA
 UWI .       490251065000:   UNIQUE WELL ID
 DICO. A2D Technologies, Inc.:   DIGITIZING COMPANY
~OTHER INFORMATION
~A   DEPT      SPR        ILD         SN        GRD       CORR        DEN       DPHI   
# ...
  392.0000   -54.4035     5.6347     6.8172    82.1125     0.0079     2.4453     0.1326
  392.5000   -54.3946     5.7553     6.9662    80.8994     0.0093     2.4393     0.1363
  393.0000   -54.3857     5.7979     7.0631    80.8875     0.0091     2.4460     0.1333
  393.5000   -54.3767     5.8408     7.0737    81.1789     0.0045     2.4534     0.1264
  394.0000   -54.6671     5.8436     7.1188    80.8637     0.0014     2.4451     0.1297
  394.5000   -54.8077     5.8869     7.2218    81.4524    -0.0047     2.4376     0.1336
  395.0000   -54.7966     5.8897     7.2752    84.2933    -0.0093     2.4353     0.1417
  395.5000   -54.7877     5.8925     7.3798    83.6808    -0.0139     2.4345     0.1432
  396.0000   -54.7788     5.9362     7.4344    81.8671    -0.0110     2.4345     0.1370
  396.5000   -54.7699     5.9391     7.4379    80.5038    -0.0096     2.4337     0.1430
  397.0000   -54.9128     5.9831     7.5970    83.6451    -0.0083     2.4346     0.1370
  397.5000   -54.7522     5.9860     7.6006    86.4860    -0.0024     2.4518     0.1299
  398.0000   -54.7433     5.9894     7.6568    83.3029     0.0035     2.4524     0.1311
  398.5000   -54.8861     5.9923     7.7135    82.9892     0.0079     2.4546     0.1293
  399.0000   -54.7255     5.9952     7.8243    85.3660     0.0137     2.4650     0.1260
  399.5000   -54.7167     5.9981     7.8822    85.6651     0.0151     2.4746     0.1154
  400.0000   -55.0053     6.0009     7.9396    84.1405     0.0069     2.4536     0.1141
  400.5000   -54.8426     6.0038     7.8350    85.0225    -0.0001     2.4543     0.1282
  401.0000   -54.9530     6.0066     7.7854    78.4307    -0.0063     2.4572     0.1204
  401.5000   -54.9340     5.9674     7.7371    89.7762    -0.0080     2.4593     0.1214
  402.0000   -54.9151     5.9710     7.6882    87.3094    -0.0111     2.4562     0.1262
  402.5000   -54.8961     5.9738     7.6923    86.1335    -0.0172     2.4509     0.1283
  403.0000   -55.0261     5.9766     7.6436    84.7952    -0.0234     2.4441     0.1313
  403.5000   -55.0024     5.9795     7.5339    83.5846    -0.0235     2.4395     0.1374
  404.0000   -54.9834     5.9823     7.4953    82.2245    -0.0177     2.4417     0.1374
  404.5000   -54.9644     5.9031     7.4478    81.9107    -0.0118     2.4469     0.1329
  405.0000   -54.9455     5.8653     7.4007    82.7927    -0.0015     2.4535     0.1288
  405.5000   -55.0803     5.8223     7.3043    85.3190     0.0058     2.4639     0.1240
  406.0000   -55.0565     5.7118     7.3082    88.5927     0.0042     2.4683     0.1229
  406.5000   -55.0376     5.6752     7.1615    90.5211     0.0010     2.4570     0.1253
  407.0000   -55.0186     5.5994     7.1171    92.5989    -0.0006     2.4509     0.1283
  407.5000   -54.9996     5.5260     7.1210    93.6304    -0.0023     2.4464     0.1314
  408.0000   -54.9806     5.4899     7.0759    90.7756    -0.0039     2.4455     0.1335
  408.5000   -55.1107     5.4173     6.9348    87.0238    -0.0041     2.4455     0.1332
  409.0000   -55.2407     5.3094     6.8909    88.5038    -0.0042     2.4431     0.1338
  409.5000   -55.2170     5.2392     6.8473    89.9874    -0.0044     2.4378     0.1363
  410.0000   -55.3518     5.1343     6.7572    86.3814    -0.0075     2.4340     0.1416
  410.5000   -55.4819     4.9969     6.5769    82.6297    -0.0076     2.4174     0.1486
  411.0000   -55.4581     4.8968     6.2274    82.6149    -0.0078     2.4039     0.1546
  411.5000   -55.5929     4.7982     6.0621    82.2397     0.0043     2.4045     0.1567
  412.0000   -55.5692     4.6354     5.7399    80.3211     0.0146     2.4187     0.1517
  412.5000   -55.5502     4.4781     5.4349    80.7552     0.0187     2.4208     0.1493
  413.0000   -55.6811     4.1294     5.1461    81.9400     0.0201     2.4170     0.1485
  413.5000   -55.8103     3.7252     4.7400    82.0779     0.0192     2.4147     0.1491
  414.0000   -55.7914     3.1150     4.3963    82.0574    -0.0155     2.3121     0.1521
  414.5000   -55.9214     2.7525     4.0774    82.0411    -0.0178     2.1982     0.2172
  415.0000   -55.5540     2.4490     3.7043    81.8746    -0.0056     2.1816     0.2878
  415.5000   -54.2394     2.2711     3.4356    81.1074     0.0047     2.1808     0.2956
  416.0000   -53.1772     2.2408     3.3437    79.7397     0.0150     2.1987     0.2993
  416.5000   -52.8601     2.2421     3.3228    78.9726     0.0205     2.2398     0.2753
  417.0000   -52.6921     2.2587     3.3284    78.9562     0.0157     2.2876     0.2365
  417.5000   -52.2260     2.3230     3.4199    82.3933     0.0082     2.3527     0.2167
  418.0000   -52.2071     2.4391     3.5909    86.5812     0.0051     2.4095     0.1802
  418.5000   -52.1881     2.7107     3.7966    86.8692     0.0019     2.4356     0.1464
  419.0000   -52.0201     3.0548     4.3302    83.6956     0.0003     2.4385     0.1420
  419.5000   -52.0011     3.5213     5.0421    83.0786    -0.0013     2.4384     0.1372
  420.0000   -51.9821     3.8271     5.4423    84.8641    -0.0045     2.4346     0.1393
  420.5000   -51.9627     4.2171     5.6362    89.0519    -0.0046     2.4270     0.1421
  421.0000   -51.9434     4.6150     5.7571    89.0355    -0.0048     2.4232     0.1439
  421.5000   -52.0742     4.7138     5.8806    89.3195    -0.0049     2.4224     0.1454
  422.0000   -52.0505     4.6509     5.9245    90.0538    -0.0051     2.4223     0.1476
  422.5000   -52.0315     4.5269     5.9687    91.9894    -0.0052     2.4237     0.1482
  423.0000   -52.0125     4.4974     5.9309    93.1743    -0.0039     2.4204     0.1464
  423.5000   -52.1426     4.4691     5.8484    93.7753    -0.0010     2.3974     0.1596
  424.0000   -52.1236     4.2312     5.7759    94.8068     0.0048     2.3828     0.1693
  424.5000   -52.1046     4.0896     5.6607    95.5856     0.0121     2.3814     0.1723
  425.0000   -52.2355     4.0078     5.4726    96.7868     0.0120     2.4047     0.1624
  425.5000   -52.2157     3.9547     5.2537    95.3406     0.0058     2.4069     0.1598
  426.0000   -51.7667     3.9567     5.2197    89.4684     0.0057     2.4104     0.1583
  426.5000   -51.1490     3.9589     5.2233    87.0496     0.0175     2.4402     0.1529
  427.0000   -50.6935     3.9608     5.2623    86.7329     0.0144     2.4454     0.1455
  427.5000   -50.6801     4.0178     5.3382    94.2241     0.0052     2.4461     0.1356
  428.0000   -50.6642     4.1037     5.4152    97.2107    -0.0009     2.4460     0.1351
  428.5000   -50.6510     4.2498     5.5314    97.7990    -0.0010     2.4451     0.1333
  429.0000   -50.6378     4.4315     5.6501    95.3762    -0.0027     2.4436     0.1319
  429.5000   -50.6245     4.6530     5.8112    92.9574    -0.0013     2.4465     0.1343
  430.0000   -50.6113     4.8186     6.0267    92.1903     0.0030     2.4666     0.1149
  430.5000   -50.5981     4.9557     6.3754    91.1229     0.0073     2.4755     0.1113
  431.0000   -50.7377     5.1676     6.6361    90.3598     0.0087     2.4737     0.1173
  431.5000   -50.8739     5.3147     6.7319    92.1412     0.0085     2.4623     0.1206
  432.0000   -50.8574     5.4670     6.8763    93.4762     0.0084     2.4556     0.1243
  432.5000   -50.8442     5.5446     6.9276    94.6651     0.0082     2.4535     0.1279
  433.0000   -50.8309     5.5091     6.9314    91.7918     0.0066     2.4601     0.1228
  433.5000   -50.8177     5.4362     6.8866    90.4241     0.0034     2.4585     0.1214
  434.0000   -50.9540     5.4014     6.9389    90.1074     0.0018     2.4547     0.1283
  434.5000   -50.7908     5.3668     6.9426    90.2412     0.0001     2.4501     0.1292
  435.0000   -50.7747     5.3324     6.8978    92.6272    -0.0030     2.4366     0.1304
  435.5000   -50.7615     5.2625     6.8078    96.0643    -0.0046     2.4320     0.1352
  436.0000   -50.7483     5.2650     6.7183    94.5464    -0.0033     2.4387     0.1422
  436.5000   -50.7351     5.2675     6.6290    92.2733    -0.0034     2.4461     0.1347
  437.0000   -50.7219     5.2337     6.5837    90.5886    -0.0021     2.4415     0.1336
