~VERSION INFORMATION
 VERS.                2.0:   CWLS LOG ASCII STANDARD - VERSION 2.0
 WRAP.                 NO:   ONE LINE PER DEPTH STEP
~WELL INFORMATION
#MNEM.UNIT      DATA TYPE    INFORMATION
#----------   ------------   ------------------------------
 STRT.F           84.0000:   START DEPTH
 STOP.F          849.5000:   STOP DEPTH
 STEP.F            0.5000:   STEP LENGTH
 NULL.          -999.2500:   NO VALUE
 COMP. U S NAVY/INTEX OIL CO:   COMPANY
 WELL.     NPR 3 #81-S-34:   WELL
 FLD .        TEAPOT DOME:   FIELD
 LOC .      S34 T39N R78W:   LOCATION
 CNTY.            NATRONA:   COUNTY
 STAT.            WYOMING:   STATE
 CTRY. UNITED STATES OF AMERICA:   COUNTRY
 SRVC.       Schlumberger:   SERVICE COMPANY
 DATE.        29-JUL-1963:   LOGDATE
 API .       490250656700:   API NUMBER
~CURVE INFORMATION
#MNEM.UNIT       API CODE    CURVE DESCRIPTION
#----------   ------------   ------------------------------
 DEPT.F                  :   
 CALS.IN     60 280 50 00:   CALIPER FROM SONIC LOG
 DT  .US/F   60 520 33 00:   INTERVAL TRANSIT TIME
 SPR .MV     05 010 01 00:   SPONTANEOUS POTENTIAL FROM RES.
 ILD .OHMM   05 120 46 00:   INDUCTION LOG DEEP
 ASN .OHMM   05 041 16 00:   AMPLIFIED SHORT NORMAL 16"
 CILD.MMHO   05 110 46 00:   CONDUCTIVITY INDUCTION LOG DEEP
 GR  .GAPI   30 310 01 00:   GAMMA RAY FROM RES.
~PARAMETER INFORMATION
#MNEM.UNIT          VALUE    DESCRIPTION
#----------   ------------   ------------------------------
 PD  .                 GL:   PERMANENT DATUM
 EPD .F              5067:   ELEVATION PERMANENT DATUM
 LMF .                 KB:   LOG MEASURED FROM
 DAPD.F                 5:   FEET ABOVE PERMANENT DATUM
 DMF .                 KB:   DRILLING MEASURED FROM
 EKB .F              5072:   KELLING BUSHING
 EGL .F              5067:   GROUND LEVEL
 DATE.          7-29-1963:   RUN DATE
 RUN .                  1:   RUN NUMBER
 DD  .F               850:   DEPTH DRILLER
 DL  .F               850:   DEPTH LOGGER
 BLI .F               849:   BOTTOM LOG INTERVAL
 TLI .F                90:   TOP LOG INTERVAL
 CS  .IN            8.625:   CASING SIZE
 CBD .F                10:   CASING BOTTOM DRILLER
 BS  .IN            7.875:   BIT SIZE
 BSD .F               850:   BIT SIZE AT DEPTH
 DFT .            GEL-OIL:   DRILLING FLUID TYPE
 DFD .                9.4:   DRILLING FLUID DENSITY
 DFV .                 40:   DRILLING FLUID VISCOSITY
 DFPH.                  9:   DRILLING FLUID PH
 DFL .                8.4:   DRILLING FLUID LOSS
 MSS .           FLOWLINE:   MUD SAMPLE SOURCE
 RMS .OHMM           3.08:   RESISTIVITY MUD SAMPLE
 MST .F                79:   MUD SAMPLE TEMPERATURE
 RMF .OHMM           2.39:   RESISTIVITY MUD FILTRATE SAMPLE
 MFST.F                79:   MUD FILTRATE SAMPLE TEMPERATURE
 RMC .OHMM           3.29:   RESISTIVITY MUD CAKE
 MCST.F                79:   MUD CAKE SAMPLE TEMPERATURE
 MFSS.                 MP:   MUD FILTRATE SAMPLE SOURCE
 MCSS.                 MP:   MUD CAKE SAMPLE SOURCE
 TCS .HRS               1:   TIME CURCULATED STOPPED
 LUN .               4507:   LOGGING UNIT NUMBER
 LUL .              CSPR.:   LOGGING UNIT LOCATION
 ENGI.             KNOBEL:   RECORDING ENGINEER
 WITN.          JORGENSON:   WITNESSED BY
 CLNT.            A2DTECH:   CLIENT CODE
 ORIG.           5" PRINT:   ORIGIN OF DATA
 UWI .       490250656700:   UNIQUE WELL ID
 DICO. A2D Technologies, Inc.:   DIGITIZING COMPANY
~OTHER INFORMATION
~A   DEPT     CALS         DT        SPR        ILD        ASN       CILD         GR   
# ...
  812.0000     7.9188    90.4208   -21.7062    10.7486    13.5436    87.1443    55.5496
  812.5000     7.9296    89.9977   -21.8037    12.6751    13.6579    78.9749    59.7570
  813.0000     7.9302    89.5746   -21.8093    11.9082    13.8230    79.9486    63.6000
  813.5000     7.9204    90.1359   -21.6644    12.2451    13.7340    82.8243    64.9120
  814.0000     7.9057    90.2829   -21.3495    11.8793    13.5600    82.4921    64.9748
  814.5000     7.8860    89.7829   -20.9904    12.0352    13.3835    78.9749    62.0014
  815.0000     7.8665    89.2829   -20.6248    10.8002    13.2074    91.5272    63.6990
  815.5000     7.8469    88.7829   -20.2590    11.2638    13.0336    90.0256    61.6668
  816.0000     7.8487    88.3964   -19.8904    11.7498    12.9304    85.3394    61.1930
  816.5000     7.8716    88.5207   -19.7312    11.5459    13.0276    84.7197    60.0411
  817.0000     7.8944    88.6713   -19.7283    11.3662    13.1222    87.3431    62.1078
  817.5000     7.9171    88.5228   -19.7299    11.6871    13.2169    85.9235    68.9989
  818.0000     7.9567    88.2512   -19.8322    11.9120    13.3116    82.1130    68.5224
  818.5000     7.9948    88.2495   -20.0994    11.5613    13.4063    83.0189    68.3573
  819.0000     8.0130    88.5797   -20.3628    11.6205    13.5009    83.9358    68.2402
  819.5000     7.9978    88.9519   -20.5683    11.6742    13.5944    84.8527    68.3049
  820.0000     7.9832    89.3448   -20.5641    11.7271    13.6189    85.7695    68.2987
  820.5000     7.9687    89.7388   -20.5637    11.7803    13.5392    85.9989  -999.2500
  821.0000     7.9541    89.5452   -20.5637    11.8321    13.4609    84.6810  -999.2500
  821.5000     7.9390    89.2604   -20.5639    11.8326    13.3824    84.2050  -999.2500
  822.0000     7.9351    88.9966   -20.5646    11.6342    13.3038    85.4888  -999.2500
  822.5000     7.9360    89.3801   -20.5613    11.4566    13.2253    86.7190  -999.2500
  823.0000     7.9566    89.7360   -20.3829    11.4242    13.1468    87.9491  -999.2500
  823.5000     7.9743    90.0919   -20.1875    11.2950    13.0682    89.1792  -999.2500
  824.0000     7.9684    90.4485   -19.9922    11.1700    12.9900    90.4093  -999.2500
  824.5000     7.9560    90.2410   -19.7972    11.0455    12.9159    91.5272  -999.2500
  825.0000     7.9438    89.7410   -19.6023    10.9074    12.8547    92.7476  -999.2500
  825.5000     7.9338    89.2410   -19.4073    10.5571    12.7959    93.5165  -999.2500
  826.0000     7.9294    89.0478   -19.2112    10.7692    12.7373    92.5580  -999.2500
  826.5000     7.9249    89.4920   -19.0003    10.8718    12.6788    91.5272  -999.2500
  827.0000     7.9203    88.7076   -18.7595    10.6622    12.6200    91.7986  -999.2500
  827.5000     7.9156    88.3964   -18.8188    10.6152    12.5607    92.6462  -999.2500
  828.0000     7.9156    89.4108   -19.0134    10.7771    12.5039    93.4917  -999.2500
  828.5000     7.9233    90.1801   -19.2122    10.6418    12.5798    94.3359  -999.2500
  829.0000     7.9531    90.2231   -19.5473    10.1126    12.6655    95.1870  -999.2500
  829.5000     7.9825    89.7231   -20.0368    10.3857    12.7507    95.7111  -999.2500
  830.0000     8.0123    90.6960   -20.1450    10.6135    12.8357    95.6778  -999.2500
  830.5000     7.9860    90.3034   -20.1475    10.4705    12.9198    94.6653  -999.2500
  831.0000     7.9545    89.4032   -20.1470    10.8758    12.9982    92.5941  -999.2500
  831.5000     7.9233    89.9860   -20.1530    11.2522    13.3967    87.3431  -999.2500
  832.0000     7.8918    89.5549   -19.8673    11.4816    13.8637    86.2343  -999.2500
  832.5000     7.8665    89.1297   -19.7264    12.2493    14.3335    80.9623  -999.2500
  833.0000     7.8559    90.4881   -20.1348    13.1574    14.8479    75.8368  -999.2500
  833.5000     7.8910    86.5712   -20.7770    14.0633    15.6017    70.4251  -999.2500
  834.0000     7.9406    82.5087   -21.3455    14.9706    16.7212    65.1425  -999.2500
  834.5000     7.9918    78.4462   -22.9004    15.8848    19.0350    59.8685  -999.2500
  835.0000     7.9943    77.4402   -24.5897    16.8848    21.3479    54.9163  -999.2500
  835.5000     7.9530    80.6418   -26.2834    17.9598    23.6716    53.4268  -999.2500
  836.0000     7.8712    82.3356   -27.9336    18.6756    25.2823    52.0209  -999.2500
  836.5000     7.7887    88.2030   -29.5247    19.3037    26.1072    50.7322  -999.2500
  837.0000     7.7029    93.9976   -32.9446    18.8458    25.3268    51.6841  -999.2500
  837.5000     7.6985    98.1587   -36.8259    17.8404    23.9854    52.5628  -999.2500
  838.0000     7.6713   100.1574   -38.9292    16.9125    22.5782    55.0025  -999.2500
  838.5000     7.6137   100.9442   -38.8742    16.2718    21.8804    58.1036  -999.2500
  839.0000     7.6411   100.6942   -38.0596    15.8628    21.4143    61.2048  -999.2500
  839.5000     7.7468   100.1394   -38.4821    15.5451    20.9881    63.4412  -999.2500
  840.0000     7.7663    99.5228   -40.1196    15.2066    20.6136    63.9942  -999.2500
  840.5000     7.7052    98.9358   -40.5706    15.1482    20.2399    64.5151  -999.2500
  841.0000     7.6446    98.3489   -38.9600    15.2064    19.8945    65.0397  -999.2500
  841.5000     7.6002    97.7619   -37.3755    15.2186    19.7388    65.3766  -999.2500
  842.0000     7.5998    97.1749   -35.7767    15.1836    19.5773    65.3766  -999.2500
  842.5000     7.6610    97.0750   -34.3115    15.1458    19.4153    66.4226  -999.2500
  843.0000     7.7361    97.9639   -35.7900    15.1143    19.2539    66.4226  -999.2500
  843.5000     7.7267    98.4562   -37.4835    15.1150    19.0851    67.1130  -999.2500
  844.0000     7.7195    98.4562   -37.8978    15.1151    18.7551    67.4686  -999.2500
  844.5000     7.7536  -999.2500   -36.4435    15.1146    18.3840    67.4686  -999.2500
  845.0000     7.8216  -999.2500   -33.9317    15.0911    18.8465    67.4686  -999.2500
  845.5000     7.8860  -999.2500   -31.5356    15.0308    18.5005    67.4686  -999.2500
  846.0000     7.8542  -999.2500   -32.4400    15.0567    17.9547    67.4686  -999.2500
  846.5000     7.5366  -999.2500   -33.5266    15.1278    18.2275    67.4686  -999.2500
  847.0000     7.2291  -999.2500   -31.4898    15.1998    18.5349    67.4686  -999.2500
  847.5000     6.9032  -999.2500   -30.9277    15.2668    17.9111    67.4686  -999.2500
  848.0000     6.4411  -999.2500   -33.8417    15.2697    17.5478    67.4686  -999.2500
  848.5000  -999.2500  -999.2500   -34.1271    15.2426    18.0332    67.4686  -999.2500
  849.0000  -999.2500  -999.2500   -33.9812    15.2247    18.4449    67.4686  -999.2500
  849.5000  -999.2500  -999.2500   -33.9216    15.1179    18.5655    67.4686  -999.2500
