~VERSION INFORMATION
 VERS.                2.0:   CWLS LOG ASCII STANDARD - VERSION 2.0
 WRAP.                 NO:   ONE LINE PER DEPTH STEP
~WELL INFORMATION
#MNEM.UNIT      DATA TYPE    INFORMATION
#----------   ------------   ------------------------------
 STRT.F           86.0000:   START DEPTH
 STOP.F          708.0000:   STOP DEPTH
 STEP.F            0.5000:   STEP LENGTH
 NULL.          -999.2500:   NO VALUE
 COMP. U S NAVY/INTEX OIL CO:   COMPANY
 WELL.      33 S-11 #3-11:   WELL
 FLD .             TEAPOT:   FIELD
 LOC .      S11 T38N R78W:   LOCATION
 CNTY.            NATRONA:   COUNTY
 STAT.            WYOMING:   STATE
 CTRY. UNITED STATES OF AMERICA:   COUNTRY
 SRVC.       Schlumberger:   SERVICE COMPANY
 DATE.        11-JUL-1962:   LOGDATE
 API .       490250636000:   API NUMBER
~CURVE INFORMATION
#MNEM.UNIT       API CODE    CURVE DESCRIPTION
#----------   ------------   ------------------------------
 DEPT.F                  :   
 SPR .MV     05 010 01 00:   SPONTANEOUS POTENTIAL FROM RES.
 CILD.MMHO   05 110 46 00:   CONDUCTIVITY INDUCTION LOG DEEP
 ILD .OHMM   05 120 46 00:   INDUCTION LOG DEEP
 ASN .OHMM   05 041 16 00:   AMPLIFIED SHORT NORMAL 16"
 GR  .GAPI   30 310 01 00:   GAMMA RAY
~PARAMETER INFORMATION
#MNEM.UNIT          VALUE    DESCRIPTION
#----------   ------------   ------------------------------
 PD  .                 GL:   PERMANENT DATUM
 EPD .F              5171:   ELEVATION PERMANENT DATUM
 LMF .                 KB:   LOG MEASURED FROM
 DAPD.F                 5:   FEET ABOVE PERMANENT DATUM
 DMF .                 KB:   DRILLING MEASURED FROM
 EKB .F              5176:   KELLING BUSHING
 EGL .F              5171:   GROUND LEVEL
 DATE.            7-11-62:   RUN DATE
 RUN .                  1:   RUN NUMBER
 DD  .F               710:   DEPTH DRILLER
 DL  .F               709:   DEPTH LOGGER
 BLI .F               708:   BOTTOM LOG INTERVAL
 TLI .F                86:   TOP LOG INTERVAL
 BS  .IN             6.75:   BIT SIZE
 BSD .F               710:   BIT SIZE AT DEPTH
 DFT .            GEL/OIL:   DRILLING FLUID TYPE
 DFD .               10.3:   DRILLING FLUID DENSITY
 DFV .                 50:   DRILLING FLUID VISCOSITY
 DFL .                3.7:   DRILLING FLUID LOSS
 RMS .OHMM           5.66:   RESISTIVITY MUD SAMPLE
 MST .F                77:   MUD SAMPLE TEMPERATURE
 RMF .OHMM           4.44:   RESISTIVITY MUD FILTRATE SAMPLE
 MFST.F                77:   MUD FILTRATE SAMPLE TEMPERATURE
 RMC .OHMM            5.9:   RESISTIVITY MUD CAKE
 MCST.F                77:   MUD CAKE SAMPLE TEMPERATURE
 TCS .HRS               1:   TIME CURCULATED STOPPED
 LUN .               2503:   LOGGING UNIT NUMBER
 LUL .               CSPR:   LOGGING UNIT LOCATION
 ENGI.             DANNER:   RECORDING ENGINEER
 WITN.          JORGENSEN:   WITNESSED BY
 CLNT.            A2DTECH:   CLIENT CODE
 ORIG.       2", 5" PRINT:   ORIGIN OF DATA
 UWI .       490250636000:   UNIQUE WELL ID
 DICO. A2D Technologies, Inc.:   DIGITIZING COMPANY
~OTHER INFORMATION
~A   DEPT      SPR        CILD         ILD        ASN       GR   
# ...
  147.0000   -58.5650   206.6355     4.8149     5.7877  -999.2500
  147.5000   -59.8534   187.2267     5.4722     6.6592  -999.2500
  148.0000   -60.7490   163.1448     6.3821     7.5278  -999.2500
  148.5000   -60.6773   139.1515     7.3369     8.0013  -999.2500
  149.0000   -60.3979   115.1582     8.2934     8.2424  -999.2500
  149.5000   -60.1230   101.2084     9.2558     8.4869  -999.2500
  150.0000   -60.1215    98.4273     9.7520     8.7347  -999.2500
  150.5000   -60.4123    95.6461    10.0518     9.0531  -999.2500
  151.0000   -60.7012    92.8649    10.3504     9.2786  -999.2500
  151.5000   -60.9906    90.0838    10.6495     9.7361  -999.2500
  152.0000   -61.2810    85.9423    10.9490    10.2039  -999.2500
  152.5000   -61.4083    82.3232    11.2481    10.6712  -999.2500
  153.0000   -61.6249    79.9758    11.5491    10.8296  -999.2500
  153.5000   -61.8626    77.5811    11.7198    11.1667  -999.2500
  154.0000   -62.1918    75.2525    11.8114    11.3632  -999.2500
  154.5000   -62.4216    75.4848    11.9014    11.4166  -999.2500
  155.0000   -62.6319    75.8514    11.9914    11.4680  -999.2500
  155.5000   -62.3745    76.2179    12.0815    11.5190  -999.2500
  156.0000   -62.0779    76.0709    12.1717    11.5703  -999.2500
  156.5000   -61.7808    75.8526    12.2618    11.6214  -999.2500
  157.0000   -61.4846    75.6342    12.3520    11.6688  -999.2500
  157.5000   -61.1938    75.4159    12.4421    11.7395  -999.2500
  158.0000   -61.0927    75.1975    12.5323    11.9668  -999.2500
  158.5000   -61.3866    74.9791    12.6224    12.1910  -999.2500
  159.0000   -61.6758    74.7608    12.7126    12.3788  -999.2500
  159.5000   -61.9543    74.5424    12.8027    12.3835  -999.2500
  160.0000   -62.2895    74.3241    12.8927    12.4064  -999.2500
  160.5000   -62.4135    73.9444    12.9815    12.4296  -999.2500
  161.0000   -62.5508    72.6616    13.0762    12.4530  -999.2500
  161.5000   -62.6375    71.3788    13.1697    12.4755  -999.2500
  162.0000   -62.8580    70.0960    13.2630    12.5337  -999.2500
  162.5000   -63.0780    69.1077    13.3563    12.6579  -999.2500
  163.0000   -63.2942    68.8227    13.4496    12.7814  -999.2500
  163.5000   -63.4420    68.5376    13.5429    12.9053  -999.2500
  164.0000   -63.2495    68.2525    13.6362    13.0290  -999.2500
  164.5000   -63.0417    67.5726    13.7295    13.1563  -999.2500
  165.0000   -62.8343    66.7624    13.8226    13.2095  -999.2500
  165.5000   -62.6283    65.9521    13.9138    13.3830  -999.2500
  166.0000   -63.0828    65.1515    14.0025    13.5535  -999.2500
  166.5000   -63.8341    63.7670    14.3336    13.7247  -999.2500
  167.0000   -64.4064    62.3987    14.6775    13.9086  -999.2500
  167.5000   -64.6943    61.1111    15.0241    14.3499  -999.2500
  168.0000   -64.9664    58.0395    15.4603    14.9143  -999.2500
  168.5000   -65.2331    55.1392    16.0156    15.4794  -999.2500
  169.0000   -65.3292    52.2389    16.5929    16.0461  -999.2500
  169.5000   -64.7861    49.3386    17.3814    16.6149  -999.2500
  170.0000   -64.2506    47.3734    18.2393    17.1943  -999.2500
  170.5000   -63.7136    46.2965    18.8172    17.4236  -999.2500
  171.0000   -63.1764    45.1846    19.3465    16.9103  -999.2500
  171.5000   -62.6371    45.1982    19.4455    16.7269  -999.2500
  172.0000   -62.5432    45.5088    19.3024    17.7186  -999.2500
  172.5000   -63.1989    45.8498    18.4852    17.3404  -999.2500
  173.0000   -63.8495    48.0245    17.6709    16.7190  -999.2500
  173.5000   -64.4501    51.3232    16.8399    16.0881  -999.2500
  174.0000   -64.4656    54.6219    16.4343    15.5107  -999.2500
  174.5000   -64.4467    55.0505    16.1068    15.3905  -999.2500
  175.0000   -64.6849    56.0606    15.7880    15.1599  -999.2500
  175.5000   -64.8366    59.4815    15.3651    14.8549  -999.2500
  176.0000   -65.0049    63.1099    14.9575    14.5655  -999.2500
  176.5000   -65.2888    63.3955    14.5564    14.2663  -999.2500
  177.0000   -65.1347    63.6432    14.2798    13.9670  -999.2500
  177.5000   -64.8791    63.9031    14.2221    13.6681  -999.2500
  178.0000   -64.6289    64.1663    14.1597    13.4143  -999.2500
  178.5000   -63.6398    64.4294    14.0986    13.2165  -999.2500
  179.0000   -62.6104    64.6926    14.0371    13.1042  -999.2500
  179.5000   -62.2467    64.9557    13.9598    12.9923  -999.2500
  180.0000   -62.3263    66.4647    13.7981    12.8801  -999.2500
  180.5000   -62.4044    71.5960    13.4136    12.7833  -999.2500
  181.0000   -62.4894    79.4456    12.2106    12.6126  -999.2500
  181.5000   -62.5760    88.5679    11.0508    12.1160  -999.2500
  182.0000   -62.6163    97.6902     9.8865    11.1720  -999.2500
  182.5000   -61.5317   106.8126     9.0272     9.8285  -999.2500
  183.0000   -60.3368   115.9349     8.4073     9.0581  -999.2500
  183.5000   -59.1424   125.0572     7.7959     8.2922  -999.2500
  184.0000   -57.9916   134.1849     7.1846     7.6381  -999.2500
  184.5000   -58.0045   143.3148     6.6224     7.2008  -999.2500
  185.0000   -58.4474   152.4402     6.4169     6.9614  -999.2500
  185.5000   -58.8914   156.0606     6.4232     6.9175  -999.2500
  186.0000   -58.8103   155.6303     6.4378     7.0032  -999.2500
  186.5000   -58.4630   155.1172     6.4513     7.1223  -999.2500
  187.0000   -58.1159   155.0505     6.4644     7.0250  -999.2500
  187.5000   -57.6750   155.0505     6.4776     6.9098  -999.2500
  188.0000   -57.5210   155.0505     6.4907     6.8093  -999.2500
  188.5000   -57.4934   155.0505     6.5038     6.7121  -999.2500
  189.0000   -57.4702   154.5354     6.5227     6.6162  -999.2500
  189.5000   -57.4465   153.8356     6.5753     6.5279  -999.2500
  190.0000   -57.4224   153.1359     6.6280     6.5159  -999.2500
  190.5000   -57.3984   152.4362     6.6807     6.5408  -999.2500
  191.0000   -57.3746   151.4774     6.7333     6.6156  -999.2500
  191.5000   -57.3521   150.1388     6.7861     6.7655  -999.2500
  192.0000   -57.3220   148.8002     6.8387     6.8819  -999.2500
  192.5000   -57.0846   147.4616     6.8906     6.8574  -999.2500
  193.0000   -56.8448   146.0976     6.8889     6.8380  -999.2500
  193.5000   -56.7414   147.6181     6.8232     6.8398  -999.2500
  194.0000   -56.7850   149.4886     6.7581     6.8110  -999.2500
  194.5000   -56.8278   151.3744     6.6927     6.7585  -999.2500
  195.0000   -56.8710   153.2559     6.6274     6.7038  -999.2500
  195.5000   -56.9137   155.1374     6.5621     6.6494  -999.2500
  196.0000   -57.0129   157.0193     6.4967     6.5951  -999.2500
  196.5000   -57.1248   158.6019     6.4314     6.5404  -999.2500
  197.0000   -57.1310   160.1013     6.3661     6.4860  -999.2500
  197.5000   -57.0433   160.0996     6.3009     6.4457  -999.2500
  198.0000   -56.9426   158.3258     6.2342     6.5171  -999.2500
  198.5000   -57.0437   156.5664     6.2568     6.5861  -999.2500
  199.0000   -57.4868   154.8139     6.3241     6.6544  -999.2500
  199.5000   -57.0026   153.0631     6.3925     6.7173  -999.2500
  200.0000   -56.7240   151.3123     6.4609     6.7497  -999.2500
  200.5000   -57.2981   149.5614     6.5293     6.8441  -999.2500
  201.0000   -57.3358   147.8106     6.5976     7.0712  -999.2500
  201.5000   -57.3329   145.9596     6.6659     7.0496  -999.2500
  202.0000   -57.3322   141.7348     6.7342     7.0038  -999.2500
  202.5000   -57.3330   138.8889     6.8026     6.9575  -999.2500
  203.0000   -57.3281   138.8889     6.8709     7.0156  -999.2500
  203.5000   -57.1587   128.2917     6.9395     7.1456  -999.2500
  204.0000   -56.9786   123.8106     7.0079     7.2766  -999.2500
  204.5000   -56.7992   119.3296     7.0864     7.4038  -999.2500
  205.0000   -56.6207   114.8485     7.1916     7.4784  -999.2500
  205.5000   -56.5196   110.3674     7.2975     7.5428  -999.2500
  206.0000   -56.3748   126.0446     7.4036     7.5063  -999.2500
  206.5000   -56.1477   125.4321     7.5103     7.5148  -999.2500
  207.0000   -56.5759   126.8725     7.6179     7.5786  -999.2500
  207.5000   -57.1308   128.3128     7.5325     7.6447  -999.2500
