~VERSION INFORMATION
 VERS.                2.0:   CWLS LOG ASCII STANDARD - VERSION 2.0
 WRAP.                 NO:   ONE LINE PER DEPTH STEP
~WELL INFORMATION
#MNEM.UNIT      DATA TYPE    INFORMATION
#----------   ------------   ------------------------------
 STRT.F           82.0000:   START DEPTH
 STOP.F         1194.0000:   STOP DEPTH
 STEP.F            0.5000:   STEP LENGTH
 NULL.          -999.2500:   NO VALUE
 COMP.       INTEX OIL CO:   COMPANY
 WELL.   76S-11 NPR #3-11:   WELL
 FLD .             TEAPOT:   FIELD
 LOC .      S11 T38N R78W:   LOCATION
 CNTY.            NATRONA:   COUNTY
 STAT.            WYOMING:   STATE
 CTRY. UNITED STATES OF AMERICA:   COUNTRY
 SRVC.       Schlumberger:   SERVICE COMPANY
 DATE.        30-AUG-1966:   LOGDATE
 API .       490250972800:   API NUMBER
~CURVE INFORMATION
#MNEM.UNIT       API CODE    CURVE DESCRIPTION
#----------   ------------   ------------------------------
 DEPT.F                  :   
 SPR .MV     05 010 01 00:   SPONTANEOUS POTENTIAL FROM RES.
 CILD.MMHO   05 110 46 00:   CONDUCTIVITY INDUCTION LOG DEEP
 ILD .OHMM   05 120 46 00:   INDUCTION LOG DEEP
 ASN .OHMM   05 041 16 00:   AMPLIFIED SHORT NORMAL 16"
 CALD.IN     45 280 60 00:   CALIPER FROM DENSITY LOG
 CORR.G/C3   45 356 01 00:   DENSITY CORRECTION
 RHOB.G/C3   45 350 01 00:   BULK DENSITY
 DPHI.DEC    45 890 12 00:   DENSITY POROSITY SANDSTONE
 GRD .GAPI   45 310 01 00:   GAMMA RAY FROM DENSITY LOG
~PARAMETER INFORMATION
#MNEM.UNIT          VALUE    DESCRIPTION
#----------   ------------   ------------------------------
 PD  .                 GL:   PERMANENT DATUM
 EPD .F              5261:   ELEVATION PERMANENT DATUM
 LMF .                 KB:   LOG MEASURED FROM
 DAPD.F                 5:   FEET ABOVE PERMANENT DATUM
 DMF .                 KB:   DRILLING MEASURED FROM
 EKB .F              5266:   KELLING BUSHING
 EGL .F              5261:   GROUND LEVEL
 DATE.            8-30-66:   RUN DATE
 RUN .                  1:   RUN NUMBER
 DD  .F              1191:   DEPTH DRILLER
 DL  .F              1191:   DEPTH LOGGER
 BLI .F              1190:   BOTTOM LOG INTERVAL
 TLI .F                87:   TOP LOG INTERVAL
 CS  .IN            8.625:   CASING SIZE
 CBD .F                10:   CASING BOTTOM DRILLER
 BS  .IN             6.75:   BIT SIZE
 BSD .F              1191:   BIT SIZE AT DEPTH
 DFT .           CHEM-GEL:   DRILLING FLUID TYPE
 DFD .                9.8:   DRILLING FLUID DENSITY
 DFV .                 60:   DRILLING FLUID VISCOSITY
 MSS .         CIRCULATED:   MUD SAMPLE SOURCE
 RMS .OHMM            .76:   RESISTIVITY MUD SAMPLE
 MST .F                85:   MUD SAMPLE TEMPERATURE
 RMF .OHMM            .46:   RESISTIVITY MUD FILTRATE SAMPLE
 MFST.F                88:   MUD FILTRATE SAMPLE TEMPERATURE
 MFSS.                  M:   MUD FILTRATE SAMPLE SOURCE
 RMB .OHMM           .695:   RESISTIVITY MUD AT BHT
 BHT .F                93:   BOTTOM HOLE TEMPERATURE
 TCS .HRS               1:   TIME CURCULATED STOPPED
 MRT .F                93:   MAXIMUM RECORDED TEMPERATURE
 LUN .               3527:   LOGGING UNIT NUMBER
 LUL .               CSPR:   LOGGING UNIT LOCATION
 ENGI.               HAUG:   RECORDING ENGINEER
 WITN.                MAY:   WITNESSED BY
 CLNT.            A2DTECH:   CLIENT CODE
 ORIG. 2", 2.5", 5" PRINT:   ORIGIN OF DATA
 UWI .       490250972800:   UNIQUE WELL ID
 DICO. A2D Technologies, Inc.:   DIGITIZING COMPANY
~OTHER INFORMATION
~A   DEPT      SPR        CILD       ILD          ASN     CALD       CORR       RHOB       DPHI        GRD   
# ...
  629.5000   -55.0020    87.0534    10.6845    13.1596     7.0630     0.0725     2.3908     0.1583    92.5251
  630.0000   -55.1023    85.8034    10.8002    13.2423     7.0437     0.0630     2.3745     0.1684    93.9526
  630.5000   -55.0454    84.3313    10.9186    13.3175     7.0526     0.0509     2.3711     0.1708    95.4455
  631.0000   -54.9633    83.6708    11.0346    13.5853     7.0687     0.0482     2.3800     0.1717    95.5649
  631.5000   -54.9647    82.6102    11.1414    13.8134     7.0842     0.0632     2.3942     0.1614    95.1638
  632.0000   -55.3264    81.5496    11.2843    14.0748     7.0992     0.0689     2.4086     0.1489    93.4917
  632.5000   -55.6803    80.4890    11.4168    14.3500     7.1155     0.0570     2.3977     0.1575    92.8762
  633.0000   -56.0223    79.4284    11.5400    14.6062     7.1238     0.0439     2.3729     0.1742    94.6871
  633.5000   -56.3854    78.3678    11.7045    14.9159     7.1227     0.0358     2.3610     0.1821    96.6008
  634.0000   -56.5443    77.3453    12.1521    15.4108     7.1230     0.0447     2.3671     0.1739    97.2499
  634.5000   -56.5180    73.2756    12.8746    16.0015     7.1234     0.0589     2.3802     0.1679    96.4166
  635.0000   -56.5390    69.3470    13.5455    16.5821     7.1218     0.0535     2.3894     0.1600    95.8723
  635.5000   -56.5140    65.4184    14.3412    17.4441     7.1351     0.0577     2.4004     0.1584    94.4795
  636.0000   -56.5564    61.4899    15.2354    18.6596     7.1568     0.0660     2.4254     0.1431    92.5599
  636.5000   -56.2418    57.5613    16.0818    19.8775     7.1767     0.0736     2.4512     0.1323    90.7925
  637.0000   -55.6760    55.3892    16.9489    21.1198     7.1964     0.0794     2.4858     0.1102    89.1957
  637.5000   -55.3575    53.5180    17.2363    22.0380     7.2167     0.0628     2.5227     0.0914    88.2202
  638.0000   -55.4842    51.3972    17.2437    22.7936     7.2362     0.0468     2.5571     0.0728    87.2371
  638.5000   -55.4076    52.1486    16.8826    22.2163     7.2420     0.0706     2.5585     0.0574    86.3969
  639.0000   -55.1454    55.0140    16.1745    20.8408     7.2200     0.0970     2.5523     0.0574    86.9605
  639.5000   -55.2917    59.0140    15.6333    19.4627     7.1705     0.1248     2.5273     0.0768    89.2947
  640.0000   -55.5904    63.0140    14.8277    18.0833     7.0710     0.1364     2.4649     0.1166    91.3355
  640.5000   -55.8529    67.0140    13.8795    17.1411     6.9721     0.0864     2.4068     0.1563    93.5452
  641.0000   -55.8143    71.0237    12.9033    16.4119     6.8717     0.0383     2.3463     0.1814    94.5816
  641.5000   -55.5532    74.3458    12.3677    15.8226     6.7733     0.0526     2.3508     0.1860    95.8226
  642.0000   -55.7027    76.3204    12.1870    15.5982     6.6723     0.0790     2.3658     0.1786    95.6174
  642.5000   -56.0674    77.2974    12.1228    15.3744     6.6276     0.1053     2.3834     0.1687    94.1006
  643.0000   -55.9792    76.2790    12.1558    15.1357     6.6082     0.1162     2.4080     0.1518    94.5052
  643.5000   -55.7266    75.3307    12.1762    14.8869     6.6794     0.0883     2.4125     0.1471    95.3262
  644.0000   -55.3939    74.2590    12.2176    14.6485     6.7786     0.0740     2.4131     0.1491    94.3446
  644.5000   -55.4975    75.2895    12.1802    14.4415     6.8081     0.0686     2.4067     0.1505    95.3842
  645.0000   -55.7000    77.6336    12.0156    14.3214     6.8104     0.0619     2.4018     0.1534    96.2535
  645.5000   -55.9426    80.0449    11.5861    13.9314     6.8797     0.0558     2.3959     0.1545    97.2063
  646.0000   -55.5357    84.6582    10.7493    13.5703     6.9384     0.0597     2.3990     0.1586    98.1861
  646.5000   -54.9300    92.3154     9.9389    13.2092     7.0013     0.0576     2.4038     0.1496    99.1976
  647.0000   -55.0441   101.9162     9.1220    12.4705     6.9918     0.0444     2.3939     0.1553   102.0563
  647.5000   -55.0792   112.7495     8.3108    11.3342     6.9778     0.0512     2.4020     0.1576   106.0695
  648.0000   -54.9324   124.4012     7.4924    10.3716     6.9244     0.0687     2.4281     0.1442   109.9687
  648.5000   -54.2444   136.9012     6.7052     9.8204     6.8615     0.0783     2.4537     0.1199   113.7147
  649.0000   -53.1908   149.4012     6.1926     9.2542     6.8220     0.0761     2.4758     0.1129   117.5478
  649.5000   -52.2018   160.8475     5.8254     8.6731     7.0308     0.0683     2.4786     0.1079   119.0480
  650.0000   -51.8011   169.8047     5.4721     8.0938     7.2174     0.0445     2.4665     0.1103   117.5576
  650.5000   -51.5105   178.7618     5.4290     7.8073     7.3321     0.0354     2.4598     0.1094   114.7590
  651.0000   -51.1719   183.1337     5.4387     7.6592     7.3183     0.0483     2.4784     0.1032   111.6798
  651.5000   -50.9182   182.1829     5.4354     7.6272     7.3193     0.0594     2.4969     0.0970   111.8939
  652.0000   -50.8984   180.3538     5.4383     7.6038     7.3204     0.0567     2.4945     0.0953   112.3305
  652.5000   -50.9012   178.5248     5.4377     7.7127     7.3180     0.0519     2.4857     0.0988   112.9224
  653.0000   -50.9032   176.6957     5.4387     7.8045     7.3182     0.0498     2.4943     0.1000   113.3359
  653.5000   -50.8891   175.1497     5.4387     7.8744     7.3172     0.0564     2.4942     0.0968   113.4626
  654.0000   -50.8460   175.1497     5.4391     7.8387     7.3163     0.0464     2.4891     0.0988   116.7386
  654.5000   -50.8059   175.1497     5.4389     7.7366     7.3156     0.0288     2.4856     0.1021   118.3993
  655.0000   -50.7618   175.1497     5.4392     7.6372     7.3149     0.0303     2.4818     0.1047   117.8231
  655.5000   -50.7241   175.1497     5.4386     7.5362     7.3143     0.0332     2.4779     0.1057   118.7361
  656.0000   -50.6589   175.1497     5.4396     7.4383     7.3136     0.0379     2.4728     0.1071   119.5802
  656.5000   -50.5689   172.2206     5.4376     7.4219     7.3129     0.0448     2.4795     0.1054   118.7246
  657.0000   -50.4986   170.8019     5.4529     7.5409     7.3122     0.0607     2.4891     0.1011   117.9126
  657.5000   -50.4352   169.3908     5.4904     7.6662     7.3115     0.0768     2.4942     0.0968   118.2510
  658.0000   -50.3797   167.9777     5.5253     7.7945     7.3108     0.0829     2.4919     0.0984   118.9502
  658.5000   -50.3233   166.5574     5.5623     7.9085     7.3101     0.0771     2.4907     0.0975   117.7068
  659.0000   -50.2673   165.1913     5.5973     7.9495     7.3094     0.0773     2.4910     0.0953   115.9792
  659.5000   -50.2111   166.3212     5.6364     7.9160     7.3088     0.0809     2.4992     0.0930   114.2463
  660.0000   -50.1550   167.3976     5.6271     7.8941     7.3081     0.0747     2.5011     0.0921   112.5730
  660.5000   -50.0998   168.9279     5.5799     7.8827     7.3074     0.0686     2.4867     0.0987   110.7895
  661.0000   -50.0444   171.8021     5.5336     7.8279     7.3067     0.0595     2.4750     0.1041   110.2082
  661.5000   -49.9898   174.6764     5.4868     7.7413     7.3060     0.0485     2.4635     0.1096   110.4816
  662.0000   -49.9354   177.5116     5.4387     7.6494     7.3053     0.0522     2.4599     0.1151   110.6763
  662.5000   -49.8804   180.3060     5.3942     7.5661     7.3046     0.0459     2.4632     0.1203   110.9415
  663.0000   -49.8266   181.7801     5.3425     7.4665     7.3039     0.0519     2.4670     0.1134   111.4107
  663.5000   -49.7700   182.6946     5.3050     7.4065     7.3032     0.0519     2.4608     0.1093   111.9701
  664.0000   -49.7200   182.0496     5.2280     7.3897     7.3025     0.0480     2.4532     0.1094   112.7356
  664.5000   -49.6618   179.9640     5.1293     7.4394     7.3019     0.0540     2.4674     0.1070   113.3732
  665.0000   -49.5856   177.8784     5.1518     7.5984     7.3012     0.0514     2.4818     0.1047   113.8861
  665.5000   -49.5032   175.7928     5.2265     7.7358     7.3005     0.0422     2.4771     0.1062   112.3804
