~VERSION INFORMATION
 VERS.                2.0:   CWLS LOG ASCII STANDARD - VERSION 2.0
 WRAP.                 NO:   ONE LINE PER DEPTH STEP
~WELL INFORMATION
#MNEM.UNIT      DATA TYPE    INFORMATION
#----------   ------------   ------------------------------
 STRT.F           25.0000:   START DEPTH
 STOP.F          528.0000:   STOP DEPTH
 STEP.F            0.5000:   STEP LENGTH
 NULL.          -999.2500:   NO VALUE
 COMP. FENIX & SCISSON INC:   COMPANY
 WELL.       NPR #3 #11-3:   WELL
 FLD .             NPR #3:   FIELD
 LOC .       S3 T38N R78W:   LOCATION
 CNTY.            NATRONA:   COUNTY
 STAT.            WYOMING:   STATE
 CTRY. UNITED STATES OF AMERICA:   COUNTRY
 SRVC.       Schlumberger:   SERVICE COMPANY
 DATE.        01-MAR-1977:   LOGDATE
 API .       490251028300:   API NUMBER
~CURVE INFORMATION
#MNEM.UNIT       API CODE    CURVE DESCRIPTION
#----------   ------------   ------------------------------
 DEPT.F                  :   
 SPR .MV     07 010 01 00:   SPONTANEOUS POTENTIAL
 LL8 .OHMM   07 220 08 00:   LATEROLOG-8 RES.
 ILM .OHMM   07 120 44 00:   INDUCTION LOG MEDIUM
 ILD .OHMM   07 120 46 00:   INDUCTION LOG DEEP
 GRD .GAPI   45 310 01 00:   GAMMA RAY FROM DENSITY LOG
 CALD.IN     45 280 60 00:   CALIPER
 RHOB.G/C3   45 350 01 00:   BULK DENSITY
 CORR.G/C3   45 356 01 00:   DENSITY CORRECTION
 DPHI.DEC    45 890 12 00:   DENSITY POROSITY SANDSTONE
~PARAMETER INFORMATION
#MNEM.UNIT          VALUE    DESCRIPTION
#----------   ------------   ------------------------------
 PD  .                 GL:   PERMANENT DATUM
 EPD .F              5178:   ELEVATION PERMANENT DATUM
 LMF .                 GL:   LOG MEASURED FROM
 DMF .                 GL:   DRILLING MEASURED FROM
 EKB .F              5183:   KELLING BUSHING
 EGL .F              5178:   GROUND LEVEL
 DATE.           3-1-1977:   RUN DATE
 RUN .                  1:   RUN NUMBER
 DD  .F               535:   DEPTH DRILLER
 DL  .F               526:   DEPTH LOGGER
 BLI .F               520:   BOTTOM LOG INTERVAL
 TLI .F                30:   TOP LOG INTERVAL
 CS  .IN            8.625:   CASING SIZE
 CBD .F                40:   CASING BOTTOM DRILLER
 CBL .F                30:   CASING BOTTOM LOGGER
 BS  .IN            7.875:   BIT SIZE
 BSD .F               535:   BIT SIZE AT DEPTH
 DFT .                KCL:   DRILLING FLUID TYPE
 DFD .                8.7:   DRILLING FLUID DENSITY
 DFV .                 37:   DRILLING FLUID VISCOSITY
 DFPH.                  8:   DRILLING FLUID PH
 DFL .                7.2:   DRILLING FLUID LOSS
 MSS .                PIT:   MUD SAMPLE SOURCE
 RMS .OHMM           .495:   RESISTIVITY MUD SAMPLE
 MST .F                62:   MUD SAMPLE TEMPERATURE
 RMF .OHMM           .406:   RESISTIVITY MUD FILTRATE SAMPLE
 MFST.F                65:   MUD FILTRATE SAMPLE TEMPERATURE
 MFSS.                  M:   MUD FILTRATE SAMPLE SOURCE
 RMB .OHMM           .438:   RESISTIVITY MUD AT BHT
 BHT .F                70:   BOTTOM HOLE TEMPERATURE
 TCS .HRS            0800:   TIME CURCULATED STOPPED
 TLAB.HRS            1130:   TIME LOGGER AT BOTTOM
 MRT .F                70:   MAXIMUM RECORDED TEMPERATURE
 LUN .               5642:   LOGGING UNIT NUMBER
 LUL .               CSPR:   LOGGING UNIT LOCATION
 ENGI.             MARTIN:   RECORDING ENGINEER
 CLNT.            A2DTECH:   CLIENT CODE
 ORIG.       2", 5" PRINT:   ORIGIN OF DATA
 UWI .       490251028300:   UNIQUE WELL ID
 DICO. A2D Technologies, Inc.:   DIGITIZING COMPANY
~OTHER INFORMATION
~A   DEPT      SPR        LL8        ILM        ILD         GRD      CALD       RHOB       CORR       DPHI   
# ...
  353.5000   -36.4048    18.5304    19.0484    17.5097    67.4046     7.7823     2.2945     0.0296     0.2188
  354.0000   -35.8397    19.2926    19.6198    17.1451    69.8590     7.8365     2.3186     0.0246     0.2116
  354.5000   -36.1499    20.0927    20.0927    16.8238    72.2085     7.8938     2.3476     0.0183     0.1900
  355.0000   -36.5573    19.0220    18.2361    15.8299    71.9051     7.9502     2.3907     0.0124     0.1616
  355.5000   -35.6842    15.5889    15.4598    14.8040    71.3608     8.0063     2.4334     0.0163     0.1329
  356.0000   -33.9507    12.7753    13.0102    13.8446    71.8941     8.0378     2.4860     0.0318     0.1139
  356.5000   -32.0413    10.9113    12.0009    12.9474    72.5067     8.0396     2.4326     0.0390     0.1248
  357.0000   -30.1266     9.5958    11.0284    12.1084    73.1497     8.0133     2.4223     0.0269     0.1332
  357.5000   -28.2099     8.4388    10.1347    11.3237    72.3323     7.9923     2.4105     0.0177     0.1480
  358.0000   -26.7288     7.3331     9.2452    10.8134    71.0407     7.9711     2.3881     0.0084     0.1687
  358.5000   -25.6626     7.6685     9.7683    11.0412    70.3440     7.9502     2.3610     0.0118     0.1792
  359.0000   -25.3608     8.3702    10.3784    11.5094    69.6059     7.9294     2.3549     0.0106     0.1820
  359.5000   -26.0891     9.1361    11.0302    11.9974    68.3808     7.9086     2.3502     0.0039     0.1910
  360.0000   -25.7927     9.5885    12.1226    12.5062    67.1661     7.8877     2.3217     0.0264     0.2062
  360.5000   -26.9929    12.1003    13.3898    13.0365    65.5108     7.8669     2.2854     0.0201     0.2215
  361.0000   -27.1607    23.0823    14.7896    13.5907    60.5662     7.8460     2.2797     0.0288     0.2277
  361.5000   -26.0063    20.0732    15.6532    14.2707    57.4499     7.8250     2.2828     0.0453     0.2231
  362.0000   -25.0535    13.6258    15.6532    14.1578    60.4904     7.8047     2.2857     0.0353     0.2191
  362.5000   -25.7483    15.3664    15.3542    13.9733    64.4209     7.7856     2.3071     0.0172     0.2156
  363.0000   -26.9677    13.3502    14.6113    13.7914    66.3523     7.7919     2.3336     0.0241     0.2007
  363.5000   -28.2005    11.6437    13.9052    13.6122    66.9859     7.8440     2.3603     0.0281     0.1851
  364.0000   -29.4167    13.1914    13.2316    13.4354    67.6800     7.8967     2.3870     0.0339     0.1694
  364.5000   -30.4007    15.0848    12.5905    13.2602    64.4611     7.8875     2.4140     0.0578     0.1537
  365.0000   -29.6639    12.7924    11.9803    13.0895    60.4841     7.8398     2.4395     0.0475     0.1343
  365.5000   -27.8205    10.2971    11.4022    12.8904    59.8972     7.7911     2.4299     0.0187     0.1413
  366.0000   -25.8029     8.6192    10.9859    12.7718    62.8269     7.7592     2.4171     0.0536     0.1509
  366.5000   -25.5031     9.6809    11.9924    12.8904    67.9084     7.7531     2.3925     0.0349     0.1604
  367.0000   -27.2254    10.8734    13.0476    13.4526    73.0500     7.7639     2.3687     0.0421     0.1699
  367.5000   -28.9926    12.2127    14.1957    14.1505    76.2750     7.7699     2.3619     0.0530     0.1846
  368.0000   -30.7533    13.7171    15.4449    14.8846    78.7815     7.7577     2.3289     0.0226     0.2033
  368.5000   -32.5033    15.4067    16.8039    15.6568    79.9587     7.7427     2.3157     0.0279     0.2057
  369.0000   -34.0454    17.3045    18.2826    16.4690    80.8496     7.7539     2.3245     0.0329     0.2032
  369.5000   -34.8092    19.5429    19.9050    17.3234    78.4874     7.7260     2.3067     0.0255     0.2048
  370.0000   -35.5898    19.0560    21.2299    17.6528    75.8729     7.7010     2.2811     0.0069     0.2281
  370.5000   -36.3491    17.7360    20.3269    17.3573    73.3978     7.6878     2.3054     0.0130     0.2107
  371.0000   -36.9529    16.5074    19.5956    17.0393    74.7697     7.7456     2.3488     0.0079     0.1885
  371.5000   -36.9458    15.7987    18.8936    16.7271    76.5302     7.8039     2.3930    -0.0020     0.1661
  372.0000   -36.5318    16.0832    18.2198    16.4207    78.2830     7.8620     2.4371     0.0285     0.1437
  372.5000   -36.1009    16.2431    17.5701    16.1198    78.5944     7.9201     2.4537     0.0445     0.1257
  373.0000   -36.1425    15.5465    16.9436    15.8245    77.5994     7.9778     2.4458     0.0297     0.1328
  373.5000   -36.3786    14.8523    16.3393    15.5346    76.5006     8.0168     2.4395     0.0194     0.1400
  374.0000   -37.0891    14.1899    15.9454    15.2500    75.8078     8.0089     2.4235     0.0205     0.1472
  374.5000   -37.8144    13.5570    15.9454    14.9460    77.6467     8.0020     2.4014     0.0215     0.1544
  375.0000   -38.5401    13.2485    15.9454    14.9460    79.4056     7.9951     2.3813     0.0226     0.1615
  375.5000   -39.2647    13.6485    16.0256    14.8084    81.1735     7.9882     2.3746     0.0219     0.1687
  376.0000   -39.9891    14.1001    16.1891    14.8084    82.6995     7.9814     2.3669     0.0156     0.1766
  376.5000   -40.5285    14.5370    16.3543    14.9452    80.5565     7.9745     2.3471     0.0093     0.1875
  377.0000   -40.4348    14.1662    16.5212    15.2407    77.6883     7.9676     2.3269     0.0102     0.1984
  377.5000   -40.6329    13.6222    16.6383    15.5420    74.8546     7.9607     2.3222     0.0187     0.1988
  378.0000   -41.2087    13.0992    16.7473    15.8492    73.2065     7.9539     2.3252     0.0208     0.1968
  378.5000   -41.7835    12.8904    16.8569    16.0969    75.3014     7.9470     2.3384     0.0169     0.1928
  379.0000   -40.7182    14.1393    16.9673    15.9964    77.2718     7.9401     2.3517     0.0237     0.1841
  379.5000   -39.3379    13.6934    17.0784    15.8735    77.1604     7.9332     2.3666     0.0282     0.1756
  380.0000   -37.9618    13.2521    17.1698    15.7983    76.0232     7.9262     2.3571     0.0199     0.1693
  380.5000   -36.7285    14.0099    17.1698    15.7987    74.1761     7.9194     2.3435     0.0268     0.1900
  381.0000   -38.0791    15.0941    17.1700    15.8778    73.9026     7.9502     2.3579     0.0506     0.1829
  381.5000   -38.9038    14.9155    17.1698    15.9817    73.6746     7.9873     2.3828     0.0885     0.1761
  382.0000   -38.2522    14.4117    17.1695    16.0863    73.3593     8.0247     2.3571     0.0695     0.1707
  382.5000   -38.8365    13.8847    17.1698    16.1917    73.7717     8.0625     2.3340     0.0234     0.1972
  383.0000   -39.4376    14.4441    17.1706    16.2977    77.5599     8.0936     2.3445     0.0169     0.1857
  383.5000   -39.8742    15.0783    17.1684    16.3940    79.9459     8.0039     2.3580     0.0216     0.1764
  384.0000   -41.0607    15.7431    17.3969    16.3940    80.0169     7.9126     2.3712     0.0316     0.1670
  384.5000   -41.1038    16.2431    17.5751    16.3458    80.1372     7.8646     2.3878     0.0492     0.1607
  385.0000   -40.8117    16.1336    17.7547    16.3086    80.6980     7.8772     2.3824     0.0507     0.1643
  385.5000   -41.5989    15.7243    17.9358    16.2714    81.2628     7.8884     2.3726     0.0530     0.1680
  386.0000   -42.3936    15.3254    18.1494    16.2431    81.5950     7.8736     2.3771     0.0718     0.1692
  386.5000   -43.1389    14.9460    17.9773    16.3940    81.5999     7.7445     2.3850     0.0832     0.1656
  387.0000   -43.2389    15.1301    17.7732    16.7000    82.7683     7.6261     2.3931     0.0802     0.1559
  387.5000   -43.3499    15.5810    17.4903    16.8811    83.1292     7.7182     2.4013     0.0713     0.1499
  388.0000   -43.2029    16.0454    17.7237    17.0122    81.2470     7.8183     2.3973     0.0408     0.1550
  388.5000   -43.0505    16.2431    17.9202    17.1404    79.8607     7.9181     2.3915     0.0252     0.1599
  389.0000   -42.7730    15.7791    18.1189    17.2711    80.9653     7.9508     2.3855     0.0275     0.1631
  389.5000   -42.2624    15.3957    18.3198    17.4032    82.0116     7.9396     2.3796     0.0268     0.1658
