~VERSION INFORMATION
 VERS.                2.0:   CWLS LOG ASCII STANDARD - VERSION 2.0
 WRAP.                 NO:   ONE LINE PER DEPTH STEP
~WELL INFORMATION
#MNEM.UNIT      DATA TYPE    INFORMATION
#----------   ------------   ------------------------------
 STRT.F           33.0000:   START DEPTH
 STOP.F          560.0000:   STOP DEPTH
 STEP.F            0.5000:   STEP LENGTH
 NULL.          -999.2500:   NO VALUE
 COMP. BROWN JOHN E&C INC:   COMPANY
 WELL.        SX 85 #25-3:   WELL
 FLD .             TEAPOT:   FIELD
 LOC .       S3 T38N R78W:   LOCATION
 CNTY.            NATRONA:   COUNTY
 STAT.            WYOMING:   STATE
 CTRY. UNITED STATES OF AMERICA:   COUNTRY
 SRVC.       Schlumberger:   SERVICE COMPANY
 DATE.        23-SEP-1980:   LOGDATE
 API .       490251130600:   API NUMBER
~CURVE INFORMATION
#MNEM.UNIT       API CODE    CURVE DESCRIPTION
#----------   ------------   ------------------------------
 DEPT.F                  :   
 ILD .OHMM   07 120 46 00:   INDUCTION LOG DEEP
 ILM .OHMM   07 120 44 00:   INDUCTION LOG MEDIUM
 DPHI.DEC    45 890 12 00:   DENSITY POROSITY SANDSTONE
 RHOB.G/C3   45 350 01 00:   BULK DENSITY
 DRHO.G/C3   45 356 01 00:   DENSITY CORRECTION
 CALD.IN     45 280 60 00:   CALIPER
 GRD .GAPI   45 310 01 00:   GAMMA RAY FROM DENSITY LOG
~PARAMETER INFORMATION
#MNEM.UNIT          VALUE    DESCRIPTION
#----------   ------------   ------------------------------
 PD  .                 GL:   PERMANENT DATUM
 EPD .F              5144:   ELEVATION PERMANENT DATUM
 LMF .                 KB:   LOG MEASURED FROM
 DAPD.F                10:   FEET ABOVE PERMANENT DATUM
 DMF .                 KB:   DRILLING MEASURED FROM
 EKB .F              5154:   KELLING BUSHING
 EDF .F              5153:   DRILLING FLOOR
 EGL .F              5144:   GROUND LEVEL
 DATE.            9-23-90:   RUN DATE
 RUN .                  1:   RUN NUMBER
 DD  .F               564:   DEPTH DRILLER
 DL  .F               565:   DEPTH LOGGER
 BLI .F               559:   BOTTOM LOG INTERVAL
 TLI .F                40:   TOP LOG INTERVAL
 CS  .IN            8.625:   CASING SIZE
 CBD .F                50:   CASING BOTTOM DRILLER
 CBL .F                50:   CASING BOTTOM LOGGER
 BS  .IN            7.875:   BIT SIZE
 BSD .F               564:   BIT SIZE AT DEPTH
 DFT .                AIR:   DRILLING FLUID TYPE
 TCS .HRS            1900:   TIME CURCULATED STOPPED
 TLAB.HRS            2000:   TIME LOGGER AT BOTTOM
 LUN .               5882:   LOGGING UNIT NUMBER
 LUL .               CODY:   LOGGING UNIT LOCATION
 ENGI.          M. FISHER:   RECORDING ENGINEER
 WITN.          G. STRONG:   WITNESSED BY
 CLNT.            A2DTECH:   CLIENT CODE
 ORIG.        2" 5" PRINT:   ORIGIN OF DATA
 UWI .       490251130600:   UNIQUE WELL ID
 DICO. A2D Technologies, Inc.:   DIGITIZING COMPANY
~OTHER INFORMATION
~A   DEPT      ILD        ILM       DPHI       RHOB       DRHO       CALD         GRD  
# ...
  215.0000    10.1235     9.9935     0.1211     2.4387    -0.0009     7.8457   112.6358
  215.5000    10.2155    10.0161     0.1211     2.4387    -0.0012     7.8440   114.0966
  216.0000    10.1576    10.0286     0.1219     2.4388    -0.0015     7.8423   115.5604
  216.5000    10.0687    10.0287     0.1214     2.4409    -0.0018     7.8410   117.0222
  217.0000     9.9807    10.0293     0.1199     2.4473    -0.0007     7.8410   118.5124
  217.5000     9.8934     9.8480     0.1165     2.4553     0.0005     7.8411   118.1104
  218.0000     9.8068     9.6038     0.1120     2.4633     0.0007     7.8410   116.8229
  218.5000     9.6229     9.3655     0.1115     2.4652    -0.0011     7.8410   116.9579
  219.0000     9.2867     9.0827     0.1167     2.4546    -0.0029     7.8411   120.0044
  219.5000     8.9728     8.8069     0.1209     2.4441    -0.0047     7.8434   123.0828
  220.0000     8.8119     8.5395     0.1242     2.4335    -0.0065     7.8503   125.3017
  220.5000     8.6594     8.2796     0.1267     2.4245    -0.0060     7.8572   125.8008
  221.0000     8.5084     8.0988     0.1282     2.4179    -0.0049     7.8640   124.7241
  221.5000     8.3862     8.0594     0.1295     2.4116    -0.0039     7.8709   124.0340
  222.0000     8.3105     8.0254     0.1260     2.4171    -0.0041     7.8776   125.1435
  222.5000     8.2375     8.1679     0.1196     2.4493    -0.0044     7.8758   124.5051
  223.0000     8.1790     8.2531     0.1133     2.4603    -0.0050     7.8639   123.5714
  223.5000     8.3016     8.3392     0.1109     2.4704    -0.0065     7.8568   123.0768
  224.0000     8.4256     8.4262     0.1129     2.4666    -0.0080     7.8484   124.5784
  224.5000     8.5515     8.5144     0.1151     2.4620    -0.0096     7.8401   126.1915
  225.0000     8.5967     8.6023     0.1172     2.4574    -0.0105     7.8318   125.7011
  225.5000     8.6307     8.6547     0.1180     2.4536    -0.0084     7.8235   124.7076
  226.0000     8.6635     8.6705     0.1178     2.4534    -0.0063     7.8151   122.2683
  226.5000     8.6952     8.6863     0.1176     2.4532    -0.0043     7.8068   120.8214
  227.0000     8.7272     8.7022     0.1175     2.4530    -0.0022     7.8019   119.8781
  227.5000     8.8400     8.7181     0.1173     2.4524    -0.0009     7.8071   121.9101
  228.0000     8.9553     8.7992     0.1181     2.4507    -0.0014     7.8120   125.3287
  228.5000     9.0720     8.9678     0.1191     2.4491    -0.0019     7.8169   127.4355
  229.0000     9.1902     9.1396     0.1201     2.4482    -0.0024     7.8218   128.2148
  229.5000     9.3458     9.2998     0.1179     2.4521    -0.0030     7.8269   127.9355
  230.0000     9.5198     9.4481     0.1165     2.4560    -0.0035     7.8320   127.4506
  230.5000     9.6971     9.5987     0.1154     2.4597    -0.0040     7.8370   126.3421
  231.0000     9.8443     9.7516     0.1142     2.4612    -0.0045     7.8421   125.2321
  231.5000     9.6617     9.9359     0.1131     2.4625    -0.0046     7.8472   124.9293
  232.0000     9.5101     9.7529     0.1121     2.4638    -0.0042     7.8523   126.1702
  232.5000     9.3609     9.5333     0.1119     2.4649    -0.0038     7.8573   127.3625
  233.0000     9.2141     9.3186     0.1118     2.4653    -0.0035     7.8624   128.5641
  233.5000     9.1328     9.1076     0.1117     2.4658    -0.0031     7.8675   129.7476
  234.0000     9.1057     8.8882     0.1132     2.4620    -0.0029     7.8726   130.1636
  234.5000     9.0788     8.9015     0.1163     2.4566    -0.0043     7.8776   128.3196
  235.0000     9.0532     8.9165     0.1190     2.4512    -0.0056     7.8827   126.8249
  235.5000     9.0347     8.9317     0.1193     2.4471    -0.0070     7.8878   125.5069
  236.0000     9.0161     8.9467     0.1196     2.4458    -0.0075     7.8929   126.1109
  236.5000     8.9975     8.9622     0.1195     2.4463    -0.0060     7.8979   126.4113
  237.0000     8.9789     8.9890     0.1192     2.4473    -0.0044     7.8989   123.9364
  237.5000     8.9604     9.0512     0.1189     2.4502    -0.0029     7.8905   121.6921
  238.0000     8.9420     9.1409     0.1176     2.4539    -0.0014     7.8823   121.6878
  238.5000     8.9236     9.0639     0.1163     2.4577     0.0000     7.8741   122.7581
  239.0000     8.9051     8.9217     0.1153     2.4594     0.0012     7.8659   125.9462
  239.5000     8.8911     8.8083     0.1147     2.4603     0.0001     7.8611   128.2234
  240.0000     8.9183     8.8953     0.1115     2.4644    -0.0010     7.8612   130.2961
  240.5000     8.9418     8.9690     0.1074     2.4747    -0.0022     7.8612   129.5228
  241.0000     8.9654     9.0433     0.1058     2.4776    -0.0032     7.8612   128.7238
  241.5000     8.9731     9.1333     0.1084     2.4704    -0.0044     7.8612   128.9175
  242.0000     8.8728     8.9781     0.1110     2.4632    -0.0041     7.8612   128.6179
  242.5000     8.7817     8.7504     0.1110     2.4679    -0.0031     7.8612   125.4493
  243.0000     8.6916     8.5284     0.1075     2.4731    -0.0020     7.8612   123.1950
  243.5000     8.6025     8.3120     0.1041     2.4778    -0.0009     7.8612   121.1266
  244.0000     8.4863     8.1036     0.1068     2.4735     0.0000     7.8612   122.8833
  244.5000     8.3531     8.0737     0.1116     2.4662     0.0002     7.8612   124.5768
  245.0000     8.1061     8.0443     0.1156     2.4590    -0.0022     7.8612   123.6820
  245.5000     7.8454     7.8508     0.1182     2.4517    -0.0044     7.8612   122.7324
  246.0000     7.5928     7.4552     0.1202     2.4443    -0.0067     7.8612   121.7996
  246.5000     7.3481     7.1594     0.1217     2.4388    -0.0090     7.8612   121.1583
  247.0000     7.1118     6.8480     0.1233     2.4337    -0.0109     7.8612   122.4455
  247.5000     6.8587     6.5501     0.1264     2.4272    -0.0107     7.8612   123.7039
  248.0000     6.8587     6.4878     0.1295     2.4128    -0.0070     7.8611   125.0333
  248.5000     6.7954     6.4878     0.1327     2.3965    -0.0030     7.8613   124.4418
  249.0000     6.8587     6.5482     0.1342     2.3942    -0.0032     7.8643   124.1444
  249.5000     6.9225     6.6707     0.1317     2.4015    -0.0053     7.8673   123.9582
  250.0000     7.1273     6.8587     0.1232     2.4439    -0.0074     7.8703   126.4655
  250.5000     7.3378     7.0422     0.1198     2.4492    -0.0095     7.8734   128.9928
  251.0000     7.5544     7.3107     0.1181     2.4528    -0.0117     7.8764   129.3649
  251.5000     7.7774     7.5894     0.1168     2.4566    -0.0138     7.8793   127.5726
  252.0000     8.0070     7.8787     0.1146     2.4612    -0.0118     7.8776   123.1164
  252.5000     8.1104     8.1790     0.1121     2.4658    -0.0093     7.8675   120.6380
  253.0000     8.1453     8.1404     0.1097     2.4704    -0.0067     7.8576   118.2028
  253.5000     8.1804     8.1021     0.1072     2.4736    -0.0045     7.8477   118.3575
  254.0000     8.2156     8.0639     0.1074     2.4720    -0.0037     7.8377   119.8302
  254.5000     8.2551     8.0288     0.1087     2.4706    -0.0028     7.8279   120.6810
  255.0000     8.1286     7.9262     0.1095     2.4702    -0.0019     7.8220   120.8366
  255.5000     8.0558     7.8814     0.1087     2.4713    -0.0010     7.8261   121.0270
  256.0000     7.9836     7.8280     0.1078     2.4725    -0.0002     7.8301   122.6815
  256.5000     7.9122     7.7704     0.1069     2.4736     0.0007     7.8341   122.8903
  257.0000     7.8287     7.7132     0.1060     2.4747     0.0016     7.8380   121.9484
  257.5000     7.7369     7.6565     0.1052     2.4759     0.0025     7.8394   124.2017
  258.0000     7.6458     7.6019     0.1067     2.4770     0.0032     7.8306   128.2702
  258.5000     7.4162     7.5416     0.1117     2.4721     0.0025     7.8220   131.4895
  259.0000     7.0183     7.1399     0.1134     2.4666     0.0018     7.8134   131.9892
  259.5000     6.6707     6.5731     0.1152     2.4611     0.0011     7.8048   129.2842
  260.0000     6.2808     6.0552     0.1170     2.4535     0.0004     7.8130   124.8286
