~VERSION INFORMATION
 VERS.                2.0:   CWLS LOG ASCII STANDARD - VERSION 2.0
 WRAP.                 NO:   ONE LINE PER DEPTH STEP
~WELL INFORMATION
#MNEM.UNIT      DATA TYPE    INFORMATION
#----------   ------------   ------------------------------
 STRT.F           28.0000:   START DEPTH
 STOP.F          659.0000:   STOP DEPTH
 STEP.F            0.5000:   STEP LENGTH
 NULL.          -999.2500:   NO VALUE
 COMP. FENIX & SCISSON INC:   COMPANY
 WELL.    NPR 3 #46-SX-34:   WELL
 FLD .             TEAPOT:   FIELD
 LOC .      S34 T39N R78W:   LOCATION
 CNTY.            NATRONA:   COUNTY
 STAT.            WYOMING:   STATE
 CTRY. UNITED STATES OF AMERICA:   COUNTRY
 SRVC.              Welex:   SERVICE COMPANY
 DATE.        01-MAY-1977:   LOGDATE
 API .       490251035600:   API NUMBER
~CURVE INFORMATION
#MNEM.UNIT       API CODE    CURVE DESCRIPTION
#----------   ------------   ------------------------------
 DEPT.F                  :   
 CALD.IN     45 280 60 00:   CALIPER FROM DENSITY
 GRD .GAPI   45 310 01 00:   GAMMA RAY FROM DENSITY LOG
 CORR.G/C3   45 356 01 00:   DENSITY CORRECTION
 DPHI.DEC    45 890 12 00:   DENSITY POROSITY SANDSTONE
 RHOB.G/C3   45 350 01 00:   BULK DENSITY
 SPR .MV     07 010 01 00:   SPONTANEOUS POTENTIAL
 ILD .OHMM   07 120 46 00:   INDUCTION LOG DEEP
 ILM .OHMM   07 120 44 00:   INDUCTION LOG MEDIUM
 SGRD.OHMM   07 221 05 00:   SHALLOW SHORT GUARD RESISTIVITY
~PARAMETER INFORMATION
#MNEM.UNIT          VALUE    DESCRIPTION
#----------   ------------   ------------------------------
 PD  .                 GL:   PERMANENT DATUM
 EPD .F              5120:   ELEVATION PERMANENT DATUM
 LMF .                 GL:   LOG MEASURED FROM
 DMF .                 GL:   DRILLING MEASURED FROM
 EGL .F              5120:   GROUND LEVEL
 DATE.        01-MAY-1977:   RUN DATE
 RUN .                  1:   RUN NUMBER
 DD  .F               660:   DEPTH DRILLER
 DL  .F               663:   DEPTH LOGGER
 BLI .F               661:   BOTTOM LOG INTERVAL
 TLI .F                28:   TOP LOG INTERVAL
 CS  .IN            8.625:   CASING SIZE
 BS  .IN               12:   BIT SIZE
 BSD .F               660:   BIT SIZE AT DEPTH
 DFT .            KCL MUD:   DRILLING FLUID TYPE
 DFD .                8.7:   DRILLING FLUID DENSITY
 TCS .HRS            0100:   TIME CURCULATED STOPPED
 MRT .F                71:   MAXIMUM RECORDED TEMPERATURE
 ENGI.          T. JOYNER:   RECORDING ENGINEER
 WITN.            R. LYON:   WITNESSED BY
 CLNT.            A2DTECH:   CLIENT CODE
 ORIG.           5" PRINT:   ORIGIN OF DATA
 UWI .       490251035600:   UNIQUE WELL ID
 DICO. A2D Technologies, Inc.:   DIGITIZING COMPANY
~OTHER INFORMATION
~A   DEPT     CALD        GRD        CORR      DPHI       RHOB        SPR        ILD        ILM       SGRD   
# ...
  575.5000     7.7818    91.9715     0.0031     0.1601     2.4135   -27.8971    13.9256    17.4241    17.9137
  576.0000     7.7816    90.3243     0.0031     0.1634     2.4097   -28.3391    13.6396    17.3044    17.7931
  576.5000     7.7815    90.3290     0.0047     0.1628     2.4082   -28.6322    13.4519    17.1855    17.6733
  577.0000     7.7814    91.2344     0.0078     0.1604     2.4150   -29.0742    13.3494    17.0494    17.5543
  577.5000     7.7812    94.0919     0.0093     0.1513     2.4248   -29.3674    13.3577    16.9502    17.5568
  578.0000     7.7811    93.1955     0.0124     0.1453     2.4368   -29.5119    13.3506    16.8337    17.4385
  578.5000     7.7817    91.2481     0.0139     0.1435     2.4368   -29.6562    13.3558    16.9502    17.4410
  579.0000     7.7808    90.6509     0.0140     0.1459     2.4376   -29.8006    13.3549    16.9666    17.3235
  579.5000     7.7806    93.8098     0.0140     0.1453     2.4386   -29.9449    13.2622    17.1855    17.3259
  580.0000     7.7804    94.2648     0.0141     0.1405     2.4444   -29.9403    13.3531    17.2174    17.4482
  580.5000     7.7803    94.4195     0.0141     0.1384     2.4427   -30.0857    13.3521    17.2581    17.5713
  581.0000     7.7801    94.8745     0.0142     0.1405     2.4384   -30.0801    13.4436    17.3044    17.5738
  581.5000     7.7800    95.6298     0.0142     0.1423     2.4391   -30.2256    13.5356    17.4241    17.8202
  582.0000     7.7798    97.2860     0.0143     0.1408     2.4422   -30.2200    13.5347    17.5446    18.0701
  582.5000     7.7647    99.5428     0.0143     0.1375     2.4474   -30.2155    13.6274    17.6660    18.5779
  583.0000     7.7645   100.2981     0.0143     0.1325     2.4565   -30.2111    13.7207    17.7882    18.7090
  583.5000     7.7643   102.5903     0.0129     0.1290     2.4602   -30.3565    13.9102    17.7882    18.5831
  584.0000     7.7642   104.0599     0.0114     0.1317     2.4618   -30.5009    13.9093    17.5446    18.4579
  584.5000     7.7640   101.4439     0.0115     0.1344     2.4505   -30.6452    14.0046    17.3044    17.4699
  585.0000     7.7639    99.9750     0.0145     0.1338     2.4558   -30.6396    13.9073    17.1855    15.6476
  585.5000     7.7788    98.9655     0.0176     0.1296     2.4663   -30.6352    13.8108    16.8337    14.6067
  586.0000     7.7786    98.3724     0.0192     0.1233     2.4768   -30.7806    13.5272    16.6032    14.9145
  586.5000     7.7785    97.6262     0.0177     0.1206     2.4768   -30.9250    13.4333    16.3758    15.3336
  587.0000     7.7934    96.5797     0.0177     0.1203     2.4776   -31.0693    13.2485    16.4891    15.8736
  587.5000     7.7932    95.3831     0.0163     0.1197     2.4776   -31.2125    13.1565    16.7181    16.6607
  588.0000     7.7931    91.3324     0.0163     0.1209     2.4678   -31.2080    12.9755    16.6032    16.7783
  588.5000     7.7929    92.5393     0.0164     0.1305     2.4626   -31.2036    12.9746    16.4891    16.5508
  589.0000     7.7928    96.8982     0.0194     0.1311     2.4611   -31.3490    12.8846    16.3758    16.2143
  589.5000     7.7926   100.0560     0.0225     0.1293     2.4621   -31.4934    12.9730    16.2633    15.9945
  590.0000     7.7925   100.3608     0.0256     0.1248     2.4710   -31.6366    12.8828    16.2633    15.9967
  590.5000     7.7923   100.3654     0.0302     0.1202     2.4792   -31.6321    12.8819    16.0406    15.9989
  591.0000     7.7922   100.3699     0.0347     0.1163     2.4844   -31.6277    12.7925    16.0406    16.1118
  591.5000     7.7920   100.5246     0.0348     0.1151     2.4844   -31.6232    12.7037    16.1516    16.2255
  592.0000     7.7919   100.6793     0.0363     0.1154     2.4845   -31.6187    12.7029    16.3758    16.3400
  592.5000     7.7767   100.6839     0.0394     0.1148     2.4860   -31.7642    12.6147    16.7181    16.5692
  593.0000     7.7765   100.9888     0.0425     0.1127     2.4867   -32.0562    12.6138    16.7181    16.6861
  593.5000     7.7764   105.4978     0.0471     0.1100     2.4912   -32.2017    12.5263    16.6032    16.8033
  594.0000     7.7612   107.1540     0.0547     0.1101     2.4958   -32.3460    12.6121    16.4891    16.5755
  594.5000     7.7460   106.1757     0.0517     0.1157     2.4890   -32.4904    12.6112    16.3758    16.2390
  595.0000     7.7308   103.7989     0.0412     0.1219     2.4792   -32.6336    12.6103    16.0406    16.1291
  595.5000     7.7457   102.3488     0.0246     0.1315     2.4657   -32.7779    12.6095    15.9304    15.9110
  596.0000     7.7606   101.7598     0.0095     0.1401     2.4484   -32.7735    12.6086    15.8210    15.9132
  596.5000     7.7604   101.1697     0.0065     0.1374     2.4544   -32.7690    12.6077    15.9304    16.0255
  597.0000     7.7754   100.4235     0.0065     0.1313     2.4574   -32.9145    12.6068    15.9304    16.0277
  597.5000     7.7752    98.0256     0.0066     0.1344     2.4529   -32.9089    12.5194    15.8210    16.0299
  598.0000     7.7901   100.5827     0.0066     0.1398     2.4477   -32.9044    12.5185    15.7123    15.9214
  598.5000     7.7899   102.2390     0.0067     0.1368     2.4486   -33.0499    12.4316    15.6043    15.7061
  599.0000     7.7898   103.8952     0.0067     0.1337     2.4508   -33.3430    12.1763    15.4971    15.3862
  599.5000     7.8046   106.7526     0.0083     0.1340     2.4546   -33.4874    12.0918    15.2849    14.9703
  600.0000     7.8040   110.8944     0.0083     0.1343     2.4590   -33.4826    12.0053    15.1681    14.8610
  600.5000     7.7972   112.3138     0.0099     0.1280     2.4620   -33.4809    11.9708    15.0265    14.7653
  601.0000     7.7905   114.4175     0.0099     0.1280     2.4628   -33.4891    11.9364    14.8849    14.6696
  601.5000     7.7863   115.6202     0.0100     0.1280     2.4612   -33.7902    11.9256    14.7699    14.5679
  602.0000     7.8005   111.7178     0.0081     0.1283     2.4628   -34.0715    11.8436    14.4688    14.4686
  602.5000     7.7992   114.1218     0.0080     0.1283     2.4628   -34.0948    11.6815    14.3703    14.2717
  603.0000     7.8134   115.4747     0.0095     0.1283     2.4644   -34.5150    11.4423    14.2726    14.0772
  603.5000     7.8120   118.6293     0.0124     0.1283     2.4681   -34.6623    11.1311    14.0782    14.0782
  604.0000     7.8110   119.2311     0.0139     0.1283     2.4628   -34.9584    10.8284    13.9824    13.9824
  604.5000     7.8099   118.3321     0.0153     0.1280     2.4620   -35.2542    10.4615    13.9834    13.8873
  605.0000     7.8088   116.3816     0.0183     0.1277     2.4665   -35.4015    10.0376    13.7928    13.6981
  605.5000     7.8078   119.2359     0.0167     0.1271     2.4710   -35.8465     9.6265    13.6049    13.5114
  606.0000     7.8069   120.7386     0.0136     0.1178     2.4748   -35.9938     9.1017    13.2333    13.1448
  606.5000     7.7908   118.6384     0.0136     0.1220     2.4703   -36.2900     8.4312    12.7832    12.5241
  607.0000     7.7898   116.5375     0.0150     0.1256     2.4658   -36.4377     7.7495    12.1793    11.9338
  607.5000     7.7887   120.9334     0.0165     0.1278     2.4620   -36.7338     6.9416    11.6039    11.5229
  608.0000     7.7876   119.8199     0.0180     0.1308     2.4575   -37.0300     6.1951    11.0446    11.0597
  608.5000     7.8016   118.4940     0.0179     0.1326     2.4537   -37.1769     5.5865    10.6063    10.7577
  609.0000     7.8005   120.5976     0.0163     0.1341     2.4521   -37.3246     5.0725     9.9811    10.5986
  609.5000     7.7995   126.7553     0.0117     0.1364     2.4498   -37.4720     4.6377     9.1893    10.0844
  610.0000     7.7984   131.5617     0.0068     0.1430     2.4424   -37.3213     4.4805     8.0063     8.4603
  610.5000     7.7973   132.4641     0.0040     0.1487     2.4304   -37.0222     4.3587     8.0622     5.9939
  611.0000     7.7962   133.9667     0.0025     0.1543     2.4176   -36.8719     4.3888     8.4033     5.7514
  611.5000     7.7952   129.7645     0.0024     0.1603     2.4101   -36.5728     4.5742     9.0036     6.4670
