~VERSION INFORMATION
 VERS.                2.0:   CWLS LOG ASCII STANDARD - VERSION 2.0
 WRAP.                 NO:   ONE LINE PER DEPTH STEP
~WELL INFORMATION
#MNEM.UNIT      DATA TYPE    INFORMATION
#----------   ------------   ------------------------------
 STRT.F            0.0000:   START DEPTH
 STOP.F          530.0000:   STOP DEPTH
 STEP.F            0.5000:   STEP LENGTH
 NULL.          -999.2500:   NO VALUE
 COMP.   LAWRENCE-ALLISON:   COMPANY
 WELL. NPR 3 #51-56SX10 OB3:   WELL
 FLD .             TEAPOT:   FIELD
 LOC .      S10 T38N R78W:   LOCATION
 CNTY.            NATRONA:   COUNTY
 STAT.            WYOMING:   STATE
 CTRY. UNITED STATES OF AMERICA:   COUNTRY
 SRVC.           Gearhart:   SERVICE COMPANY
 DATE.        28-JUN-1987:   LOGDATE
 API .       490251100800:   API NUMBER
~CURVE INFORMATION
#MNEM.UNIT       API CODE    CURVE DESCRIPTION
#----------   ------------   ------------------------------
 DEPT.F                  :   
 CALD.IN     45 280 60 00:   CALIPER ROM DENSITY LOG
 CNC .DEC    45 890 03 00:   NEUTRON POROSITY SANDSTONE
 CORR.G/C3   45 356 01 00:   DENSITY CORRECTION
 DEN .G/C3   45 350 01 00:   COMPENSATED BULK DENSTIY
 PORD.DEC    45 890 12 00:   POROSITY DENSITY SANDSTONE
 GRR .GAPI   07 310 01 00:   GAMMA RAY
 ILD .OHMM   07 120 46 00:   INDUCTION LOG DEEP
 ILM .OHMM   07 120 44 00:   INDUCTION LOG MEDIUM
 LL  .OHMM   07 220 00 00:   LATEROLOG RESISTIVITY
 SPR .MV     07 010 01 00:   SPONTANEOUS POTENTIAL
 DT  .US/F   60 520 00 00:   INTERVAL TRANSIT TIME
~PARAMETER INFORMATION
#MNEM.UNIT          VALUE    DESCRIPTION
#----------   ------------   ------------------------------
 PD  .                 GL:   PERMANENT DATUM
 EPD .F              5198:   ELEVATION PERMANENT DATUM
 LMF .                 KB:   LOG MEASURED FROM
 DAPD.F                 8:   FEET ABOVE PERMANENT DATUM
 DMF .                 KB:   DRILLING MEASURED FROM
 EKB .F              5206:   KELLING BUSHING
 EDF .F              5204:   DRILLING FLOOR
 EGL .F              5198:   GROUND LEVEL
 DATE.        28-JUN-1987:   RUN DATE
 RUN .                  1:   RUN NUMBER
 DD  .F               535:   DEPTH DRILLER
 DL  .F               536:   DEPTH LOGGER
 BLI .F               533:   BOTTOM LOG INTERVAL
 BS  .IN             7.87:   BIT SIZE
 BSD .F               535:   BIT SIZE AT DEPTH
 DFT .                MUD:   DRILLING FLUID TYPE
 RMS .OHMM           0.84:   RESISTIVITY MUD SAMPLE
 MST .F                57:   MUD SAMPLE TEMPERATURE
 RMF .OHMM           0.63:   RESISTIVITY MUD FILTRATE SAMPLE
 MFST.F                57:   MUD FILTRATE SAMPLE TEMPERATURE
 RMC .OHMM           1.05:   RESISTIVITY MUD CAKE
 MCST.F                57:   MUD CAKE SAMPLE TEMPERATURE
 MFSS.               CALC:   MUD FILTRATE SAMPLE SOURCE
 MCSS.               CALC:   MUD CAKE SAMPLE SOURCE
 RMB .OHMM           0.59:   RESISTIVITY MUD AT BHT
 BHT .F                80:   BOTTOM HOLE TEMPERATURE
 TCS .HRS            1200:   TIME CURCULATED STOPPED
 TLAB.HRS            1322:   TIME LOGGER AT BOTTOM
 LUN .               7650:   LOGGING UNIT NUMBER
 LUL .           GILLETTE:   LOGGING UNIT LOCATION
 ENGI. JOHNSTON/HUCKFELDT:   RECORDING ENGINEER
 WITN.             STRONG:   WITNESSED BY
 CLNT.            A2DTECH:   CLIENT CODE
 ORIG.      2.5" 5" PRINT:   ORIGIN OF DATA
 UWI .       490251100800:   UNIQUE WELL ID
 DICO. A2D Technologies, Inc.:   DIGITIZING COMPANY
~OTHER INFORMATION
~A    DEPT    CALD        CNC       CORR        DEN       PORD         GRR         ILD        ILM       LL        SPR         DT   
# ...
  305.0000     6.4636     0.2522     0.0685     2.4375     0.1467    66.0966    30.3088    26.3870    25.3172   -36.0061    92.6687
  305.5000     6.4653     0.2515     0.0626     2.4375     0.1455    67.3007    30.3159    26.7574    25.4619   -35.7027    92.5220
  306.0000     6.4799     0.2506     0.0386     2.4277     0.1480    66.1024    30.3220    27.1325    26.0113   -35.6997    92.5294
  306.5000     6.4808     0.2587    -0.0096     2.4089     0.1601    62.5017    30.3281    27.1361    27.1359   -35.6171    92.6864
  307.0000     6.4816     0.2491     0.0132     2.4007     0.1653    60.1022    30.3342    27.1398    26.7688   -35.0931    92.9962
  307.5000     6.4823     0.2370     0.0359     2.4037     0.1649    58.3033    30.3402    27.1529    26.4052   -35.0901    93.5915
  308.0000     6.4830     0.2340     0.0345     2.4113     0.1592    57.7056    30.3464    27.5241    25.6910   -35.0871    94.2929
  308.5000     6.4838     0.2414     0.0301     2.4294     0.1501    58.9900    30.3527    27.5897    24.9955   -35.0841    94.0721
  309.0000     6.4694     0.2578     0.0271     2.4415     0.1429    60.9549    30.3590    27.9139    23.9859   -35.6811    92.7930
  309.5000     6.4704     0.2583     0.0273     2.4529     0.1377    63.0000    30.3653    28.4226    23.6605   -35.3779    91.7407
  310.0000     6.4710     0.2489     0.0258     2.4552     0.1356    63.7232    30.3716    29.2489    23.6638   -35.3750    91.8222
  310.5000     6.4718     0.2465     0.0214     2.4507     0.1386    57.0000    30.3778    29.6871    23.6670   -35.0718    92.0549
  311.0000     6.4725     0.2513     0.0185     2.4409     0.1416    55.0411    30.5655    30.3381    24.9047   -35.0689    92.5143
  311.5000     6.4584     0.2624     0.0169     2.4281     0.1485    54.7237    31.0241    30.3423    29.7471   -35.3664    92.5958
  312.0000     6.4443     0.2657     0.0157     2.4259     0.1506    55.3279    31.0070    29.5218    37.0823   -35.6637    92.8284
  312.5000     6.4302     0.2575     0.0143     2.4305     0.1487    64.3398    29.9878    28.7226    37.8422   -35.6607    93.4517
  313.0000     6.4309     0.2482     0.0159     2.4358     0.1472    69.1475    28.7785    27.9451    36.4174   -35.7167    93.7475
  313.5000     6.4316     0.2466     0.0161     2.4340     0.1478    69.7510    28.0013    26.8164    33.9747   -35.9553    93.8288
  314.0000     6.4325     0.2463     0.0192     2.4266     0.1535    69.7539    26.8721    26.0905    26.6102   -35.9520    93.7591
  314.5000     6.4182     0.2427     0.0283     2.4216     0.1546    70.3575    25.4353    25.0366    20.0801   -35.9490    93.4641
  315.0000     6.4191     0.2460     0.0495     2.4224     0.1526    70.9610    24.7484    24.6635    20.0833   -35.9459    93.3930
  315.5000     6.4346     0.2535     0.0768     2.4285     0.1479    70.9240    24.0752    23.6613    19.8106   -35.9429    93.0980
  316.0000     6.4355     0.2559     0.0769     2.4338     0.1461    70.3662    23.4043    22.9993    19.2747   -35.9394    92.6504
  316.5000     6.4362     0.2558     0.0619     2.4353     0.1458    70.9700    22.7522    22.4338    19.0131   -35.9365    92.2782
  317.0000     6.4219     0.2552     0.0334     2.4361     0.1452    71.7338    22.4252    22.0320    17.9955   -37.1348    91.9063
  317.5000     6.4228     0.2519     0.0304     2.4407     0.1436    72.9781    21.8003    21.4156    17.7514   -38.0328    91.8367
  318.0000     6.4235     0.2476     0.0532     2.4528     0.1340    75.6638    21.2912    20.4030    17.7377   -38.0299    91.6805
  318.5000     6.4243     0.2449     0.0593     2.4626     0.1309    76.3874    21.2964    19.9569    17.5130   -38.3273    91.5461
  319.0000     6.3953     0.2449     0.0534     2.4611     0.1321    76.3904    21.3008    19.5587    17.5156   -38.3073    91.4764
  319.5000     6.3663     0.2500     0.0444     2.4589     0.1327    76.3940    21.3052    19.5614    17.5180   -38.0210    91.4838
  320.0000     6.3522     0.2557     0.0159     2.4619     0.1320    76.3969    21.6063    19.5640    17.5204   -38.0180    91.5653
  320.5000     6.3380     0.2535     0.0145     2.4665     0.1290    76.3998    21.6106    19.5666    17.5229   -38.0150    91.5712
  321.0000     6.3388     0.2448     0.0241     2.4680     0.1269    75.2015    21.9150    19.5692    17.5253   -38.0120    91.5771
  321.5000     6.3397     0.2466     0.0423     2.4688     0.1265    74.6036    22.2237    19.5718    17.5277   -37.4084    91.5830
  322.0000     6.3404     0.2510     0.0480     2.4689     0.1265    73.4055    22.5368    19.8462    17.5306   -36.9590    91.5889
  322.5000     6.3410     0.2607     0.0436     2.4681     0.1271    71.0060    22.5413    19.8489    17.2928   -36.6341    91.7511
  323.0000     6.3567     0.2627     0.0361     2.4651     0.1302    71.6096    22.5458    19.8912    17.2951   -36.1977    93.3067
  323.5000     6.3575     0.2633     0.0197     2.4466     0.1420    71.6126    22.2416    20.1300    17.0606   -35.8945    96.0677
  324.0000     6.3582     0.2630     0.0122     2.4201     0.1589    71.7358    21.9414    20.1328    17.0629   -35.5913    98.6435
  324.5000     6.3441     0.2520     0.0108     2.3839     0.1860    72.2192    21.5908    20.1356    17.0651   -35.5884    98.4982
  325.0000     6.3448     0.2409     0.0124     2.3478     0.1980    72.4224    21.2806    20.1384    17.0674   -35.5606    96.3877
  325.5000     6.3305     0.2223     0.0306     2.3493     0.1974    72.2246    20.7765    20.1411    17.0698   -35.5826    93.2946
  326.0000     6.3314     0.2186     0.0699     2.3675     0.1751    73.7097    20.6733    19.9297    17.0102   -35.5886    88.4630
  326.5000     6.3321     0.2243     0.0580     2.4444     0.1332    75.5546    20.5012    19.5992    16.5646   -35.8771    89.3760
  327.0000     6.3329     0.2327     0.0430     2.4595     0.1359    76.4390    20.5054    19.6018    16.1602   -35.5736    91.7250
  327.5000     6.3336     0.2469     0.0491     2.4452     0.1479    74.0395    20.2288    19.6044    16.1627   -35.5706    96.9464
  328.0000     6.3343     0.2622     0.0598     2.3977     0.1852    71.0394    20.2337    19.3386    16.1650   -35.5676   100.6047
  328.5000     6.3351     0.2649     0.0689     2.3541     0.1982    69.8408    20.2378    19.0763    16.1672   -35.6902   101.1912
  329.0000     6.3954     0.2631     0.0736     2.3436     0.2020    69.2432    19.9646    18.3058    16.1694   -35.8619   101.5007
  329.5000     6.4258     0.2624     0.0676     2.3391     0.2050    69.8469    19.6952    17.8025    15.9506   -35.8589   101.9601
  330.0000     6.4563     0.2654     0.0376     2.3331     0.2065    72.2523    18.9009    17.0908    15.3064   -36.7562   102.2021
  330.5000     6.4570     0.2735     0.0332     2.3330     0.2032    74.0971    18.9047    17.0933    15.0988   -36.7533   102.8039
  331.0000     6.4577     0.2738     0.0365     2.3437     0.2010    74.6607    18.9086    17.0957    14.8938   -36.7504   103.2633
  331.5000     6.4585     0.2741     0.0472     2.3422     0.2047    74.6637    18.9125    17.3354    14.8960   -36.4472   103.4959
  332.0000     6.4444     0.2795     0.0501     2.3205     0.2150    75.5876    18.9164    17.5785    14.8980   -36.1440   103.3507
  332.5000     6.4450     0.2943     0.0502     2.3092     0.2208    77.0721    18.9203    17.6887    15.1068   -35.8408   101.9960
  333.0000     6.4512     0.2975     0.0443     2.3108     0.2151    76.4739    18.9242    17.8275    15.3187   -35.5375   100.3390
  333.5000     6.4614     0.2984     0.0263     2.3243     0.2066    75.0360    18.9281    17.8299    15.3208   -35.4940    99.5135
  334.0000     6.4621     0.2809     0.0279     2.3500     0.1963    74.0781    18.8232    17.8328    15.3229   -34.9309    99.5194
  334.5000     6.4629     0.2676     0.0370     2.3515     0.1960    73.4811    18.2986    17.5910    15.3250   -34.9279   100.0547
  335.0000     6.4487     0.2640     0.0281     2.3425     0.2035    72.2828    18.1724    17.5933    15.0482   -34.9249   100.6727
