~VERSION INFORMATION
 VERS.                2.0:   CWLS LOG ASCII STANDARD - VERSION 2.0
 WRAP.                 NO:   ONE LINE PER DEPTH STEP
~WELL INFORMATION
#MNEM.UNIT      DATA TYPE    INFORMATION
#----------   ------------   ------------------------------
 STRT.F           38.0000:   START DEPTH
 STOP.F          663.5000:   STOP DEPTH
 STEP.F            0.5000:   STEP LENGTH
 NULL.          -999.2500:   NO VALUE
 COMP. FENIX & SCISSON INC:   COMPANY
 WELL.   NPR SX #3 #35-34:   WELL
 FLD .             TEAPOT:   FIELD
 LOC .      S34 T39N R78W:   LOCATION
 CNTY.            NATRONA:   COUNTY
 STAT.            WYOMING:   STATE
 CTRY. UNITED STATES OF AMERICA:   COUNTRY
 SRVC.       Schlumberger:   SERVICE COMPANY
 DATE.        21-MAR-1977:   LOGDATE
 API .       490251031500:   API NUMBER
~CURVE INFORMATION
#MNEM.UNIT       API CODE    CURVE DESCRIPTION
#----------   ------------   ------------------------------
 DEPT.F                  :   
 SPR .MV     07 010 01 00:   SPONTANEOUS POTENTIAL
 LL8 .OHMM   07 220 08 00:   LATEROLOG-8 RES.
 ILD .OHMM   07 120 46 00:   INDUCTION LOG DEEP
 ILM .OHMM   07 120 44 00:   INDUCTION LOG MEDIUM
 CALD.IN     45 280 60 00:   CALIPER
 RHOB.G/C3   45 350 01 00:   BULK DENSITY
 DPHI.DEC    45 890 12 00:   DENSITY POROSITY SANDSTONE
 CORR.G/C3   45 356 01 00:   DENSITY CORRECTION
 GRD .GAPI   45 310 01 00:   GAMMA RAY FROM DENSITY LOG
~PARAMETER INFORMATION
#MNEM.UNIT          VALUE    DESCRIPTION
#----------   ------------   ------------------------------
 PD  .                 GL:   PERMANENT DATUM
 EPD .F              5081:   ELEVATION PERMANENT DATUM
 LMF .                 GL:   LOG MEASURED FROM
 DMF .                 KB:   DRILLING MEASURED FROM
 EKB .F              5086:   KELLING BUSHING
 EGL .F              5081:   GROUND LEVEL
 DATE.          3-21-1977:   RUN DATE
 RUN .                  1:   RUN NUMBER
 DD  .F               670:   DEPTH DRILLER
 DL  .F               665:   DEPTH LOGGER
 BLI .F               659:   BOTTOM LOG INTERVAL
 TLI .F                40:   TOP LOG INTERVAL
 CS  .IN            8.625:   CASING SIZE
 CBD .F                40:   CASING BOTTOM DRILLER
 CBL .F                40:   CASING BOTTOM LOGGER
 BS  .IN            7.875:   BIT SIZE
 BSD .F               670:   BIT SIZE AT DEPTH
 DFT .           CHEM GEL:   DRILLING FLUID TYPE
 DFV .                 33:   DRILLING FLUID VISCOSITY
 MSS .           MUD TANK:   MUD SAMPLE SOURCE
 RMS .OHMM           4.98:   RESISTIVITY MUD SAMPLE
 MST .F                53:   MUD SAMPLE TEMPERATURE
 RMF .OHMM           4.94:   RESISTIVITY MUD FILTRATE SAMPLE
 MFST.F                53:   MUD FILTRATE SAMPLE TEMPERATURE
 RMC .OHMM            2.5:   RESISTIVITY MUD CAKE
 MCST.F                53:   MUD CAKE SAMPLE TEMPERATURE
 MFSS.                  M:   MUD FILTRATE SAMPLE SOURCE
 MCSS.                  C:   MUD CAKE SAMPLE SOURCE
 RMB .OHMM              4:   RESISTIVITY MUD AT BHT
 BHT .F                65:   BOTTOM HOLE TEMPERATURE
 TCS .HRS            1000:   TIME CURCULATED STOPPED
 TLAB.HRS            1400:   TIME LOGGER AT BOTTOM
 MRT .F                65:   MAXIMUM RECORDED TEMPERATURE
 LUN .               7742:   LOGGING UNIT NUMBER
 LUL .                GLT:   LOGGING UNIT LOCATION
 ENGI.               LANE:   RECORDING ENGINEER
 WITN.              BURKE:   WITNESSED BY
 CLNT.            A2DTECH:   CLIENT CODE
 ORIG.       2", 5" PRINT:   ORIGIN OF DATA
 UWI .       490251031500:   UNIQUE WELL ID
 DICO. A2D Technologies, Inc.:   DIGITIZING COMPANY
~OTHER INFORMATION
~A   DEPT      SPR        LL8        ILD        ILM       CALD       RHOB       DPHI       CORR         GRD  
# ...
  366.5000   -65.9070     6.1395     4.4631     4.0056     8.1238     2.3429     0.1893     0.0127   112.1278
  367.0000   -66.4338     5.5956     3.8888     3.5056     8.1240     2.3130     0.2076     0.0183   111.8295
  367.5000   -66.8940     4.9295     3.3884     3.0680     8.1243     2.2759     0.2289     0.0282   111.1628
  368.0000   -67.3148     4.2365     2.9525     2.6850     8.1245     2.2321     0.2565     0.0197   111.3396
  368.5000   -67.7359     3.4809     2.5726     2.3498     8.1247     2.1886     0.2890     0.0102   111.6318
  369.0000   -68.1594     2.8601     2.3391     2.0367     8.1249     2.1735     0.2849     0.0304   112.3778
  369.5000   -68.5993     2.4270     2.3176     2.0367     8.1251     2.2170     0.2646     0.0507   113.0719
  370.0000   -67.9903     2.6101     2.3536     2.0939     8.1253     2.2719     0.2261     0.0605   114.3260
  370.5000   -67.2285     2.9885     2.4156     2.2338     8.1256     2.3270     0.1884     0.0436   121.4642
  371.0000   -66.4677     3.7147     2.4969     2.4153     8.1258     2.3815     0.1612     0.0277   128.9147
  371.5000   -65.9077     4.5981     2.7315     2.6643     8.1260     2.4176     0.1419     0.0295   131.6425
  372.0000   -65.6222     5.1473     3.1513     3.0517     8.1262     2.4350     0.1325     0.0226   131.1008
  372.5000   -65.2017     5.7250     3.6921     3.4955     8.1265     2.4378     0.1296     0.0105   129.6817
  373.0000   -64.4927     7.0640     4.3258     4.0039     8.1267     2.4407     0.1277     0.0030   129.5641
  373.5000   -64.1545     8.2422     5.0683     4.5860     8.1269     2.4436     0.1281     0.0041   133.3527
  374.0000   -63.9821     8.6029     5.9382     5.0646     8.1271     2.4529     0.1230     0.0112   137.8686
  374.5000   -63.2023     8.6307     6.7245     5.2771     8.1273     2.4603     0.1187     0.0171   139.5012
  375.0000   -63.1458     8.6719     6.8386     5.4985     8.1276     2.4470     0.1257     0.0128   139.4984
  375.5000   -63.0784     8.6638     6.9545     5.7292     8.1278     2.4332     0.1318     0.0082   140.6927
  376.0000   -63.0096     8.6483     7.0725     5.8351     8.1280     2.4276     0.1375     0.0054   140.9181
  376.5000   -62.9406     8.6328     7.2105     5.8443     8.1282     2.4420     0.1261     0.0164   138.6532
  377.0000   -62.8716     8.6173     7.1161     5.8534     8.1285     2.4505     0.1213     0.0263   136.1371
  377.5000   -62.8027     8.6014     7.0069     5.8625     8.1287     2.4585     0.1176     0.0222   135.5312
  378.0000   -62.7337     8.5934     6.8993     5.8720     8.1289     2.4655     0.1138     0.0323   136.2515
  378.5000   -62.6647     8.7772     6.7934     5.8808     8.1291     2.4582     0.1198     0.0234   135.7996
  379.0000   -62.5952     8.9147     6.6974     5.8857     8.1293     2.4463     0.1261     0.0130   136.7121
  379.5000   -62.5266     9.0543     6.3198     5.6203     8.1296     2.4419     0.1271     0.0185   138.7806
  380.0000   -62.4570     9.1961     5.9892     5.2677     8.1298     2.4344     0.1310     0.0125   141.7754
  380.5000   -62.6856     9.3363     5.6759     5.0090     8.1300     2.4266     0.1367     0.0113   142.3029
  381.0000   -63.1795     8.3069     5.4460     4.7629     8.1304     2.4056     0.1506     0.0114   140.4778
  381.5000   -63.6734     6.8502     5.2611     4.5279     8.1308     2.3809     0.1655     0.0110   140.8401
  382.0000   -64.0609     5.7604     5.0825     4.2989     8.1311     2.3731     0.1712     0.0162   141.5362
  382.5000   -64.1641     5.3669     4.9100     4.3014     8.1315     2.3686     0.1732     0.0107   142.2251
  383.0000   -64.2694     6.5232     4.7433     4.3007     8.1319     2.3928     0.1553     0.0148   142.3161
  383.5000   -64.3709     6.8348     4.6302     4.3007     8.1323     2.4180     0.1419     0.0203   139.0522
  384.0000   -64.2749     6.2651     4.7714     4.3007     8.1326     2.4148     0.1447     0.0159   135.3786
  384.5000   -63.9505     5.9953     4.9596     4.3015     8.1330     2.4293     0.1400     0.0242   132.0526
  385.0000   -63.6276     7.0301     5.1552     4.2988     8.1334     2.4316     0.1351     0.0134   133.3546
  385.5000   -63.3041     7.6210     5.3586     4.6203     8.1338     2.4662     0.1166     0.0303   135.1403
  386.0000   -62.9803     7.3448     5.5699     4.8573     8.1341     2.4542     0.1212     0.0152   134.5013
  386.5000   -62.6526     7.6210     5.7896     5.1062     8.1345     2.4460     0.1262     0.0150   132.6517
  387.0000   -62.3152     8.3354     6.0886     5.3682     8.1349     2.4525     0.1216     0.0135   134.0861
  387.5000   -61.9801     9.1083     6.4202     5.6404     8.1353     2.4533     0.1212     0.0097   136.7960
  388.0000   -61.6488     9.6230     6.7698     5.8344     8.1356     2.4504     0.1236     0.0057   138.7135
  388.5000   -61.3833     9.8219     7.1388     5.9369     8.1360     2.4550     0.1221     0.0074   136.2254
  389.0000   -61.2731    10.0328     7.5282     6.0438     8.1364     2.4599     0.1177     0.0104   133.8354
  389.5000   -61.1596    10.1447     7.9384     6.1523     8.1368     2.4566     0.1195     0.0135   132.7950
  390.0000   -61.0470    10.0737     7.9808     6.2453     8.1371     2.4551     0.1201     0.0150   137.2906
  390.5000   -60.9334    10.0253     7.8897     6.3623     8.1375     2.4565     0.1182     0.0150   141.6448
  391.0000   -60.8255     9.9747     7.7702     6.4547     8.1379     2.4616     0.1163     0.0150   140.2139
  391.5000   -60.8499     9.7696     7.6524     6.3077     8.1383     2.4601     0.1185     0.0150   138.2157
  392.0000   -60.8800     9.4814     7.5364     6.1901     8.1386     2.4521     0.1232     0.0128   136.0975
  392.5000   -60.9093     9.2328     7.4222     6.0748     8.1390     2.4482     0.1257     0.0106   130.4680
  393.0000   -60.9385     9.1304     7.3098     5.9617     8.1394     2.4444     0.1255     0.0100   128.3372
  393.5000   -60.9677     9.0275     7.1990     5.8506     8.1398     2.4435     0.1287     0.0151   138.2498
  394.0000   -60.9958     8.8571     6.9504     5.7416     8.1401     2.4459     0.1248     0.0200   143.9136
  394.5000   -61.0266     8.6529     6.5783     5.6302     8.1405     2.4452     0.1267     0.0210   143.4723
  395.0000   -61.2498     8.4554     6.2261     5.3797     8.1409     2.4437     0.1264     0.0212   140.6794
  395.5000   -61.4912     8.2618     5.8928     5.1404     8.1413     2.4424     0.1243     0.0260   138.2150
  396.0000   -61.7320     7.9826     5.5758     4.9117     8.1416     2.4385     0.1364     0.0200   140.5866
  396.5000   -61.9727     7.5145     5.2699     4.6932     8.1420     2.4132     0.1437     0.0124   144.5151
  397.0000   -62.2143     6.6248     5.2428     4.4844     8.1424     2.4056     0.1488     0.0194   148.5707
  397.5000   -62.4532     5.7303     5.2189     4.2221     8.1428     2.3986     0.1539     0.0225   147.4203
  398.0000   -62.5709     5.4166     5.1937     4.3908     8.1431     2.3936     0.1571     0.0125   145.4582
  398.5000   -62.3208     6.4684     5.1724     4.6706     8.1435     2.4125     0.1449     0.0110   144.6753
  399.0000   -62.0840     7.6611     5.4820     4.9683     8.1439     2.4323     0.1323     0.0092   142.4001
  399.5000   -61.8470     8.7019     5.7665     5.2687     8.1443     2.4519     0.1198     0.0152   140.9023
  400.0000   -61.6101     9.3532     6.0657     5.4067     8.1446     2.4514     0.1164     0.0190   141.2737
  400.5000   -61.3732     9.6874     6.3805     5.5718     8.1450     2.4477     0.1179     0.0207   141.6782
  401.0000   -61.1363     9.5422     6.7117     5.7421     8.1454     2.4601     0.1132     0.0258   137.8369
  401.5000   -60.8994     9.3820     7.0600     5.9008     8.1458     2.4635     0.1134     0.0232   133.4777
  402.0000   -60.6641     9.1656     7.3468     5.9860     8.1461     2.4682     0.1101     0.0320   134.5348
  402.5000   -60.4430     9.3111     7.5231     6.0725     8.1465     2.4776     0.1067     0.0355   136.7860
