~VERSION INFORMATION
 VERS.                2.0:   CWLS LOG ASCII STANDARD - VERSION 2.0
 WRAP.                 NO:   ONE LINE PER DEPTH STEP
~WELL INFORMATION
#MNEM.UNIT      DATA TYPE    INFORMATION
#----------   ------------   ------------------------------
 STRT.F           26.0000:   START DEPTH
 STOP.F          535.5000:   STOP DEPTH
 STEP.F            0.5000:   STEP LENGTH
 NULL.          -999.2500:   NO VALUE
 COMP. BROWN JOHN E&C INC:   COMPANY
 WELL.       NPR 86 #11-3:   WELL
 FLD .             TEAPOT:   FIELD
 LOC .       S3 T38N R78W:   LOCATION
 CNTY.            NATRONA:   COUNTY
 STAT.            WYOMING:   STATE
 CTRY. UNITED STATES OF AMERICA:   COUNTRY
 SRVC.       Schlumberger:   SERVICE COMPANY
 DATE.        21-SEP-1990:   LOGDATE
 API .       490251130800:   API NUMBER
~CURVE INFORMATION
#MNEM.UNIT       API CODE    CURVE DESCRIPTION
#----------   ------------   ------------------------------
 DEPT.F                  :   
 ILD .OHMM   07 120 46 00:   INDUCTION LOG DEEP
 ILM .OHMM   07 120 44 00:   INDUCTION LOG MEDIUM
 GRD .GAPI   45 310 01 00:   GAMMA RAY FROM DENSITY LOG
 CALD.IN     45 280 60 00:   CALIPER
 DRHO.G/C3   45 356 01 00:   DENSITY CORRECTION
 DPHI.DEC    45 890 00 00:   DENSITY POROSITY
 RHOB.G/C3   45 350 01 00:   BULK DENSITY
~PARAMETER INFORMATION
#MNEM.UNIT          VALUE    DESCRIPTION
#----------   ------------   ------------------------------
 PD  .                 GL:   PERMANENT DATUM
 EPD .F              5144:   ELEVATION PERMANENT DATUM
 LMF .                 KB:   LOG MEASURED FROM
 DAPD.F                10:   FEET ABOVE PERMANENT DATUM
 DMF .                 KB:   DRILLING MEASURED FROM
 EKB .F              5154:   KELLING BUSHING
 EDF .F              5153:   DRILLING FLOOR
 EGL .F              5144:   GROUND LEVEL
 DATE.            9-21-90:   RUN DATE
 RUN .                  1:   RUN NUMBER
 DD  .F               540:   DEPTH DRILLER
 DL  .F               539:   DEPTH LOGGER
 BLI .F               533:   BOTTOM LOG INTERVAL
 TLI .F                49:   TOP LOG INTERVAL
 CS  .IN            8.625:   CASING SIZE
 CBD .F                50:   CASING BOTTOM DRILLER
 CBL .F                48:   CASING BOTTOM LOGGER
 BS  .IN            7.875:   BIT SIZE
 BSD .F               540:   BIT SIZE AT DEPTH
 DFT .                AIR:   DRILLING FLUID TYPE
 TCS .HRS            0315:   TIME CURCULATED STOPPED
 TLAB.HRS            0409:   TIME LOGGER AT BOTTOM
 LUN .               5882:   LOGGING UNIT NUMBER
 LUL .               CODY:   LOGGING UNIT LOCATION
 ENGI.          M. FISHER:   RECORDING ENGINEER
 WITN.          G. STRONG:   WITNESSED BY
 CLNT.            A2DTECH:   CLIENT CODE
 ORIG.   2" 2.5" 5" PRINT:   ORIGIN OF DATA
 UWI .       490251130800:   UNIQUE WELL ID
 DICO. A2D Technologies, Inc.:   DIGITIZING COMPANY
~OTHER INFORMATION
~A   DEPT      ILD        ILM         GRD      CALD       DRHO       DPHI       RHOB   
# ...
  208.0000     9.8058     9.9890   127.8654     7.8777    -0.0022     0.1122     2.4678
  208.5000     9.5123     9.7861   125.8795     7.8685    -0.0029     0.1098     2.4675
  209.0000     9.2775     9.5466   125.5330     7.8815    -0.0025     0.1114     2.4676
  209.5000     9.0220     9.3120   126.1836     7.8940    -0.0020     0.1134     2.4637
  210.0000     9.0300     9.1059   126.9608     7.9064    -0.0016     0.1142     2.4609
  210.5000     9.0390     9.0984   127.7370     7.9189    -0.0012     0.1136     2.4628
  211.0000     9.0481     9.0916   128.3716     7.9313    -0.0010     0.1130     2.4646
  211.5000     9.0572     9.0848   128.2789     7.9437    -0.0010     0.1146     2.4611
  212.0000     9.0663     9.0779   126.2468     7.9561    -0.0010     0.1174     2.4552
  212.5000     9.0754     9.0711   124.1384     7.9667    -0.0010     0.1202     2.4495
  213.0000     9.0845     9.0644   122.0449     7.9688    -0.0010     0.1202     2.4506
  213.5000     9.0937     9.0576   120.2919     7.9709    -0.0004     0.1170     2.4567
  214.0000     9.1058     9.0508   121.3545     7.9731     0.0012     0.1130     2.4626
  214.5000     9.0712     9.0440   122.6430     7.9753     0.0028     0.1090     2.4694
  215.0000     9.0203     9.0372   122.7050     7.9776     0.0043     0.1080     2.4716
  215.5000     8.9693     9.0305   120.3927     7.9798     0.0050     0.1070     2.4746
  216.0000     8.9187     9.0235   117.9744     7.9820     0.0032     0.1035     2.4785
  216.5000     8.8683     9.0220   115.9029     7.9842     0.0009     0.0998     2.4827
  217.0000     8.8387     9.0220   115.9833     7.9848    -0.0013     0.1036     2.4778
  217.5000     8.8156     9.0220   117.5710     7.9764    -0.0030     0.1103     2.4678
  218.0000     8.7925     9.0224   121.3762     7.9681    -0.0052     0.1169     2.4585
  218.5000     8.7547     8.9858   125.3887     7.9598    -0.0076     0.1202     2.4495
  219.0000     8.6696     8.9501   129.3553     7.9515    -0.0100     0.1214     2.4444
  219.5000     8.5854     8.9388   128.3955     7.9432    -0.0120     0.1218     2.4445
  220.0000     8.5019     9.1693   124.8238     7.9349    -0.0120     0.1190     2.4493
  220.5000     8.4193     9.2760   121.2835     7.9266    -0.0120     0.1165     2.4555
  221.0000     8.3378     8.3926   117.7217     7.9327    -0.0108     0.1138     2.4619
  221.5000     8.1154     7.8424   117.5571     7.9399    -0.0086     0.1110     2.4683
  222.0000     7.7866     7.6120   118.8559     7.9463    -0.0065     0.1134     2.4645
  222.5000     7.4712     7.3884   120.2914     7.9462    -0.0050     0.1158     2.4589
  223.0000     7.1689     7.1714   119.3365     7.9460    -0.0050     0.1158     2.4586
  223.5000     6.8788     7.0268   117.3221     7.9401    -0.0047     0.1150     2.4605
  224.0000     6.6493     6.9711   115.2700     7.9200    -0.0041     0.1138     2.4625
  224.5000     6.6433     6.9056   115.3580     7.9001    -0.0040     0.1126     2.4645
  225.0000     6.8013     6.8344   117.2441     7.8803    -0.0039     0.1115     2.4666
  225.5000     6.9107     6.9592   119.1440     7.8660    -0.0027     0.1104     2.4689
  226.0000     7.0262     7.1401   121.0302     7.8663    -0.0014     0.1098     2.4695
  226.5000     7.2168     7.2234   122.8032     7.8663    -0.0002     0.1098     2.4695
  227.0000     7.4240     7.5201   124.0528     7.8663     0.0010     0.1095     2.4697
  227.5000     7.6373     7.7728   125.1613     7.8663     0.0022     0.1084     2.4717
  228.0000     7.8567     7.9991   125.5550     7.8663     0.0034     0.1069     2.4745
  228.5000     8.0735     7.9991   125.5229     7.8663     0.0046     0.1050     2.4773
  229.0000     8.1705     7.9991   124.6681     7.8663     0.0058     0.1032     2.4801
  229.5000     8.1997     7.9991   122.6486     7.8663     0.0060     0.1022     2.4815
  230.0000     8.2272     8.0052   122.0907     7.8663     0.0061     0.1031     2.4801
  230.5000     8.2548     8.0279   124.5655     7.8663     0.0037     0.1051     2.4771
  231.0000     8.2827     8.0502   126.9509     7.8675     0.0010     0.1071     2.4741
  231.5000     8.3008     8.0735   128.9607     7.8733    -0.0017     0.1091     2.4711
  232.0000     8.1393     7.9907   129.5194     7.8789    -0.0044     0.1110     2.4673
  232.5000     8.0219     7.9054   128.5908     7.8846    -0.0069     0.1140     2.4635
  233.0000     7.9062     7.8210   127.6724     7.8902    -0.0069     0.1169     2.4597
  233.5000     7.7915     7.7376   127.1302     7.8958    -0.0050     0.1162     2.4575
  234.0000     7.6556     7.6403   128.2761     7.9015    -0.0030     0.1135     2.4622
  234.5000     7.4443     7.3791   129.8962     7.9071    -0.0011     0.1110     2.4675
  235.0000     7.2405     7.1268   127.9077     7.9127    -0.0020     0.1152     2.4589
  235.5000     7.0284     6.8832   123.8826     7.9183    -0.0030     0.1226     2.4316
  236.0000     6.5702     6.5324   119.8884     7.9241    -0.0041     0.1319     2.3978
  236.5000     6.1076     6.1038   116.0769     7.9211    -0.0050     0.1437     2.3643
  237.0000     6.0037     5.7034   115.9549     7.9132    -0.0050     0.1465     2.3445
  237.5000     6.0037     5.4602   116.6757     7.9051    -0.0036     0.1465     2.3623
  238.0000     6.0037     5.4225   118.5073     7.8970    -0.0001     0.1340     2.4006
  238.5000     6.0037     5.8052   120.4152     7.8890     0.0010     0.1214     2.4391
  239.0000     6.1158     6.1010   122.5402     7.8809     0.0000     0.1147     2.4612
  239.5000     6.3684     6.4136   123.1720     7.8729     0.0000     0.1078     2.4723
  240.0000     6.6783     6.7683   123.1545     7.8661    -0.0010     0.1058     2.4755
  240.5000     7.0010     7.0362   123.3179     7.8662    -0.0010     0.1058     2.4755
  241.0000     7.3397     7.3378   124.6829     7.8662    -0.0008     0.1058     2.4746
  241.5000     7.6933     7.6544   126.6822     7.8721    -0.0001     0.1055     2.4767
  242.0000     8.0084     7.9345   128.6704     7.9098     0.0005     0.1050     2.4786
  242.5000     8.0413     7.9861   130.6716     7.9470     0.0010     0.1058     2.4761
  243.0000     8.0779     8.0387   132.6735     7.9833    -0.0007     0.1082     2.4717
  243.5000     8.1136     8.0910   134.7352     8.0053    -0.0025     0.1108     2.4674
  244.0000     8.1492     8.1439   131.1020     7.9863    -0.0043     0.1133     2.4631
  244.5000     8.2692     8.1971   127.2511     7.9656    -0.0061     0.1159     2.4586
  245.0000     8.3848     8.2991   123.6772     7.9448    -0.0078     0.1185     2.4527
  245.5000     8.5021     8.4539   123.1547     7.9241    -0.0090     0.1202     2.4488
  246.0000     8.5780     8.6115   123.1563     7.9078    -0.0090     0.1171     2.4544
  246.5000     8.6396     8.7720   122.5928     7.9248    -0.0075     0.1102     2.4651
  247.0000     8.7009     8.9388   121.5392     7.9415    -0.0048     0.1044     2.4764
  247.5000     8.7627     8.9531   120.4874     7.9581    -0.0020     0.0995     2.4880
  248.0000     8.8250     8.9677   119.5892     7.9659     0.0009     0.0943     2.4925
  248.5000     8.8877     8.9823   120.0831     7.9661     0.0010     0.0954     2.4937
  249.0000     8.9508     8.9970   120.5636     7.9661    -0.0009     0.0974     2.4911
  249.5000     9.0145     9.0117   121.0378     7.9661    -0.0029     0.0954     2.4906
  250.0000     9.0441     9.0254   121.5078     7.9661    -0.0049     0.0873     2.5032
  250.5000     9.0692     9.0377   120.7174     7.9661    -0.0041     0.0804     2.5177
  251.0000     9.0943     9.0499   119.0479     7.9661    -0.0024     0.0827     2.5142
  251.5000     9.1196     9.0621   117.5242     7.9661    -0.0025     0.0883     2.5055
  252.0000     9.1451     9.0743   118.3604     7.9661    -0.0042     0.0939     2.4968
  252.5000     9.1701     9.0866   121.7357     7.9661    -0.0058     0.0976     2.4906
  253.0000     9.1902     9.0993   125.1616     7.9661    -0.0076     0.0990     2.4885
