~VERSION INFORMATION
 VERS.                2.0:   CWLS LOG ASCII STANDARD - VERSION 2.0
 WRAP.                 NO:   ONE LINE PER DEPTH STEP
~WELL INFORMATION
#MNEM.UNIT      DATA TYPE    INFORMATION
#----------   ------------   ------------------------------
 STRT.F           32.5000:   START DEPTH
 STOP.F          654.0000:   STOP DEPTH
 STEP.F            0.5000:   STEP LENGTH
 NULL.          -999.2500:   NO VALUE
 COMP. FENIX & SCISSON INC:   COMPANY
 WELL.          NPR #13-2:   WELL
 FLD .             TEAPOT:   FIELD
 LOC .       S2 T38N R78W:   LOCATION
 CNTY.            NATRONA:   COUNTY
 STAT.            WYOMING:   STATE
 CTRY. UNITED STATES OF AMERICA:   COUNTRY
 SRVC.           BIRDWELL:   SERVICE COMPANY
 DATE.        16-JAN-1978:   LOGDATE
 API .       490251055100:   API NUMBER
~CURVE INFORMATION
#MNEM.UNIT       API CODE    CURVE DESCRIPTION
#----------   ------------   ------------------------------
 DEPT.F                  :   
 ILD .OHMM   05 120 46 00:   INDUCTION LOG DEEP
 SN  .OHMM   05 040 16 00:   SHORT NORMAL 16"
 SPR .MV     05 010 01 00:   SPONTANEOUS POTENTIAL FROM RES.
 CALD.IN     45 280 60 00:   CALIPER FROM DENSITY LOG
 CORR.G/C3   45 356 01 00:   DENSITY CORRECTION
 DPHI.DEC    45 890 12 00:   DENSITY POROSITY SANDSTONE
 GRD .GAPI   45 310 01 00:   GAMMA RAY FROM DENSITY LOG
 RHOB.G/C3   45 350 01 00:   BULK DENSITY
~PARAMETER INFORMATION
#MNEM.UNIT          VALUE    DESCRIPTION
#----------   ------------   ------------------------------
 PD  .                 GL:   PERMANENT DATUM
 EPD .F              5091:   ELEVATION PERMANENT DATUM
 LMF .                 KB:   LOG MEASURED FROM
 DAPD.F                 4:   FEET ABOVE PERMANENT DATUM
 DMF .                 KB:   DRILLING MEASURED FROM
 EKB .F              5095:   KELLING BUSHING
 EGL .F              5091:   GROUND LEVEL
 DATE.        16-JAN-1978:   RUN DATE
 RUN .                  1:   RUN NUMBER
 DD  .F               652:   DEPTH DRILLER
 DL  .F               654:   DEPTH LOGGER
 BLI .F               649:   BOTTOM LOG INTERVAL
 TLI .F                30:   TOP LOG INTERVAL
 CS  .IN            8.625:   CASING SIZE
 CBD .F                20:   CASING BOTTOM DRILLER
 CBL .F                34:   CASING BOTTOM LOGGER
 BS  .IN            7.875:   BIT SIZE
 BSD .F               652:   BIT SIZE AT DEPTH
 DFT .                KCL:   DRILLING FLUID TYPE
 DFD .                8.7:   DRILLING FLUID DENSITY
 DFV .                 34:   DRILLING FLUID VISCOSITY
 DFPH.                 10:   DRILLING FLUID PH
 MSS .           FLOWLINE:   MUD SAMPLE SOURCE
 RMS .OHMM            0.3:   RESISTIVITY MUD SAMPLE
 MST .F                62:   MUD SAMPLE TEMPERATURE
 RMF .OHMM           0.26:   RESISTIVITY MUD FILTRATE SAMPLE
 MFST.F                66:   MUD FILTRATE SAMPLE TEMPERATURE
 RMC .OHMM           0.48:   RESISTIVITY MUD CAKE
 MCST.F                66:   MUD CAKE SAMPLE TEMPERATURE
 MFSS.               MEAS:   MUD FILTRATE SAMPLE SOURCE
 MCSS.               MEAS:   MUD CAKE SAMPLE SOURCE
 RMB .OHMM           0.26:   RESISTIVITY MUD AT BHT
 BHT .F                72:   BOTTOM HOLE TEMPERATURE
 TCS .HRS               3:   TIME CURCULATED STOPPED
 MRT .F                72:   MAXIMUM RECORDED TEMPERATURE
 LUN .               3027:   LOGGING UNIT NUMBER
 LUL .                GJT:   LOGGING UNIT LOCATION
 ENGI.           MARTINEZ:   RECORDING ENGINEER
 WITN.         HARRINGTON:   WITNESSED BY
 CLNT.            A2DTECH:   CLIENT CODE
 ORIG.           5" PRINT:   ORIGIN OF DATA
 UWI .       490251055100:   UNIQUE WELL ID
 DICO. A2D Technologies, Inc.:   DIGITIZING COMPANY
~OTHER INFORMATION
~A   DEPT      ILD         SN        SPR       CALD       CORR       DPHI         GRD      RHOB   
   32.5000  -999.2500  -999.2500  -999.2500  -999.2500  -999.2500  -999.2500    49.7994  -999.2500
   33.0000  -999.2500  -999.2500  -999.2500  -999.2500  -999.2500  -999.2500    49.6278  -999.2500
   33.5000  -999.2500  -999.2500  -999.2500  -999.2500  -999.2500  -999.2500    49.5161  -999.2500
   34.0000  -999.2500  -999.2500  -999.2500  -999.2500  -999.2500  -999.2500    49.5161  -999.2500
   34.5000    14.9211     6.2166   -16.0562     8.8207    -0.0190     0.3987    51.2452     1.9171
   35.0000    18.1893     7.0408   -17.2518     8.7912     0.2025     0.2565    54.4839     2.2147
   35.5000    21.4438     7.3399   -17.8480     8.7766     0.2928     0.1795    58.6922     2.3348
   36.0000    23.8960     7.5466   -20.3962     8.9267     0.2943     0.1508    62.9477     2.3709
   36.5000    26.6994     7.8671   -16.4879     9.7693     0.2334     0.1523    66.3555     2.3904
   37.0000    28.6366     8.2580   -16.4835    10.4393     0.1982     0.1682    68.5126     2.4039
   37.5000    30.5269     9.2246   -16.9419     8.6284     0.1351     0.2162    70.8064     2.3724
   38.0000    29.5078    10.0929   -18.4266     8.5987     0.1261     0.2195    70.6940     2.3129
   38.5000    28.3974    11.3524   -16.0198     8.6440     0.1637     0.2156    70.5567     2.3047
   39.0000    27.2623    13.1272   -16.7651     8.4948     0.1727     0.1967    70.4516     2.3093
   39.5000    26.0478    15.4970   -17.0620     8.4353     0.1907     0.1778    70.2203     2.3303
   40.0000    24.6444    18.2947   -16.7562     8.3757     0.2147     0.1694    69.3871     2.3814
   40.5000    22.9963    18.5518   -16.6017     8.3911     0.2237     0.1779    68.2590     2.3971
   41.0000    21.4585    18.0485   -16.7474     8.4065     0.2027     0.1766    66.9660     2.3679
   41.5000    20.1624    17.8032   -16.8943     8.4368     0.1832     0.1760    65.6729     2.3649
   42.0000    19.3417    17.8056   -17.1892     8.6468     0.1697     0.1850    64.3799     2.3664
   42.5000    18.8085    18.0559   -17.7853     8.4675     0.1589     0.1916    63.0868     2.3551
   43.0000    18.5531    18.0793   -18.7037     8.4080     0.1547     0.1863    61.5421     2.3453
   43.5000    18.4238    18.1866   -19.9274     8.4083     0.1667     0.1737    57.9532     2.3581
   44.0000    18.4225    18.1890   -20.7751     8.4386     0.1757     0.1941    54.3643     2.3731
   44.5000    18.4213    18.4446   -20.4692     8.4989     0.1577     0.2004    50.7754     2.3544
   45.0000    18.5482    18.5750   -20.3147     8.6490     0.1246     0.2004    55.9506     2.3393
   45.5000    18.6756    18.8360   -20.1601    10.3111     0.0826     0.1986    64.7742     2.3332
   46.0000    18.9344    18.8386   -21.0566     8.5300     0.0661     0.2007    69.0323     2.3295
   46.5000    19.0645    18.9718   -22.2534     8.5453     0.0556     0.2001    69.6726     2.3288
   47.0000    18.8010    19.1059   -23.6004     8.6056     0.0526     0.1974    70.2541     2.3303
   47.5000    18.5416    18.5876   -24.1967     8.6508     0.0465     0.1959    70.2453     2.3318
   48.0000    17.6643    17.8352   -24.7928     8.6512     0.0420     0.1953    69.8019     2.3333
   48.5000    16.3529    17.2220   -25.3984     8.6516     0.0405     0.1971    69.3871     2.3341
   49.0000    15.0318    16.6110   -26.5275     8.6819     0.0375     0.1989    69.7803     2.3311
   49.5000    12.9379    15.2213   -29.1328     8.7123     0.0330     0.1935    70.1497     2.3348
   50.0000    10.8833    14.1092   -30.3296     8.7126     0.0255     0.1894    70.4786     2.3438
   50.5000    10.1555    13.2603   -31.2261     8.7130     0.0225     0.1879    70.6264     2.3483
   51.0000     9.8097    12.6359   -31.5220     8.7433     0.0195     0.1867    70.7742     2.3498
   51.5000     9.5415    12.1244   -31.5176     8.7437     0.0210     0.1840    71.1161     2.3521
   52.0000     9.5408    11.7955   -31.5132     8.7590     0.0240     0.1753    74.1327     2.3574
   52.5000     9.5402    11.4755   -31.5088     8.7144     0.0300     0.1594    73.2278     2.3604
   53.0000     9.6724    11.1642   -31.5044     8.7448     0.0375     0.1465    71.7195     2.3799
   53.5000     9.6758    11.0125   -31.5000     8.7153     0.0480     0.1378    73.2278     2.4054
   54.0000     9.6369    10.8628   -31.4955     8.7156     0.0616     0.1324    85.7466     2.4234
   54.5000     9.5376    10.7152   -31.4910     8.7459     0.0722     0.1269    89.9698     2.4327
   55.0000     9.3410    10.5696   -31.4856     8.7762     0.0836     0.1248    90.4223     2.4434
   55.5000     9.2760    10.4259   -31.3311     8.7766     0.1006     0.1288    89.5173     2.4489
   56.0000     9.1480    10.2138   -30.7261     8.7770     0.1006     0.1348    87.5566     2.4429
   56.5000     9.0843    10.1445   -30.8729     8.7773     0.1021     0.1357    86.1991     2.4384
   57.0000     9.0211    10.0066   -31.3190     8.7627     0.1066     0.1345    86.2353     2.4354
   57.5000     9.0833     9.9391   -31.6149     8.7481     0.1126     0.1348    87.5566     2.4354
   58.0000     9.0825     9.9407   -32.0598     8.7486     0.1201     0.1360    87.7074     2.4369
   58.5000     9.1450     9.9421   -32.2057     8.7789     0.1291     0.1375    87.1041     2.4369
   59.0000     9.1443     9.9434   -32.6516     8.7942     0.1366     0.1348    87.1041     2.4339
   59.5000     9.2710     9.8763   -32.9540     8.8095     0.1381     0.1330    87.8582     2.4323
   60.0000     9.3390     9.8776   -33.2633     8.7800     0.1456     0.1329    88.7632     2.4362
   60.5000     9.4741     9.8790   -33.8385     8.7654     0.1563     0.1372    88.6124     2.4392
   61.0000     9.5291     9.8804   -34.2845     8.7507     0.1609     0.1451    87.7074     2.4351
   61.5000     9.5282     9.8820   -34.4314     8.7511     0.1637     0.1510    85.5958     2.4234
   62.0000     9.5276     9.7477   -34.5760     8.7365     0.1697     0.1522    85.2821     2.4174
   62.5000     9.5270     9.6819   -34.7229     8.7219     0.1772     0.1525    86.3499     2.4092
   63.0000     9.5263     9.6832   -34.5672     8.6775     0.1862     0.1582    86.5008     2.4024
   63.5000     9.5257     9.6845   -34.1124     8.6030     0.1937     0.1645    85.6742     2.3964
   64.0000     9.5250     9.6858   -33.6575     8.5434     0.1997     0.1552    82.8808     2.3941
   64.5000     9.5905     9.6871   -33.0525     8.4390     0.2072     0.1543    83.3333     2.3994
   65.0000     9.5898     9.6884   -32.5926     8.3346     0.2132     0.1570    84.3891     2.4009
   65.5000     9.5892     9.6897   -31.9925     8.2452     0.2147     0.1552    84.9925     2.3994
   66.0000     9.6550     9.6911   -31.6868     8.2156     0.2087     0.1789    83.7858     2.4002
   66.5000     9.7212     9.6924   -31.5323     8.2309     0.1888     0.1864    82.4284     2.3936
   67.0000     9.7882     9.6937   -31.3777     8.3081     0.1562     0.1894    83.0317     2.3626
   67.5000     9.9236     9.6953   -31.3733     8.4288     0.1306     0.1893    85.2941     2.3498
   68.0000     9.9920     9.6966   -31.5202     8.5465     0.1246     0.1858    85.6139     2.3491
   68.5000     9.9911     9.8329   -31.6659     8.6217     0.1276     0.1789    84.6908     2.3551
   69.0000    10.0600     9.9711   -31.9607     8.6819     0.1321     0.1660    83.7737     2.3634
   69.5000    10.0591    10.1112   -32.1064     8.7272     0.1366     0.1576    83.0136     2.3754
   70.0000    10.0584    10.2533   -32.2523     8.7575     0.1336     0.1514    82.8808     2.3919
   70.5000    10.0577    10.3973   -32.3979     8.7579     0.1306     0.1312    83.4842     2.4099
   71.0000     9.9878    10.6166   -32.3764     8.7582     0.1306     0.1282    83.4842     2.4249
   71.5000     9.9183    10.6916   -32.3891     8.7586     0.1351     0.1456    80.1659     2.4399
   72.0000     9.9176    10.6931   -32.3836     8.7740     0.1276     0.1567    80.6184     2.4174
   72.5000     9.9168    10.7007   -32.5294     8.7893     0.0871     0.1582    82.2775     2.3949
