~VERSION INFORMATION
 VERS.                2.0:   CWLS LOG ASCII STANDARD - VERSION 2.0
 WRAP.                 NO:   ONE LINE PER DEPTH STEP
~WELL INFORMATION
#MNEM.UNIT      DATA TYPE    INFORMATION
#----------   ------------   ------------------------------
 STRT.F           30.0000:   START DEPTH
 STOP.F          500.0000:   STOP DEPTH
 STEP.F            0.5000:   STEP LENGTH
 NULL.          -999.2500:   NO VALUE
 COMP. FENIX & SCISSON INC:   COMPANY
 WELL.     3-FI #55-45 SX:   WELL
 FLD .             TEAPOT:   FIELD
 LOC .       S3 T38N R78W:   LOCATION
 CNTY.            NATRONA:   COUNTY
 STAT.            WYOMING:   STATE
 CTRY. UNITED STATES OF AMERICA:   COUNTRY
 SRVC.              Welex:   SERVICE COMPANY
 DATE.        16-MAY-1980:   LOGDATE
 API .       490251082700:   API NUMBER
~CURVE INFORMATION
#MNEM.UNIT       API CODE    CURVE DESCRIPTION
#----------   ------------   ------------------------------
 DEPT.F                  :   
 SPR .MV     07 010 01 00:   SPONTANEOUS POTENTIAL
 GURD.OHMM   07 220 05 00:   GUARD RESISTIVITY
 CALD.IN     45 280 60 00:   CALIPER
 GRD .GAPI   45 310 01 00:   GAMMA RAY FROM DENSITY LOG
 RHOB.G/C3   45 350 01 00:   BULK DENSITY
 CORR.G/C3   45 356 01 00:   DENSITY CORRECTION
 NPHI.DEC    42 890 03 00:   NEUTRON POROSITY SANDSTONE
 DPHI.DEC    45 890 12 00:   DENSITY POROSITY SANDSTONE
 ILD .OHMM   07 120 46 00:   INDUCTION LOG DEEP
 ILM .OHMM   07 120 44 00:   INDUCTION LOG MEDIUM
~PARAMETER INFORMATION
#MNEM.UNIT          VALUE    DESCRIPTION
#----------   ------------   ------------------------------
 PD  .                 GL:   PERMANENT DATUM
 EPD .F              5167:   ELEVATION PERMANENT DATUM
 LMF .                 KB:   LOG MEASURED FROM
 DAPD.F                 5:   FEET ABOVE PERMANENT DATUM
 DMF .                 KB:   DRILLING MEASURED FROM
 EKB .F              5172:   KELLING BUSHING
 EGL .F              5167:   GROUND LEVEL
 DATE.            5-16-80:   RUN DATE
 RUN .                  1:   RUN NUMBER
 DD  .F               483:   DEPTH DRILLER
 DL  .F               496:   DEPTH LOGGER
 BLI .F               494:   BOTTOM LOG INTERVAL
 TLI .F                35:   TOP LOG INTERVAL
 BS  .IN             9.75:   BIT SIZE
 BSD .F               483:   BIT SIZE AT DEPTH
 DFT .            KCL MUD:   DRILLING FLUID TYPE
 DFD .                9.5:   DRILLING FLUID DENSITY
 DFV .                 45:   DRILLING FLUID VISCOSITY
 DFL .                7.5:   DRILLING FLUID LOSS
 MSS .            MUD PIT:   MUD SAMPLE SOURCE
 RMS .OHMM            .29:   RESISTIVITY MUD SAMPLE
 MST .F                75:   MUD SAMPLE TEMPERATURE
 RMF .OHMM            .23:   RESISTIVITY MUD FILTRATE SAMPLE
 MFST.F                75:   MUD FILTRATE SAMPLE TEMPERATURE
 RMC .OHMM            .35:   RESISTIVITY MUD CAKE
 MCST.F                75:   MUD CAKE SAMPLE TEMPERATURE
 MFSS.           MEASURED:   MUD FILTRATE SAMPLE SOURCE
 MCSS.           MEASURED:   MUD CAKE SAMPLE SOURCE
 TCS .HRS               2:   TIME CURCULATED STOPPED
 LUN .               9685:   LOGGING UNIT NUMBER
 LUL .             CASPER:   LOGGING UNIT LOCATION
 ENGI.            TOTHILL:   RECORDING ENGINEER
 WITN.              AMEND:   WITNESSED BY
 CLNT.            A2DTECH:   CLIENT CODE
 ORIG.           5" PRINT:   ORIGIN OF DATA
 UWI .       490251082700:   UNIQUE WELL ID
 DICO. A2D Technologies, Inc.:   DIGITIZING COMPANY
~OTHER INFORMATION
~A   DEPT      SPR         GURD     CALD        GRD       RHOB       CORR         NPHI       DPHI        ILD        ILM 
# ...
  298.0000   -42.7151    15.2623    10.2484    76.2402     2.3770     0.0275     0.2366     0.1731    12.2680     9.2968
  298.5000   -42.7961    15.2623    10.3207    76.6164     2.3847     0.0384     0.2285     0.1742    12.3300     9.3367
  299.0000   -42.8762    15.7057    10.3389    77.0092     2.3838     0.0415     0.2181     0.1612    12.3924     9.3761
  299.5000   -42.9551    16.1403    10.3188    76.4122     2.3989     0.0503     0.2048     0.1499    12.6214     9.4108
  300.0000   -43.0341    15.9897    10.2974    74.9143     2.4081     0.0572     0.1911     0.1237    13.0954     9.4529
  300.5000   -43.1155    15.8422    10.3341    73.4598     2.4010     0.0925     0.1746     0.0948    13.5878     9.5120
  301.0000   -43.1931    17.7670    10.3847    72.0023     2.5034     0.1348     0.1619     0.0700    14.0988     9.4930
  301.5000   -43.2709    21.5084    10.4365    70.5317     2.5678     0.1559     0.1550     0.0677    14.6283     9.5643
  302.0000   -43.3656    26.0378    10.3946    69.1070     2.5819     0.1602     0.1526     0.1052    15.1763    11.7400
  302.5000   -43.3034    31.5211    10.3086    70.5261     2.5117     0.0645     0.1642     0.1301    15.7439    11.3744
  303.0000   -43.0237    34.6654    10.2231    72.2667     2.4644    -0.0010     0.1819     0.1526    16.3324    10.9362
  303.5000   -42.7589    36.6596    10.1369    73.9987     2.4397    -0.0120     0.1996     0.1566    16.9437    10.5165
  304.0000   -42.4956    28.5021    10.0985    75.7296     2.4133    -0.0098     0.2250     0.1559    17.7097    10.1132
  304.5000   -42.2268    22.1597    10.1195    77.4510     2.4152     0.0231     0.2486     0.1656    16.9521     9.5794
  305.0000   -41.9454    17.3496    10.1378    79.0223     2.4059     0.0417     0.2619     0.1771    16.0555     9.5827
  305.5000   -41.7947    14.7037    10.1087    79.2348     2.3890     0.0518     0.2643     0.1868    15.2006     9.5987
  306.0000   -41.9591    14.9804    10.0597    79.4370     2.3719     0.0465     0.2626     0.1961    14.3912     9.6138
  306.5000   -42.1041    15.8422    10.0580    79.6312     2.3547     0.0340     0.2599     0.1973    13.6249     9.6301
  307.0000   -42.2651    14.7037    10.0712    79.8259     2.3460     0.0205     0.2631     0.1922    12.8994     9.6463
  307.5000   -42.4101    14.4321    10.1069    80.0213     2.3523     0.0190     0.2619     0.1888    12.2126     9.6623
  308.0000   -42.5836    14.4321    10.1421    80.2183     2.3592     0.0231     0.2599     0.1841    11.5623     9.6781
  308.5000   -42.5109    15.0926    10.1772    80.4099     2.3629     0.0278     0.2609     0.1873    10.9466     9.6938
  309.0000   -42.4029    15.5496    10.1986    80.3881     2.3668     0.0281     0.2627     0.1880    10.7044     9.7102
  309.5000   -42.2873    15.2623    10.1984    79.6539     2.3633     0.0263     0.2617     0.1980    10.6956     9.7254
  310.0000   -42.1781    14.9108    10.1984    78.8934     2.3510     0.0230     0.2607     0.2079    10.6869     9.7396
  310.5000   -42.0673    14.7037    10.1984    78.1369     2.3366     0.0077     0.2648     0.2096    10.6782     9.7543
  311.0000   -41.9548    14.7954    10.1984    77.3736     2.3238    -0.0046     0.2691     0.2124    10.6694     9.6903
  311.5000   -41.8429    14.9494    10.1984    77.1099     2.3280     0.0039     0.2740     0.2180    10.6607     9.6277
  312.0000   -41.8055    15.1051    10.1984    77.2136     2.3192    -0.0006     0.2750     0.2177    10.6520     9.5641
  312.5000   -41.9235    15.2712    10.1983    77.4674     2.3102    -0.0106     0.2692     0.2068    10.6433     9.4990
  313.0000   -42.0179    15.2540    10.1992    77.7193     2.3166    -0.0073     0.2699     0.2013    10.6346     9.4340
  313.5000   -42.1200    14.8942    10.2121    77.9716     2.3303     0.0059     0.2660     0.1984    10.6259     9.3967
  314.0000   -42.2205    14.6028    10.2401    78.2234     2.3439     0.0193     0.2612     0.2024    10.6172     9.3995
  314.5000   -42.3187    14.4272    10.2372    78.4753     2.3489     0.0152     0.2612     0.2033    10.6085     9.4000
  315.0000   -42.4205    14.4403    10.2346    78.6082     2.3365     0.0052     0.2603     0.1889    10.5999     9.3990
  315.5000   -42.5218    14.7970    10.2321    78.6038     2.3477     0.0123     0.2566     0.1893    10.5912     9.3993
  316.0000   -42.5934    15.2408    10.2295    78.5366     2.3607     0.0274     0.2500     0.1869    10.5825     9.3993
  316.5000   -42.6587    14.9804    10.2269    78.4708     2.3601     0.0158     0.2500     0.1702    10.5738     9.3991
  317.0000   -42.8231    14.1655    10.2243    78.4042     2.3743     0.0226     0.2461     0.1682    10.5652     9.3991
  317.5000   -42.9788    14.2538    10.2218    78.3402     2.3932     0.0340     0.2401     0.1742    10.5561     9.3493
  318.0000   -43.1368    14.4321    10.2191    77.6696     2.3890     0.0222     0.2340     0.1522    10.5477     9.2879
  318.5000   -43.2939    14.1655    10.2184    76.4274     2.4166     0.0215     0.2294     0.1454    10.5397     9.2273
  319.0000   -43.4562    13.3949    10.2105    75.1863     2.4199     0.0335     0.2251     0.1423    10.5280     9.1673
  319.5000   -43.6054    13.6470    10.1850    73.9439     2.4355     0.0336     0.2212     0.1463    10.5102     9.1077
  320.0000   -43.7847    14.1655    10.1598    72.6972     2.4339     0.0300     0.2153     0.1408    10.5176     9.0600
  320.5000   -43.7522    17.7065    10.1375    71.3704     2.4344     0.0080     0.2141     0.1426    10.7764     9.4128
  321.0000   -43.6971    23.4061    10.1239    71.0852     2.4386     0.0106     0.2087     0.1451    11.1165     9.7215
  321.5000   -43.6339    31.0931    10.0814    71.0782     2.4341     0.0053     0.2002     0.1264    11.4674    10.0403
  322.0000   -43.5773    30.3390    10.0384    72.0537     2.4534     0.0152     0.1933     0.1191    11.8293    10.3696
  322.5000   -43.5178    29.3557    10.0652    73.9839     2.4780     0.0257     0.1963     0.1502    12.2027    10.7096
  323.0000   -43.4588    28.2165    10.1020    75.8895     2.4602    -0.0016     0.2143     0.1518    12.6663    10.4143
  323.5000   -43.3999    22.5596    10.1010    77.7944     2.4250    -0.0362     0.2313     0.1538    12.9047     9.9400
  324.0000   -43.3412    17.0504    10.0261    79.7024     2.4236    -0.0285     0.2444     0.1574    12.3320     9.4873
  324.5000   -43.2821    12.8840     9.9510    81.6119     2.4128    -0.0130     0.2557     0.1419    11.7942     9.0634
  325.0000   -43.2223    11.5173     9.9669    82.5949     2.4250     0.0176     0.2603     0.1475    11.2799     8.5555
  325.5000   -43.1669    11.5299    10.0146    83.4472     2.4358     0.0467     0.2589     0.1501    10.7881     8.5682
  326.0000   -43.1013    11.5746    10.0631    84.2982     2.4279     0.0483     0.2571     0.1666    10.3176     8.5266
  326.5000   -43.0490    11.5992    10.1115    85.1509     2.4107     0.0357     0.2588     0.1618     9.8677     8.4851
  327.0000   -43.0231    11.6339    10.1572    86.0039     2.3990     0.0334     0.2610     0.1566     9.4375     8.4444
  327.5000   -43.3093    11.6684    10.1584    86.8581     2.4133     0.0464     0.2614     0.1624     9.0259     8.4044
  328.0000   -43.5438    11.7016    10.1540    87.7143     2.4137     0.0428     0.2616     0.1725     8.6324     8.3651
  328.5000   -43.7997    11.7317    10.1496    88.5107     2.3851     0.0218     0.2631     0.1770     8.3999     8.3265
  329.0000   -44.0638    11.7560    10.1453    88.5282     2.3778     0.0051     0.2612     0.1786     8.4070     8.2878
  329.5000   -44.2260    11.6289    10.1410    88.3261     2.3753     0.0014     0.2598     0.1670     8.2530     8.2493
  330.0000   -44.2472    11.3169    10.1367    87.8717     2.3921     0.0131     0.2621     0.1596     8.1622     8.2109
  330.5000   -44.2859    11.0134    10.1325    87.4219     2.4104     0.0284     0.2590     0.1637     8.0721     8.1727
  331.0000   -44.3226    10.7180    10.1282    86.9707     2.4054     0.0205     0.2535     0.1662     7.9826     8.1347
