~VERSION INFORMATION
 VERS.                2.0:   CWLS LOG ASCII STANDARD - VERSION 2.0
 WRAP.                 NO:   ONE LINE PER DEPTH STEP
~WELL INFORMATION
#MNEM.UNIT      DATA TYPE    INFORMATION
#----------   ------------   ------------------------------
 STRT.F            3.0000:   START DEPTH
 STOP.F          600.0000:   STOP DEPTH
 STEP.F            0.5000:   STEP LENGTH
 NULL.          -999.2500:   NO VALUE
 COMP. FENIX & SCISSON INC:   COMPANY
 WELL.     NPR-3 #83SX4-4:   WELL
 FLD .             TEAPOT:   FIELD
 LOC .       S4 T38N R78W:   LOCATION
 CNTY.            NATRONA:   COUNTY
 STAT.            WYOMING:   STATE
 CTRY. UNITED STATES OF AMERICA:   COUNTRY
 SRVC.           BIRDWELL:   SERVICE COMPANY
 DATE.        02-AUG-1978:   LOGDATE
 API .       490251067700:   API NUMBER
~CURVE INFORMATION
#MNEM.UNIT       API CODE    CURVE DESCRIPTION
#----------   ------------   ------------------------------
 DEPT.F                  :   
 GRD .GAPI   45 310 01 00:   GAMMA RAY FROM DENSITY LOG
 CORR.G/C3   45 356 01 00:   DENSITY CORRECTION
 RHOB.G/C3   45 350 01 00:   BULK DENSITY
 DPHI.DEC    45 890 12 00:   DENSITY POROSITY SANDSTONE
 SPR .MV     05 010 01 00:   SPONTANEOUS POTENTIAL
 ILD .OHMM   05 120 46 00:   INDUCTION LOG DEEP
 SN  .OHMM   05 040 00 00:   SHORT NORMAL
~PARAMETER INFORMATION
#MNEM.UNIT          VALUE    DESCRIPTION
#----------   ------------   ------------------------------
 PD  .                 GL:   PERMANENT DATUM
 EPD .F              5204:   ELEVATION PERMANENT DATUM
 LMF .                 KB:   LOG MEASURED FROM
 DAPD.F                 4:   FEET ABOVE PERMANENT DATUM
 DMF .                 KB:   DRILLING MEASURED FROM
 EKB .F              5204:   KELLING BUSHING
 EGL .F              5200:   GROUND LEVEL
 DATE.        02-AUG-1978:   RUN DATE
 RUN .                  1:   RUN NUMBER
 DD  .F               590:   DEPTH DRILLER
 DL  .F               606:   DEPTH LOGGER
 BLI .F               590:   BOTTOM LOG INTERVAL
 TLI .F                30:   TOP LOG INTERVAL
 CS  .IN            8.625:   CASING SIZE
 CBD .F                40:   CASING BOTTOM DRILLER
 BS  .IN            7.875:   BIT SIZE
 BSD .F               590:   BIT SIZE AT DEPTH
 DFT .                KCL:   DRILLING FLUID TYPE
 DFD .                8.7:   DRILLING FLUID DENSITY
 DFV .                 32:   DRILLING FLUID VISCOSITY
 DFPH.                  9:   DRILLING FLUID PH
 DFL .                 12:   DRILLING FLUID LOSS
 MSS .           FLOWLINE:   MUD SAMPLE SOURCE
 RMS .OHMM             .4:   RESISTIVITY MUD SAMPLE
 MST .F                61:   MUD SAMPLE TEMPERATURE
 RMF .OHMM             .5:   RESISTIVITY MUD FILTRATE SAMPLE
 MFST.F                50:   MUD FILTRATE SAMPLE TEMPERATURE
 RMC .OHMM            .65:   RESISTIVITY MUD CAKE
 MCST.F                66:   MUD CAKE SAMPLE TEMPERATURE
 MFSS.               MEAS:   MUD FILTRATE SAMPLE SOURCE
 BHT .F                78:   BOTTOM HOLE TEMPERATURE
 TCS .HRS            0300:   TIME CURCULATED STOPPED
 MRT .F                78:   MAXIMUM RECORDED TEMPERATURE
 LUN .               3006:   LOGGING UNIT NUMBER
 LUL .               CASP:   LOGGING UNIT LOCATION
 ENGI.             MILLER:   RECORDING ENGINEER
 WITN.              AMEND:   WITNESSED BY
 CLNT.            A2DTECH:   CLIENT CODE
 ORIG.           5" PRINT:   ORIGIN OF DATA
 UWI .       490251067700:   UNIQUE WELL ID
 DICO. A2D Technologies, Inc.:   DIGITIZING COMPANY
~OTHER INFORMATION
~A    DEPT     GRD       CORR       RHOB       DPHI        SPR        ILD         SN   
# ...
  367.0000    75.0135     0.0665     2.4718     0.1276   -18.5493     5.2629     6.2938
  367.5000    74.1154     0.0724     2.4800     0.1248   -18.2388     5.3011     6.2102
  368.0000    75.4663     0.0890     2.5106     0.1177   -18.2246     5.3399     6.2557
  368.5000    74.7184     0.0693     2.5173     0.1057   -18.2129     5.3787     6.3525
  369.0000    72.9207     0.0468     2.5053     0.1084   -18.3533     5.5690     6.6615
  369.5000    71.5729     0.0392     2.5008     0.1093   -18.1894     6.0095     7.0902
  370.0000    71.4240     0.0406     2.5007     0.1093   -18.1777     6.6201     7.6510
  370.5000    73.6747     0.0406     2.5022     0.1091   -18.0168     7.0460     8.1995
  371.0000    75.4753     0.0420     2.5074     0.1076   -17.8558     7.2953     8.4901
  371.5000    75.1279     0.0419     2.5134     0.1028   -17.8441     7.5536     8.6113
  372.0000    74.4290     0.0418     2.5103     0.1058   -17.8324     7.6609     8.7945
  372.5000    74.7303     0.0403     2.5125     0.1034   -17.8207     7.7165     8.8588
  373.0000    75.7813     0.0387     2.5155     0.1007   -17.8090     7.7191     8.8624
  373.5000    77.8817     0.0356     2.5132     0.1004   -18.1234     7.7218     8.8660
  374.0000    79.2324     0.0356     2.5132     0.1010   -18.6811     7.6713     8.9309
  374.5000    79.5337     0.0355     2.5131     0.1019   -18.5172     7.6745     8.9346
  375.0000    80.0100     0.0354     2.5131     0.1031   -18.5055     7.6238     8.9383
  375.5000    81.6359     0.0338     2.5093     0.1047   -18.4938     7.5740     8.9427
  376.0000    83.1366     0.0338     2.5040     0.1077   -18.4821     7.5252     8.9463
  376.5000    83.5875     0.0352     2.5092     0.1107   -18.4704     7.5277     8.9499
  377.0000    81.7902     0.0351     2.5010     0.1137   -18.4587     7.5302     8.8912
  377.5000    80.2924     0.0365     2.5001     0.1086   -18.5992     7.5328     8.8957
  378.0000    78.9405     0.0365     2.5071     0.1089   -18.5845     7.5353     8.8993
  378.5000    78.4962     0.0349     2.5121     0.1053   -18.8713     7.5379     8.9029
  379.0000    81.7963     0.0348     2.5120     0.1044   -19.1582     7.5404     8.9065
  379.5000    83.5969     0.0317     2.5128     0.1025   -19.4449     7.5458     8.9102
  380.0000    82.2490     0.0287     2.5150     0.1035   -19.4328     7.5978     8.8526
  380.5000    80.3011     0.0241     2.5104     0.1137   -19.5708     7.6534     8.7955
  381.0000    83.1515     0.0210     2.4917     0.1149   -19.4098     7.6560     8.7990
  381.5000    84.2069     0.0225     2.4909     0.1155   -19.3952     7.6586     8.7422
  382.0000    83.9044     0.0224     2.4908     0.1170   -19.3835     7.6080     8.8070
  382.5000    81.0572     0.0238     2.4871     0.1188   -19.5239     7.5064     8.8715
  383.0000    77.7603     0.0254     2.4811     0.1207   -19.5093     7.3560     8.6937
  383.5000    76.5620     0.0296     2.4780     0.1225   -19.4976     7.1093     8.5194
  384.0000    78.5128     0.0326     2.4870     0.1204   -19.7873     6.9656     8.2914
  384.5000    75.5158     0.0325     2.4877     0.1180   -19.9224     6.9207     8.0141
  385.0000    73.7181     0.0339     2.4936     0.1159   -19.9103     6.9231     7.9070
  385.5000    73.7199     0.0368     2.4921     0.1195   -19.8985     6.8779     7.8020
  386.0000    74.4710     0.0412     2.4800     0.1228   -19.8866     6.8803     7.6991
  386.5000    77.6209     0.0427     2.4905     0.1183   -19.8746     6.7179     7.5970
  387.0000    82.7198     0.0351     2.4942     0.1114   -19.8605     6.3830     7.6001
  387.5000    82.8712     0.0290     2.4807     0.1202   -19.8488     6.1689     7.6076
  388.0000    83.7722     0.0245     2.4762     0.1276   -19.8371     5.9621     7.6063
  388.5000    86.6222     0.0214     2.4634     0.1348   -19.8254     5.8421     7.3527
  389.0000    85.7241     0.0213     2.4602     0.1420   -19.6644     5.7245     7.1559
  389.5000    85.5756     0.0213     2.4611     0.1525   -19.8049     5.7660     7.0125
  390.0000    85.1276     0.0212     2.4319     0.1612   -19.6439     5.7680     6.9194
  390.5000    83.3300     0.0226     2.4094     0.1687   -19.7815     5.7699     6.8275
  391.0000    79.1335     0.0330     2.4101     0.1671   -19.7669     5.7719     6.8775
  391.5000    72.5383     0.0464     2.4280     0.1469   -19.9045     5.8138     6.9278
  392.0000    62.4049     0.0388     2.4647     0.1247   -20.0497     5.9416     7.0752
  392.5000    58.7481     0.0373     2.5058     0.1070   -20.3287     6.2384     7.4275
  393.0000    60.3990     0.0372     2.5020     0.1074   -20.4663     6.6340     7.8512
  393.5000    63.0991     0.0386     2.5050     0.1065   -20.7531     7.0123     8.0736
  394.0000    62.6508     0.0386     2.5094     0.1050   -20.8906     7.2604     8.0770
  394.5000    64.0016     0.0385     2.5109     0.1035   -20.8760     7.3637     8.0803
  395.0000    67.6012     0.0384     2.5064     0.1082   -20.8643     7.1167     8.0280
  395.5000    67.6027     0.0368     2.4929     0.1155   -20.8526     6.8309     7.9222
  396.0000    66.7049     0.0353     2.4868     0.1152   -20.8409     6.4668     7.8703
  396.5000    64.6074     0.0337     2.4929     0.1170   -20.6799     6.1221     7.6604
  397.0000    62.9597     0.0321     2.4845     0.1242   -20.3697     5.7958     7.5587
  397.5000    63.4109     0.0320     2.4658     0.1323   -20.2088     5.5630     7.3060
  398.0000    67.9101     0.0320     2.4477     0.1467   -19.7493     5.3760     6.8699
  398.5000    74.0585     0.0334     2.4208     0.1581   -19.4249     5.2683     6.4598
  399.0000    77.5222     0.0423     2.3998     0.1676   -18.9791     5.1919     6.1161
  399.5000    77.9598     0.0826     2.4080     0.1491   -18.5172     5.1640     6.0349
  400.0000    65.0675     0.0496     2.4805     0.1147   -18.3495     5.2156     6.1634
  400.5000    63.7121     0.0540     2.4973     0.1129   -18.2308     5.3882     6.7896
  401.0000    65.3543     0.0555     2.5112     0.1048   -18.0351     5.7071     7.5307
  401.5000    71.9453     0.0509     2.5201     0.1015   -17.8741     6.1239     7.7435
  402.0000    73.1403     0.0419     2.5253     0.0985   -17.7130     6.7234     8.0728
  402.5000    71.3340     0.0388     2.5268     0.0950   -17.7012     7.2058     8.3010
  403.0000    70.2787     0.0403     2.5230     0.0953   -17.6895     7.4613     8.5356
  403.5000    70.7446     0.0387     2.5253     0.0959   -17.6776     7.6202     8.7768
  404.0000    71.3167     0.0372     2.5237     0.0968   -17.6657     7.6761     8.9015
  404.5000    71.1595     0.0356     2.5199     0.0986   -17.6537     7.7323     8.9660
  405.0000    68.7549     0.0325     2.5177     0.1019   -17.6418     7.7889     9.0311
  405.5000    61.4028     0.0310     2.5176     0.0992   -17.6275     7.8459     9.0342
  406.0000    60.0477     0.0309     2.5206     0.0980   -17.7680     7.9034     9.0373
  406.5000    62.1409     0.0309     2.5138     0.1034   -17.9054     7.9066     9.0410
  407.0000    66.6148     0.0308     2.5039     0.1082   -18.0429     7.9098     8.9812
  407.5000    75.3213     0.0308     2.5070     0.1088   -18.0281     7.9131     8.9234
  408.0000    77.8643     0.0307     2.5055     0.1103   -18.0163     7.8619     8.9264
  408.5000    77.4087     0.0306     2.5025     0.1106   -18.0045     7.8651     8.9294
  409.0000    77.2545     0.0306     2.4995     0.1109   -17.9928     7.8143     8.9941
  409.5000    78.5966     0.0350     2.5002     0.1107   -17.9810     7.8176     8.9972
  410.0000    80.6898     0.0409     2.5069     0.1071   -17.9692     7.8208     9.0002
  410.5000    75.7350     0.0424     2.5267     0.0981   -17.9574     7.8247     9.0033
  411.0000    72.8807     0.0423     2.5278     0.0933   -17.9456     7.7733     9.0063
  411.5000    72.4266     0.0423     2.5263     0.0942   -18.0830     7.8311     9.0094
  412.0000    73.1690     0.0407     2.5292     0.0942   -18.5190     7.8343     8.9506
