~VERSION INFORMATION
 VERS.                2.0:   CWLS LOG ASCII STANDARD - VERSION 2.0
 WRAP.                 NO:   ONE LINE PER DEPTH STEP
~WELL INFORMATION
#MNEM.UNIT      DATA TYPE    INFORMATION
#----------   ------------   ------------------------------
 STRT.F          534.0000:   START DEPTH
 STOP.F         1847.5000:   STOP DEPTH
 STEP.F            0.5000:   STEP LENGTH
 NULL.          -999.2500:   NO VALUE
 COMP. LAWRENCE/ALLISON INC:   COMPANY
 WELL.      18 SHX #18-27:   WELL
 FLD .             TEAPOT:   FIELD
 LOC .      S27 T39N R78W:   LOCATION
 CNTY.            NATRONA:   COUNTY
 STAT.            WYOMING:   STATE
 CTRY. UNITED STATES OF AMERICA:   COUNTRY
 SRVC.            Unknown:   SERVICE COMPANY
 DATE.        01-MAR-1985:   LOGDATE
 API .       490251102000:   API NUMBER
~CURVE INFORMATION
#MNEM.UNIT       API CODE    CURVE DESCRIPTION
#----------   ------------   ------------------------------
 DEPT.F                  :   
 ROP .MIN/FT 91 810 01 00:   RATE OF DRILLING PENETRATION
 TGAS.UNITS  91 830 01 00:   TOTAL GAS FROM HOTWIRE
~PARAMETER INFORMATION
#MNEM.UNIT          VALUE    DESCRIPTION
#----------   ------------   ------------------------------
 DATE.           3-1-1985:   RUN DATE
 DD  .F              1848:   DEPTH DRILLER
 DL  .F              1825:   DEPTH LOGGER
 TLI .F               535:   TOP LOG INTERVAL
 WITN.  ALBERT C. KRAVATZ:   WITNESSED BY
 CLNT.            A2DTECH:   CLIENT CODE
 ORIG.           5" PRINT:   ORIGIN OF DATA
 UWI .       490251102000:   UNIQUE WELL ID
 DICO. A2D Technologies, Inc.:   DIGITIZING COMPANY
~OTHER INFORMATION
~A   DEPT      ROP       TGAS   
# ...
 1749.0000     1.3771    12.9774
 1749.5000     1.3770    12.9721
 1750.0000     1.3770    12.9668
 1750.5000     1.3769    12.9616
 1751.0000     1.3768    12.9563
 1751.5000     1.3768    12.9510
 1752.0000     1.3767    12.9457
 1752.5000     1.3766    12.9404
 1753.0000     1.3766    12.9351
 1753.5000     1.3765    12.9298
 1754.0000     1.3764    12.9246
 1754.5000     1.3764    12.9193
 1755.0000     1.3763    12.9140
 1755.5000     1.3762    12.9087
 1756.0000     1.3762    12.9034
 1756.5000     1.3761    12.8981
 1757.0000     1.3760    12.8928
 1757.5000     1.3760    12.8875
 1758.0000     1.3759    12.8823
 1758.5000     1.3758    12.8770
 1759.0000     1.3758    12.8717
 1759.5000     1.3757    12.8664
 1760.0000     1.3756    12.8611
 1760.5000     1.3756    12.8558
 1761.0000     1.3755    12.8505
 1761.5000     1.3754    12.8453
 1762.0000     1.3754    12.8400
 1762.5000     1.3753    12.8347
 1763.0000     1.3752    12.8294
 1763.5000     1.3752    12.8241
 1764.0000     1.3751    12.8188
 1764.5000     1.3750    12.8135
 1765.0000     1.3750    12.8083
 1765.5000     1.3749    12.8030
 1766.0000     1.3748    12.7977
 1766.5000     1.3748    12.7924
 1767.0000     1.3747    12.7871
 1767.5000     1.3747    12.7818
 1768.0000     1.3746    12.7765
 1768.5000     1.3745    12.7712
 1769.0000     1.3745    12.7660
 1769.5000     1.3744    12.7607
 1770.0000     1.3743    12.7554
 1770.5000     1.3743    12.7501
 1771.0000     1.3742    12.7448
 1771.5000     1.3741    12.7395
 1772.0000     1.3741    12.7342
 1772.5000     1.3740    12.7290
 1773.0000     1.3739    12.7237
 1773.5000     1.3739    12.7184
 1774.0000     1.3738    12.7131
 1774.5000     1.3737    12.7078
 1775.0000     1.3737    12.7025
 1775.5000     1.3736    12.6972
 1776.0000     1.3735    12.6920
 1776.5000     1.3735    12.6867
 1777.0000     1.3734    12.6814
 1777.5000     1.3733    12.6761
 1778.0000     1.3733    12.6708
 1778.5000     1.3109    12.6655
 1779.0000     1.2301    12.6602
 1779.5000     1.1494    12.6550
 1780.0000     1.0686    12.6497
 1780.5000     1.0094    12.6444
 1781.0000     1.0090    12.6391
 1781.5000     1.0087    12.6338
 1782.0000     1.0083    12.6285
 1782.5000     1.0080    12.6232
 1783.0000     1.0076    12.6179
 1783.5000     1.0073    12.6127
 1784.0000     1.0069    12.6074
 1784.5000     1.0065    12.6021
 1785.0000     1.0062    12.5968
 1785.5000     1.0058    12.5915
 1786.0000     1.0055    12.5862
 1786.5000     1.0051    12.5809
 1787.0000     1.0048    12.5757
 1787.5000     1.0044    12.5704
 1788.0000     1.0041    12.5651
 1788.5000     1.0037    12.5598
 1789.0000     1.0034    12.5545
 1789.5000     1.0030    12.5492
 1790.0000     1.0027    12.5439
 1790.5000     1.0023    12.5387
 1791.0000     1.0020    12.5334
 1791.5000     1.0016    12.5281
 1792.0000     1.0013    12.5228
 1792.5000     1.0009    12.5175
 1793.0000     1.0006    12.5122
 1793.5000     1.0002    12.5069
 1794.0000     0.9998    12.5016
 1794.5000     0.9995    12.4964
 1795.0000     0.9991    12.4911
 1795.5000     0.9988    12.4858
 1796.0000     0.9984    12.4805
 1796.5000     0.9981    12.4752
 1797.0000     0.9977    12.4699
 1797.5000     0.9974    12.4646
 1798.0000     0.9970    12.4594
 1798.5000     0.9967    12.4541
 1799.0000     0.9963    12.4488
 1799.5000     0.9960    12.4435
 1800.0000     1.0257    12.4344
 1800.5000     1.1000    12.3820
 1801.0000     1.1743    12.3296
 1801.5000     1.2486    12.2772
 1802.0000     1.3126    12.2248
 1802.5000     1.3116    12.1724
 1803.0000     1.3106    12.1200
 1803.5000     1.3097    12.0676
 1804.0000     1.3087    12.0152
 1804.5000     1.3078    11.9628
 1805.0000     1.3069    11.9104
 1805.5000     1.3059    11.8580
 1806.0000     1.3050    11.8056
 1806.5000     1.3040    11.7532
 1807.0000     1.3031    11.7008
 1807.5000     1.3021    11.6484
 1808.0000     1.3012    11.5960
 1808.5000     1.3003    11.5436
 1809.0000     1.2993    11.4912
 1809.5000     1.2984    11.4388
 1810.0000     1.2974    11.3864
 1810.5000     1.2965    11.3340
 1811.0000     1.2955    11.2816
 1811.5000     1.2946    11.2292
 1812.0000     1.2937    11.1768
 1812.5000     1.2927    11.1244
 1813.0000     1.2918    11.0720
 1813.5000     1.2908    11.0196
 1814.0000     1.2899    10.9672
 1814.5000     1.2889    10.9148
 1815.0000     1.2880    10.8624
 1815.5000     1.2871    10.8100
 1816.0000     1.2861    10.7576
 1816.5000     1.2852    10.7052
 1817.0000     1.2842    10.6528
 1817.5000     1.2833    10.6004
 1818.0000     1.2823    10.5480
 1818.5000     1.2814    10.4956
 1819.0000     1.2805    10.4432
 1819.5000     1.2795    10.3908
 1820.0000     1.2786     8.3972
 1820.5000     1.2776     8.7012
 1821.0000     1.2767     9.0053
 1821.5000     1.2757     9.3093
 1822.0000     1.2748     9.6133
 1822.5000     1.2739     9.9173
 1823.0000     1.2729    10.2214
 1823.5000     1.2720    10.5254
 1824.0000     1.2710    10.8294
 1824.5000     1.2701    11.1335
 1825.0000     1.2691    11.4375
 1825.5000     1.2682    11.7415
 1826.0000     1.2673    12.0455
 1826.5000     1.2663    12.3496
 1827.0000     1.2654    12.6536
 1827.5000     1.2644    12.9576
 1828.0000     1.2635    13.2616
 1828.5000     1.2625    13.5657
 1829.0000     1.2616    13.8697
 1829.5000     1.2607    14.1737
 1830.0000     1.2739    14.4777
 1830.5000     1.3310    14.7818
 1831.0000     1.3880    15.0858
 1831.5000     1.4451    15.3898
 1832.0000     1.4939    15.6939
 1832.5000     1.4939    15.9979
 1833.0000     1.4939    16.3019
 1833.5000     1.4939    16.6059
 1834.0000     1.4939    16.9100
 1834.5000     1.4939    17.2140
 1835.0000     1.4939    17.5180
 1835.5000     1.4939    17.8220
 1836.0000     1.4939    18.1261
 1836.5000     1.4939    18.4301
 1837.0000     1.4939    18.7341
 1837.5000     1.4939    19.0381
 1838.0000     1.4939    19.3422
 1838.5000     1.4939    19.6462
 1839.0000     1.4939    19.9502
 1839.5000     1.4939    20.2542
 1840.0000     1.4939    20.5583
 1840.5000     1.4939    20.8623
 1841.0000     1.4939    21.1663
 1841.5000     1.4939    21.4704
 1842.0000     1.4939    21.7744
 1842.5000     1.4939    22.0784
 1843.0000     1.4939    22.3824
 1843.5000     1.4939    22.6865
 1844.0000     1.4939    22.9905
 1844.5000     1.4939    23.2945
 1845.0000     1.4939    23.5985
 1845.5000     1.4939    23.9026
 1846.0000  -999.2500    24.2066
 1846.5000  -999.2500    24.5106
 1847.0000  -999.2500    24.8146
 1847.5000  -999.2500    25.6573
