~VERSION INFORMATION
 VERS.                2.0:   CWLS LOG ASCII STANDARD - VERSION 2.0
 WRAP.                 NO:   ONE LINE PER DEPTH STEP
~WELL INFORMATION
#MNEM.UNIT      DATA TYPE    INFORMATION
#----------   ------------   ------------------------------
 STRT.F           30.0000:   START DEPTH
 STOP.F          715.0000:   STOP DEPTH
 STEP.F            0.5000:   STEP LENGTH
 NULL.          -999.2500:   NO VALUE
 COMP. FENIX & SCISSON INC:   COMPANY
 WELL.   NPR-3 #84SX15-15:   WELL
 FLD .             TEAPOT:   FIELD
 LOC .      S15 T38N R78W:   LOCATION
 CNTY.            NATRONA:   COUNTY
 STAT.            WYOMING:   STATE
 CTRY. UNITED STATES OF AMERICA:   COUNTRY
 SRVC.            Unknown:   SERVICE COMPANY
 DATE.        15-MAY-1978:   LOGDATE
 API .       490251064000:   API NUMBER
~CURVE INFORMATION
#MNEM.UNIT       API CODE    CURVE DESCRIPTION
#----------   ------------   ------------------------------
 DEPT.F                  :   
 SPR .MV     05 010 01 00:   SPONTANEOUS POTENTIAL FROM RES.
 SN  .OHMM   05 040 16 00:   SHORT NORMAL 16"
 ILD .OHMM   05 120 46 00:   INDUCTION LOG DEEP
 CALD.IN     45 280 60 00:   CALIPER FROM DENSITY LOG
 GRD .GAPI   45 310 01 00:   GAMMA RAY FROM DENSITY LOG
 CORR.G/C3   45 356 01 00:   DENSITY CORRECTION
 DPHI.DEC    45 890 12 00:   DENSITY POROSITY SANDSTONE
 DEN .G/C3   45 350 01 00:   COMPENSATED BULK DENSITY
~PARAMETER INFORMATION
#MNEM.UNIT          VALUE    DESCRIPTION
#----------   ------------   ------------------------------
 PD  .                 GL:   PERMANENT DATUM
 EPD .F              5247:   ELEVATION PERMANENT DATUM
 LMF .                 KB:   LOG MEASURED FROM
 DMF .                 KB:   DRILLING MEASURED FROM
 EKB .F              5251:   KELLING BUSHING
 EGL .F              5247:   GROUND LEVEL
 DATE.        15-MAY-1978:   RUN DATE
 RUN .                  1:   RUN NUMBER
 DD  .F               725:   DEPTH DRILLER
 DL  .F               720:   DEPTH LOGGER
 BLI .F               713:   BOTTOM LOG INTERVAL
 TLI .F                40:   TOP LOG INTERVAL
 CS  .IN            8.625:   CASING SIZE
 CBD .F                40:   CASING BOTTOM DRILLER
 CBL .F                40:   CASING BOTTOM LOGGER
 BS  .IN            7.875:   BIT SIZE
 BSD .F               725:   BIT SIZE AT DEPTH
 DFT .                KCL:   DRILLING FLUID TYPE
 DFD .                8.6:   DRILLING FLUID DENSITY
 DFV .                 33:   DRILLING FLUID VISCOSITY
 DFPH.                9.5:   DRILLING FLUID PH
 DFL .                 12:   DRILLING FLUID LOSS
 MSS .           FLOWLINE:   MUD SAMPLE SOURCE
 RMS .OHMM             .2:   RESISTIVITY MUD SAMPLE
 MST .F                80:   MUD SAMPLE TEMPERATURE
 RMF .OHMM            .18:   RESISTIVITY MUD FILTRATE SAMPLE
 MFST.F                83:   MUD FILTRATE SAMPLE TEMPERATURE
 RMC .OHMM            .26:   RESISTIVITY MUD CAKE
 MCST.F                83:   MUD CAKE SAMPLE TEMPERATURE
 MFSS.               MEAS:   MUD FILTRATE SAMPLE SOURCE
 RMB .OHMM             .2:   RESISTIVITY MUD AT BHT
 BHT .F                80:   BOTTOM HOLE TEMPERATURE
 TCS .HRS            0200:   TIME CURCULATED STOPPED
 MRT .F                80:   MAXIMUM RECORDED TEMPERATURE
 LUN .               3006:   LOGGING UNIT NUMBER
 LUL .               CASP:   LOGGING UNIT LOCATION
 ENGI.             MILLER:   RECORDING ENGINEER
 WITN.           MCGINLEY:   WITNESSED BY
 CLNT.            A2DTECH:   CLIENT CODE
 ORIG.           5" PRINT:   ORIGIN OF DATA
 UWI .       490251064000:   UNIQUE WELL ID
 DICO. A2D Technologies, Inc.:   DIGITIZING COMPANY
~OTHER INFORMATION
~A   DEPT      SPR         SN        ILD       CALD         GRD      CORR       DPHI        DEN   
# ...
  516.0000   -38.4423     5.5023     5.3775     7.7142    81.0699     0.0744     0.1573     2.4017
  516.5000   -38.1445     5.3514     5.3764     7.7443    89.3833     0.1060     0.0983     2.4438
  517.0000   -38.1475     5.2408     5.4179     7.9103    96.7439     0.0835     0.0893     2.5377
  517.5000   -38.3002     5.1681     5.6018     8.3029    96.8751     0.0564     0.0884     2.5354
  518.0000   -38.3040     5.2757     6.1699     7.6078    93.0556     0.0489     0.0944     2.5316
  518.5000   -38.3067     5.5750     6.7023     7.5775    80.2894     0.0429     0.0992     2.5286
  519.0000   -38.3097     6.3568     7.2806     7.6076    75.1836     0.0429     0.1020     2.5180
  519.5000   -38.3128     7.0995     7.8544     7.5772    75.9351     0.0429     0.1029     2.5060
  520.0000   -38.3158     7.6595     8.3570     7.5619    78.4938     0.0444     0.0932     2.5172
  520.5000   -38.3193     8.0383     8.6491     7.5618    81.9562     0.0504     0.0911     2.5284
  521.0000   -38.1720     8.1494     8.8898     7.5314    82.7080     0.0549     0.0956     2.5224
  521.5000   -37.1223     8.1481     8.9498     7.5010    82.5556     0.0549     0.0971     2.5171
  522.0000   -36.2231     8.2036     8.8861     7.4405    85.4155     0.0564     0.0971     2.5156
  522.5000   -35.6246     8.2594     8.8843     7.2591    86.1674     0.0609     0.0968     2.5140
  523.0000   -35.3261     8.4313     8.8824     7.2589    81.9487     0.0594     0.0968     2.5133
  523.5000   -35.0292     8.6117     9.0042     7.3796    76.9773     0.0534     0.1017     2.5131
  524.0000   -34.0993     8.8503     9.0653     7.5607    76.0725     0.0489     0.1170     2.5037
  524.5000   -33.1749     9.0956     9.2529     7.6814    78.7815     0.0429     0.1329     2.4795
  525.0000   -32.3058     9.2832     9.8450     7.7417    80.7378     0.0414     0.1461     2.4568
  525.5000   -31.8602     9.6084    10.6208     7.7566    80.7363     0.0414     0.1489     2.4470
  526.0000   -31.5650     9.9450    11.5373     7.7263    78.3252     0.0429     0.1467     2.4236
  526.5000   -30.6682    10.5092    12.6198     7.6808    64.4442     0.0654     0.1437     2.4319
  527.0000   -30.3729    11.1054    13.8038     7.6202    57.6021     0.0774     0.1440     2.4492
  527.5000   -30.2405    11.4153    14.8916     7.6201    51.0917     0.0639     0.1714     2.4319
  528.0000   -30.2436    11.5056    15.9544     7.6653    46.9577     0.0489     0.1909     2.4078
  528.5000   -30.0962    11.4120    16.5122     7.6802    45.7877     0.0414     0.2011     2.3800
  529.0000   -30.0992    11.4105    16.7396     7.7103    45.8505     0.0308     0.2015     2.3573
  529.5000   -29.8015    11.3303    16.2787     7.7403    48.3809     0.0233     0.1948     2.3476
  530.0000   -29.8045    11.3287    15.8313     7.7402    48.3233     0.0263     0.1987     2.3468
  530.5000   -29.5068    11.3271    15.5030     7.7400    47.3719     0.0353     0.1933     2.3499
  531.0000   -29.0587    11.3255    15.1816     7.7399    45.9067     0.0383     0.1807     2.3598
  531.5000   -28.6106    11.3239    14.8668     7.7246    45.9814     0.0429     0.1563     2.3719
  532.0000   -28.3128    11.4009    14.8637     7.7245    47.8097     0.0444     0.1512     2.3840
  532.5000   -28.0151    11.3208    14.8606     7.7394    54.0588     0.0474     0.1579     2.3955
  533.0000   -27.8677    11.1638    14.8575     7.7242    53.6051     0.0489     0.1741     2.3737
  533.5000   -27.7203    11.0853    14.8544     7.7240    53.4530     0.0474     0.1870     2.3736
  534.0000   -27.5729    10.9315    14.9551     7.6937    53.6025     0.0489     0.1696     2.3744
  534.5000   -27.4256    10.7799    14.8482     7.6784    54.2034     0.0549     0.1824     2.3864
  535.0000   -27.2782    10.7041    14.8451     7.6783    54.8043     0.0474     0.1924     2.3593
  535.5000   -27.1309    10.6289    14.8420     7.6781    54.0494     0.0368     0.1980     2.3510
  536.0000   -26.8331    10.4814    14.8389     7.6779    52.3913     0.0308     0.2038     2.3472
  536.5000   -26.8363    10.4800    14.8358     7.7080    51.1850     0.0308     0.1995     2.3464
  537.0000   -27.4408    10.4785    14.8334     7.7230    51.7859     0.0308     0.1843     2.3471
  537.5000   -28.6468    10.4771    14.8303     7.6775    51.9354     0.0368     0.1689     2.3599
  538.0000   -29.5521    10.4756    14.8272     7.6773    51.6323     0.0429     0.1649     2.3952
  538.5000   -29.8559    10.4741    14.8242     7.6621    50.5766     0.0308     0.1590     2.4102
  539.0000   -29.8589    10.4005    14.7081     7.6619    50.5751     0.0248     0.1565     2.4161
  539.5000   -29.8619    10.4716    14.6058     7.6618    52.9832     0.0233     0.1536     2.4169
  540.0000   -29.8649    10.4700    14.4041     7.6314    58.4034     0.0233     0.1551     2.4191
  540.5000   -29.8679    10.4686    14.1120     7.6312    57.9501     0.0233     0.1633     2.4160
  541.0000   -29.8469    10.4671    13.9127     7.6160    56.7438     0.0218     0.1699     2.4062
  541.5000   -29.8140    10.4658    13.8165     7.6158    55.9892     0.0188     0.1690     2.3972
  542.0000   -29.7811    10.5369    13.7185     7.6157    54.7829     0.0203     0.1717     2.3889
  542.5000   -29.7481    10.5354    13.8108     7.6609    54.1790     0.0233     0.1820     2.3799
  543.0000   -29.7152    10.5340    13.9037     7.6758    55.3823     0.0248     0.1859     2.3738
  543.5000   -29.6823    10.5325    13.9974     7.6606    58.8447     0.0308     0.1846     2.3708
  544.0000   -29.6493    10.5310    13.9944     7.6151    57.3372     0.0398     0.1813     2.3715
  544.5000   -29.6164    10.5296    13.7993     7.6149    55.5284     0.0489     0.1729     2.3850
  545.0000   -29.5939    10.4556    13.5132     7.6148    55.3763     0.0429     0.1690     2.3895
  545.5000   -29.5970    10.4541    13.2330     7.6146    55.8266     0.0308     0.1654     2.3910
  546.0000   -30.1312    10.4526    13.0485     7.6145    55.9761     0.0293     0.1705     2.3939
  546.5000   -32.9288    10.4512    13.0458     7.5992    57.0285     0.0353     0.1666     2.3939
  547.0000   -33.0647    10.4497    13.0431     7.5991    61.2438     0.0308     0.1774     2.3946
  547.5000   -32.9172    10.4483    12.9505     7.5989    61.9957     0.0248     0.1804     2.3886
  548.0000   -32.6195    10.4468    13.0383     7.5686    61.3914     0.0173     0.1780     2.3750
  548.5000   -32.7805    10.5179    13.0349     7.5836    60.7875     0.0128     0.1738     2.3765
  549.0000   -33.0818    10.4439    13.0322     7.5985    60.1836     0.0113     0.1750     2.3795
  549.5000   -33.5333    10.4425    13.0295     7.5681    60.3331     0.0113     0.1702     2.3832
  550.0000   -33.8346    10.4388    13.0357     7.5670    60.8181     0.0113     0.1721     2.3914
  550.5000   -33.9614    10.4236    13.0850     7.5612    61.0271     0.0113     0.1739     2.3940
  551.0000   -34.0881    10.4084    13.1343     7.5553    61.2320     0.0112     0.1716     2.3914
  551.5000   -34.2149    10.3931    13.1836     7.5524    60.6281     0.0142     0.1656     2.3846
  552.0000   -34.4485    10.3779    13.1979     7.5523    60.3013     0.0172     0.1567     2.3876
  552.5000   -34.4511    10.3627    13.1945     7.5672    60.4741     0.0186     0.1610     2.4063
  553.0000   -34.4541    10.4242    13.2833     7.5499    61.0750     0.0171     0.1687     2.4033
  553.5000   -34.4571    10.4206    13.2806     7.4914    62.4289     0.0141     0.1696     2.3987
  554.0000   -34.4601    10.4177    13.2778     7.4761    63.4817     0.0171     0.1675     2.3972
  554.5000   -34.4632    10.4149    13.1836     7.4911    63.6312     0.0230     0.1700     2.3964
  555.0000   -34.4662    10.4120    13.1809     7.5211    63.0269     0.0245     0.1712     2.3964
  555.5000   -34.4692    10.4091    13.1782     7.5814    61.8206     0.0290     0.1631     2.3979
  556.0000   -34.9233    10.4063    13.3589     7.6266    61.5179     0.0305     0.1610     2.3986
