~VERSION INFORMATION
 VERS.                2.0:   CWLS LOG ASCII STANDARD - VERSION 2.0
 WRAP.                 NO:   ONE LINE PER DEPTH STEP
~WELL INFORMATION
#MNEM.UNIT      DATA TYPE    INFORMATION
#----------   ------------   ------------------------------
 STRT.F           95.0000:   START DEPTH
 STOP.F          922.0000:   STOP DEPTH
 STEP.F            0.5000:   STEP LENGTH
 NULL.          -999.2500:   NO VALUE
 COMP.          U.S. NAVY:   COMPANY
 WELL. RES 3 TEAPOT DOM #57S-11:   WELL
 FLD .             TEAPOT:   FIELD
 LOC .      S11 T38N R78W:   LOCATION
 CNTY.            NATRONA:   COUNTY
 STAT.            WYOMING:   STATE
 CTRY. UNITED STATES OF AMERICA:   COUNTRY
 SRVC.       Schlumberger:   SERVICE COMPANY
 DATE.        02-AUG-1961:   LOGDATE
 API .       490250632800:   API NUMBER
~CURVE INFORMATION
#MNEM.UNIT       API CODE    CURVE DESCRIPTION
#----------   ------------   ------------------------------
 DEPT.F                  :   
 GR  .GAPI   30 310 01 00:   GAMMA RAY
 SPR .MV     05 010 01 00:   SPONTANEOUS POTENTIAL FROM RES.
 CILD.MMHO   05 110 46 00:   CONDUCTIVITY INDUCTION LOG DEEP
 ASN .OHMM   05 041 16 00:   AMPLIFIED SHORT NORMAL 16"
 ILD .OHMM   05 120 46 00:   INDUCTION LOG DEEP
~PARAMETER INFORMATION
#MNEM.UNIT          VALUE    DESCRIPTION
#----------   ------------   ------------------------------
 PD  .                 GL:   PERMANENT DATUM
 EPD .F              5213:   ELEVATION PERMANENT DATUM
 LMF .                 KB:   LOG MEASURED FROM
 DAPD.F                 6:   FEET ABOVE PERMANENT DATUM
 DMF .                 KB:   DRILLING MEASURED FROM
 EKB .F              5219:   KELLING BUSHING
 EGL .F              5213:   GROUND LEVEL
 DATE.             8-2-61:   RUN DATE
 RUN .                  1:   RUN NUMBER
 DD  .F               920:   DEPTH DRILLER
 DL  .F               921:   DEPTH LOGGER
 BLI .F               920:   BOTTOM LOG INTERVAL
 TLI .F               100:   TOP LOG INTERVAL
 BS  .IN             6.75:   BIT SIZE
 BSD .F               920:   BIT SIZE AT DEPTH
 DFT .       OIL EMULSION:   DRILLING FLUID TYPE
 DFD .                9.2:   DRILLING FLUID DENSITY
 DFV .                 55:   DRILLING FLUID VISCOSITY
 MFSS.                  M:   MUD FILTRATE SAMPLE SOURCE
 MCSS.                  M:   MUD CAKE SAMPLE SOURCE
 RMB .OHMM            .75:   RESISTIVITY MUD AT BHT
 BHT .F                80:   BOTTOM HOLE TEMPERATURE
 TCS .HRS               1:   TIME CURCULATED STOPPED
 MRT .F                80:   MAXIMUM RECORDED TEMPERATURE
 LUN .               2552:   LOGGING UNIT NUMBER
 LUL .                RIV:   LOGGING UNIT LOCATION
 ENGI.             RANDLE:   RECORDING ENGINEER
 WITN.          VORGENSEN:   WITNESSED BY
 CLNT.            A2DTECH:   CLIENT CODE
 ORIG.       2", 5" PRINT:   ORIGIN OF DATA
 UWI .       490250632800:   UNIQUE WELL ID
 DICO. A2D Technologies, Inc.:   DIGITIZING COMPANY
~OTHER INFORMATION
~A   DEPT       GR        SPR       CILD        ASN        ILD   
# ...
  583.0000  -999.2500   -45.6999   130.8784     8.9769     7.2811
  583.5000  -999.2500   -45.7007   129.0908     8.9849     7.3189
  584.0000  -999.2500   -45.7001   126.8806     9.0588     7.3636
  584.5000  -999.2500   -45.7004   126.4311     9.1858     7.4037
  585.0000  -999.2500   -45.7000   125.8422     9.2879     7.4465
  585.5000  -999.2500   -45.7005   125.2534     9.4342     7.4874
  586.0000  -999.2500   -45.6978   124.9738     9.5789     7.5304
  586.5000  -999.2500   -45.6723   125.2519     9.5950     7.5661
  587.0000  -999.2500   -45.6441   125.5299     9.5514     7.5322
  587.5000  -999.2500   -45.6166   125.8080     9.4859     7.4855
  588.0000  -999.2500   -45.5890   126.7603     9.3867     7.4428
  588.5000  -999.2500   -45.5613   127.9379     9.2885     7.3964
  589.0000  -999.2500   -45.5333   129.1156     9.2650     7.3550
  589.5000  -999.2500   -45.5072   130.2708     9.2339     7.3042
  590.0000  -999.2500   -45.5732   131.3830     9.2722     7.2906
  590.5000  -999.2500   -45.6910   130.5466     9.3312     7.4527
  591.0000  -999.2500   -45.6727   128.1207     9.3955     7.6124
  591.5000  -999.2500   -45.6085   125.8457     9.4753     7.7744
  592.0000  -999.2500   -45.5535   123.8716     9.5553     7.9303
  592.5000  -999.2500   -45.4974   120.6333     9.7114     8.0989
  593.0000  -999.2500   -45.4364   117.7733     9.7792     8.4118
  593.5000  -999.2500   -45.3885   114.9133    10.1213     8.7133
  594.0000  -999.2500   -45.3126   111.8355    10.8749     9.0133
  594.5000  -999.2500   -45.3927   107.8422    10.9338     9.3035
  595.0000  -999.2500   -45.5871   103.5197    11.0880     9.7260
  595.5000  -999.2500   -45.7926    99.1971    11.2021    10.1073
  596.0000  -999.2500   -45.8808    94.8746    11.3380    10.5418
  596.5000  -999.2500   -45.7646    91.5707    11.4643    10.8662
  597.0000  -999.2500   -45.6776    89.3014    11.5899    11.0107
  597.5000  -999.2500   -45.5746    87.0370    11.7199    11.2174
  598.0000  -999.2500   -45.4806    84.7729    11.8446    11.3715
  598.5000  -999.2500   -45.3811    82.7493    11.8910    11.6238
  599.0000  -999.2500   -45.2850    83.3137    11.8953    11.7663
  599.5000  -999.2500   -45.1851    83.8209    12.1057    11.6223
  600.0000  -999.2500   -45.1038    84.3249    12.3768    11.5136
  600.5000  -999.2500   -45.0998    84.7543    12.4314    11.3876
  601.0000  -999.2500   -45.0972    87.0340    12.2597    11.2640
  601.5000  -999.2500   -45.1031    89.1032    12.1210    11.1174
  602.0000  -999.2500   -45.0908    91.1723    11.9857    10.9317
  602.5000  -999.2500   -45.2076    92.6655    11.9228    10.7443
  603.0000  -999.2500   -45.4252    93.9218    11.8635    10.6136
  603.5000  -999.2500   -45.5056    94.7843    11.8060    10.5091
  604.0000  -999.2500   -45.4982    94.7843    11.7472    10.4097
  604.5000  -999.2500   -45.5030    94.7843    11.6888    10.3810
  605.0000  -999.2500   -45.4981    94.7843    11.6594    10.3987
  605.5000  -999.2500   -45.5059    94.7843    11.6330    10.4088
  606.0000  -999.2500   -45.4534    94.7843    11.6060    10.4235
  606.5000  -999.2500   -45.3460    94.7843    11.5784    10.4346
  607.0000  -999.2500   -45.2488    94.7843    11.5524    10.4497
  607.5000  -999.2500   -45.1463    94.7843    11.5231    10.4587
  608.0000  -999.2500   -45.0473    95.3561    11.5007    10.4795
  608.5000  -999.2500   -44.9454    96.4329    11.4398    10.4449
  609.0000  -999.2500   -44.8471    97.5097    11.3431    10.3343
  609.5000  -999.2500   -44.7431    98.5865    11.2542    10.2179
  610.0000  -999.2500   -44.6491    99.6633    11.1613    10.1219
  610.5000  -999.2500   -44.5366   100.7401    11.0781     9.9655
  611.0000  -999.2500   -44.5456   101.8169    10.9877     9.7700
  611.5000  -999.2500   -44.6642   102.8937    10.9042     9.5991
  612.0000  -999.2500   -44.7607   103.8114    10.8200     9.4288
  612.5000  -999.2500   -44.8698   105.8175    10.7368     9.3196
  613.0000  -999.2500   -44.9694   107.7432    10.6521     9.2301
  613.5000  -999.2500   -45.0838   108.5306    10.5744     9.1479
  614.0000  -999.2500   -44.9813   107.8235    10.4274     9.0637
  614.5000  -999.2500   -44.8060   109.2062    10.2624     8.9795
  615.0000  -999.2500   -44.6383   110.4026    10.0797     8.8899
  615.5000  -999.2500   -44.5052   111.5991    10.0166     8.8535
  616.0000  -999.2500   -44.4827   112.8308    10.0024     8.8127
  616.5000  -999.2500   -44.4573   112.9407     9.9760     8.7718
  617.0000  -999.2500   -44.4342   113.0606     9.9466     8.7313
  617.5000  -999.2500   -44.4104   113.1839     9.9159     8.6900
  618.0000  -999.2500   -44.3860   113.3065     9.8842     8.6502
  618.5000  -999.2500   -44.3634   113.4254     9.8914     8.6072
  619.0000  -999.2500   -44.3374   113.5436     9.9140     8.5807
  619.5000  -999.2500   -44.3177   113.6524     9.9108     8.6282
  620.0000  -999.2500   -44.2455   113.7692     9.8919     8.6831
  620.5000  -999.2500   -44.0879   113.5034     9.8733     8.7393
  621.0000  -999.2500   -43.9483   112.6167     9.8659     8.7905
  621.5000  -999.2500   -43.7763   111.7299     9.9148     8.8515
  622.0000  -999.2500   -43.7274   110.8325     9.9208     8.8945
  622.5000  -999.2500   -43.8390   111.3290     9.9021     8.9729
  623.0000  -999.2500   -43.9280   111.8355     9.8798     8.7961
  623.5000  -999.2500   -44.0307   113.9367     9.7661     8.3678
  624.0000  -999.2500   -44.1234   119.4610     9.6184     8.0705
  624.5000  -999.2500   -44.2270   124.0807     9.4697     7.8159
  625.0000  -999.2500   -44.2898   127.6209     9.1788     7.5747
  625.5000  -999.2500   -44.2020   130.4460     8.9138     7.3550
  626.0000  -999.2500   -44.1002   133.2785     8.6239     7.1346
  626.5000  -999.2500   -44.0003   135.5675     8.5043     6.8844
  627.0000  -999.2500   -43.8997   137.0556     8.4799     6.7915
  627.5000  -999.2500   -43.7994   138.2075     8.5295     6.9042
  628.0000  -999.2500   -43.6989   138.9167     8.6514     6.9852
  628.5000  -999.2500   -43.5983   136.9107     8.8007     7.0827
  629.0000  -999.2500   -43.4982   134.7328     8.8241     7.1713
  629.5000  -999.2500   -43.3973   132.9381     8.8281     7.2644
  630.0000  -999.2500   -43.2981   131.5446     8.8395     7.3617
  630.5000  -999.2500   -43.1952   130.7071     8.8826     7.4064
  631.0000  -999.2500   -43.1097   129.8897     8.9162     7.4449
  631.5000  -999.2500   -43.1345   129.1546     8.9254     7.4855
  632.0000  -999.2500   -43.1722   128.4367     8.9318     7.5255
  632.5000  -999.2500   -43.2077   127.7189     8.9628     7.5711
  633.0000  -999.2500   -43.2439   126.8806     9.0512     7.6554
  633.5000  -999.2500   -43.2808   125.4865     9.1483     7.7559
  634.0000  -999.2500   -43.3087   123.8114     9.2640     7.8595
  634.5000  -999.2500   -43.3585   122.1364     9.3876     7.9565
  635.0000  -999.2500   -43.4077   120.4614     9.4989     8.0502
  635.5000  -999.2500   -43.4559   118.7864     9.5949     8.2100
  636.0000  -999.2500   -43.4847   117.8536     9.6639     8.2839
  636.5000  -999.2500   -43.2227   117.8536     9.7243     8.3024
  637.0000  -999.2500   -42.9156   117.8536     9.7452     8.3274
  637.5000  -999.2500   -42.9213   117.8536     9.7786     8.3511
  638.0000  -999.2500   -43.0987   117.8536     9.7233     8.3621
  638.5000  -999.2500   -43.0516   118.4392     9.5848     8.2067
  639.0000  -999.2500   -42.9206   119.3366     9.4640     7.9743
  639.5000  -999.2500   -42.7259   120.2339     9.3979     7.8588
  640.0000  -999.2500   -42.7851   121.1312     9.3833     7.8568
  640.5000  -999.2500   -42.9282   122.0286     9.4045     7.8374
  641.0000  -999.2500   -42.6506   122.8686     9.4206     7.8262
  641.5000  -999.2500   -42.4217   122.8686     9.4164     7.8113
  642.0000  -999.2500   -42.2835   122.8686     9.4209     7.7970
  642.5000  -999.2500   -42.3069   123.1630     9.4025     7.7853
  643.0000  -999.2500   -42.2957   124.2554     9.3722     7.7445
  643.5000  -999.2500   -42.3016   125.3478     9.3296     7.6459
