~VERSION INFORMATION
 VERS.                2.0:   CWLS LOG ASCII STANDARD - VERSION 2.0
 WRAP.                 NO:   ONE LINE PER DEPTH STEP
~WELL INFORMATION
#MNEM.UNIT      DATA TYPE    INFORMATION
#----------   ------------   ------------------------------
 STRT.F            0.0000:   START DEPTH
 STOP.F          528.0000:   STOP DEPTH
 STEP.F            0.5000:   STEP LENGTH
 NULL.          -999.2500:   NO VALUE
 COMP.   FLUOR DANIEL INC:   COMPANY
 WELL. NAVAL PETROLEUM RESERVE 3 SX-3 53 #2-3:   WELL
 FLD .             TEAPOT:   FIELD
 LOC .       S3 T38N R78W:   LOCATION
 CNTY.            NATRONA:   COUNTY
 STAT.            WYOMING:   STATE
 CTRY. UNITED STATES OF AMERICA:   COUNTRY
 SRVC.      Western Atlas:   SERVICE COMPANY
 DATE.        06-JUL-1995:   LOGDATE
 API .       490252273900:   API NUMBER
~CURVE INFORMATION
#MNEM.UNIT       API CODE    CURVE DESCRIPTION
#----------   ------------   ------------------------------
 DEPT.F                  :   
 GRR .GAPI   07 310 01 00:   GAMMA RAY FROM RES. LOG.
 RILD.OHMM   07 120 46 00:   INDUCTION LOG DEEP RESISTIVITY
 RILM.OHMM   07 120 44 00:   INDUCTION LOG MEDIUM
~PARAMETER INFORMATION
#MNEM.UNIT          VALUE    DESCRIPTION
#----------   ------------   ------------------------------
 PD  .                 GL:   PERMANENT DATUM
 EPD .F              5146:   ELEVATION PERMANENT DATUM
 LMF .                 KB:   LOG MEASURED FROM
 DAPD.F                10:   FEET ABOVE PERMANENT DATUM
 DMF .                 KB:   DRILLING MEASURED FROM
 EKB .F              5156:   KELLING BUSHING
 EDF .F              5155:   DRILLING FLOOR
 EGL .F              5146:   GROUND LEVEL
 DATE.             7-6-95:   RUN DATE
 RUN .                  1:   RUN NUMBER
 DD  .F               535:   DEPTH DRILLER
 DL  .F               536:   DEPTH LOGGER
 BLI .F               528:   BOTTOM LOG INTERVAL
 TLI .F                53:   TOP LOG INTERVAL
 CS  .IN            9.625:   CASING SIZE
 CBD .F                52:   CASING BOTTOM DRILLER
 CBL .F                53:   CASING BOTTOM LOGGER
 BS  .IN             8.75:   BIT SIZE
 BSD .F               535:   BIT SIZE AT DEPTH
 DFT .                AIR:   DRILLING FLUID TYPE
 BHT .F               102:   BOTTOM HOLE TEMPERATURE
 MRT .F               102:   MAXIMUM RECORDED TEMPERATURE
 LUN .            HL 6530:   LOGGING UNIT NUMBER
 LUL .             CASPER:   LOGGING UNIT LOCATION
 ENGI.             RAUTIO:   RECORDING ENGINEER
 WITN.             STRONG:   WITNESSED BY
 CLNT.            A2DTECH:   CLIENT CODE
 ORIG. 2", 2.5", 5" PRINT:   ORIGIN OF DATA
 UWI .       490252273900:   UNIQUE WELL ID
 DICO. A2D Technologies, Inc.:   DIGITIZING COMPANY
~OTHER INFORMATION
~A    DEPT      GRR      RILD       RILM   
# ...
   91.0000   144.0748     8.4242     8.3396
   91.5000   142.2210     8.4482     8.3096
   92.0000   143.0772     8.4734     8.2698
   92.5000   142.4949     8.4998     8.3324
   93.0000   140.6121     8.5567     8.4306
   93.5000   140.6422     8.6384     8.5300
   94.0000   140.8266     8.7203     8.6305
   94.5000   140.0171     8.8028     8.7323
   95.0000   135.7734     8.8862     8.8355
   95.5000   132.9237     8.9704     8.9388
   96.0000   132.2935     9.0553     9.0000
   96.5000   132.1355     9.1411     9.0210
   97.0000   132.2620     9.2403     9.0427
   97.5000   132.3965     9.2245     9.0689
   98.0000   131.8088     9.2062     9.0450
   98.5000   131.2243     9.1876     9.0077
   99.0000   132.7319     9.1690     8.9707
   99.5000   134.6102     9.1450     8.9338
  100.0000   135.3995     9.1034     8.8971
  100.5000   135.8484     9.0620     8.8605
  101.0000   135.3433     9.0208     8.8228
  101.5000   133.9993     8.9624     8.7321
  102.0000   132.6441     8.8310     8.6391
  102.5000   131.2785     8.7015     8.5470
  103.0000   130.6122     8.5739     8.4559
  103.5000   131.0713     8.4482     8.3659
  104.0000   133.8971     8.3244     8.2767
  104.5000   138.1092     8.2022     8.1885
  105.0000   140.8863     8.0815     8.1013
  105.5000   140.8775     7.9697     8.0150
  106.0000   139.3786     8.0176     7.9695
  106.5000   135.9814     8.0636     8.0461
  107.0000   131.8929     8.1099     8.0986
  107.5000   129.5386     8.1565     8.1514
  108.0000   130.1014     8.2105     8.1937
  108.5000   134.1844     8.2929     8.2712
  109.0000   135.1234     8.3762     8.3486
  109.5000   131.9678     8.4602     8.4267
  110.0000   129.3314     8.5452     8.5055
  110.5000   127.9771     8.6309     8.5851
  111.0000   126.8674     8.7176     8.6654
  111.5000   126.3273     8.8051     8.7464
  112.0000   128.5124     8.8934     8.8228
  112.5000   133.3059     8.9555     8.8442
  113.0000   136.2881     9.0139     8.8644
  113.5000   136.0787     9.0728     8.8845
  114.0000   133.5934     9.1553     8.9047
  114.5000   131.9917     9.1258     8.9250
  115.0000   134.2235     9.0775     8.9453
  115.5000   135.5717     9.0295     8.9656
  116.0000   132.3559     8.9818     8.9860
  116.5000   131.7343     8.9343     9.0065
  117.0000   132.7395     8.8871     9.0270
  117.5000   134.4868     8.8401     9.0475
  118.0000   136.2158     8.7933     9.0677
  118.5000   137.9283     8.7416     9.0929
  119.0000   136.2451     8.8105     9.1184
  119.5000   131.2748     8.8886     9.1440
  120.0000   127.0920     8.9676     9.1878
  120.5000   130.0118     9.0471     9.2459
  121.0000   133.5945     9.1274     9.3076
  121.5000   131.9893     9.2788     9.5089
  122.0000   128.1705     9.4705     9.7207
  122.5000   126.9013     9.6661     9.9499
  123.0000   127.4120     9.8659    10.1304
  123.5000   126.7446    10.0684    10.3256
  124.0000   123.8103    10.2320    10.5245
  124.5000   121.4911    10.4933    10.7155
  125.0000   123.9236    10.7545    10.9984
  125.5000   128.2466    11.0221    11.2743
  126.0000   128.2419    11.2964    11.5561
  126.5000   126.7467    11.5775    11.8450
  127.0000   125.5798    11.8656    12.1404
  127.5000   125.6388    12.1368    12.4048
  128.0000   124.9988    12.4002    12.6248
  128.5000   120.9855    12.6693    12.8487
  129.0000   117.9593    13.0102    13.1310
  129.5000   117.6478    12.9958    13.1101
  130.0000   117.7969    12.9770    13.0733
  130.5000   117.9671    12.9583    13.0367
  131.0000   118.1345    12.9396    13.0102
  131.5000   118.3074    12.9209    12.8525
  132.0000   118.3468    12.9026    12.7083
  132.5000   118.3473    12.8353    12.5658
  133.0000   118.3453    12.6870    12.4249
  133.5000   118.3355    12.5401    12.2855
  134.0000   118.4068    12.3949    12.1477
  134.5000   119.7709    12.2515    12.0115
  135.0000   121.1099    12.1097    11.8768
  135.5000   120.9112    11.9696    11.7436
  136.0000   119.4809    11.8311    11.6119
  136.5000   117.3027    11.7455    11.5365
  137.0000   115.1077    11.7303    11.5362
  137.5000   112.8598    11.7152    11.5364
  138.0000   114.1596    11.7001    11.5365
  138.5000   120.2763    11.6850    11.5366
  139.0000   123.4540    11.6703    11.5364
  139.5000   121.4009    11.6550    11.5382
  140.0000   119.1388    11.6140    11.4912
  140.5000   116.9915    11.4971    11.4194
  141.0000   117.2259    11.3813    11.3485
  141.5000   117.7915    11.2667    11.2781
  142.0000   119.1742    11.1532    11.2081
  142.5000   120.7699    11.0407    11.1386
  143.0000   121.7572    10.9297    11.0695
  143.5000   119.6375    10.8475    11.0008
  144.0000   116.3533    10.7705    10.9326
  144.5000   113.0227    10.6941    10.8647
  145.0000   112.2194    10.6182    10.7973
  145.5000   113.2496    10.5428    10.7303
  146.0000   117.0521    10.4680    10.6634
  146.5000   120.0652    10.3937    10.5933
  147.0000   117.9313    10.3200    10.5086
  147.5000   116.0504    10.2467    10.4255
  148.0000   117.4048    10.1740    10.3429
  148.5000   117.6151    10.1018    10.2610
  149.0000   115.7922    10.0301    10.1797
  149.5000   114.0254     9.9499    10.0423
  150.0000   114.5488     9.9643    10.1067
  150.5000   120.7557     9.9857    10.1580
  151.0000   123.5700    10.0071    10.2097
  151.5000   121.1025    10.0286    10.2616
  152.0000   115.9638    10.0501    10.3138
  152.5000   110.7101    10.0717    10.3662
  153.0000   105.9477    10.0933    10.4207
  153.5000   103.4389    10.1150    10.3516
  154.0000   104.9260    10.1356    10.2804
  154.5000   111.1265    10.0625    10.2098
  155.0000   117.7320     9.9933    10.1356
  155.5000   121.5519     9.8275     9.9192
  156.0000   118.4906     9.5028     9.6391
  156.5000   113.5566     9.1882     9.3662
  157.0000   111.1441     8.8840     9.1011
  157.5000   114.4140     8.5901     8.8436
  158.0000   119.8218     8.3059     8.5934
  158.5000   122.8297     8.0435     8.3502
  159.0000   123.9699     8.1047     8.1768
  159.5000   123.1956     8.1636     8.1410
  160.0000   120.7558     8.2229     8.1053
  160.5000   118.1557     8.2827     8.0698
  161.0000   116.3270     8.3429     8.0435
  161.5000   116.6467     8.4035     8.1315
  162.0000   120.2262     8.4646     8.2159
  162.5000   123.9024     8.5261     8.3008
  163.0000   124.2186     8.5880     8.3865
  163.5000   120.4143     8.6505     8.4731
  164.0000   116.2321     8.7130     8.5605
  164.5000   113.0258     8.7766     8.6489
  165.0000   114.7099     8.8397     8.7379
  165.5000   117.3686     8.9035     8.8234
  166.0000   120.0557     8.9677     8.9214
  166.5000   122.7182     9.0324     9.0158
  167.0000   124.7183     9.0976     9.1109
  167.5000   125.5238     9.1632     9.2070
  168.0000   126.3614     9.2295     9.3041
  168.5000   127.1596     9.2955     9.4023
  169.0000   125.2720     9.3382     9.5016
  169.5000   123.1679     9.3699     9.6017
  170.0000   121.0461     9.4128     9.6776
  170.5000   121.0382     9.4017     9.5946
  171.0000   124.9065     9.3851     9.5287
  171.5000   129.8614     9.3687     9.4632
  172.0000   130.7676     9.3523     9.3982
  172.5000   129.8596     9.3359     9.3334
  173.0000   128.3622     9.3195     9.2698
  173.5000   126.8521     9.3032     9.2408
  174.0000   126.1045     9.2869     9.2518
  174.5000   126.4979     9.2706     9.2593
  175.0000   126.4922     9.2544     9.2667
  175.5000   125.3772     9.2382     9.2742
  176.0000   120.9743     9.2255     9.2817
  176.5000   120.5185     9.2123     9.2891
  177.0000   121.4208     9.1993     9.2966
  177.5000   122.3333     9.1862     9.3041
  178.0000   123.2486     9.1733     9.3119
  178.5000   124.1639     9.1608     9.3177
  179.0000   125.0879     9.1155     9.3262
  179.5000   124.8922     9.0243     9.1811
  180.0000   124.5235     8.9340     9.0929
  180.5000   124.1540     8.8446     9.0055
  181.0000   123.7951     8.7561     8.9190
  181.5000   123.8802     8.6371     8.8333
