~VERSION INFORMATION
 VERS.                2.0:   CWLS LOG ASCII STANDARD - VERSION 2.0
 WRAP.                 NO:   ONE LINE PER DEPTH STEP
~WELL INFORMATION
#MNEM.UNIT      DATA TYPE    INFORMATION
#----------   ------------   ------------------------------
 STRT.F           27.0000:   START DEPTH
 STOP.F          566.0000:   STOP DEPTH
 STEP.F            0.5000:   STEP LENGTH
 NULL.          -999.2500:   NO VALUE
 COMP.    FENIX & SCISSON:   COMPANY
 WELL. S-3 NPR #3 #86-S-3:   WELL
 FLD .             TEAPOT:   FIELD
 LOC .       S3 T38N R78W:   LOCATION
 CNTY.            NATRONA:   COUNTY
 STAT.            WYOMING:   STATE
 CTRY. UNITED STATES OF AMERICA:   COUNTRY
 SRVC.       Schlumberger:   SERVICE COMPANY
 DATE.        08-APR-1977:   LOGDATE
 API .       490251032900:   API NUMBER
~CURVE INFORMATION
#MNEM.UNIT       API CODE    CURVE DESCRIPTION
#----------   ------------   ------------------------------
 DEPT.F                  :   
 CALD.IN     45 280 60 00:   CALIPER FROM DENSITY LOG
 GRD .GAPI   45 310 01 00:   GAMMA RAY FROM DENSITY LOG
 CORR.G/C3   45 356 01 00:   DENSITY CORRECTION
 RHOB.G/C3   45 350 01 00:   BULK DENSITY
 DPHI.DEC    45 890 12 00:   DENSITY POROSITY SANDSTONE
 SPR .MV     07 010 01 00:   SPONTANEOUS POTENTIAL
 ILD .OHMM   07 120 46 00:   INDUCTION LOG DEEP
 ILM .OHMM   07 120 44 00:   INDUCTION LOG MEDIUM
 LL8 .OHMM   07 220 08 00:   LATEROLOG-8 RES.
~PARAMETER INFORMATION
#MNEM.UNIT          VALUE    DESCRIPTION
#----------   ------------   ------------------------------
 PD  .                 GL:   PERMANENT DATUM
 EPD .F              5147:   ELEVATION PERMANENT DATUM
 LMF .                 KB:   LOG MEASURED FROM
 DMF .                 KB:   DRILLING MEASURED FROM
 EGL .F              5147:   GROUND LEVEL
 DATE.        08-APR-1977:   RUN DATE
 RUN .                  1:   RUN NUMBER
 DD  .F               570:   DEPTH DRILLER
 DL  .F               567:   DEPTH LOGGER
 BLI .F               566:   BOTTOM LOG INTERVAL
 TLI .F                27:   TOP LOG INTERVAL
 CS  .IN            8.625:   CASING SIZE
 CBD .F                40:   CASING BOTTOM DRILLER
 CBL .F                33:   CASING BOTTOM LOGGER
 BS  .IN            7.875:   BIT SIZE
 BSD .F               570:   BIT SIZE AT DEPTH
 DFT .                KCL:   DRILLING FLUID TYPE
 DFD .                8.6:   DRILLING FLUID DENSITY
 DFV .                 31:   DRILLING FLUID VISCOSITY
 DFPH.                9.5:   DRILLING FLUID PH
 DFL .                8.6:   DRILLING FLUID LOSS
 MSS .           FLOWLINE:   MUD SAMPLE SOURCE
 RMS .OHMM          0.306:   RESISTIVITY MUD SAMPLE
 MST .F                78:   MUD SAMPLE TEMPERATURE
 RMF .OHMM          0.230:   RESISTIVITY MUD FILTRATE SAMPLE
 MFST.F                78:   MUD FILTRATE SAMPLE TEMPERATURE
 MFSS.               MEAS:   MUD FILTRATE SAMPLE SOURCE
 RMB .OHMM          0.341:   RESISTIVITY MUD AT BHT
 BHT .F                70:   BOTTOM HOLE TEMPERATURE
 TCS .HRS              20:   TIME CURCULATED STOPPED
 MRT .F                70:   MAXIMUM RECORDED TEMPERATURE
 LUN .               5642:   LOGGING UNIT NUMBER
 LUL .               CSPR:   LOGGING UNIT LOCATION
 ENGI.             MARTIN:   RECORDING ENGINEER
 WITN.               LYON:   WITNESSED BY
 CLNT.            A2DTECH:   CLIENT CODE
 ORIG.       2", 5" PRINT:   ORIGIN OF DATA
 UWI .       490251032900:   UNIQUE WELL ID
 DICO. A2D Technologies, Inc.:   DIGITIZING COMPANY
~OTHER INFORMATION
~A   DEPT     CALD         GRD      CORR       RHOB       DPHI        SPR        ILD        ILM        LL8   
# ...
  355.5000     8.1394   110.1271     0.0132     2.5095     0.0972   -69.8580    11.4050    11.7337    12.7025
  356.0000     8.1111   108.6560     0.0066     2.4879     0.1044   -69.7017    11.4865    10.9482    12.7908
  356.5000     8.0983   107.1850     0.0051     2.4804     0.1070   -69.5453    11.7299    10.2865    12.7908
  357.0000     8.1305   105.5649     0.0059     2.4655     0.1118   -69.5393    11.8138     9.9366    12.7908
  357.5000     8.1028   103.9448     0.0083     2.4701     0.1139   -69.3830    12.0705    10.0760    12.9694
  358.0000     8.1519    92.4886     0.0106     2.4574     0.1150   -69.0763    12.5945    11.1042    13.4266
  358.5000     8.2288    85.9505     0.0167     2.4334     0.1237   -68.7695    13.4116    12.4946    14.0941
  359.0000     8.2282    75.9846     0.0333     2.4080     0.1363   -68.0117    14.8150    15.1737    15.4228
  359.5000     8.1712    65.7207     0.0522     2.3787     0.1471   -67.4042    17.0094    17.9230    19.3859
  360.0000     8.1429    58.8845     0.0402     2.3728     0.1716   -66.6463    21.5976    20.7345    31.9294
  360.5000     8.1152    60.9902     0.0320     2.3744     0.1686   -66.1892    25.1543    23.0093    40.6942
  361.0000     8.0880    66.5236     0.0223     2.3715     0.1668   -65.8825    27.7188    23.4947    38.7672
  361.5000     8.1050    69.3744     0.0344     2.3565     0.1745   -65.5757    29.3026    23.6599    34.6983
  362.0000     8.1517    73.7156     0.0052     2.2920     0.2012   -65.4194    31.1920    24.1590    32.8269
  362.5000     8.1836    75.0761     0.0060     2.2891     0.2201   -65.5639    34.6108    25.0132    31.9294
  363.0000     8.2001    73.3070     0.0068     2.2914     0.2189   -65.8587    35.1004    27.0052    31.7088
  363.5000     8.0983    67.6630     0.0122     2.2847     0.2173   -66.0031    34.6233    28.9550    32.8269
  364.0000     8.0110    60.0817     0.0145     2.2894     0.2176   -65.6962    32.9947    29.3451    35.6736
  364.5000     8.0131    58.9039     0.0146     2.2917     0.2182   -64.6344    32.0989    28.7428    39.3083
  365.0000     8.0449    61.4615     0.0139     2.2804     0.2245   -63.5688    32.5546    28.5462    41.5491
  365.5000     8.1662    65.6536     0.0503     2.2909     0.2183   -62.6623    33.7076    28.5641    41.8381
  366.0000     8.1827    69.3986     0.0222     2.2972     0.2124   -62.0632    33.9487    28.8055    40.9772
  366.5000     8.1400    71.6533     0.0187     2.2619     0.2324   -61.7564    33.7198    30.4137    39.5816
  367.0000     8.1426    72.4177     0.0180     2.2936     0.2135   -61.5810    33.7285    32.2087    37.1882
  367.5000     8.1149    74.5234     0.0113     2.3064     0.2083   -61.2933    33.9697    33.0333    35.4272
  368.0000     8.0425    74.9955     0.0422     2.2922     0.2095   -61.1368    34.6894    33.1034    38.7672
  368.5000     8.0743    71.1342     0.0468     2.2533     0.2146   -60.9792    35.6704    34.4800    42.1290
  369.0000     8.1360    69.6631     0.0062     2.2443     0.2485   -60.9733    36.9337    36.0385    43.6145
  369.5000     8.1679    71.0239     0.0116     2.2549     0.2432   -60.8169    37.9782    37.4846    42.4220
  370.0000     8.1550    70.1191     0.0147     2.2370     0.2515   -60.8109    39.8713    36.9233    43.3132
  370.5000     8.1571    66.8202     0.0170     2.2348     0.2553   -60.6546    40.9988    35.9156    46.4214
  371.0000     8.1592    64.6557     0.0186     2.2612     0.2510   -60.3478    42.4509    34.6939    51.1512
  371.5000     8.1613    64.8420     0.0164     2.3011     0.2180   -59.8907    43.6513    33.9812    52.5890
  372.0000     8.1484    65.8331     0.0120     2.3297     0.1924   -59.2833    44.5762    35.9230    53.3327
  372.5000     8.1505    68.1633     0.0098     2.3200     0.1978   -58.5254    45.2067    38.7735    54.0672
  373.0000     8.1228    68.3268     0.0106     2.3081     0.2125   -57.6172    45.8461    42.1415    51.0489
  373.5000     8.1099    67.8989     0.0107     2.2886     0.2253   -57.0097    45.2253    43.6315    47.0379
  374.0000     8.1121    68.8172     0.0070     2.2511     0.2430   -56.5526    44.6129    43.6345    45.4663
  374.5000     8.1142    70.4758     0.0123     2.2685     0.2385   -56.2458    43.7054    42.4429    44.7960
  375.0000     8.1163    71.0911     0.0162     2.2656     0.2348   -55.9391    44.0179    42.4465    44.5307
  375.5000     8.1033    71.2594     0.0275     2.2687     0.2348   -55.6324    44.6407    43.9473    45.8428
  376.0000     8.1059    69.3413     0.0156     2.2740     0.2336   -55.4760    45.3056    46.1367    48.3924
  376.5000     8.0926    67.4183     0.0202     2.2869     0.2293   -55.3197    46.2314    48.4352    52.5890
  377.0000     8.0653    69.2307     0.0172     2.2982     0.2152   -55.3137    46.2410    48.7757    56.3628
  377.5000     8.0525    72.2574     0.0150     2.3021     0.2118   -55.3077    43.6009    48.4419    55.2030
  378.0000     8.0397    75.6751     0.0091     2.2992     0.2112   -55.4536    40.2808    46.4707    48.3924
  378.5000     8.0418    74.7168     0.0138     2.2820     0.2160   -55.7484    38.8195    42.4671    40.6942
  379.0000     8.0438    72.5880     0.0201     2.2753     0.2264   -56.1935    37.8643    39.6243    38.4804
  379.5000     8.0608    69.4776     0.0384     2.2874     0.2242   -56.7875    37.3516    38.8104    39.8569
  380.0000     8.0778    68.2998     0.0350     2.2837     0.2219   -57.2327    37.1036    38.0139    38.7672
  380.5000     8.1544    69.8141     0.0117     2.2763     0.2272   -57.6778    36.0981    37.4935    38.2335
  381.0000     8.2011    71.4727     0.0223     2.2876     0.2107   -58.1230    34.6372    35.9678    37.1882
  381.5000     8.2032    73.1313     0.0074     2.3305     0.1977   -58.5681    33.0062    34.7443    35.1825
  382.0000     8.1904    75.9822     0.0127     2.3494     0.1833   -58.8632    31.6704    32.6441    33.5165
  382.5000     8.1477    81.5156     0.0203     2.3668     0.1736   -59.1579    30.3886    30.4589    31.7088
  383.0000     8.1195    86.1548     0.0317     2.3871     0.1622   -59.4526    28.9577    28.8169    30.8419
  383.5000     8.0918    86.1740     0.0385     2.4158     0.1522   -59.5970    27.5941    26.3343    29.3814
  384.0000     8.0789    85.2991     0.0453     2.4226     0.1411   -59.7413    26.4774    24.4016    27.7968
  384.5000     8.0661    84.2751     0.0349     2.4182     0.1390   -59.8856    25.7599    22.7682    26.4805
  385.0000     8.0836    82.2079     0.0274     2.4062     0.1491   -60.0300    25.1780    20.8066    25.4020
  385.5000     8.0702    79.2465     0.0441     2.3868     0.1587   -60.0240    25.0664    21.0987    24.7075
  386.0000     8.0728    78.2177     0.0359     2.3741     0.1701   -60.1703    24.5565    21.8447    24.1991
  386.5000     8.0898    78.0880     0.0239     2.3576     0.1778   -60.3182    24.2241    22.4608    23.7012
  387.0000     8.0919    78.2610     0.0285     2.3585     0.1796   -60.4662    23.8960    23.0942    23.5375
  387.5000     8.0939    78.2803     0.0451     2.3736     0.1706   -60.6141    23.7361    22.9357    23.5375
  388.0000     8.0960    78.5976     0.0459     2.3698     0.1684   -60.7619    23.2533    22.4650    23.5375
  388.5000     8.1130    79.5110     0.0355     2.3458     0.1792   -60.8904    23.0977    22.4670    23.5375
  389.0000     8.1150    80.8716     0.0326     2.3423     0.1894   -60.8842    23.1025    22.4685    23.7012
  389.5000     8.1022    82.2321     0.0281     2.3471     0.1878   -60.8782    23.1073    22.9425    24.0320
  390.0000     8.1192    87.0203     0.0305     2.3603     0.1827   -60.8710    23.2727    23.1038    24.0320
  390.5000     8.1213    88.1078     0.0365     2.3688     0.1734   -60.8650    23.7655    23.4281    24.0320
  391.0000     8.1233    86.3137     0.0351     2.3671     0.1703   -60.8590    23.2523    22.6311    24.1991
  391.5000     8.1105    83.6504     0.0298     2.3547     0.1706   -60.8530    22.1869    22.0131    24.1991
