~VERSION INFORMATION
 VERS.                2.0:   CWLS LOG ASCII STANDARD - VERSION 2.0
 WRAP.                 NO:   ONE LINE PER DEPTH STEP
~WELL INFORMATION
#MNEM.UNIT      DATA TYPE    INFORMATION
#----------   ------------   ------------------------------
 STRT.F           17.0000:   START DEPTH
 STOP.F          592.0000:   STOP DEPTH
 STEP.F            0.5000:   STEP LENGTH
 NULL.          -999.2500:   NO VALUE
 COMP.   FLUOR DANIEL INC:   COMPANY
 WELL. NAVAL PETROLEUM RESERVE SX-1 87 #2-10:   WELL
 FLD .             TEAPOT:   FIELD
 LOC .      S10 T38N R78W:   LOCATION
 CNTY.            NATRONA:   COUNTY
 STAT.            WYOMING:   STATE
 CTRY. UNITED STATES OF AMERICA:   COUNTRY
 SRVC.      Western Atlas:   SERVICE COMPANY
 DATE.        20-JUL-1995:   LOGDATE
 API .       490252274200:   API NUMBER
~CURVE INFORMATION
#MNEM.UNIT       API CODE    CURVE DESCRIPTION
#----------   ------------   ------------------------------
 DEPT.F                  :   
 GRR .GAPI   07 310 01 00:   GAMMA RAY FROM RES. LOG.
 RILD.OHMM   07 120 46 00:   INDUCTION LOG DEEP RESISTIVITY
 RILM.OHMM   07 120 44 00:   INDUCTION LOG MEDIUM RESISTIVITY
~PARAMETER INFORMATION
#MNEM.UNIT          VALUE    DESCRIPTION
#----------   ------------   ------------------------------
 PD  .                 GL:   PERMANENT DATUM
 EPD .F              5221:   ELEVATION PERMANENT DATUM
 LMF .                 KB:   LOG MEASURED FROM
 DAPD.F                10:   FEET ABOVE PERMANENT DATUM
 DMF .                 KB:   DRILLING MEASURED FROM
 EKB .F              5231:   KELLING BUSHING
 EDF .F              5230:   DRILLING FLOOR
 EGL .F              5221:   GROUND LEVEL
 DATE.            7-20-95:   RUN DATE
 RUN .                  1:   RUN NUMBER
 DD  .F               599:   DEPTH DRILLER
 DL  .F               600:   DEPTH LOGGER
 BLI .F               592:   BOTTOM LOG INTERVAL
 TLI .F                54:   TOP LOG INTERVAL
 CS  .IN            9.625:   CASING SIZE
 CBD .F                54:   CASING BOTTOM DRILLER
 CBL .F                54:   CASING BOTTOM LOGGER
 BS  .IN             8.75:   BIT SIZE
 BSD .F               599:   BIT SIZE AT DEPTH
 DFT .                AIR:   DRILLING FLUID TYPE
 BHT .F                98:   BOTTOM HOLE TEMPERATURE
 MRT .F                98:   MAXIMUM RECORDED TEMPERATURE
 LUN .            HL 6539:   LOGGING UNIT NUMBER
 LUL .          RK. SPGS.:   LOGGING UNIT LOCATION
 ENGI.               RALL:   RECORDING ENGINEER
 WITN.             STRONG:   WITNESSED BY
 CLNT.            A2DTECH:   CLIENT CODE
 ORIG.        2" 5" PRINT:   ORIGIN OF DATA
 UWI .       490252274200:   UNIQUE WELL ID
 DICO. A2D Technologies, Inc.:   DIGITIZING COMPANY
~OTHER INFORMATION
~A   DEPT       GRR      RILD       RILM   
# ...
  199.0000   115.4344     9.1246     9.3855
  199.5000   117.2152     9.1246     9.3855
  200.0000   115.9163     9.1246     9.3855
  200.5000   114.4048     9.1246     9.3855
  201.0000   112.9936     9.1246     9.3855
  201.5000   115.3394     9.1246     9.3855
  202.0000   116.8132     9.1246     9.3855
  202.5000   114.2914     9.1247     9.3857
  203.0000   113.1024     9.1257     9.3858
  203.5000   113.2982     9.0447     9.3756
  204.0000   111.2873     8.8894     9.2933
  204.5000   110.5110     8.7368     9.2108
  205.0000   113.7400     8.4577     8.9967
  205.5000   117.2103     8.1556     8.6862
  206.0000   117.5364     7.8643     8.3850
  206.5000   115.0055     7.7045     8.0740
  207.0000   112.5097     7.7347     8.0821
  207.5000   111.7197     7.7579     8.1076
  208.0000   112.7866     7.7811     8.1250
  208.5000   113.8666     7.8045     8.1422
  209.0000   114.9492     7.8279     8.1594
  209.5000   116.0272     7.8513     8.1766
  210.0000   116.6091     7.8749     8.1938
  210.5000   115.2238     7.8985     8.2111
  211.0000   113.2744     7.9221     8.2285
  211.5000   113.0560     7.9459     8.2458
  212.0000   114.5899     7.9697     8.2633
  212.5000   118.0635     7.9936     8.2809
  213.0000   120.2527     8.0176     8.2982
  213.5000   118.5095     8.0416     8.4089
  214.0000   118.7832     8.0657     8.6004
  214.5000   119.4948     8.2966     8.7963
  215.0000   120.1792     8.6737     8.9966
  215.5000   119.9217     8.9547     9.2014
  216.0000   116.5194     8.9748     9.3855
  216.5000   114.3925     8.9934     9.3855
  217.0000   115.8384     9.0120     9.3855
  217.5000   117.1860     9.0306     9.3855
  218.0000   118.5337     9.0492     9.3855
  218.5000   119.8811     9.0679     9.3855
  219.0000   121.2328     9.0867     9.3855
  219.5000   122.6189     9.1058     9.3855
  220.0000   121.9140     9.1244     9.3865
  220.5000   117.7438     9.0403     9.3188
  221.0000   113.6602     8.9545     9.2513
  221.5000   112.3595     8.8696     9.1842
  222.0000   114.5874     8.7857     9.1177
  222.5000   116.7988     8.7025     9.0516
  223.0000   118.2338     8.6202     8.9860
  223.5000   117.9723     8.5386     8.9208
  224.0000   117.8276     8.4577     8.8562
  224.5000   118.4501     8.3782     8.7920
  225.0000   120.2944     8.3074     8.7285
  225.5000   122.1255     8.2284     8.6645
  226.0000   123.9685     8.0720     8.5925
  226.5000   124.4592     7.9660     8.3853
  227.0000   120.0110     7.8132     8.1845
  227.5000   115.1210     7.6320     7.9884
  228.0000   117.2320     7.4554     7.7970
  228.5000   120.5033     7.2828     7.6100
  229.0000   123.1114     7.1143     7.4282
  229.5000   123.0643     6.9478     7.2713
  230.0000   123.1095     6.9478     7.2197
  230.5000   119.5155     6.9478     7.1674
  231.0000   112.1205     6.9478     7.1154
  231.5000   104.6768     6.9478     7.0796
  232.0000   103.3497     6.9478     7.4162
  232.5000   114.7450     7.1593     7.6847
  233.0000   124.3488     7.4491     7.8697
  233.5000   126.5231     7.5610     7.9176
  234.0000   124.0063     7.5610     7.9657
  234.5000   121.5178     7.6382     8.0141
  235.0000   119.9261     7.7269     8.0629
  235.5000   122.9434     7.8167     8.1120
  236.0000   127.2597     7.9075     8.1612
  236.5000   124.0738     7.9248     8.2284
  237.0000   122.7339     7.9996     8.1998
  237.5000   123.8075     7.8840     8.1520
  238.0000   123.4282     7.8327     8.0855
  238.5000   122.0220     7.6932     8.0133
  239.0000   120.5850     7.5563     7.9417
  239.5000   119.1658     7.4218     7.8707
  240.0000   118.9708     7.2897     7.8003
  240.5000   121.2307     7.1600     7.6397
  241.0000   123.0790     7.0687     7.4353
  241.5000   122.6607     6.9180     7.2374
  242.0000   122.9313     6.5439     6.9981
  242.5000   127.4285     6.1251     6.5586
  243.0000   131.7854     5.7332     6.1480
  243.5000   132.3257     5.3663     5.7630
  244.0000   126.1261     5.1396     5.4416
  244.5000   119.1843     5.2181     5.5116
  245.0000   116.7635     5.3679     5.6096
  245.5000   116.2436     5.5206     5.8149
  246.0000   117.5559     5.6773     6.1038
  246.5000   121.2977     5.8383     6.4071
  247.0000   125.0624     6.0580     6.7255
  247.5000   125.4303     6.3368     7.0056
  248.0000   126.4024     6.6331     7.1840
  248.5000   128.9204     6.8896     7.3669
  249.0000   129.0211     7.0748     7.5545
  249.5000   128.3997     7.2650     7.7469
  250.0000   127.6302     7.4603     7.9262
  250.5000   127.4714     7.6608     8.0707
  251.0000   127.8126     7.8667     8.2072
  251.5000   129.4931     8.0099     8.3452
  252.0000   132.1785     8.0691     8.4857
  252.5000   132.4922     8.1287     8.6243
  253.0000   129.6170     8.1888     8.6711
  253.5000   126.7473     8.2494     8.7276
  254.0000   127.7177     8.3104     8.7844
  254.5000   129.2037     8.3718     8.8416
  255.0000   127.7973     8.4337     8.8992
  255.5000   123.8768     8.4961     8.9571
  256.0000   123.4503     8.5589     9.0155
  256.5000   124.9689     8.6222     9.0742
  257.0000   125.1073     8.6859     9.1335
  257.5000   123.4710     8.7501     9.2108
  258.0000   124.4745     8.8146     9.1641
  258.5000   127.5511     8.8707     9.0721
  259.0000   127.0772     8.7159     8.9810
  259.5000   125.4660     8.5818     8.8909
  260.0000   123.8800     8.4498     8.8016
  260.5000   122.2687     8.3199     8.7132
  261.0000   121.8281     8.1919     8.6257
  261.5000   123.0135     8.1514     8.5391
  262.0000   126.0350     8.1514     8.4637
  262.5000   128.7932     8.1514     8.5120
  263.0000   126.5106     8.1511     8.5553
  263.5000   123.8879     8.1538     8.5988
  264.0000   123.0067     8.0229     8.6238
  264.5000   124.7871     7.8114     8.2275
  265.0000   126.7864     7.6122     7.8723
  265.5000   126.9433     7.2671     7.5459
  266.0000   125.6827     6.9409     7.2343
  266.5000   124.3888     6.6294     6.9357
  267.0000   123.1072     6.2480     6.6292
  267.5000   122.7621     5.5259     6.2135
  268.0000   125.7264     4.8888     5.6758
  268.5000   128.5636     4.3250     5.0302
  269.0000   131.4156     3.8264     4.4550
  269.5000   132.7901     3.3853     3.9461
  270.0000   131.0260     2.9950     3.4955
  270.5000   126.3160     2.6390     3.0963
  271.0000   121.6243     2.6254     2.7401
  271.5000   116.9343     2.6143     2.7116
  272.0000   112.8230     2.6573     2.8484
  272.5000   113.8341     2.7150     3.0114
  273.0000   120.2030     2.7843     3.2979
  273.5000   124.7452     3.0480     3.5948
  274.0000   128.9243     3.3604     3.9172
  274.5000   132.8890     3.7048     4.2682
  275.0000   136.8428     4.0845     4.6509
  275.5000   140.6079     4.5031     5.0679
  276.0000   140.6340     4.9647     5.5214
  276.5000   134.1242     5.4735     5.9778
  277.0000   132.5611     6.0345     6.3288
  277.5000   133.8510     6.3246     6.6916
  278.0000   135.0396     6.2338     6.5721
  278.5000   134.8613     6.0297     6.3503
  279.0000   134.1267     5.8322     6.1380
  279.5000   134.0903     5.6413     5.9329
  280.0000   136.9746     5.4566     5.7348
  280.5000   139.9561     5.2779     5.5432
  281.0000   142.9803     5.1051     5.3581
  281.5000   144.0927     4.9379     5.1792
  282.0000   140.3229     4.7707     5.0002
  282.5000   136.0482     4.7707     5.0002
  283.0000   131.6920     5.0128     5.2658
  283.5000   131.5560     5.2217     5.4905
  284.0000   134.7371     5.4549     5.7396
  284.5000   136.3247     5.7108     5.9999
  285.0000   135.5754     5.9800     6.2720
  285.5000   136.6420     6.2620     6.5565
  286.0000   138.4871     6.5572     6.8538
  286.5000   138.6303     6.8664     7.1647
  287.0000   137.4577     7.1903     7.4899
  287.5000   139.3239     7.5295     7.8299
  288.0000   139.4761     7.8853     8.2295
  288.5000   134.5963     8.0759     8.2130
  289.0000   129.5427     7.9866     8.1892
  289.5000   127.3340     7.8173     8.1660
