~VERSION INFORMATION
 VERS.                2.0:   CWLS LOG ASCII STANDARD - VERSION 2.0
 WRAP.                 NO:   ONE LINE PER DEPTH STEP
~WELL INFORMATION
#MNEM.UNIT      DATA TYPE    INFORMATION
#----------   ------------   ------------------------------
 STRT.F           82.0000:   START DEPTH
 STOP.F          426.5000:   STOP DEPTH
 STEP.F            0.5000:   STEP LENGTH
 NULL.          -999.2500:   NO VALUE
 COMP. BROWN JOHN E&C INC:   COMPANY
 WELL.    NPR 3 #73-45X10:   WELL
 FLD .             TEAPOT:   FIELD
 LOC .      S10 T38N R78W:   LOCATION
 CNTY.            NATRONA:   COUNTY
 STAT.            WYOMING:   STATE
 CTRY. UNITED STATES OF AMERICA:   COUNTRY
 SRVC.      Western Atlas:   SERVICE COMPANY
 DATE.        30-DEC-1990:   LOGDATE
 API .       490251132400:   API NUMBER
~CURVE INFORMATION
#MNEM.UNIT       API CODE    CURVE DESCRIPTION
#----------   ------------   ------------------------------
 DEPT.F                  :   
 GR  .CPS    30 310 30 00:   GAMMA RAY
 TT  .US/F   30 520 00 00:   TRANSIT TIME FROM GAMMA RAY LOG
~PARAMETER INFORMATION
#MNEM.UNIT          VALUE    DESCRIPTION
#----------   ------------   ------------------------------
 PD  .                 GL:   PERMANENT DATUM
 EPD .F              5175:   ELEVATION PERMANENT DATUM
 LMF .                 KB:   LOG MEASURED FROM
 DMF .                 KB:   DRILLING MEASURED FROM
 EKB .F              5185:   KELLING BUSHING
 EGL .F              5175:   GROUND LEVEL
 DATE.         12-30-1990:   RUN DATE
 RUN .                  1:   RUN NUMBER
 DD  .F               485:   DEPTH DRILLER
 DL  .F               489:   DEPTH LOGGER
 BLI .F               483:   BOTTOM LOG INTERVAL
 TLI .F                26:   TOP LOG INTERVAL
 BSD .F               485:   BIT SIZE AT DEPTH
 BHT .F                70:   BOTTOM HOLE TEMPERATURE
 TCS .HRS             1.5:   TIME CURCULATED STOPPED
 MRT .F                70:   MAXIMUM RECORDED TEMPERATURE
 ENGI.          ATTERHOLT:   RECORDING ENGINEER
 WITN.              DOYLE:   WITNESSED BY
 CLNT.            A2DTECH:   CLIENT CODE
 ORIG.           5" PRINT:   ORIGIN OF DATA
 UWI .       490251132400:   UNIQUE WELL ID
 DICO. A2D Technologies, Inc.:   DIGITIZING COMPANY
~OTHER INFORMATION
~A   DEPT        GR         TT  
   82.0000    77.8615   274.2369
   82.5000    77.8615   274.2369
   83.0000    77.8615   274.6385
   83.5000    78.4704   281.5512
   84.0000    79.8835   286.9991
   84.5000    78.4795   289.9260
   85.0000    77.0109   289.8996
   85.5000    76.0532   289.8996
   86.0000    78.7250   287.9776
   86.5000    81.1652   289.7562
   87.0000    82.5067   276.0442
   87.5000    83.8746   266.9188
   88.0000    85.0253   265.2008
   88.5000    83.9056   264.6877
   89.0000    82.7960   259.1544
   89.5000    81.6978   255.7630
   90.0000    80.6009   260.3564
   90.5000    79.4965   257.3759
   91.0000    79.9684   253.1843
   91.5000    80.8553   256.1647
   92.0000    79.7315   256.5663
   92.5000    78.6585   253.5542
   93.0000    78.4004   249.9398
   93.5000    78.1259   252.7510
   94.0000    79.5130   246.3844
   94.5000    81.0701   240.4105
   95.0000    82.6238   234.4135
   95.5000    83.8776   231.4918
   96.0000    84.6126   227.1615
   96.5000    85.3611   223.4492
   97.0000    86.0813   223.5521
   97.5000    86.1461   224.1413
   98.0000    78.8374   224.9314
   98.5000    79.8035   227.2490
   99.0000    80.9369   237.5569
   99.5000    76.0512   242.3571
  100.0000    71.6329   245.0053
  100.5000    72.8307   245.7564
  101.0000    74.0711   242.4096
  101.5000    74.9483   237.3896
  102.0000    73.0923   235.8835
  102.5000    71.1915   262.3583
  103.0000    70.2953   266.2692
  103.5000    72.2097   274.5632
  104.0000    74.8735   289.3487
  104.5000    77.2377   283.1727
  105.0000    75.4696   278.3170
  105.5000    73.4453   275.1606
  106.0000    71.4399   257.6707
  106.5000    70.0515   237.7661
  107.0000    70.5445   233.3346
  107.5000    71.0193   229.6255
  108.0000    71.4878   235.0586
  108.5000    71.3839   245.6894
  109.0000    71.3353   254.6084
  109.5000    72.2973   259.5783
  110.0000    73.2332   275.6627
  110.5000    71.7151   281.0040
  111.0000    69.9193   282.1687
  111.5000    70.0701   282.9719
  112.0000    71.2519   278.5341
  112.5000    74.5477   269.2972
  113.0000    74.5706   260.0602
  113.5000    73.3747   250.8233
  114.0000    73.6531   242.2088
  114.5000    76.8755   245.0305
  115.0000    78.4590   251.6687
  115.5000    78.0035   260.8727
  116.0000    77.5735   270.0488
  116.5000    79.2703   276.0191
  117.0000    81.1904   278.2530
  117.5000    83.1021   279.6586
  118.0000    82.3363   278.1638
  118.5000    80.9690   274.3708
  119.0000    80.4727   270.5779
  119.5000    80.3405   266.7849
  120.0000    78.8024   259.2897
  120.5000    76.7273   254.1423
  121.0000    74.8541   255.4332
  121.5000    73.8274   255.4619
  122.0000    72.7036   256.6810
  122.5000    71.8556   261.0555
  123.0000    71.2898   274.0392
  123.5000    70.7285   287.0193
  124.0000    70.4305   289.4729
  124.5000    70.8061   289.7258
  125.0000    71.9060   289.7644
  125.5000    73.2874   289.8031
  126.0000    74.6755   289.8417
  126.5000    76.0614   289.8803
  127.0000    77.4655   287.6406
  127.5000    77.2487   283.4136
  128.0000    76.0338   289.3574
  128.5000    74.8058   290.0574
  129.0000    73.5873   290.0096
  129.5000    73.1322   289.9618
  130.0000    76.8497   289.9139
  130.5000    77.5553   284.0428
  131.0000    77.8769   275.6760
  131.5000    78.3633   272.0281
  132.0000    80.0716   269.8862
  132.5000    78.2151   272.4381
  133.0000    75.9094   261.3102
  133.5000    73.6021   253.6546
  134.0000    71.4137   248.6345
  134.5000    70.1350   239.0964
  135.0000    68.8615   229.8539
  135.5000    67.6020   227.7901
  136.0000    67.2201   225.7262
  136.5000    71.4885   223.6593
  137.0000    70.5378   222.3991
  137.5000    68.1820   221.9427
  138.0000    69.1269   221.5797
  138.5000    70.4424   221.4302
  139.0000    71.7617   221.2794
  139.5000    73.0729   221.1284
  140.0000    74.2422   221.1237
  140.5000    73.4560   221.4597
  141.0000    71.8520   221.7938
  141.5000    70.2540   221.6188
  142.0000    68.8903   221.3871
  142.5000    69.4242   221.2894
  143.0000    69.9670   221.5046
  143.5000    69.2932   221.7197
  144.0000    68.4633   221.9527
  144.5000    68.5043   222.2036
  145.0000    69.4892   222.4545
  145.5000    70.4727   222.7488
  146.0000    71.4259   223.1445
  146.5000    70.4816   223.5401
  147.0000    69.5171   223.9357
  147.5000    70.2527   224.3313
  148.0000    71.8759   224.7268
  148.5000    73.4254   225.1223
  149.0000    72.4934   225.0648
  149.5000    71.6444   224.8132
  150.0000    73.3664   224.5615
  150.5000    74.3995   224.3060
  151.0000    72.7334   224.4430
  151.5000    71.1223   224.7328
  152.0000    69.7602   225.0402
  152.5000    70.5305   224.9563
  153.0000    71.5033   224.8663
  153.5000    72.4586   224.7764
  154.0000    73.4073   224.6864
  154.5000    75.3514   224.5964
  155.0000    77.5819   224.5065
  155.5000    79.8767   224.4165
  156.0000    79.3526   224.3266
  156.5000    78.2005   224.2374
  157.0000    77.0622   224.3345
  157.5000    77.2383   224.4330
  158.0000    76.5396   224.5312
  158.5000    75.2856   224.6291
  159.0000    74.0219   224.7270
  159.5000    73.4327   224.8250
  160.0000    75.5790   225.7988
  160.5000    77.4860   226.8474
  161.0000    76.5328   226.7159
  161.5000    75.5331   226.5862
  162.0000    74.9357   226.4626
  162.5000    76.8272   226.1747
  163.0000    78.4881   225.8711
  163.5000    78.2374   225.5675
  164.0000    77.5077   225.2410
  164.5000    76.5990   226.1308
  165.0000    75.6730   229.8594
  165.5000    74.6629   233.5880
  166.0000    73.6002   237.3166
  166.5000    72.5380   240.1556
  167.0000    71.4747   240.3012
  167.5000    70.4069   236.6934
  168.0000    69.2984   236.0225
  168.5000    70.2050   237.0767
  169.0000    71.5661   234.9419
  169.5000    72.9418   233.2695
  170.0000    74.3296   236.0229
  170.5000    74.3545   234.9896
  171.0000    74.1283   233.1679
  171.5000    74.1825   232.2691
  172.0000    75.3679   232.0560
  172.5000    75.7413   228.9874
  173.0000    75.8074   226.2365
  173.5000    76.9467   225.4418
  174.0000    76.8907   227.0468
  174.5000    75.4828   230.9669
  175.0000    74.0853   232.2691
  175.5000    72.6805   232.3830
  176.0000    71.2979   234.0562
  176.5000    70.3120   237.0942
  177.0000    70.8812   232.4305
  177.5000    71.9121   231.4441
  178.0000    72.9508   230.1418
  178.5000    73.9852   227.9620
  179.0000    74.8133   225.7822
  179.5000    74.3935   224.6385
  180.0000    73.9921   229.3775
  180.5000    73.5896   231.3594
  181.0000    73.1990   231.8655
  181.5000    73.5916   232.9503
  182.0000    76.7167   234.4224
  182.5000    77.1560   234.9799
  183.0000    76.0923   234.2570
  183.5000    75.7748   233.5341
  184.0000    76.5445   233.0723
  184.5000    77.2888   236.2851
  185.0000    77.6570   233.5509
  185.5000    77.1622   232.2679
  186.0000    76.7269   231.4805
  186.5000    77.4505   229.7146
  187.0000    79.1111   225.9653
  187.5000    80.3719   223.2329
  188.0000    80.3852   223.3382
  188.5000    78.5894   223.6081
  189.0000    78.2555   223.5238
  189.5000    78.5213   223.4337
  190.0000    78.7819   223.8390
  190.5000    76.9169   224.3873
  191.0000    73.4392   224.4556
  191.5000    73.4046   224.2748
  192.0000    74.2588   224.5018
  192.5000    75.1264   224.4460
  193.0000    75.4675   223.9427
  193.5000    75.7959   223.4357
  194.0000    76.5405   222.9297
  194.5000    79.2649   223.2329
  195.0000    80.1843   223.6762
  195.5000    80.0824   224.2231
  196.0000    79.9909   224.6336
  196.5000    78.5996   224.6947
  197.0000    76.0568   224.8394
  197.5000    73.2999   226.0953
  198.0000    70.5390   227.5674
  198.5000    68.4727   227.6506
  199.0000    68.5265   228.0134
  199.5000    69.1930   228.1553
  200.0000    72.0227   226.8823
  200.5000    74.7301   225.0402
  201.0000    77.4506   224.6968
  201.5000    78.6316   224.3180
  202.0000    78.5019   223.9393
  202.5000    80.4846   223.5485
  203.0000    82.5628   223.1533
