~VERSION INFORMATION
 VERS.                2.0:   CWLS LOG ASCII STANDARD - VERSION 2.0
 WRAP.                 NO:   ONE LINE PER DEPTH STEP
~WELL INFORMATION
#MNEM.UNIT      DATA TYPE    INFORMATION
#----------   ------------   ------------------------------
 STRT.F            7.0000:   START DEPTH
 STOP.F          587.0000:   STOP DEPTH
 STEP.F            0.5000:   STEP LENGTH
 NULL.          -999.2500:   NO VALUE
 COMP. FENIX & SCISSON INC:   COMPANY
 WELL.        NPR-3 #63-3:   WELL
 FLD .             TEAPOT:   FIELD
 LOC .       S3 T38N R78W:   LOCATION
 CNTY.            NATRONA:   COUNTY
 STAT.            WYOMING:   STATE
 CTRY. UNITED STATES OF AMERICA:   COUNTRY
 SRVC.     Wedge Wireline:   SERVICE COMPANY
 DATE.        06-JAN-1978:   LOGDATE
 API .       490251044700:   API NUMBER
~CURVE INFORMATION
#MNEM.UNIT       API CODE    CURVE DESCRIPTION
#----------   ------------   ------------------------------
 DEPT.F                  :   
 ILD .OHMM   05 120 46 00:   INDUCTION LOG DEEP
 SN  .OHMM   05 040 16 00:   SHORT NORMAL
 SPR .MV     05 010 01 00:   SPONTANEOUS POTENTIAL FROM RES.
 CALD.IN     45 280 60 00:   CALIPER FROM DENSITY LOG
 CORR.G/C3   45 356 01 00:   DENSITY CORRECTION
 DPHI.DEC    45 890 12 00:   DENSITY POROSITY SANDSTONE
 GRD .GAPI   45 310 01 00:   GAMMA RAY FROM DENSITY LOG
 RHOB.G/C3   45 350 01 00:   BULK DENSITY
~PARAMETER INFORMATION
#MNEM.UNIT          VALUE    DESCRIPTION
#----------   ------------   ------------------------------
 PD  .                 GL:   PERMANENT DATUM
 EPD .F              5177:   ELEVATION PERMANENT DATUM
 LMF .                 KB:   LOG MEASURED FROM
 DMF .                 KB:   DRILLING MEASURED FROM
 EKB .F              5181:   KELLING BUSHING
 EGL .F              5177:   GROUND LEVEL
 DATE.        06-JAN-1978:   RUN DATE
 RUN .                  1:   RUN NUMBER
 DD  .F               590:   DEPTH DRILLER
 DL  .F               581:   DEPTH LOGGER
 BLI .F               576:   BOTTOM LOG INTERVAL
 TLI .F                20:   TOP LOG INTERVAL
 CS  .IN            9.625:   CASING SIZE
 CBD .F                19:   CASING BOTTOM DRILLER
 CBL .F                19:   CASING BOTTOM LOGGER
 BS  .IN            7.875:   BIT SIZE
 BSD .F               590:   BIT SIZE AT DEPTH
 DFT .                KCL:   DRILLING FLUID TYPE
 DFD .                8.5:   DRILLING FLUID DENSITY
 DFV .                 34:   DRILLING FLUID VISCOSITY
 DFPH.                9.0:   DRILLING FLUID PH
 DFL .                7.8:   DRILLING FLUID LOSS
 MSS .           FLOWLINE:   MUD SAMPLE SOURCE
 RMS .OHMM           0.22:   RESISTIVITY MUD SAMPLE
 MST .F                63:   MUD SAMPLE TEMPERATURE
 RMF .OHMM           0.24:   RESISTIVITY MUD FILTRATE SAMPLE
 MFST.F                63:   MUD FILTRATE SAMPLE TEMPERATURE
 RMC .OHMM           0.48:   RESISTIVITY MUD CAKE
 MCST.F                64:   MUD CAKE SAMPLE TEMPERATURE
 MFSS.               MEAS:   MUD FILTRATE SAMPLE SOURCE
 MCSS.               MEAS:   MUD CAKE SAMPLE SOURCE
 RMB .OHMM           0.19:   RESISTIVITY MUD AT BHT
 BHT .F                71:   BOTTOM HOLE TEMPERATURE
 TCS .HRS               3:   TIME CURCULATED STOPPED
 MRT .F                71:   MAXIMUM RECORDED TEMPERATURE
 LUN .               2958:   LOGGING UNIT NUMBER
 LUL .             CASPER:   LOGGING UNIT LOCATION
 ENGI.             MILLER:   RECORDING ENGINEER
 WITN.         HARRINGTON:   WITNESSED BY
 CLNT.            A2DTECH:   CLIENT CODE
 ORIG.           5" PRINT:   ORIGIN OF DATA
 UWI .       490251044700:   UNIQUE WELL ID
 DICO. A2D Technologies, Inc.:   DIGITIZING COMPANY
~OTHER INFORMATION
~A    DEPT     ILD         SN        SPR       CALD       CORR       DPHI         GRD      RHOB   
# ...
   47.5000    10.4474     7.7839   -24.8719     8.4971    -0.3320     0.1261    89.3197     2.4522
   48.0000    10.4502     7.7342   -25.1450     8.4978    -0.3291     0.1255    89.0475     2.4538
   48.5000    10.4529     7.6873   -25.2751     8.4836    -0.3266     0.1261    87.8885     2.4553
   49.0000    10.4563     7.5871   -25.2576     8.4843    -0.3265     0.1273    86.7296     2.4546
   49.5000    10.4590     7.4881   -25.4031     8.4848    -0.3265     0.1285    86.7472     2.4515
   50.0000    10.4617     7.3409   -25.5177     8.4854    -0.3258     0.1293    87.9412     2.4474
   50.5000    10.4644     7.2952   -25.4033     8.5007    -0.3230     0.1259    88.2572     2.4318
   51.0000    10.3952     7.2001   -25.3357     8.5159    -0.3201     0.1202    87.3924     2.4353
   51.5000    10.3265     7.2060   -25.3201     8.5164    -0.3094     0.1189    85.9394     2.4503
   52.0000    10.3298     7.3107   -25.3014     8.5170    -0.2972     0.1236    83.6040     2.4586
   52.5000    10.3325     7.3660   -25.2861     8.5175    -0.2814     0.1275    81.8644     2.4504
   53.0000    10.3353     7.4219   -25.4189     8.5181    -0.2591     0.1293    84.5359     2.4466
   53.5000    10.3386     7.5308   -25.4027     8.5040    -0.2439     0.1347    86.6343     2.4436
   54.0000    10.3413     7.5357   -25.3841     8.5047    -0.2817     0.1459    88.1095     2.4316
   54.5000    10.4875     7.5406   -25.3688     8.5053    -0.3392     0.1553    88.4232     2.3773
   55.0000    10.5727     7.5456   -25.2061     8.5059    -0.3714     0.1410    88.4428     2.3849
   55.5000    10.7871     7.5516   -25.1871     8.5064    -0.3754     0.1322    88.4624     2.4325
   56.0000    10.9397     7.6088   -25.1718     8.5070    -0.3677     0.1277    87.8938     2.4456
   56.5000    11.1712     7.6663   -25.3079     8.5077    -0.3600     0.1237    87.9183     2.4568
   57.0000    11.4077     7.6714   -25.4366     8.5082    -0.3554     0.1204    88.2320     2.4614
   57.5000    11.6498     7.7840   -25.5685     8.5088    -0.3538     0.1228    89.1340     2.4554
   58.0000    11.8146     7.7891   -25.7008     8.5094    -0.3552     0.1267    90.0359     2.4448
   58.5000    11.8994     7.8480   -25.8330     8.5100    -0.3612     0.1273    89.4284     2.4357
   59.0000    12.0767     7.8532   -26.0577     8.5106    -0.3611     0.1247    86.5507     2.4404
   59.5000    12.2393     7.9138   -26.2374     8.5062    -0.3534     0.1228    83.9232     2.4510
   60.0000    12.4124     7.9190   -26.3735     8.4971    -0.3473     0.1215    82.1732     2.4579
   60.5000    12.4156     7.9241   -26.5057     8.4977    -0.3502     0.1202    83.3742     2.4549
   61.0000    12.4189     7.9293   -26.7816     8.4984    -0.3547     0.1191    86.0804     2.4481
   61.5000    12.2520     7.8800   -26.7626     8.4989    -0.3546     0.1182    89.8889     2.4459
   62.0000    12.1469     7.8309   -26.8986     8.4994    -0.3483     0.1182    91.3791     2.4497
   62.5000    12.0082     7.6770   -26.8805     8.5000    -0.3422     0.1182    89.9281     2.4558
   63.0000    11.7655     7.5249   -26.8643     8.4932    -0.3346     0.1181    88.1830     2.4611
   63.5000    11.5284     7.4279   -26.8453     8.4865    -0.3375     0.1178    87.9085     2.4627
   64.0000    11.3735     7.3310   -26.8300     8.4726    -0.3450     0.1175    92.6389     2.4590
   64.5000    11.2206     7.2843   -26.9661     8.4732    -0.3495     0.1171    96.7761     2.4537
   65.0000    11.1464     7.2401   -26.9469     8.4737    -0.3524     0.1169    99.7369     2.4515
   65.5000    11.0727     7.2460   -26.9307     8.4743    -0.3493     0.1169   101.2271     2.4565
   66.0000    10.9995     7.2507   -27.0640     8.4894    -0.3477     0.1178   101.5412     2.4608
   66.5000    11.0031     7.2554   -27.0450     8.4754    -0.3491     0.1190   100.9771     2.4660
   67.0000    11.0060     7.2601   -27.0295     8.4761    -0.3505     0.1202   100.4085     2.4653
   67.5000    11.0095     7.2660   -27.0107     8.4766    -0.3535     0.1211    99.5458     2.4613
   68.0000    11.0886     7.3210   -26.9942     8.4772    -0.3610     0.1328    98.3889     2.4556
   68.5000    11.1682     7.3764   -26.9808     8.4778    -0.3654     0.1313    96.3108     2.4510
   69.0000    11.1726     7.4836   -26.9646     8.4784    -0.3669     0.1292    93.4330     2.4488
   69.5000    11.3293     7.5414   -27.0972     8.4790    -0.3622     0.1286    90.5114     2.4534
   70.0000    11.3328     7.5985   -27.0781     8.4649    -0.3545     0.1260    87.8840     2.4573
   70.5000    11.3357     7.6560   -27.3584     8.4655    -0.3458     0.1164    85.8448     2.4603
   71.0000    11.3790     7.6856   -27.4901     8.4514    -0.3371     0.1140    87.1000     2.4650
   71.5000    11.4208     7.7194   -27.6224     8.4521    -0.3284     0.1104    93.8301     2.4748
   72.0000    11.5028     7.7244   -27.7508     8.4527    -0.3197     0.1064   107.6732     2.4914
   72.5000    11.5058     7.7841   -27.8835     8.4532    -0.3222     0.1046   131.2173     2.4862
   73.0000    11.5088     7.7891   -28.0153     8.4538    -0.3388     0.1079   114.4771     2.4779
   73.5000    11.5125     7.7942   -27.9962     8.4531    -0.3478     0.1118    92.6735     2.4711
   74.0000    11.3571     7.7993   -28.1323     8.4403    -0.3522     0.1139   106.2859     2.4674
   74.5000    11.3608     7.8056   -28.2611     8.4319    -0.3536     0.1145   111.3007     2.4675
   75.0000    11.3637     7.8107   -28.2448     8.4268    -0.3550     0.1145   104.2663     2.4675
   75.5000    11.2893     7.7608   -28.0789     8.4275    -0.3580     0.1145   100.1683     2.4676
   76.0000    11.3704     7.7671   -28.0637     8.4281    -0.3624     0.1151    98.1291     2.4676
   76.5000    11.3733     7.7734   -28.3434     8.4287    -0.3699     0.1169   106.6830     2.4660
   77.0000    11.3763     7.8323   -28.4719     8.4293    -0.3743     0.1199   119.0556     2.4632
   77.5000    11.3800     7.7823   -28.6041     8.4151    -0.3758     0.1232   128.4869     2.4579
   78.0000    11.3829     7.8424   -28.6421     8.4158    -0.3756     0.1264   124.3889     2.4527
   78.5000    11.3077     7.8488   -28.8687     8.4164    -0.3727     0.1287   114.1736     2.4512
   79.0000    11.1557     7.7987   -28.8525     8.4171    -0.3679     0.1290   100.9036     2.4520
   79.5000    10.7812     7.8051   -28.9856     8.4176    -0.3632     0.1259    94.1585     2.4536
   80.0000    10.3471     7.7032   -28.9665     8.4181    -0.3601     0.1268    92.1144     2.4544
   80.5000     9.7944     7.5000   -28.9513     8.4187    -0.3645     0.1342    94.1977     2.4522
   81.0000     9.4000     7.3009   -29.2310     8.4193    -0.3750     0.1383    96.9235     2.4469
   81.5000     9.0844     7.2045   -29.5070     8.4200    -0.3825     0.1355   101.0065     2.4432
   82.0000     8.8396     7.0628   -29.7867     8.4206    -0.3779     0.1328   105.1438     2.4417
   82.5000     8.7209     6.9637   -30.1413     8.4211    -0.3670     0.1304   110.7467     2.4471
   83.0000     8.6632     6.9274   -30.6373     8.4217    -0.3580     0.1279   106.9477     2.4539
   83.5000     8.6660     6.9330   -30.9171     8.4222    -0.3579     0.1252   101.5951     2.4600
   84.0000     8.6683     6.9375   -31.2006     8.4228    -0.3563     0.1222    94.3448     2.4532
   84.5000     8.7909     6.9421   -31.3353     8.4235    -0.3546     0.1203    88.7761     2.4457
   85.0000     8.9769     6.9476   -31.6088     8.4240    -0.3500     0.1209    87.0261     2.4473
   85.5000     9.1675     7.0002   -31.7411     8.4246    -0.3423     0.1215    88.8154     2.4556
   86.0000     9.3615     7.0532   -32.0208     8.4252    -0.3361     0.1212    88.8350     2.4626
   86.5000     9.6257     7.1067   -32.1492     8.4111    -0.3270     0.1197    86.5065     2.4693
   87.0000     9.8295     7.1615   -32.1302     8.4118    -0.3208     0.1191    85.9330     2.4731
   87.5000    10.0381     7.2656   -32.1165     8.4123    -0.3253     0.1188    85.9575     2.4762
