~VERSION INFORMATION
 VERS.                2.0:   CWLS LOG ASCII STANDARD - VERSION 2.0
 WRAP.                 NO:   ONE LINE PER DEPTH STEP
~WELL INFORMATION
#MNEM.UNIT      DATA TYPE    INFORMATION
#----------   ------------   ------------------------------
 STRT.F           30.0000:   START DEPTH
 STOP.F          655.5000:   STOP DEPTH
 STEP.F            0.5000:   STEP LENGTH
 NULL.          -999.2500:   NO VALUE
 COMP. FENIX & SCISSON INC:   COMPANY
 WELL.    NPR-3 SX #52-15:   WELL
 FLD .             TEAPOT:   FIELD
 LOC .      S15 T38N R78W:   LOCATION
 CNTY.            NATRONA:   COUNTY
 STAT.            WYOMING:   STATE
 CTRY. UNITED STATES OF AMERICA:   COUNTRY
 SRVC.            Unknown:   SERVICE COMPANY
 DATE.        27-MAY-1978:   LOGDATE
 API .       490251062200:   API NUMBER
~CURVE INFORMATION
#MNEM.UNIT       API CODE    CURVE DESCRIPTION
#----------   ------------   ------------------------------
 DEPT.F                  :   
 GRD .GAPI   45 310 01 00:   GAMMA RAY FROM DENSITY LOG
 CALD.IN     45 280 60 00:   CALIPER
 RHOB.G/C3   45 350 01 00:   BULK DENSITY
 DPHI.DEC    45 890 12 00:   DENSITY POROSITY SANDSTONE
 CORR.G/C3   45 356 01 00:   DENSITY CORRECTION
 SN  .OHMM   05 040 16 00:   SHORT NORMAL 16"
 IL  .OHMM   05 120 00 00:   INDUCTION LOG
 SPR .MV     05 010 01 00:   SPONTANEOUS POTENTIAL FROM RES.
~PARAMETER INFORMATION
#MNEM.UNIT          VALUE    DESCRIPTION
#----------   ------------   ------------------------------
 PD  .                 GL:   PERMANENT DATUM
 EPD .F              5240:   ELEVATION PERMANENT DATUM
 LMF .                 KB:   LOG MEASURED FROM
 DAPD.F                 4:   FEET ABOVE PERMANENT DATUM
 DMF .                 GL:   DRILLING MEASURED FROM
 EKB .F              5244:   KELLING BUSHING
 EGL .F              5240:   GROUND LEVEL
 DATE.          5-27-1978:   RUN DATE
 RUN .                  1:   RUN NUMBER
 DD  .F               645:   DEPTH DRILLER
 DL  .F               655:   DEPTH LOGGER
 BLI .F               650:   BOTTOM LOG INTERVAL
 TLI .F                50:   TOP LOG INTERVAL
 CS  .IN            8.625:   CASING SIZE
 CBD .F                40:   CASING BOTTOM DRILLER
 CBL .F                40:   CASING BOTTOM LOGGER
 BS  .IN            7.875:   BIT SIZE
 BSD .F               645:   BIT SIZE AT DEPTH
 DFT .                KCL:   DRILLING FLUID TYPE
 DFD .                8.6:   DRILLING FLUID DENSITY
 DFV .                 32:   DRILLING FLUID VISCOSITY
 DFPH.               10.5:   DRILLING FLUID PH
 DFL .                7.4:   DRILLING FLUID LOSS
 MSS .           FLOWLINE:   MUD SAMPLE SOURCE
 RMS .OHMM            .30:   RESISTIVITY MUD SAMPLE
 MST .F                66:   MUD SAMPLE TEMPERATURE
 RMF .OHMM            .32:   RESISTIVITY MUD FILTRATE SAMPLE
 MFST.F                64:   MUD FILTRATE SAMPLE TEMPERATURE
 RMC .OHMM            .50:   RESISTIVITY MUD CAKE
 MCST.F                64:   MUD CAKE SAMPLE TEMPERATURE
 MFSS.           MEASURED:   MUD FILTRATE SAMPLE SOURCE
 BHT .F                68:   BOTTOM HOLE TEMPERATURE
 TCS .HRS               2:   TIME CURCULATED STOPPED
 MRT .F                68:   MAXIMUM RECORDED TEMPERATURE
 LUN .               2958:   LOGGING UNIT NUMBER
 LUL .              CASP.:   LOGGING UNIT LOCATION
 ENGI.            POINTER:   RECORDING ENGINEER
 WITN.           MCGINLEY:   WITNESSED BY
 CLNT.            A2DTECH:   CLIENT CODE
 ORIG.      2" , 5" PRINT:   ORIGIN OF DATA
 UWI .       490251062200:   UNIQUE WELL ID
 DICO. A2D Technologies, Inc.:   DIGITIZING COMPANY
~OTHER INFORMATION
~A   DEPT       GRD      CALD       RHOB       DPHI       CORR         SN         IL        SPR   
   30.0000    39.3014  -999.2500  -999.2500  -999.2500  -999.2500  -999.2500  -999.2500  -999.2500
   30.5000    39.3014  -999.2500  -999.2500  -999.2500  -999.2500  -999.2500  -999.2500  -999.2500
   31.0000    39.3014  -999.2500  -999.2500  -999.2500  -999.2500  -999.2500  -999.2500  -999.2500
   31.5000    39.3014  -999.2500  -999.2500  -999.2500  -999.2500  -999.2500  -999.2500  -999.2500
   32.0000    39.3014  -999.2500  -999.2500  -999.2500  -999.2500  -999.2500  -999.2500  -999.2500
   32.5000    39.3014  -999.2500  -999.2500  -999.2500  -999.2500  -999.2500  -999.2500  -999.2500
   33.0000    39.3014  -999.2500  -999.2500  -999.2500  -999.2500  -999.2500  -999.2500  -999.2500
   33.5000    39.3013  -999.2500  -999.2500  -999.2500  -999.2500  -999.2500  -999.2500  -999.2500
   34.0000    39.3014  -999.2500  -999.2500  -999.2500  -999.2500  -999.2500  -999.2500  -999.2500
   34.5000    39.3027  -999.2500  -999.2500  -999.2500  -999.2500  -999.2500  -999.2500  -999.2500
   35.0000    39.3676  -999.2500  -999.2500  -999.2500  -999.2500  -999.2500  -999.2500  -999.2500
   35.5000    39.4904  -999.2500  -999.2500  -999.2500  -999.2500  -999.2500  -999.2500  -999.2500
   36.0000    39.6126  -999.2500  -999.2500  -999.2500  -999.2500  -999.2500  -999.2500  -999.2500
   36.5000    39.7351  -999.2500  -999.2500  -999.2500  -999.2500  -999.2500  -999.2500  -999.2500
   37.0000    39.8584  -999.2500  -999.2500  -999.2500  -999.2500  -999.2500  -999.2500  -999.2500
   37.5000    39.9793  -999.2500  -999.2500  -999.2500  -999.2500  -999.2500  -999.2500  -999.2500
   38.0000    40.3228  -999.2500  -999.2500  -999.2500  -999.2500  -999.2500  -999.2500  -999.2500
   38.5000    41.2415  -999.2500  -999.2500  -999.2500  -999.2500  -999.2500  -999.2500  -999.2500
   39.0000    42.1261  -999.2500  -999.2500  -999.2500    -0.5551  -999.2500  -999.2500  -999.2500
   39.5000    43.0119  -999.2500  -999.2500  -999.2500    -0.5311  -999.2500  -999.2500  -999.2500
   40.0000    43.8760     7.8244  -999.2500  -999.2500    -0.4896     1.6559     1.9545  -999.2500
   40.5000    44.2820     7.8244  -999.2500  -999.2500    -0.4441     1.6559     1.9545   -10.0598
   41.0000    44.7431     7.8710  -999.2500  -999.2500    -0.4153     1.6559     1.9545   -10.0598
   41.5000    47.3376     7.9389  -999.2500  -999.2500    -0.4186     1.6609     1.9609   -10.0598
   42.0000    53.8570     8.1307  -999.2500  -999.2500    -0.3284     1.6559     1.9545    -9.4270
   42.5000    60.2532     8.1598  -999.2500     0.1730    -0.0007     1.6559     1.9545    -9.2907
   43.0000    66.5853     8.6211  -999.2500     0.1688     0.1276     1.6559     1.9541    -8.8386
   43.5000    72.9488     7.5730     2.3536     0.1655     0.1971     1.6559     1.9550    -8.6415
   44.0000    76.7562     7.4363     2.4054     0.2301     0.1069     1.6559     1.9503   -12.9792
   44.5000    76.3961     7.3979     2.3683     0.2400     0.0419     1.6860     2.2549   -16.0367
   45.0000    76.2268     7.3662     2.3415     0.2689     0.0258     1.7753     2.7608   -17.7687
   45.5000    76.2449     7.3339     2.2769     0.2947     0.0176     1.8069     2.8749   -18.8482
   46.0000    74.7986     7.3013     2.2262     0.3200     0.0180     1.8390     3.5240   -19.9325
   46.5000    72.9675     7.2851     2.1754     0.3357     0.0413     1.9692     3.4805   -20.5704
   47.0000    73.8238     7.3226     2.1241     0.3367     0.0701     2.8031     3.2158   -20.8687
   47.5000    76.3234     7.3959     2.1096     0.3493     0.0991     3.4561     2.9712   -21.1584
   48.0000    82.9372     8.2577     2.1024     0.3687     0.0795     2.9863     2.7460   -21.4520
   48.5000    83.1152     7.3195     2.0711     0.3781     0.0487     2.6732     2.5166   -21.9046
   49.0000    85.2348     7.1771     2.0384     0.3816     0.0467     2.5706     2.2856   -22.5839
   49.5000    92.7962     7.1916     2.0295     0.3848     0.0499     2.4756     2.0752   -23.2609
   50.0000    98.0286     7.2230     2.0216     0.3848     0.0533     2.3841     1.8665   -23.6652
   50.5000    97.9993     7.2646     2.0225     0.3795     0.0649     2.2960     1.8665   -23.7859
   51.0000    98.0163     7.3143     2.0296     0.3638     0.0871     2.2235     1.9012   -23.9057
   51.5000    97.1707     7.3755     2.0538     0.3480     0.0923     2.3259     1.9726   -23.9565
   52.0000    92.2256     7.4904     2.0850     0.2669     0.1041     2.4384     2.1241   -23.6262
   52.5000    87.1935     8.1494     2.1137     0.2253     0.1558     2.5529     2.3231   -23.3004
   53.0000    86.2028     7.5826     2.3773     0.1815     0.1864     2.8542     2.6021   -22.9747
   53.5000    84.7309     8.7348     2.3873     0.1512     0.0533     3.1810     2.9145   -22.6502
   54.0000    78.1485     7.5653     2.4201     0.1431     0.0484     3.5451     3.2651   -22.6084
   54.5000    71.2841     7.4806     2.4380     0.1423     0.0475     4.1503     3.8207   -22.6089
   55.0000    71.5973     7.3818     2.4462     0.1431     0.0462     4.9548     4.9169   -22.6093
   55.5000    72.7110     7.3512     2.4470     0.1530     0.0448     5.9153     6.3228   -22.6091
   56.0000    73.7948     7.3597     2.4365     0.1605     0.0434     7.0620     8.1221   -22.6112
   56.5000    75.3147     7.3691     2.4260     0.1614     0.0421     7.4167     8.9489   -22.7213
   57.0000    77.1432     7.3781     2.4178     0.1659     0.0417     7.4995     8.9413   -23.0054
   57.5000    76.6102     7.3685     2.4102     0.1810     0.0412     7.3653     8.3579   -23.2871
   58.0000    75.5910     7.2774     2.4001     0.2022     0.0408     7.2742     7.2697   -23.5694
   58.5000    75.2329     7.2476     2.3802     0.2236     0.0404     7.1844     6.3233   -23.8515
   59.0000    75.3698     7.2496     2.3418     0.2509     0.0406     6.7826     5.4947   -24.1336
   59.5000    81.4795     7.2522     2.3040     0.2453     0.0462     6.3071     5.0413   -24.4158
   60.0000    91.9847     7.2549     2.2567     0.2301     0.0691     5.8649     5.0480   -24.6985
   60.5000   102.5095     7.2575     2.2613     0.1967     0.0918     5.4529     5.0673   -24.9819
   61.0000   105.6634     7.2600     2.3035     0.1599     0.0928     5.0702     5.0873   -25.2147
   61.5000   100.5314     7.2626     2.3571     0.1619     0.0794     4.9522     5.1073   -25.1488
   62.0000    93.1250     7.2648     2.4121     0.1679     0.0513     5.1253     5.1275   -23.8695
   62.5000    85.9552     7.2763     2.4057     0.1735     0.0316     5.7047     5.2416   -22.5765
   63.0000    78.7451     7.2916     2.3985     0.1744     0.0262     6.3495     6.0165   -21.2700
   63.5000    75.0526     7.3464     2.3914     0.1753     0.0278     6.9015     6.9029   -20.8696
   64.0000    76.3889     7.4026     2.3874     0.1761     0.0300     7.1912     8.1148   -20.5129
   64.5000    78.1818     7.4097     2.3879     0.1768     0.0322     7.4886     9.5364   -20.1013
   65.0000    79.0974     7.4137     2.3874     0.1819     0.0345     7.7989    10.1757   -19.4603
   65.5000    80.0432     7.4178     2.3833     0.1819     0.0385     8.1225    10.3372   -18.8223
   66.0000    81.0230     7.4226     2.3793     0.1801     0.0489     8.4596    10.6089   -18.1848
   66.5000    81.1277     7.4423     2.3785     0.1784     0.0591     8.8107    11.1222   -17.5469
   67.0000    80.8874     7.5810     2.3810     0.1770     0.0692     9.1766    11.6603   -16.9047
   67.5000    78.3591     7.7780     2.3815     0.1740     0.0795     9.5569    12.2245   -16.2615
   68.0000    75.3799     7.8020     2.3814     0.1687     0.0956     9.8029    12.6971   -16.2104
   68.5000    74.9324     7.8183     2.3911     0.1691     0.1141     9.9617    12.7831   -16.1938
   69.0000    74.3990     7.8015     2.3972     0.1703     0.1326    10.1230    12.7947   -16.1738
   69.5000    72.8135     7.7642     2.3982     0.1630     0.1512    10.2869    12.7946   -16.1530
   70.0000    71.2237     7.7254     2.3986     0.1533     0.1699    10.4535    12.7947   -16.1322
