~VERSION INFORMATION
 VERS.                2.0:   CWLS LOG ASCII STANDARD - VERSION 2.0
 WRAP.                 NO:   ONE LINE PER DEPTH STEP
~WELL INFORMATION
#MNEM.UNIT      DATA TYPE    INFORMATION
#----------   ------------   ------------------------------
 STRT.F           16.0000:   START DEPTH
 STOP.F         1254.0000:   STOP DEPTH
 STEP.F            0.5000:   STEP LENGTH
 NULL.          -999.2500:   NO VALUE
 COMP. FENIX & SCISSON INC:   COMPANY
 WELL. NAVAL PET RESERVE 3   75-S-14 #75-14:   WELL
 FLD .             TEAPOT:   FIELD
 LOC .      S14 T38N R78W:   LOCATION
 CNTY.            NATRONA:   COUNTY
 STAT.            WYOMING:   STATE
 CTRY. UNITED STATES OF AMERICA:   COUNTRY
 SRVC.              Welex:   SERVICE COMPANY
 DATE.        17-FEB-1977:   LOGDATE
 API .       490251027400:   API NUMBER
~CURVE INFORMATION
#MNEM.UNIT       API CODE    CURVE DESCRIPTION
#----------   ------------   ------------------------------
 DEPT.F                  :   
 SGRD.OHMM   07 220 05 00:   SHALLOW RESISTIVITY
 ILM .OHMM   07 120 44 00:   INDUCTION LOG MEDIUM
 SPR .MV     07 010 01 00:   SPONTANEOUS POTENTIAL
 ILD .OHMM   07 120 46 00:   INDUCTION LOG DEEP
 CALD.IN     45 280 60 00:   CALIPER
 GRD .GAPI   45 310 01 00:   GAMMA RAY FROM DENSITY LOG
 DPHI.DEC    45 890 12 00:   DENSITY POROSITY SANDSTONE
 RHOB.G/C3   45 350 01 00:   BULK DENSITY
 CORR.G/C3   45 356 01 00:   DENSITY CORRECTION
~PARAMETER INFORMATION
#MNEM.UNIT          VALUE    DESCRIPTION
#----------   ------------   ------------------------------
 PD  .                 GL:   PERMANENT DATUM
 EPD .F              5336:   ELEVATION PERMANENT DATUM
 LMF .                 GL:   LOG MEASURED FROM
 DMF .                 GL:   DRILLING MEASURED FROM
 EKB .F              5341:   KELLING BUSHING
 EGL .F              5336:   GROUND LEVEL
 DATE.          2-17-1977:   RUN DATE
 RUN .                  1:   RUN NUMBER
 DD  .F              1260:   DEPTH DRILLER
 DL  .F              1258:   DEPTH LOGGER
 BLI .F              1256:   BOTTOM LOG INTERVAL
 TLI .F                30:   TOP LOG INTERVAL
 CS  .IN            8.625:   CASING SIZE
 CBD .F                42:   CASING BOTTOM DRILLER
 CBL .F                42:   CASING BOTTOM LOGGER
 BS  .IN            7.875:   BIT SIZE
 BSD .F              1260:   BIT SIZE AT DEPTH
 DFT .          KCL WATER:   DRILLING FLUID TYPE
 DFD .                9.5:   DRILLING FLUID DENSITY
 DFV .                 34:   DRILLING FLUID VISCOSITY
 MSS .          FLOW LINE:   MUD SAMPLE SOURCE
 RMS .OHMM            .30:   RESISTIVITY MUD SAMPLE
 MST .F                43:   MUD SAMPLE TEMPERATURE
 RMF .OHMM            .28:   RESISTIVITY MUD FILTRATE SAMPLE
 MFST.F                43:   MUD FILTRATE SAMPLE TEMPERATURE
 RMC .OHMM            .40:   RESISTIVITY MUD CAKE
 MCST.F                43:   MUD CAKE SAMPLE TEMPERATURE
 MFSS.           MEASURED:   MUD FILTRATE SAMPLE SOURCE
 MCSS.           MEASURED:   MUD CAKE SAMPLE SOURCE
 RMB .OHMM            .13:   RESISTIVITY MUD AT BHT
 BHT .F               101:   BOTTOM HOLE TEMPERATURE
 TCS .HRS               5:   TIME CURCULATED STOPPED
 MRT .F               101:   MAXIMUM RECORDED TEMPERATURE
 LUN .               8611:   LOGGING UNIT NUMBER
 LUL .           GILLETTE:   LOGGING UNIT LOCATION
 ENGI.             LAWSON:   RECORDING ENGINEER
 WITN.         STUEBINGER:   WITNESSED BY
 CLNT.            A2DTECH:   CLIENT CODE
 ORIG.       2", 5" PRINT:   ORIGIN OF DATA
 UWI .       490251027400:   UNIQUE WELL ID
 DICO. A2D Technologies, Inc.:   DIGITIZING COMPANY
~OTHER INFORMATION
~A   DEPT     SGRD        ILM        SPR        ILD       CALD         GRD      DPHI       RHOB       CORR   
# ...
 1220.5000    12.6531    10.4397   -30.9339     7.4321     8.0057   100.4783     0.1127     2.4542     0.0639
 1221.0000    12.6250    10.9800   -31.1155     7.4039     7.9805    99.3239     0.1086     2.4579     0.0671
 1221.5000    12.7416    11.4097   -31.2972     7.4039     7.9814    98.1663     0.1044     2.4695     0.0701
 1222.0000    12.9552    10.7552   -31.4788     7.4039     7.9982    97.1271     0.1003     2.4809     0.0683
 1222.5000    13.1627    10.5512   -31.6605     7.4536     8.0172    97.1539     0.0961     2.4930     0.0644
 1223.0000    13.3739    11.2367   -31.8422     7.5099     8.0018    99.2138     0.0969     2.4926     0.0605
 1223.5000    14.0215    11.7558   -32.0242     7.5666     7.9442   101.2690     0.1005     2.4793     0.0582
 1224.0000    15.1697    12.2845   -32.2025     7.6116     7.9577   102.2770     0.1026     2.4705     0.0627
 1224.5000    14.3165    11.9339   -32.4263     7.6110     7.9970   101.0811     0.1016     2.4774     0.0673
 1225.0000    13.5145    11.5755   -32.6313     7.5839     8.0346    99.9102     0.0994     2.4882     0.0719
 1225.5000    12.8594    11.2268   -32.8400     7.5579     8.0360    98.7826     0.0972     2.4903     0.0726
 1226.0000    12.8594    10.8896   -32.8996     7.5322     7.9999   100.8901     0.0946     2.4845     0.0700
 1226.5000    12.8879    10.4979   -32.9506     7.5066     7.9635   103.2777     0.0978     2.4786     0.0672
 1227.0000    12.9171    10.4173   -33.0000     7.4811     7.9424   104.4471     0.1010     2.4727     0.0644
 1227.5000    12.9465    10.2081   -33.0498     7.4557     7.9605   105.6409     0.1042     2.4700     0.0615
 1228.0000    12.9782    10.2235   -33.0996     7.4303     8.0005   106.8429     0.1032     2.4773     0.0605
 1228.5000    12.9199    10.1660   -33.1495     7.4051     7.9882   108.0595     0.0996     2.4843     0.0638
 1229.0000    12.8562    10.1324   -33.1993     7.3799     7.9686   109.2039     0.0959     2.4913     0.0671
 1229.5000    12.7929    10.0988   -33.2491     7.3548     7.9486   108.3530     0.0923     2.4986     0.0703
 1230.0000    12.7299    10.0653   -33.2989     7.3361     7.9448   107.4058     0.0929     2.4941     0.0710
 1230.5000    12.6673    10.0319   -33.3488     7.2689     8.0066   106.4684     0.0959     2.4874     0.0683
 1231.0000    12.6242     9.9986   -33.3986     7.2023     8.0121   105.5312     0.0989     2.4808     0.0656
 1231.5000    12.7134     9.9654   -33.4484     7.2023     7.9801   104.5862     0.1020     2.4742     0.0628
 1232.0000    12.7930     9.9323   -33.4982     7.2018     7.9469   103.5449     0.1050     2.4676     0.0602
 1232.5000    12.8728     9.8993   -33.5477     7.2566     7.9208   107.6742     0.1080     2.4609     0.0596
 1233.0000    12.9531     9.8665   -33.5982     7.3118     7.9240   112.2692     0.1102     2.4577     0.0616
 1233.5000    12.9783     9.8337   -33.6929     7.3670     7.9332   109.8782     0.1067     2.4650     0.0629
 1234.0000    12.8469     9.8011   -33.9013     7.5423     7.9418   106.2627     0.1015     2.4719     0.0642
 1234.5000    12.7598     9.7685   -34.1087     7.5414     7.9504   107.4932     0.1015     2.4737     0.0656
 1235.0000    12.6732     9.7361   -34.3220     7.4590     7.9590   109.3918     0.1049     2.4659     0.0636
 1235.5000    12.5872     9.7038   -34.7074     7.3755     7.9676   109.0346     0.1083     2.4583     0.0595
 1236.0000    12.5018     9.6682   -34.9869     7.2932     7.9763   101.9884     0.1117     2.4505     0.0553
 1236.5000    12.3947     9.7274   -35.2682     7.2119     7.9818  -999.2500     0.1151     2.4427     0.0541
 1237.0000    12.4676     9.7576   -35.5523     7.1314     7.9526  -999.2500     0.1186     2.4442     0.0541
 1237.5000    12.5670     9.3519   -35.8362     7.0519     7.9209  -999.2500     0.1139     2.4507     0.0541
 1238.0000    12.6250     9.0152   -36.1200     6.9733     7.9021  -999.2500     0.1059     2.4677     0.0584
 1238.5000    12.4632     8.6907   -36.4038     6.8955     7.9031  -999.2500     0.0978     2.4852     0.0652
 1239.0000    12.3505     8.3778   -36.6876     6.8186     7.9207  -999.2500     0.0897     2.5027     0.0719
 1239.5000    12.2389     8.1175   -36.9715     6.7382     7.9393  -999.2500     0.0893     2.5178     0.0787
 1240.0000    12.1283     8.3130   -37.2553     6.6912     7.9619  -999.2500     0.0920     2.5097     0.0794
 1240.5000    12.0187     8.5247   -37.5391     6.5597     7.9495  -999.2500     0.0942     2.5012     0.0774
 1241.0000    11.9101     8.7419   -37.8229     6.5141     7.9381  -999.2500     0.0914     2.4970     0.0761
 1241.5000    11.8024     8.9646   -38.1068     6.4688     7.9271  -999.2500     0.0887     2.5105     0.0793
 1242.0000    11.6958     9.1929   -38.3906     6.4238     7.9160  -999.2500     0.0860     2.5237     0.0840
 1242.5000    11.5902     9.4271   -38.6744     6.3792     7.9046  -999.2500     0.0833     2.5316     0.0804
 1243.0000    11.4858     9.6682   -38.9582     6.3348     7.9017  -999.2500     0.0806     2.5200     0.0752
 1243.5000    11.3815     9.7576   -39.2421     6.2908     7.9333  -999.2500     0.0843     2.5106     0.0700
 1244.0000    11.2061     9.4658   -39.5261     6.2471     7.9629  -999.2500     0.0880     2.5013     0.0702
 1244.5000    10.8310     9.0386   -39.8086     6.1594     7.9488  -999.2500     0.0918     2.4919     0.0741
 1245.0000    10.4684     8.6302   -40.0896     5.9917     7.9297  -999.2500     0.0955     2.4903     0.0711
 1245.5000    10.1181     8.2403   -40.2642     5.6535     7.9102  -999.2500     0.0982     2.4954     0.0652
 1246.0000     9.7794     7.8681   -40.5542     5.3153     7.9027  -999.2500     0.0894     2.5009     0.0649
 1246.5000     9.4521     7.5127   -40.7921     4.9974     7.9016  -999.2500     0.0924     2.4904     0.0694
 1247.0000     9.4050     7.1734   -41.0241     4.8938     7.8820  -999.2500     0.0972     2.4768     0.0738
 1247.5000     9.5796     6.7948   -41.2576     5.0698     7.8622  -999.2500     0.1020     2.4631     0.0780
 1248.0000     9.0092     6.3215   -41.4902     5.2650     7.8426  -999.2500     0.1069     2.4495     0.0822
 1248.5000     7.1609     5.8854   -41.7256     5.4678     7.8229  -999.2500     0.1137     2.4358     0.0802
 1249.0000     5.6899     5.4796   -41.8598     5.6779     7.8033  -999.2500     0.1205     2.4221     0.0783
 1249.5000     4.5478     5.1016   -42.0976     5.8825     7.7837  -999.2500     0.1243     2.4162     0.0765
 1250.0000     3.8721     4.9846   -42.2686     5.9917     7.7641  -999.2500     0.0988     2.4608     0.0824
 1250.5000    11.3352     4.9805   -42.3774     5.9418     7.7444  -999.2500     0.0786     2.4953     0.0883
 1251.0000    11.2845     5.0961   -42.4863     5.8874     7.7248  -999.2500     0.0789     2.5200     0.0942
 1251.5000    10.2641     5.2486   -42.5968     5.8335     7.7067  -999.2500     0.0816     2.5179     0.1001
 1252.0000     9.6682     5.0725   -42.6150     5.7752     7.6729  -999.2500     0.0842     2.5121     0.1042
 1252.5000  -999.2500  -999.2500  -999.2500  -999.2500     7.6337  -999.2500     0.0869     2.5064     0.1064
 1253.0000  -999.2500  -999.2500  -999.2500  -999.2500     7.6000  -999.2500     0.0896     2.5006     0.1114
 1253.5000  -999.2500  -999.2500  -999.2500  -999.2500     7.5672  -999.2500     0.0926     2.4955     0.1242
 1254.0000  -999.2500  -999.2500  -999.2500  -999.2500     7.5636  -999.2500     0.0992     2.4892     0.1367
