~VERSION INFORMATION
 VERS.                2.0:   CWLS LOG ASCII STANDARD - VERSION 2.0
 WRAP.                 NO:   ONE LINE PER DEPTH STEP
~WELL INFORMATION
#MNEM.UNIT      DATA TYPE    INFORMATION
#----------   ------------   ------------------------------
 STRT.F           52.5000:   START DEPTH
 STOP.F         2929.0000:   STOP DEPTH
 STEP.F            0.5000:   STEP LENGTH
 NULL.          -999.2500:   NO VALUE
 COMP.   FLUOR DANIEL INC:   COMPANY
 WELL. NAVAL PETROLEUM RESERVE 3 X-23 #52-23:   WELL
 FLD .            WILDCAT:   FIELD
 LOC .      S23 T38N R78W:   LOCATION
 CNTY.            NATRONA:   COUNTY
 STAT.            WYOMING:   STATE
 CTRY. UNITED STATES OF AMERICA:   COUNTRY
 SRVC.            Unknown:   SERVICE COMPANY
 DATE.        23-APR-1995:   LOGDATE
 API .       490252271500:   API NUMBER
~CURVE INFORMATION
#MNEM.UNIT       API CODE    CURVE DESCRIPTION
#----------   ------------   ------------------------------
 DEPT.F                  :   
 ROP .MIN/FT 91 810 01 00:   RAT OF DRILLING PENETRATION
 TGAS.UNITS  91 830 01 00:   TOTAL GAS FROM HOTWIRE
~PARAMETER INFORMATION
#MNEM.UNIT          VALUE    DESCRIPTION
#----------   ------------   ------------------------------
 EKB .F              5344:   KELLING BUSHING
 EGL .F              5334:   GROUND LEVEL
 DATE.            4-23-95:   RUN DATE
 DD  .F              2929:   DEPTH DRILLER
 CS  .IN            9.625:   CASING SIZE
 CBD .F                53:   CASING BOTTOM DRILLER
 BS  .IN             8.75:   BIT SIZE
 BSD .F              2929:   BIT SIZE AT DEPTH
 ENGI.              TOWER:   RECORDING ENGINEER
 WITN.               HUSK:   WITNESSED BY
 CLNT.            A2DTECH:   CLIENT CODE
 ORIG.           5" PRINT:   ORIGIN OF DATA
 UWI .       490252271500:   UNIQUE WELL ID
 DICO. A2D Technologies, Inc.:   DIGITIZING COMPANY
~OTHER INFORMATION
~A   DEPT        ROP     TGAS   
# ...
 2604.0000     0.7343     2.2322
 2604.5000     0.5184     2.3628
 2605.0000     0.5400     2.3628
 2605.5000     0.5508     2.3628
 2606.0000     0.5616     2.3628
 2606.5000     0.5724     2.3628
 2607.0000     0.5832     2.3628
 2607.5000     0.5832     2.3628
 2608.0000     0.5832     2.3628
 2608.5000     0.5832     2.3628
 2609.0000     0.5825     2.3628
 2609.5000     0.5815     2.3628
 2610.0000     0.5805     2.3628
 2610.5000     0.5794     2.3628
 2611.0000     0.5784     2.3628
 2611.5000     0.5774     2.3628
 2612.0000     0.5763     2.3628
 2612.5000     0.5753     2.3628
 2613.0000     0.5743     2.3628
 2613.5000     0.5733     2.3628
 2614.0000     0.5724     2.3628
 2614.5000     0.5776     2.3628
 2615.0000     0.5822     2.3628
 2615.5000     0.5869     2.3628
 2616.0000     0.5916     2.3628
 2616.5000     0.5962     2.3628
 2617.0000     0.6009     2.3628
 2617.5000     0.5818     2.3628
 2618.0000     0.4759     2.3628
 2618.5000     0.4794     2.7698
 2619.0000     0.4830     4.8433
 2619.5000     0.4865     6.9168
 2620.0000     0.4901     8.9904
 2620.5000     0.4936    11.0639
 2621.0000     0.4972    13.1374
 2621.5000     0.5008    15.2109
 2622.0000     0.5043    17.2845
 2622.5000     0.5079    17.8282
 2623.0000     0.5114    17.8282
 2623.5000     0.5150    17.8282
 2624.0000     0.5185    17.8282
 2624.5000     0.5221    16.3501
 2625.0000     0.5256    14.8214
 2625.5000     0.5319    13.2926
 2626.0000     0.6479    11.8138
 2626.5000     0.6479    10.9547
 2627.0000     0.6479    10.7399
 2627.5000     0.6479    10.3103
 2628.0000     0.6479    10.0955
 2628.5000     0.6479    10.0955
 2629.0000     0.6479     9.6659
 2629.5000     0.6479     9.2363
 2630.0000     0.6479     9.0215
 2630.5000     0.6479     8.8067
 2631.0000     0.6479     8.1623
 2631.5000     0.6479     7.3031
 2632.0000     0.6479     6.6587
 2632.5000     0.6479     6.6587
 2633.0000     0.6479     6.6587
 2633.5000     0.6479     7.0883
 2634.0000     0.5616     7.0883
 2634.5000     0.5616     7.0883
 2635.0000     0.5616     7.0883
 2635.5000     0.5616     7.0883
 2636.0000     0.5616     7.0883
 2636.5000     0.5616     7.0883
 2637.0000     0.5616     7.0883
 2637.5000     0.5616     7.0883
 2638.0000     0.5616     7.0883
 2638.5000     0.5616     7.0883
 2639.0000     0.5616     7.0883
 2639.5000     0.5616     7.0883
 2640.0000     0.6911     7.0883
 2640.5000     0.6587     7.0883
 2641.0000     0.6695     7.0883
 2641.5000     0.6695     7.0883
 2642.0000     0.6695     7.0883
 2642.5000     0.6479     7.0883
 2643.0000     0.6479     7.0883
 2643.5000     0.6479     7.0883
 2644.0000     0.6479     7.0883
 2644.5000     0.6479     7.0883
 2645.0000     0.6371     7.0883
 2645.5000     0.6371     7.0883
 2646.0000     0.6479     7.0883
 2646.5000     0.6479     7.0883
 2647.0000     0.6479     7.0883
 2647.5000     0.6479     7.0883
 2648.0000     0.6479     7.0883
 2648.5000     0.6479     7.3160
 2649.0000     0.6479     7.3366
 2649.5000     0.6479     7.3571
 2650.0000     0.6479     7.3776
 2650.5000     0.5184     7.3982
 2651.0000     0.5292     7.4187
 2651.5000     0.5292     7.4393
 2652.0000     0.5400     7.4598
 2652.5000     0.5400     7.4803
 2653.0000     0.5400     7.5009
 2653.5000     0.5400     7.3031
 2654.0000     0.5400     7.3031
 2654.5000     0.5400     7.0883
 2655.0000     0.5400     7.0883
 2655.5000     0.5400     6.8735
 2656.0000     0.5400     6.6587
 2656.5000     0.5400     6.6587
 2657.0000     0.5400     6.6587
 2657.5000     0.5400     6.6587
 2658.0000     0.5400     6.2291
 2658.5000     0.5400     6.0143
 2659.0000     0.5400     5.7995
 2659.5000     0.5400     5.5847
 2660.0000     0.5400     5.3699
 2660.5000     0.5508     5.3699
 2661.0000     0.5508     5.1551
 2661.5000     0.5616     5.1551
 2662.0000     0.5616     5.1551
 2662.5000     0.5616     5.1441
 2663.0000     0.5724     5.1161
 2663.5000     0.5724     5.0881
 2664.0000     0.5724     5.0602
 2664.5000     0.5712     5.0322
 2665.0000     0.5700     5.0042
 2665.5000     0.5688     4.9762
 2666.0000     0.5676     4.9483
 2666.5000     0.5663     4.9203
 2667.0000     0.5651     4.8923
 2667.5000     0.5639     4.8643
 2668.0000     0.5627     4.8363
 2668.5000     0.5615     4.8084
 2669.0000     0.5610     4.7804
 2669.5000     0.5605     4.7524
 2670.0000     0.5600     4.7255
 2670.5000     0.5595     4.7255
 2671.0000     0.5590     4.7255
 2671.5000     0.5585     4.7255
 2672.0000     0.5580     4.7255
 2672.5000     0.5575     4.7255
 2673.0000     0.5570     4.7255
 2673.5000     0.5565     4.7255
 2674.0000     0.5560     4.7255
 2674.5000     0.5554     4.7255
 2675.0000     0.5549     4.7255
 2675.5000     0.5544     4.7255
 2676.0000     0.5539     4.7255
 2676.5000     0.5534     4.7255
 2677.0000     0.5529     4.7255
 2677.5000     0.5524     4.7415
 2678.0000     0.5519     4.7894
 2678.5000     0.5514     4.8373
 2679.0000     0.5509     4.8852
 2679.5000     0.7097     4.9331
 2680.0000     0.7883     4.9810
 2680.5000     0.7883     5.0289
 2681.0000     0.7883     5.0768
 2681.5000     0.7883     5.1247
 2682.0000     0.7883     5.1476
 2682.5000     0.6565     5.1267
 2683.0000     0.6534     5.1059
 2683.5000     0.6502     5.0851
 2684.0000     0.6471     5.0642
 2684.5000     0.6440     5.0434
 2685.0000     0.6408     5.0226
 2685.5000     0.6377     5.0017
 2686.0000     0.6346     4.9809
 2686.5000     0.4933     4.9601
 2687.0000     0.4930     4.9393
 2687.5000     0.4927     4.9202
 2688.0000     0.4924     4.9011
 2688.5000     0.4924     4.8819
 2689.0000     0.4927     4.8628
 2689.5000     0.4930     4.8436
 2690.0000     0.4933     4.8245
 2690.5000     0.4936     4.8054
 2691.0000     0.4939     4.7862
 2691.5000     0.4942     4.7671
 2692.0000     0.4945     4.7479
 2692.5000     0.4947     4.7255
 2693.0000     0.4950     4.6826
 2693.5000     0.4953     4.6308
 2694.0000     0.4956     4.5790
 2694.5000     0.4959     4.5272
 2695.0000     0.4962     4.4755
 2695.5000     0.4965     4.4237
 2696.0000     0.4968     4.3719
 2696.5000     0.4970     4.3201
 2697.0000     0.4973     4.2683
 2697.5000     0.4976     4.2166
 2698.0000     0.7678     4.1648
 2698.5000     0.7675     4.1130
 2699.0000     0.7673     4.0612
 2699.5000     0.7670     4.0094
 2700.0000     0.7667     3.9577
 2700.5000     0.7665     3.9059
 2701.0000     0.9930     3.8601
 2701.5000     0.9819     3.8335
 2702.0000     0.9841     3.8070
 2702.5000     0.9886     3.7805
 2703.0000     0.9931     3.7540
 2703.5000     0.9976     3.7274
 2704.0000     1.0022     3.7009
 2704.5000     0.6347     3.6744
 2705.0000     0.6344     3.6486
 2705.5000     0.6342     3.6277
 2706.0000     0.6339     3.6067
 2706.5000     0.6336     3.5858
 2707.0000     0.6334     3.5649
 2707.5000     0.6331     3.5439
 2708.0000     1.0000     3.5230
 2708.5000     0.9997     3.5021
 2709.0000     0.9994     3.4811
 2709.5000     0.9992     3.4602
 2710.0000     0.6102     3.4368
 2710.5000     0.6153     3.4368
 2711.0000     0.6205     3.4368
 2711.5000     0.6256     3.4368
 2712.0000     0.9654     3.4368
 2712.5000     0.9652     3.4368
 2713.0000     0.9649     3.4368
 2713.5000     0.9646     3.4368
 2714.0000     0.4784     3.4368
 2714.5000     0.4781     3.4368
 2715.0000     0.4779     3.4368
 2715.5000     0.4776     3.4368
 2716.0000     0.4773     3.4368
 2716.5000     0.4771     3.4368
 2717.0000     0.4768     3.4368
 2717.5000     0.4765     3.4368
 2718.0000     0.4762     3.4368
 2718.5000     0.4760     3.4368
 2719.0000     0.4757     3.4368
 2719.5000     0.4754     3.4368
 2720.0000     0.4752     3.4368
 2720.5000     0.4749     3.4368
 2721.0000     0.4746     3.4368
 2721.5000     0.4744     3.4368
 2722.0000     0.4741     3.4368
 2722.5000     0.4738     3.4373
 2723.0000     0.4735     3.4563
 2723.5000     0.4733     3.4753
 2724.0000     0.4730     3.4943
 2724.5000     0.6347     3.5132
 2725.0000     0.6344     3.5322
