~VERSION INFORMATION
 VERS.                2.0:   CWLS LOG ASCII STANDARD - VERSION 2.0
 WRAP.                 NO:   ONE LINE PER DEPTH STEP
~WELL INFORMATION
#MNEM.UNIT      DATA TYPE    INFORMATION
#----------   ------------   ------------------------------
 STRT.F           34.0000:   START DEPTH
 STOP.F          514.0000:   STOP DEPTH
 STEP.F            0.5000:   STEP LENGTH
 NULL.          -999.2500:   NO VALUE
 COMP. FENIX & SCISSON INC:   COMPANY
 WELL. NPR 3 #41 SX 10-10:   WELL
 FLD .             TEAPOT:   FIELD
 LOC .      S10 T38N R78W:   LOCATION
 CNTY.            NATRONA:   COUNTY
 STAT.            WYOMING:   STATE
 CTRY. UNITED STATES OF AMERICA:   COUNTRY
 SRVC.           BIRDWELL:   SERVICE COMPANY
 DATE.        25-JUN-1978:   LOGDATE
 API .       490251065200:   API NUMBER
~CURVE INFORMATION
#MNEM.UNIT       API CODE    CURVE DESCRIPTION
#----------   ------------   ------------------------------
 DEPT.F                  :   
 SPR .MV     07 010 01 00:   SPONTANEOUS POTENTIAL
 ILD .OHMM   07 120 46 00:   INDUCTION LOG DEEP
 SN  .OHMM   07 040 16 00:   SHORT NORMAL 16"
 CALD.IN     45 280 60 00:   CALIPER FROM DENSITY LOG
 GRD .GAPI   45 310 01 00:   GAMMA RAY FROM DENSITY LOG
 CORR.G/C3   45 356 01 00:   DENSITY CORRECTION
 DPHI.DEC    45 890 12 00:   DENSITY POROSITY SANDSTONE
 DEN .G/C3   45 350 01 00:   COMPENSATED BULK DENSTIY
 GRN .GAPI   35 310 01 00:   GAMMA RAY
 NEUT.NAPI   35 330 01 00:   NEUTRON
~PARAMETER INFORMATION
#MNEM.UNIT          VALUE    DESCRIPTION
#----------   ------------   ------------------------------
 PD  .                 GL:   PERMANENT DATUM
 EPD .F              5235:   ELEVATION PERMANENT DATUM
 LMF .                 KB:   LOG MEASURED FROM
 DAPD.F                 4:   FEET ABOVE PERMANENT DATUM
 DMF .                 KB:   DRILLING MEASURED FROM
 EKB .F              5239:   KELLING BUSHING
 EGL .F              5235:   GROUND LEVEL
 DATE.        25-JUN-1978:   RUN DATE
 RUN .                  1:   RUN NUMBER
 DD  .F               510:   DEPTH DRILLER
 DL  .F               514:   DEPTH LOGGER
 BLI .F               514:   BOTTOM LOG INTERVAL
 TLI .F                30:   TOP LOG INTERVAL
 CS  .IN            8.625:   CASING SIZE
 CBD .F                40:   CASING BOTTOM DRILLER
 CBL .F                40:   CASING BOTTOM LOGGER
 BS  .IN            7.875:   BIT SIZE
 BSD .F               510:   BIT SIZE AT DEPTH
 DFT .                KCL:   DRILLING FLUID TYPE
 DFD .                8.6:   DRILLING FLUID DENSITY
 DFV .                 31:   DRILLING FLUID VISCOSITY
 DFPH.                9.5:   DRILLING FLUID PH
 DFL .                 17:   DRILLING FLUID LOSS
 MSS .           FLOWLINE:   MUD SAMPLE SOURCE
 RMS .OHMM             .5:   RESISTIVITY MUD SAMPLE
 MST .F                74:   MUD SAMPLE TEMPERATURE
 RMF .OHMM            .54:   RESISTIVITY MUD FILTRATE SAMPLE
 MFST.F                72:   MUD FILTRATE SAMPLE TEMPERATURE
 RMC .OHMM            1.0:   RESISTIVITY MUD CAKE
 MCST.F                66:   MUD CAKE SAMPLE TEMPERATURE
 MFSS.               MEAS:   MUD FILTRATE SAMPLE SOURCE
 MCSS.               MEAS:   MUD CAKE SAMPLE SOURCE
 BHT .F                74:   BOTTOM HOLE TEMPERATURE
 TCS .HRS            0100:   TIME CURCULATED STOPPED
 MRT .F                74:   MAXIMUM RECORDED TEMPERATURE
 LUN .               2958:   LOGGING UNIT NUMBER
 LUL .               CASP:   LOGGING UNIT LOCATION
 ENGI.           REYNOLDS:   RECORDING ENGINEER
 CLNT.            A2DTECH:   CLIENT CODE
 ORIG.           5" PRINT:   ORIGIN OF DATA
 UWI .       490251065200:   UNIQUE WELL ID
 DICO. A2D Technologies, Inc.:   DIGITIZING COMPANY
~OTHER INFORMATION
~A   DEPT      SPR        ILD         SN       CALD        GRD       CORR       DPHI        DEN        GRN       NEUT   
# ...
   67.5000   -67.1513     7.8794     9.0712     7.6639   104.0047     0.0640     0.1431     2.4498    58.5853  1470.2935
   68.0000   -67.1499     7.8762     9.0057     7.6622   106.7211     0.0640     0.1404     2.4567    60.4940  1455.4344
   68.5000   -67.1485     7.8188     9.0027     7.6189   107.6275     0.0640     0.1398     2.4648    60.5689  1452.7228
   69.0000   -67.1470     7.7618     8.8753     7.5888   106.8748     0.0625     0.1459     2.4640    60.4940  1441.9152
   69.5000   -67.1456     7.6521     8.8112     7.6041   103.5299     0.0475     0.1308     2.4550    59.2964  1436.5049
   70.0000   -67.1442     7.4912     8.7475     7.6193   102.5040     0.0398     0.1365     2.4655    56.9012  1449.9851
   70.5000   -67.1428     7.3343     8.5650     7.6648   103.4105     0.0414     0.1431     2.4723    53.6078  1461.1255
   71.0000   -67.1414     7.2809     8.4444     7.7103   105.5235     0.0429     0.1465     2.4598    53.5319  1471.5448
   71.5000   -67.1400     7.2780     8.2682     7.7256   107.9382     0.0324     0.1454     2.4527    55.3717  1480.9771
   72.0000   -67.1385     7.2751     8.0950     7.6804   110.0513     0.0354     0.1380     2.4557    55.1048  1482.3167
   72.5000   -67.1371     7.2721     8.0365     7.6503   110.5052     0.0489     0.1429     2.4602    53.7575  1483.6528
   73.0000   -67.1357     7.3699     8.0903     7.5598   108.9987     0.0504     0.1420     2.4595    52.5599  1494.4312
   73.5000   -67.1343     7.5737     8.1996     7.4542   108.3969     0.0488     0.1208     2.4497    52.6347  1495.7677
   74.0000   -67.1329     7.8372     8.3112     7.7033   107.4933     0.0488     0.1118     2.4785    55.2545  1495.8445
   74.5000   -67.1302     7.9984     8.4331     7.8926   103.8749     0.0488     0.1139     2.4993    54.8054  1505.1832
   75.0000   -67.1258     8.2197     8.5973     8.0136    99.0498     0.0488     0.1130     2.5008    53.3084  1517.3141
   75.5000   -67.1215     8.2735     8.7755     8.1195    95.8838     0.0488     0.1172     2.5015    51.7270  1522.7017
   76.0000   -67.1171     8.2693     8.9559     8.1952    96.4889     0.0473     0.1239     2.4962    52.9341  1498.3975
   76.5000   -67.1128     8.2661     9.0778     8.2104   100.4119     0.0578     0.1299     2.4857    52.2605  1494.3364
   77.0000   -67.1085     8.2628     9.0746     8.1955   101.0167     0.0638     0.1323     2.4804    51.2126  1484.8781
   77.5000   -67.1041     8.2025     9.0084     8.0446   100.1132     0.0652     0.1365     2.4737    50.0898  1476.7690
   78.0000   -67.0998     8.0821     9.0054     7.9239    96.7783     0.0592     0.1112     2.4707    50.6886  1500.5927
   78.5000   -67.0954     7.9715     9.0024     7.8485    96.0437     0.0440     0.1118     2.4879    50.0898  1532.0621
   79.0000   -67.0911     7.9134     8.9994     7.7731    98.0062     0.0382     0.1163     2.5029    48.3683  1540.1483
   79.5000   -67.0868     7.9102     8.9344     7.7124   100.7226     0.0367     0.1186     2.5044    50.3249  1518.5427
   80.0000   -67.0824     7.9628     8.9314     7.6677   100.5732     0.0396     0.1399     2.4774    50.6138  1530.6736
   80.5000   -67.0781     8.0141     8.9278     7.6074    99.5189     0.0471     0.1529     2.4616    48.5928  1519.8660
   81.0000   -67.0737     8.0754     8.9248     7.5924    99.8582     0.0561     0.1562     2.4488    48.5928  1511.7570
   81.5000   -67.0694     8.1757     8.9218     7.6077   101.3321     0.0700     0.1517     2.4368    51.8114  1510.3943
   82.0000   -67.0651     8.2292     8.9809     7.6230   100.5794     0.0726     0.1399     2.4450    52.9341  1495.5356
   82.5000   -67.0607     8.2830     9.0402     7.6533    98.4692     0.0681     0.1293     2.4596    53.9072  1482.0326
   83.0000   -67.0564     8.2789     9.1624     7.6686    95.6049     0.0546     0.1150     2.4803    54.8842  1495.5128
   83.5000   -67.0520     8.3331     9.2870     7.6688    93.7964     0.0410     0.1037     2.5156    55.8992  1492.7977
   84.0000   -67.0477     8.3290     9.4787     7.6991    92.8748     0.0485     0.1115     2.5239    57.9491  1476.5928
   84.5000   -67.0434     8.3257     9.6076     7.7446    95.6096     0.0515     0.1272     2.5156    57.5000  1490.0735
   85.0000   -67.0390     8.2650     9.6711     7.8505   100.8901     0.0500     0.1324     2.4998    52.5599  1472.5187
   85.5000   -67.0347     8.2047     9.5349     7.9876   105.4164     0.0500     0.1309     2.4749    49.7156  1479.2522
   86.0000   -67.0303     8.0887     9.4001     7.9414   105.5683     0.0485     0.1297     2.4735    46.9461  1475.1912
   86.5000   -67.0260     8.0296     9.2039     7.8358   104.2127     0.0485     0.1287     2.4780    46.1228  1480.5756
   87.0000   -66.9998     7.9704     9.1374     7.7151   103.7616     0.0484     0.1266     2.4788    48.8922  1429.2849
   87.5000   -66.7095     7.9123     9.0088     7.6095   104.0651     0.0484     0.1278     2.4780    52.1108  1382.0454
   88.0000   -66.2869     7.9092     8.9437     7.6701   103.4632     0.0484     0.1300     2.4765    52.5599  1430.6080
   88.5000   -65.9933     7.9060     8.8784     7.7801   103.3135     0.0499     0.1285     2.4773    52.4850  1485.9174
   89.0000   -66.1509     7.9029     8.8142     8.0027   103.3153     0.0499     0.1321     2.4776    52.5599  1499.4877
   89.5000   -66.1581     7.9544     8.7506     8.1691   103.6264     0.0529     0.1327     2.4780    53.0838  1495.3333
   90.0000   -66.7769     7.9511     8.7477     8.1692   105.5810     0.0623     0.1345     2.4772    53.9072  1489.9229
   90.5000   -67.2269     7.9472     8.7448     8.1240   105.7333     0.0784     0.1366     2.4741    52.6347  1495.3071
   91.0000   -67.0819     7.9441     8.7418     8.0637   106.3380     0.0889     0.1391     2.4659    48.2186  1500.6946
   91.5000   -67.0909     7.9409     8.7383     8.0320   106.4903     0.1024     0.1381     2.4622    48.3683  1496.6302
   92.0000   -67.0981     7.9378     8.7358     7.9885   105.4359     0.1041     0.1249     2.4712    49.6407  1518.2064
   92.5000   -67.2557     7.9346     8.7325     7.8830   103.0141     0.0902     0.1197     2.4802    50.7785  1538.4332
   93.0000   -67.4356     7.9313     8.7902     7.8680   102.8747     0.0588     0.1185     2.5072    50.1647  1522.0482
   93.5000   -67.5726     7.9275     8.7873     7.8530   102.7253     0.0467     0.1179     2.5298    49.2665  1524.9106
   94.0000   -67.5798     7.9244     8.7836     7.8230   102.7271     0.0422     0.1318     2.5050    48.8922  1547.8362
   94.5000   -67.5870     7.8666     8.7807     7.7909   102.2761     0.0392     0.1324     2.4809    51.0629  1566.7136
   95.0000   -67.5942     7.8635     8.7778     7.7175   102.1267     0.0287     0.1342     2.4719    50.3144  1589.6392
   95.5000   -67.6015     7.8061     8.7749     7.6874   101.4445     0.0335     0.1345     2.4719    49.8653  1595.0233
   96.0000   -67.6104     7.8023     8.7720     7.7027    96.7001     0.0632     0.1514     2.4689    48.5180  1589.6130
   96.5000   -67.6176     7.7454     8.7691     7.7331    98.9640     0.0692     0.1554     2.4518    49.1930  1559.3724
   97.0000   -67.6254     7.7423     8.7655     7.7332    99.8704     0.0677     0.1421     2.4351    51.4371  1500.5281
   97.5000   -67.5676     7.7392     8.7626     7.7334    99.7207     0.0586     0.1312     2.4621    51.5120  1505.9124
   98.0000   -67.4973     7.6828     8.7597     7.7487   101.0799     0.0286     0.1195     2.4974    52.1108  1532.8857
   98.5000   -67.4270     7.6797     8.7568     7.7790   100.4560     0.0288     0.1213     2.4996    51.5120  1538.2733
   99.0000   -67.3566     7.6760     8.7539     7.8094   101.0832     0.0316     0.1294     2.4869    47.1707  1524.7637
   99.5000   -67.2863     7.6729     8.7508     7.8548   105.1570     0.0330     0.1324     2.4762    46.9271  1526.1000
  100.0000   -67.2160     7.6935     8.7270     7.8852   106.2139     0.0330     0.1352     2.4717    49.5659  1534.1829
  100.5000   -67.1456     7.7744     8.4473     7.9304   105.1615     0.0330     0.1382     2.4703    49.7473  1526.0546
