~VERSION INFORMATION
 VERS.                2.0:   CWLS LOG ASCII STANDARD - VERSION 2.0
 WRAP.                 NO:   ONE LINE PER DEPTH STEP
~WELL INFORMATION
#MNEM.UNIT      DATA TYPE    INFORMATION
#----------   ------------   ------------------------------
 STRT.F           14.0000:   START DEPTH
 STOP.F          692.5000:   STOP DEPTH
 STEP.F            0.5000:   STEP LENGTH
 NULL.          -999.2500:   NO VALUE
 COMP. FENIX & SCISSON INC:   COMPANY
 WELL. NPR #3 #27-51 SX 11 WP:   WELL
 FLD .        TEAPOT DOME:   FIELD
 LOC .      S11 T38N R78W:   LOCATION
 CNTY.            NATRONA:   COUNTY
 STAT.            WYOMING:   STATE
 CTRY. UNITED STATES OF AMERICA:   COUNTRY
 SRVC.      Dresser Atlas:   SERVICE COMPANY
 DATE.        16-AUG-1980:   LOGDATE
 API .       490251083900:   API NUMBER
~CURVE INFORMATION
#MNEM.UNIT       API CODE    CURVE DESCRIPTION
#----------   ------------   ------------------------------
 DEPT.F                  :   
 RHOB.G/C3   45 350 01 00:   BULK DENSITY
 CORR.G/C3   45 356 01 00:   DENSITY CORRECTION
 GRD .GAPI   45 310 01 00:   GAMMA RAY FROM DENSITY LOG
 CALD.IN     45 280 60 00:   CALIPER
 NPOR.DEC    42 890 03 00:   NEUTRON POROSITY SANDSTONE
 DPOR.DEC    45 890 12 00:   DENSITY POROSITY SANDSTONE
 SPR .MV     07 010 01 00:   SPONTANEOUS POTENTIAL
 SFL .OHMM   07 220 01 00:   SHALLOW FOCUSED LOG RESISTIVITY
 ILM .OHMM   07 120 44 00:   INDUCTION LOG MEDIUM
 ILD .OHMM   07 120 46 00:   INDUCTION LOG DEEP
~PARAMETER INFORMATION
#MNEM.UNIT          VALUE    DESCRIPTION
#----------   ------------   ------------------------------
 PD  .                 GL:   PERMANENT DATUM
 EPD .F              5194:   ELEVATION PERMANENT DATUM
 LMF .                 KB:   LOG MEASURED FROM
 DAPD.F                 5:   FEET ABOVE PERMANENT DATUM
 DMF .                 KB:   DRILLING MEASURED FROM
 EKB .F              5199:   KELLING BUSHING
 EGL .F              5194:   GROUND LEVEL
 DATE.            8-16-80:   RUN DATE
 RUN .                  1:   RUN NUMBER
 DD  .F               685:   DEPTH DRILLER
 DL  .F               693:   DEPTH LOGGER
 BLI .F               692:   BOTTOM LOG INTERVAL
 TLI .F                25:   TOP LOG INTERVAL
 BS  .IN            7.875:   BIT SIZE
 BSD .F               685:   BIT SIZE AT DEPTH
 DFT .                KCL:   DRILLING FLUID TYPE
 DFD .                9.4:   DRILLING FLUID DENSITY
 DFV .                 45:   DRILLING FLUID VISCOSITY
 DFPH.                 11:   DRILLING FLUID PH
 DFL .                7.2:   DRILLING FLUID LOSS
 MSS .           FLOWLINE:   MUD SAMPLE SOURCE
 RMS .OHMM            .74:   RESISTIVITY MUD SAMPLE
 MST .F                60:   MUD SAMPLE TEMPERATURE
 RMF .OHMM            .44:   RESISTIVITY MUD FILTRATE SAMPLE
 MFST.F                60:   MUD FILTRATE SAMPLE TEMPERATURE
 RMC .OHMM           1.35:   RESISTIVITY MUD CAKE
 MCST.F                60:   MUD CAKE SAMPLE TEMPERATURE
 MFSS.               MEAS:   MUD FILTRATE SAMPLE SOURCE
 MCSS.               MEAS:   MUD CAKE SAMPLE SOURCE
 TCS .HRS               1:   TIME CURCULATED STOPPED
 LUN .               6180:   LOGGING UNIT NUMBER
 LUL .               CODY:   LOGGING UNIT LOCATION
 ENGI.              HOYER:   RECORDING ENGINEER
 WITN.           MCINTYRE:   WITNESSED BY
 CLNT.            A2DTECH:   CLIENT CODE
 ORIG.      2" 2.5" PRINT:   ORIGIN OF DATA
 UWI .       490251083900:   UNIQUE WELL ID
 DICO. A2D Technologies, Inc.:   DIGITIZING COMPANY
~OTHER INFORMATION
~A   DEPT     RHOB       CORR        GRD       CALD       NPOR       DPOR        SPR        SFL         ILM       ILD   
# ...
  282.0000     2.5009     0.0261   116.4293     8.1553     0.2752     0.1063   -83.4512     8.8327     8.0931     8.3203
  282.5000     2.5149     0.0276   113.8273     8.1580     0.2732     0.1016   -83.3007     8.8327     8.2277     8.4732
  283.0000     2.5100     0.0267   114.4413     8.1612     0.2712     0.1041   -83.1427     9.0130     8.3646     8.6288
  283.5000     2.4982     0.0231   115.2802     8.1644     0.2691     0.1085   -83.1326     9.1800     8.5038     8.7874
  284.0000     2.4862     0.0199   115.0614     8.1676     0.2704     0.1128   -83.1334     9.3330     8.6442     8.9479
  284.5000     2.4862     0.0162   113.3945     8.1708     0.2800     0.1153   -83.1329     9.3330     8.7924     9.1165
  285.0000     2.4979     0.0172   111.9870     8.1740     0.2836     0.1109   -83.0841     9.3330     8.9917     9.2842
  285.5000     2.5094     0.0196   111.9534     8.1772     0.2777     0.1041   -82.9820     9.6723     9.2311     9.4664
  286.0000     2.5199     0.0220   111.9539     8.1805     0.2708     0.0973   -82.8428    10.0518     9.4738     9.6490
  286.5000     2.5309     0.0243   110.7115     8.1836     0.2639     0.0909   -82.6564    11.0752     9.7229     9.8353
  287.0000     2.5378     0.0269   109.6059     8.1869     0.2569     0.0888   -82.4721    11.6586     9.9527    10.0253
  287.5000     2.5220     0.0278   108.4093     8.1901     0.2507     0.0946   -82.2863    10.3165    10.0255    10.2189
  288.0000     2.5090     0.0264   109.3313     8.1931     0.2518     0.1012   -82.1002     9.3263    10.1071    10.4163
  288.5000     2.4957     0.0252   113.2790     8.1971     0.2553     0.1078   -81.9426     9.3282    10.1893    10.5151
  289.0000     2.4950     0.0240   115.2449     8.1924     0.2562     0.1096   -82.1649     9.9360    10.2306    10.5177
  289.5000     2.4943     0.0228   112.2607     8.1823     0.2535     0.1096   -82.3791    10.3323    10.1838    10.5174
  290.0000     2.4857     0.0216   109.0260     8.1730     0.2507     0.1146   -82.5832    10.0841    10.1479    10.4442
  290.5000     2.4777     0.0204   108.4863     8.1637     0.2523     0.1190   -82.6006     9.9527    10.1121    10.3790
  291.0000     2.4750     0.0209   109.5707     8.1544     0.2551     0.1218   -82.0361     9.9527    10.0766    10.3143
  291.5000     2.4890     0.0239   110.0503     8.1452     0.2589     0.1185   -81.4701     9.7626    10.0442    10.2301
  292.0000     2.4911     0.0270   109.1410     8.1355     0.2632     0.1127   -81.5497     9.4973    10.0440    10.2310
  292.5000     2.4844     0.0268   109.1923     8.1267     0.2683     0.1154   -81.8380     9.2392    10.0456    10.2314
  293.0000     2.4849     0.0238   110.1419     8.1180     0.2683     0.1177   -82.1355     9.1632     9.9364    10.1259
  293.5000     2.4915     0.0210   110.4310     8.1315     0.2648     0.1104   -82.4321     9.1632     9.8391    10.0461
  294.0000     2.4849     0.0182   108.5293     8.1458     0.2592     0.1148   -82.7231     9.3116     9.7427     9.9669
  294.5000     2.4771     0.0160   107.6140     8.1566     0.2536     0.1208   -82.9169     9.4191     9.6470     9.8880
  295.0000     2.4771     0.0179   109.2543     8.1536     0.2507     0.1208   -82.8255     9.0260     9.5536     9.8108
  295.5000     2.4805     0.0221   110.5279     8.1510     0.2529     0.1195   -82.7432     8.7348     9.5049     9.7705
  296.0000     2.4840     0.0274   110.9387     8.1481     0.2547     0.1168   -82.5852     8.5927     9.5054     9.7708
  296.5000     2.4811     0.0221   111.7307     8.1453     0.2523     0.1186   -82.4225     8.7600     9.5060     9.7715
  297.0000     2.4671     0.0101   113.5621     8.1425     0.2523     0.1245   -82.5281     8.9497     9.5061     9.8522
  297.5000     2.4528     0.0033   112.8681     8.1396     0.2555     0.1303   -82.9195     9.1632     9.5059     9.8999
  298.0000     2.4475     0.0043   110.8943     8.1367     0.2515     0.1369   -82.7787     8.9142     9.4963     9.9527
  298.5000     2.4572     0.0086   110.8561     8.1339     0.2535     0.1337   -82.6004     8.6720     9.4829     9.9285
  299.0000     2.4688     0.0149   112.5471     8.1310     0.2547     0.1247   -82.4229     8.8652     9.4692     9.9017
  299.5000     2.4802     0.0217   112.6510     8.1282     0.2495     0.1182   -82.2464     9.0295     9.4556     9.8754
  300.0000     2.4868     0.0244   110.2355     8.1254     0.2443     0.1160   -82.0692     9.0794     9.4420     9.8612
  300.5000     2.4816     0.0255   109.4559     8.1225     0.2443     0.1166   -81.8928     9.0099     9.4283     9.8615
  301.0000     2.4861     0.0266   109.4520     8.1197     0.2459     0.1159   -81.7560     8.9964     9.4050     9.7948
  301.5000     2.4959     0.0278   107.8308     8.1171     0.2475     0.1118   -81.9736     8.9964     9.2787     9.6647
  302.0000     2.4995     0.0288   110.0097     8.1170     0.2457     0.1088   -82.1848     8.9964     9.1541     9.5364
  302.5000     2.4935     0.0301   110.3663     8.1169     0.2443     0.1115   -82.2016     8.9964     9.0312     9.4097
  303.0000     2.4877     0.0311   110.0596     8.1169     0.2512     0.1145   -81.7478     8.9964     8.9099     9.2847
  303.5000     2.4852     0.0317   108.8695     8.1169     0.2576     0.1160   -81.3016     9.0684     8.7903     9.1614
  304.0000     2.4849     0.0254   108.1228     8.1169     0.2594     0.1160   -80.8318     9.5951     8.6721     9.0397
  304.5000     2.4773     0.0200   108.4098     8.1169     0.2521     0.1223   -81.1609     9.9527     8.5552     8.9142
  305.0000     2.4698     0.0124   107.3756     8.1169     0.2413     0.1248   -81.7331     9.7715     8.4354     8.8240
  305.5000     2.4664     0.0120   106.0635     8.1169     0.2503     0.1265   -82.3099     9.5867     8.4363     8.7304
  306.0000     2.4706     0.0143   107.5451     8.1169     0.2670     0.1265   -82.3395     9.5045     8.4363     8.6378
  306.5000     2.4811     0.0210   109.7826     8.1169     0.2812     0.1211   -82.3363     9.4749     8.3735     8.5463
  307.0000     2.4910     0.0273   111.8920     8.1169     0.2786     0.1156   -82.3358     9.4191     8.3093     8.4357
  307.5000     2.4902     0.0320   113.4309     8.1169     0.2725     0.1128   -82.3393     9.3127     8.2455     8.4368
  308.0000     2.4796     0.0291   110.5283     8.1168     0.2664     0.1183   -82.1585     9.1632     8.1823     8.4369
  308.5000     2.4667     0.0260   109.6080     8.1170     0.2603     0.1257   -81.9284     9.3240     8.1195     8.3455
  309.0000     2.4712     0.0243   109.5598     8.1172     0.2542     0.1257   -81.7315     9.6064     8.0573     8.2553
  309.5000     2.4805     0.0316   108.2552     8.1222     0.2499     0.1194   -81.7358     9.7753     7.9955     8.1661
  310.0000     2.4892     0.0388   106.8983     8.1271     0.2499     0.1130   -81.7370     9.5149     7.9841     8.1321
  310.5000     2.4857     0.0333   106.3757     8.1323     0.2468     0.1152   -81.7404     9.2653     7.9841     8.3751
  311.0000     2.4773     0.0212   107.0956     8.1374     0.2441     0.1196   -81.5787     9.0766     8.0717     8.6204
  311.5000     2.4722     0.0180   107.5848     8.1425     0.2391     0.1233   -81.3749     9.0752     8.1790     8.9142
  312.0000     2.4769     0.0137   107.5037     8.1476     0.2334     0.1233   -81.3374     9.7760     8.2876     8.7978
  312.5000     2.4809     0.0092   105.8017     8.1528     0.2322     0.1200   -81.3365    10.9727     8.3977     8.6191
  313.0000     2.4737     0.0043   104.3402     8.1572     0.2322     0.1223   -81.3373    11.4225     8.4363     8.4439
  313.5000     2.4673     0.0051   104.7681     8.1590     0.2353     0.1273   -81.3604     9.5999     8.2629     8.2828
  314.0000     2.4648     0.0077   107.4618     8.1607     0.2428     0.1273   -81.4893     8.9142     8.1001     8.2823
  314.5000     2.4558     0.0106   110.1468     8.1622     0.2502     0.1310   -81.5359     9.2477     7.9412     8.2839
  315.0000     2.4470     0.0132   111.3227     8.1638     0.2576     0.1356   -81.5386     9.0784     7.7855     8.0973
