~VERSION INFORMATION
 VERS.                2.0:   CWLS LOG ASCII STANDARD - VERSION 2.0
 WRAP.                 NO:   ONE LINE PER DEPTH STEP
~WELL INFORMATION
#MNEM.UNIT      DATA TYPE    INFORMATION
#----------   ------------   ------------------------------
 STRT.F           70.0000:   START DEPTH
 STOP.F          806.0000:   STOP DEPTH
 STEP.F            0.5000:   STEP LENGTH
 NULL.          -999.2500:   NO VALUE
 COMP. U S NAVY/INTEX OIL CO:   COMPANY
 WELL. RES 3 TEAPOT DOME #33-S-2:   WELL
 FLD .             TEAPOT:   FIELD
 LOC .       S2 T38N R78W:   LOCATION
 CNTY.            NATRONA:   COUNTY
 STAT.            WYOMING:   STATE
 CTRY. UNITED STATES OF AMERICA:   COUNTRY
 SRVC.         Lane Wells:   SERVICE COMPANY
 DATE.        15-MAR-1980:   LOGDATE
 API .       490250644600:   API NUMBER
~CURVE INFORMATION
#MNEM.UNIT       API CODE    CURVE DESCRIPTION
#----------   ------------   ------------------------------
 DEPT.F                  :   
 GR  .GAPI   30 310 01 00:   GAMMA RAY
 SPR .MV     05 010 01 00:   SPONTANEOUS POTENTIAL FROM RES.
 CILD.MMHO   05 110 46 00:   CONDUCTIVITY INDUCTION LOG DEEP
 ASN .OHMM   05 041 16 00:   AMPLIFIED SHORT NORMAL 16"
 ILD .OHMM   05 120 46 00:   INDUCTION LOG DEEP
~PARAMETER INFORMATION
#MNEM.UNIT          VALUE    DESCRIPTION
#----------   ------------   ------------------------------
 PD  .                 GL:   PERMANENT DATUM
 EPD .F              5119:   ELEVATION PERMANENT DATUM
 LMF .                 KB:   LOG MEASURED FROM
 DAPD.F                 5:   FEET ABOVE PERMANENT DATUM
 DMF .                 KB:   DRILLING MEASURED FROM
 EKB .F              5124:   KELLING BUSHING
 EGL .F              5119:   GROUND LEVEL
 DATE.            3-15-60:   RUN DATE
 RUN .                  1:   RUN NUMBER
 DD  .F               810:   DEPTH DRILLER
 DL  .F               808:   DEPTH LOGGER
 BLI .F               806:   BOTTOM LOG INTERVAL
 TLI .F                70:   TOP LOG INTERVAL
 CS  .IN            8.625:   CASING SIZE
 CBD .F                12:   CASING BOTTOM DRILLER
 BS  .IN            7.875:   BIT SIZE
 BSD .F               810:   BIT SIZE AT DEPTH
 DFT .   GEL/OIL EMULSION:   DRILLING FLUID TYPE
 DFD .                6.8:   DRILLING FLUID DENSITY
 DFV .                 34:   DRILLING FLUID VISCOSITY
 DFPH.                7.6:   DRILLING FLUID PH
 DFL .                9.4:   DRILLING FLUID LOSS
 MSS .           FLOWLINE:   MUD SAMPLE SOURCE
 RMS .OHMM            4.2:   RESISTIVITY MUD SAMPLE
 MST .F                65:   MUD SAMPLE TEMPERATURE
 RMF .OHMM            3.3:   RESISTIVITY MUD FILTRATE SAMPLE
 MFST.F                68:   MUD FILTRATE SAMPLE TEMPERATURE
 RMC .OHMM              4:   RESISTIVITY MUD CAKE
 MCST.F                68:   MUD CAKE SAMPLE TEMPERATURE
 MFSS.                MUD:   MUD FILTRATE SAMPLE SOURCE
 MCSS.              PRESS:   MUD CAKE SAMPLE SOURCE
 RMB .OHMM            3.9:   RESISTIVITY MUD AT BHT
 BHT .F                71:   BOTTOM HOLE TEMPERATURE
 MRT .F                71:   MAXIMUM RECORDED TEMPERATURE
 LUN .             L-4474:   LOGGING UNIT NUMBER
 LUL .             CASPER:   LOGGING UNIT LOCATION
 ENGI.      GRIGGS/NELSON:   RECORDING ENGINEER
 WITN.   JORGENSEN/HUDSON:   WITNESSED BY
 CLNT.            A2DTECH:   CLIENT CODE
 ORIG. 1", 2.5", 5" PRINT:   ORIGIN OF DATA
 UWI .       490250644600:   UNIQUE WELL ID
 DICO. A2D Technologies, Inc.:   DIGITIZING COMPANY
~OTHER INFORMATION
~A   DEPT       GR        SPR        CILD         ASN        ILD 
# ...
  131.0000  -999.2500   -30.3867   116.8754     5.3459     5.3868
  131.5000  -999.2500   -30.3211   123.8661     5.1363     5.3010
  132.0000  -999.2500   -30.3264   132.3647     4.9289     5.2122
  132.5000  -999.2500   -30.3715   137.4415     4.7359     5.1176
  133.0000  -999.2500   -30.4121   143.9145     4.5414     5.0297
  133.5000  -999.2500   -30.4391   150.3874     4.3217     4.9467
  134.0000  -999.2500   -30.4690   156.8604     4.1009     4.8499
  134.5000  -999.2500   -30.5079   163.3333     3.9464     4.7468
  135.0000  -999.2500   -30.5445   170.4409     3.8935     4.6856
  135.5000  -999.2500   -30.5731   170.4409     3.9149     4.7011
  136.0000  -999.2500   -30.6051   165.8391     3.9794     4.7669
  136.5000  -999.2500   -30.6465   160.8457     4.0938     4.8310
  137.0000  -999.2500   -30.6727   155.8523     4.2701     4.8801
  137.5000  -999.2500   -30.6456   150.8589     4.4796     4.9349
  138.0000  -999.2500   -30.5563   145.8654     4.6643     4.9974
  138.5000  -999.2500   -30.4403   140.8720     4.7828     5.0409
  139.0000  -999.2500   -30.3465   136.1723     4.8341     5.0470
  139.5000  -999.2500   -30.3028   136.1723     4.8355     5.0203
  140.0000  -999.2500   -30.3089   136.1723     4.7987     4.9763
  140.5000  -999.2500   -30.3449   136.1723     4.7403     4.9378
  141.0000  -999.2500   -30.3869   143.4068     4.6860     4.9212
  141.5000  -999.2500   -30.4226   149.8798     4.6274     4.9015
  142.0000  -999.2500   -30.4544   155.2104     4.5059     4.8187
  142.5000  -999.2500   -30.4867   174.8577     4.2846     4.6488
  143.0000  -999.2500   -30.5207   191.5579     4.0049     4.4352
  143.5000  -999.2500   -30.5570   208.2581     3.7341     4.2293
  144.0000  -999.2500   -30.5917   224.9583     3.4909     4.0386
  144.5000  -999.2500   -30.6213   241.6585     3.2508     3.8510
  145.0000  -999.2500   -30.6642   258.3587     2.9924     3.6596
  145.5000  -999.2500   -30.7564   275.0589     2.7320     3.4560
  146.0000  -999.2500   -30.8963   291.7591     2.5407     3.2560
  146.5000  -999.2500   -31.0146   308.4593     2.4943     3.1350
  147.0000  -999.2500   -31.0325   318.9379     2.5780     3.1691
  147.5000  -999.2500   -30.9461   311.3227     2.6959     3.3405
  148.0000  -999.2500   -30.8241   307.5150     2.7978     3.5543
  148.5000  -999.2500   -30.7220   274.6172     2.9343     3.7394
  149.0000  -999.2500   -30.6284   251.3146     3.1655     3.8924
  149.5000  -999.2500   -30.5102   228.0120     3.4766     4.0495
  150.0000  -999.2500   -30.3881   204.7094     3.7930     4.2429
  150.5000  -999.2500   -30.3284   170.4409     4.0278     4.4561
  151.0000  -999.2500   -30.3625   170.7836     4.1306     4.6121
  151.5000  -999.2500   -30.4494   171.4309     4.1368     4.6423
  152.0000  -999.2500   -30.5333   172.0782     4.1404     4.5637
  152.5000  -999.2500   -30.6024   172.7254     4.1812     4.4546
  153.0000  -999.2500   -30.6738   173.3728     4.2001     4.3710
  153.5000  -999.2500   -30.7512   174.2485     4.1334     4.3168
  154.0000  -999.2500   -30.8259   174.2485     3.9993     4.2709
  154.5000  -999.2500   -30.9000   180.1330     3.8584     4.2115
  155.0000  -999.2500   -30.9747   188.9597     3.7343     4.1287
  155.5000  -999.2500   -31.0275   197.7865     3.6082     4.0293
  156.0000  -999.2500   -31.0339   206.6132     3.4690     3.9241
  156.5000  -999.2500   -31.0170   215.4400     3.3344     3.8225
  157.0000  -999.2500   -31.0262   224.2667     3.2152     3.7335
  157.5000  -999.2500   -31.0490   233.0935     3.0860     3.6474
  158.0000  -999.2500   -31.0261   241.9202     2.9302     3.5345
  158.5000  -999.2500   -30.9897   250.7469     2.7984     3.4102
  159.0000  -999.2500   -31.0403   259.5737     2.7758     3.3723
  159.5000  -999.2500   -31.1059   269.4389     2.8847     3.4996
  160.0000  -999.2500   -30.9307   260.8717     3.0670     3.7400
  160.5000  -999.2500   -30.4633   250.4008     3.2810     3.9769
  161.0000  -999.2500   -30.0441   236.5955     3.5617     4.1825
  161.5000  -999.2500   -30.0096   221.6152     3.9420     4.4103
  162.0000  -999.2500   -30.2939   206.6350     4.3447     4.6543
  162.5000  -999.2500   -30.6110   191.2969     4.6210     4.8190
  163.0000  -999.2500   -30.8399   176.8859     4.7126     4.8444
  163.5000  -999.2500   -31.0471   161.4247     4.7129     4.7821
  164.0000  -999.2500   -31.2959   147.6232     4.7330     4.7227
  164.5000  -999.2500   -31.5856   147.4336     4.7689     4.7004
  165.0000  -999.2500   -31.8663   147.4997     4.7561     4.6868
  165.5000  -999.2500   -32.0380   147.5435     4.6856     4.6409
  166.0000  -999.2500   -32.0295   158.0360     4.5832     4.5434
  166.5000  -999.2500   -31.8829   167.7498     4.4356     4.4091
  167.0000  -999.2500   -31.6898   177.0057     4.2281     4.2767
  167.5000  -999.2500   -31.5150   186.7623     3.9955     4.1677
  168.0000  -999.2500   -31.4463   196.0492     3.7634     4.0548
  168.5000  -999.2500   -31.5850   205.7386     3.5154     3.9105
  169.0000  -999.2500   -31.8820   215.1573     3.2872     3.7807
  169.5000  -999.2500   -32.1100   224.6977     3.1953     3.7533
  170.0000  -999.2500   -32.1046   231.4661     3.2943     3.8487
  170.5000  -999.2500   -31.9187   227.5551     3.4914     4.0005
  171.0000  -999.2500   -31.6769   216.0751     3.6677     4.1467
  171.5000  -999.2500   -31.4244   207.3367     3.8059     4.2760
  172.0000  -999.2500   -31.1980   198.5982     3.9416     4.3839
  172.5000  -999.2500   -31.1096   189.8597     4.0670     4.4571
  173.0000  -999.2500   -31.2418   181.1212     4.1498     4.5068
  173.5000  -999.2500   -31.5358   172.3828     4.2025     4.5580
  174.0000  -999.2500   -31.8412   163.6443     4.2712     4.6183
  174.5000  -999.2500   -32.0058   159.0180     4.3612     4.6939
  175.0000  -999.2500   -31.9070   160.9218     4.4170     4.7869
  175.5000  -999.2500   -31.5656   165.7956     4.3858     4.8387
  176.0000  -999.2500   -31.2936   174.2485     4.2800     4.7562
  176.5000  -999.2500   -31.4914   174.2485     4.1559     4.5440
  177.0000  -999.2500   -32.0987   178.9107     4.0460     4.3253
  177.5000  -999.2500   -32.4707   187.1098     3.9424     4.1900
  178.0000  -999.2500   -32.1365   195.3088     3.8319     4.1057
  178.5000  -999.2500   -31.5309   203.5079     3.7162     4.0093
  179.0000  -999.2500   -31.5044   211.7070     3.6035     3.8922
  179.5000  -999.2500   -32.1230   219.9060     3.4971     3.7684
  180.0000  -999.2500   -32.5080   228.1051     3.3907     3.6455
  180.5000  -999.2500   -32.0327   236.3042     3.2733     3.5505
  181.0000  -999.2500   -31.1344   246.5932     3.1496     3.5122
  181.5000  -999.2500   -30.6301   248.3295     3.0474     3.5145
  182.0000  -999.2500   -30.6958   250.6597     2.9866     3.5213
  182.5000  -999.2500   -30.9308   252.9900     2.9530     3.5268
  183.0000  -999.2500   -31.0752   255.3202     2.9216     3.5301
  183.5000  -999.2500   -31.1970   258.0160     2.8828     3.4975
  184.0000  -999.2500   -31.3427   256.3788     2.8300     3.3983
  184.5000  -999.2500   -31.4213   254.4369     2.7494     3.2459
  185.0000  -999.2500   -31.4043   252.4950     2.6464     3.0724
  185.5000  -999.2500   -31.3758   250.5531     2.5480     2.9049
  186.0000  -999.2500   -31.3844   248.6112     2.4565     2.7840
  186.5000  -999.2500   -31.3987   246.6693     2.3461     2.7451
  187.0000  -999.2500   -31.3943   244.7274     2.2303     2.7606
  187.5000  -999.2500   -31.3865   242.7856     2.1755     2.7630
  188.0000  -999.2500   -31.3880   240.8437     2.2095     2.7451
  188.5000  -999.2500   -31.3932   238.9018     2.2788     2.7806
  189.0000  -999.2500   -31.3935   236.9599     2.3432     2.9165
  189.5000  -999.2500   -31.3894   235.0180     2.4550     3.1035
  190.0000  -999.2500   -31.3884   233.0762     2.6853     3.2712
  190.5000  -999.2500   -31.3952   231.1343     3.0083     3.4244
  191.0000  -999.2500   -31.3971   229.1924     3.3098     3.6034
  191.5000  -999.2500   -31.3738   227.2505     3.4934     3.7815
