~VERSION INFORMATION
 VERS.                2.0:   CWLS LOG ASCII STANDARD - VERSION 2.0
 WRAP.                 NO:   ONE LINE PER DEPTH STEP
~WELL INFORMATION
#MNEM.UNIT      DATA TYPE    INFORMATION
#----------   ------------   ------------------------------
 STRT.F            1.0000:   START DEPTH
 STOP.F          528.0000:   STOP DEPTH
 STEP.F            0.5000:   STEP LENGTH
 NULL.          -999.2500:   NO VALUE
 COMP. LAWRENCE/ALLISON INC:   COMPANY
 WELL.     78-31 STX #3-3:   WELL
 FLD .             TEAPOT:   FIELD
 LOC .       S3 T38N R78W:   LOCATION
 CNTY.            NATRONA:   COUNTY
 STAT.            WYOMING:   STATE
 CTRY. UNITED STATES OF AMERICA:   COUNTRY
 SRVC.           Gearhart:   SERVICE COMPANY
 DATE.        26-JUN-1988:   LOGDATE
 API .       490251123100:   API NUMBER
~CURVE INFORMATION
#MNEM.UNIT       API CODE    CURVE DESCRIPTION
#----------   ------------   ------------------------------
 DEPT.F                  :   
 GRR .GAPI   07 310 01 00:   GAMMA RAY
 RILD.OHMM   07 120 46 00:   INDUCTION LOG DEEP RESISTIVITY
 RILM.OHMM   07 120 44 00:   INDUCTION LOG MEDIUM RESISTIVITY
~PARAMETER INFORMATION
#MNEM.UNIT          VALUE    DESCRIPTION
#----------   ------------   ------------------------------
 PD  .                 GL:   PERMANENT DATUM
 EPD .F              5154:   ELEVATION PERMANENT DATUM
 LMF .                 KB:   LOG MEASURED FROM
 DAPD.F                10:   FEET ABOVE PERMANENT DATUM
 DMF .                 KB:   DRILLING MEASURED FROM
 EKB .F              5164:   KELLING BUSHING
 EGL .F              5154:   GROUND LEVEL
 DATE.        26-JUN-1988:   RUN DATE
 RUN .                  1:   RUN NUMBER
 DD  .F               520:   DEPTH DRILLER
 DL  .F               536:   DEPTH LOGGER
 BLI .F             527.5:   BOTTOM LOG INTERVAL
 TLI .F                51:   TOP LOG INTERVAL
 CS  .IN            9.625:   CASING SIZE
 CBD .F                51:   CASING BOTTOM DRILLER
 CBL .F                51:   CASING BOTTOM LOGGER
 BS  .IN             8.75:   BIT SIZE
 BSD .F               520:   BIT SIZE AT DEPTH
 DFT .                AIR:   DRILLING FLUID TYPE
 TLAB.HRS            1920:   TIME LOGGER AT BOTTOM
 MRT .F                70:   MAXIMUM RECORDED TEMPERATURE
 LUN .               7597:   LOGGING UNIT NUMBER
 LUL .           GILLETTE:   LOGGING UNIT LOCATION
 ENGI.          HUCKFELDT:   RECORDING ENGINEER
 WITN.              FIVAS:   WITNESSED BY
 CLNT.            A2DTECH:   CLIENT CODE
 ORIG.           5" PRINT:   ORIGIN OF DATA
 UWI .       490251123100:   UNIQUE WELL ID
 DICO. A2D Technologies, Inc.:   DIGITIZING COMPANY
~OTHER INFORMATION
~A    DEPT       GRR     RILD       RILM   
# ...
   92.0000   117.2844     8.9264     9.5601
   92.5000   119.7727     8.9233     9.4911
   93.0000   121.2642     8.9202     9.4885
   93.5000   121.5851     8.9172     9.2896
   94.0000   119.7849     8.9141     9.2225
   94.5000   117.3786     8.9110     9.0291
   95.0000   117.6995     8.9704     8.9639
   95.5000   117.4144     9.0931     8.9614
   96.0000   116.2202     9.1536     8.9590
   96.5000   113.8139     9.3457     8.9565
   97.0000   111.7106     9.4717     8.9541
   97.5000   112.3346     9.6014     9.0153
   98.0000   112.0495     9.6653     9.2022
   98.5000   110.8553     9.7296     9.3381
   99.0000   109.6611     9.8619     9.6565
   99.5000   109.3757     9.8585     9.9269
  100.0000   110.0000     9.9241    10.0728
  100.5000   109.3859     9.9207    10.1778
  101.0000   107.2162    10.1269    10.2713
  101.5000   105.7933    10.1951    10.3403
  102.0000   106.7173    10.9329    10.6291
  102.5000   108.2444    11.3184    11.2357
  103.0000   105.8321    11.7995    11.7945
  103.5000   100.0864    12.3011    12.2095
  104.0000    90.0984    12.6464    12.6392
  104.5000    81.0194    12.7323    12.8133
  105.0000    86.4858    12.7297    12.7206
  105.5000    92.2553    12.7269    12.5410
  106.0000   100.1460    12.7238    12.5376
  106.5000   103.4913    12.7212    12.6218
  107.0000   102.2911    12.7185    12.7066
  107.5000   101.6970    12.8056    12.7030
  108.0000    99.8907    12.8918    12.6995
  108.5000    99.5996    12.8892    12.7850
  109.0000   100.2206    12.7970    12.7806
  109.5000   101.1416    12.7055    12.7771
  110.0000   102.3656    12.7029    12.5967
  110.5000   104.4988    12.7003    12.4188
  111.0000   103.2986    12.6977    12.0739
  111.5000   100.8862    12.6951    11.7386
  112.0000   101.2012    12.6923    11.4925
  112.5000   102.4252    12.6897    11.4095
  113.0000   103.9523    12.6866    11.3271
  113.5000   105.1764    12.7727    11.2453
  114.0000   105.1883    12.8601    11.3209
  114.5000   105.8063    12.9474    11.3970
  115.0000   106.7273    13.0353    11.4736
  115.5000   108.2545    13.0320    11.7128
  116.0000   107.3572    13.0293    12.0440
  116.5000   103.1297    13.1185    12.4725
  117.0000    97.6870    13.1151    12.8134
  117.5000    92.8505    13.1124    13.0807
  118.0000    91.3443    13.0186    13.1686
  118.5000    93.7834    12.8315    12.9818
  119.0000    96.2196    12.5569    12.5335
  119.5000    98.9588    12.2186    12.0167
  120.0000   102.0010    11.9633    11.6018
  120.5000   105.0432    11.6318    11.3586
  121.0000   106.8733    11.3096    11.1204
  121.5000   107.1883    11.1507    11.0401
  122.0000   105.6850    11.0709    10.8842
  122.5000   103.8788    11.0687    10.8056
  123.0000   102.0525    11.0664    10.7276
  123.5000   101.1754    11.1421    10.7246
  124.0000   101.1903    11.2173    10.7217
  124.5000   101.5052    11.2149    10.7937
  125.0000   101.5171    11.2910    10.7907
  125.5000   100.3169    11.2887    11.0158
  126.0000    99.7228    11.2863    11.0127
  126.5000    99.1257    11.3630    11.0096
  127.0000    98.8346    11.3601    10.7781
  127.5000    99.1525    11.3578    10.4060
  128.0000    98.2553    11.3554    10.4759
  128.5000    97.0551    11.3531    10.7692
  129.0000    95.2489    11.2719    11.0708
  129.5000    95.5638    11.2696    11.3024
  130.0000    98.0000    11.1890    11.3784
  130.5000    99.5475    11.0318    11.2954
  131.0000   100.1455    10.9529    10.9817
  131.5000   101.0691    10.7240    10.6768
  132.0000   103.8083    10.5713    10.1654
  132.5000   105.3353    10.2661     9.7462
  133.0000   103.8321     9.8452     9.3443
  133.5000   102.9349     9.3200     9.0217
  134.0000   102.0348     8.9988     8.5896
  134.5000   102.9588     8.7495     8.2915
  135.0000   104.1828     8.6870     8.0627
  135.5000   106.0129     8.6248     8.0044
  136.0000   107.5400     8.6838     8.0583
  136.5000   109.0671     8.7424     8.1124
  137.0000   109.0790     8.8017     8.2816
  137.5000   108.7879     8.9236     8.3950
  138.0000   107.5677     8.9841     8.5112
  138.5000   106.6905     9.0451     8.5684
  139.0000   106.7054     9.1702     8.7465
  139.5000   106.7173     9.2406     8.7441
  140.0000   106.7293     9.4257     8.8028
  140.5000   106.4352     9.4897     8.8004
  141.0000   105.2380     9.6878     8.7980
  141.5000   105.2499     9.7535     8.7955
  142.0000   105.5648     9.7515     8.9790
  142.5000   106.1828     9.8183     9.2950
  143.0000   106.1947     9.8157     9.5552
  143.5000   105.5976     9.8137     9.7545
  144.0000   106.5216     9.7435     9.7518
  144.5000   108.9578     9.7415     9.8173
  145.0000   110.4848     9.6719     9.8145
  145.5000   112.3151     9.6023     9.8118
  146.0000   111.7208     9.5287     9.7404
  146.5000   112.3418     9.4657     9.7377
  147.0000   113.5658     9.4634     9.6674
  147.5000   114.4868     9.3957     9.5309
  148.0000   111.7715     9.3938     9.3963
  148.5000   110.8743     9.3266     9.1993
  149.0000   109.6741     9.3247     9.1968
  149.5000   108.1709     9.3885     9.1304
  150.0000   104.5464     9.3861     9.1279
  150.5000   100.9190     9.4498     9.0800
  151.0000   103.3582     9.4479     9.1437
  151.5000   107.0065     9.5121     9.1437
  152.0000   109.7457     9.5100     9.3374
  152.5000   112.4848     9.4420     9.4029
  153.0000   111.2445     9.4330     9.4688
  153.5000   109.4131     9.2517     9.4029
  154.0000   106.5328     9.1868     9.3374
  154.5000   108.4172     9.1224     9.1437
  155.0000   109.6102     8.9953     9.0800
  155.5000   109.3229     8.8701     8.9540
  156.0000   109.6521     8.7467     8.8916
  156.5000   110.2791     8.6853     8.8297
  157.0000   110.6031     8.5644     8.7072
  157.5000   108.5028     8.4453     8.6465
  158.0000   107.3064     8.4447     8.5863
  158.5000   107.6356     8.2693     8.4082
  159.0000   108.5656     8.0413     8.2915
  159.5000   110.1017     7.8196     8.0629
  160.0000   111.3347     7.5512     7.7861
  160.5000   112.5678     7.3430     7.5164
  161.0000   114.4069     7.1406     7.3583
  161.5000   115.3369     6.8954     7.3115
  162.0000   114.4488     6.5665     7.2605
  162.5000   112.0455     6.4752     7.3115
  163.0000   109.9130     6.6246     7.3627
  163.5000   108.7540     6.9417     7.4664
  164.0000   110.6908     7.2377     7.5714
  164.5000   113.3465     7.4940     7.7861
  165.0000   115.4887     7.7593     7.9027
  165.5000   114.2975     7.9229     8.0146
  166.0000   112.4950     8.1463     8.1851
  166.5000   112.5212     8.2028     8.3592
  167.0000   111.6330     8.3755     8.4776
  167.5000   110.1336     8.3749     8.5976
  168.0000   108.0385     8.3743     8.6587
  168.5000   107.7512     8.3738     8.5991
  169.0000   108.0804     8.3150     8.5400
  169.5000   109.0104     8.2567     8.4221
  170.0000   111.4556     8.1987     8.2434
  170.5000   113.2947     8.0847     8.1344
  171.0000   113.6187     7.9721     7.9663
  171.5000   113.3364     7.9162     7.7475
  172.0000   111.8424     7.7518     7.7482
  172.5000   111.5603     7.4336     7.5352
  173.0000   112.4909     7.0790     7.1761
  173.5000   112.5121     6.5559     6.7393
  174.0000   111.3253     6.1568     6.1977
  174.5000   109.5280     5.9870     5.6997
  175.0000   107.7308     6.0286     5.3527
  175.5000   105.6305     6.1555     5.3481
  176.0000   105.3432     6.2852     5.5054
  176.5000   105.9754     6.4625     5.8636
  177.0000   107.8145     6.6448     6.2948
  177.5000   111.4718     6.8800     6.7107
  178.0000   113.6139     7.2237     7.2328
  178.5000   113.9327     7.6375     7.5432
  179.0000   111.8376     7.9632     7.8668
  179.5000   113.0707     8.2463     8.1473
  180.0000   114.6068     8.5411     8.3789
  180.5000   116.7489     8.7170     8.6172
  181.0000   115.5577     8.8388     8.7392
  181.5000   113.1303     8.9000     8.8630
  182.0000   111.0302     8.9616     8.9259
  182.5000   110.4294     9.0237     8.9267
