~VERSION INFORMATION
 VERS.                2.0:   CWLS LOG ASCII STANDARD - VERSION 2.0
 WRAP.                 NO:   ONE LINE PER DEPTH STEP
~WELL INFORMATION
#MNEM.UNIT      DATA TYPE    INFORMATION
#----------   ------------   ------------------------------
 STRT.F           99.0000:   START DEPTH
 STOP.F          750.0000:   STOP DEPTH
 STEP.F            0.5000:   STEP LENGTH
 NULL.          -999.2500:   NO VALUE
 COMP. U S NAVY/INTEX OIL CO:   COMPANY
 WELL.    NRP #3 #43-S-11:   WELL
 FLD .             TEAPOT:   FIELD
 LOC .      S11 T38N R78W:   LOCATION
 CNTY.            NATRONA:   COUNTY
 STAT.            WYOMING:   STATE
 CTRY. UNITED STATES OF AMERICA:   COUNTRY
 SRVC.       Schlumberger:   SERVICE COMPANY
 DATE.        12-JUL-1962:   LOGDATE
 API .       490250636100:   API NUMBER
~CURVE INFORMATION
#MNEM.UNIT       API CODE    CURVE DESCRIPTION
#----------   ------------   ------------------------------
 DEPT.F                  :   
 SPR .MV     05 010 01 00:   SPONTANEOUS POTENTIAL FROM RES.
 CILD.MMHO   05 110 46 00:   CONDUCTIVITY INDUCTION LOG DEEP
 ILD .OHMM   05 120 46 00:   INDUCTION LOG DEEP
 ASN .OHMM   05 041 16 00:   AMPLIFIED SHORT NORMAL 16"
 GR  .GAPI   30 310 01 00:   GAMMA RAY
~PARAMETER INFORMATION
#MNEM.UNIT          VALUE    DESCRIPTION
#----------   ------------   ------------------------------
 EPD .F              5177:   ELEVATION PERMANENT DATUM
 LMF .                 KB:   LOG MEASURED FROM
 DAPD.F                 5:   FEET ABOVE PERMANENT DATUM
 DMF .                 KB:   DRILLING MEASURED FROM
 EKB .F              5182:   KELLING BUSHING
 EGL .F              5177:   GROUND LEVEL
 DATE.          7-12-1962:   RUN DATE
 RUN .                  1:   RUN NUMBER
 DD  .F               750:   DEPTH DRILLER
 DL  .F               751:   DEPTH LOGGER
 BLI .F               750:   BOTTOM LOG INTERVAL
 TLI .F               100:   TOP LOG INTERVAL
 CBD .F                10:   CASING BOTTOM DRILLER
 BS  .IN             6.75:   BIT SIZE
 BSD .F               750:   BIT SIZE AT DEPTH
 DFT .           OIL EMUL:   DRILLING FLUID TYPE
 DFD .               10.2:   DRILLING FLUID DENSITY
 DFV .                 40:   DRILLING FLUID VISCOSITY
 DFL .                4.6:   DRILLING FLUID LOSS
 RMS .OHMM            5.2:   RESISTIVITY MUD SAMPLE
 MST .F                82:   MUD SAMPLE TEMPERATURE
 RMF .OHMM            3.7:   RESISTIVITY MUD FILTRATE SAMPLE
 MFST.F                82:   MUD FILTRATE SAMPLE TEMPERATURE
 RMC .OHMM            5.8:   RESISTIVITY MUD CAKE
 MCST.F                80:   MUD CAKE SAMPLE TEMPERATURE
 TCS .HRS              .5:   TIME CURCULATED STOPPED
 LUN .               2523:   LOGGING UNIT NUMBER
 LUL .               CSPR:   LOGGING UNIT LOCATION
 ENGI.           ELLERMAN:   RECORDING ENGINEER
 WITN.          JORGENSON:   WITNESSED BY
 CLNT.            A2DTECH:   CLIENT CODE
 ORIG.       2", 5" PRINT:   ORIGIN OF DATA
 UWI .       490250636100:   UNIQUE WELL ID
 DICO. A2D Technologies, Inc.:   DIGITIZING COMPANY
~OTHER INFORMATION
~A   DEPT      SPR       CILD        ILD          ASN       GR   
   99.0000  -999.2500  -999.2500  -999.2500     4.2358  -999.2500
   99.5000  -999.2500   263.2899  -999.2500     6.6098  -999.2500
  100.0000   -59.1677   215.8555     4.4243     4.9448  -999.2500
  100.5000   -59.3511   188.4127     4.3846     4.7262  -999.2500
  101.0000   -59.8142   188.9642     4.4177     4.7597  -999.2500
  101.5000   -60.2182   189.6535     4.4494     4.7974  -999.2500
  102.0000   -59.6358   190.3428     4.4791     4.8358  -999.2500
  102.5000   -60.4094   191.0732     4.5092     4.8445  -999.2500
  103.0000   -60.1390   190.2487     4.5388     4.8446  -999.2500
  103.5000   -59.6879   188.7322     4.5482     4.8446  -999.2500
  104.0000   -60.2093   188.0642     4.4358     4.8447  -999.2500
  104.5000   -60.7132   191.7675     4.3241     4.8454  -999.2500
  105.0000   -60.9357   196.6028     4.2128     4.8411  -999.2500
  105.5000   -60.4163   201.4382     4.1016     4.7057  -999.2500
  106.0000   -59.9106   206.2736     3.9904     4.5626  -999.2500
  106.5000   -59.3977   211.1090     3.8792     4.4198  -999.2500
  107.0000   -59.3528   215.9444     3.7679     4.2774  -999.2500
  107.5000   -59.5492   220.7797     3.6564     4.1758  -999.2500
  108.0000   -59.4569   225.6151     3.5456     4.1720  -999.2500
  108.5000   -58.7226   230.4505     3.4648     4.1936  -999.2500
  109.0000   -58.2614   233.1996     3.4986     4.2157  -999.2500
  109.5000   -59.4177   235.2056     3.5300     4.2378  -999.2500
  110.0000   -60.3406   234.9103     3.5612     4.2599  -999.2500
  110.5000   -60.1349   234.6294     3.5923     4.2628  -999.2500
  111.0000   -59.7172   234.3486     3.6235     4.2628  -999.2500
  111.5000   -59.8909   234.2026     3.6546     4.2629  -999.2500
  112.0000   -60.4016   231.6439     3.6858     4.2621  -999.2500
  112.5000   -60.2358   229.3778     3.7170     4.3004  -999.2500
  113.0000   -59.9816   227.1117     3.7481     4.3529  -999.2500
  113.5000   -59.7257   224.8456     3.7793     4.4066  -999.2500
  114.0000   -59.6209   222.5795     3.8105     4.4607  -999.2500
  114.5000   -59.6192   220.1605     3.8416     4.4549  -999.2500
  115.0000   -59.6205   219.0170     3.8728     4.4268  -999.2500
  115.5000   -59.6304   218.0060     3.9039     4.4023  -999.2500
  116.0000   -59.1176   217.1514     3.9351     4.4409  -999.2500
  116.5000   -59.0189   215.2357     3.9663     4.5097  -999.2500
  117.0000   -59.0168   212.7081     3.9974     4.5014  -999.2500
  117.5000   -59.0178   210.1805     4.0286     4.3676  -999.2500
  118.0000   -59.0194   207.6530     4.0598     4.4398  -999.2500
  118.5000   -59.0234   205.1154     4.0909     4.5705  -999.2500
  119.0000   -58.9752   205.1154     4.1221     4.6321  -999.2500
  119.5000   -58.1811   204.9117     4.1532     4.5631  -999.2500
  120.0000   -57.8632   204.6590     4.1844     4.5218  -999.2500
  120.5000   -58.9117   204.4062     4.2156     4.5859  -999.2500
  121.0000   -59.4142   204.1535     4.2467     4.6457  -999.2500
  121.5000   -58.6946   204.1123     4.2779     4.6198  -999.2500
  122.0000   -58.4151   201.4744     4.3092     4.5910  -999.2500
  122.5000   -59.0628   198.9468     4.3401     4.5630  -999.2500
  123.0000   -59.6941   196.4193     4.3548     4.6319  -999.2500
  123.5000   -60.3270   195.3561     4.3135     4.7314  -999.2500
  124.0000   -60.9674   198.0868     4.2777     4.8274  -999.2500
  124.5000   -61.2004   202.1063     4.0865     4.7417  -999.2500
  125.0000   -60.5581   214.3430     3.8369     4.4462  -999.2500
  125.5000   -59.8770   226.8798     3.5839     4.2676  -999.2500
  126.0000   -59.2333   239.4167     3.3302     4.1760  -999.2500
  126.5000   -59.2705   251.9535     3.0775     3.9307  -999.2500
  127.0000   -59.3405   264.4903     2.8521     3.6558  -999.2500
  127.5000   -59.4003   271.3942     2.8569     3.4235  -999.2500
  128.0000   -59.0395   271.5690     2.8605     3.7132  -999.2500
  128.5000   -58.4686   269.3079     2.9778     4.1180  -999.2500
  129.0000   -58.7836   263.7828     3.1036     4.1702  -999.2500
  129.5000   -59.0782   250.5266     3.3469     4.0748  -999.2500
  130.0000   -59.1787   233.0366     3.6761     4.3137  -999.2500
  130.5000   -58.3926   215.9754     4.0060     4.6421  -999.2500
  131.0000   -58.6126   198.9142     4.3365     4.7439  -999.2500
  131.5000   -59.1618   188.1006     4.6602     4.8121  -999.2500
  132.0000   -59.4068   181.4657     4.8476     4.9007  -999.2500
  132.5000   -59.0620   174.8307     5.0289     5.0881  -999.2500
  133.0000   -58.8331   169.1886     5.2108     5.2647  -999.2500
  133.5000   -59.6956   164.8917     5.3930     5.1548  -999.2500
  134.0000   -60.6305   160.5948     5.5667     5.1584  -999.2500
  134.5000   -61.0276   156.2979     5.6552     5.2768  -999.2500
  135.0000   -60.5418   152.9589     5.7391     5.3957  -999.2500
  135.5000   -59.9343   151.9850     5.8220     5.5104  -999.2500
  136.0000   -59.3179   151.0659     5.8108     5.5242  -999.2500
  136.5000   -59.2335   152.9146     5.6887     5.4729  -999.2500
  137.0000   -59.2705   156.2673     5.5679     5.4222  -999.2500
  137.5000   -59.3092   159.6400     5.4466     5.3716  -999.2500
  138.0000   -59.3476   163.0157     5.3253     5.3296  -999.2500
  138.5000   -59.3876   167.0010     5.1224     5.1761  -999.2500
  139.0000   -59.3992   174.6333     4.8392     5.0215  -999.2500
  139.5000   -58.9951   182.9605     4.5571     4.8669  -999.2500
  140.0000   -58.5948   191.2633     4.2749     4.7078  -999.2500
  140.5000   -58.1983   199.0670     3.9928     4.5797  -999.2500
  141.0000   -57.8072   211.0939     3.7106     4.3907  -999.2500
  141.5000   -58.0188   224.1725     3.4282     4.2024  -999.2500
  142.0000   -59.3363   242.0461     3.1448     4.0140  -999.2500
  142.5000   -59.5597   260.5818     2.8665     3.8257  -999.2500
  143.0000   -59.3934   279.3380     2.7887     3.6370  -999.2500
  143.5000   -59.2106   281.1950     2.7202     3.5455  -999.2500
  144.0000   -59.8849   283.0553     2.6506     3.6830  -999.2500
  144.5000   -60.4111   286.5551     2.5801     3.6983  -999.2500
  145.0000   -59.8877   290.0548     2.5114     3.3591  -999.2500
  145.5000   -59.3445   291.3741     2.5157     3.2922  -999.2500
  146.0000   -58.8307   279.7151     2.8239     3.8440  -999.2500
  146.5000   -58.8300   260.6818     3.1242     4.0030  -999.2500
  147.0000   -58.9124   238.3391     3.4240     4.0592  -999.2500
  147.5000   -58.9911   226.5815     3.7245     4.1121  -999.2500
  148.0000   -59.0690   214.9001     4.0236     4.1658  -999.2500
  148.5000   -59.1468   204.0623     4.0748     4.1831  -999.2500
  149.0000   -59.2248   204.7114     4.0884     4.1585  -999.2500
  149.5000   -59.3027   207.0723     4.1016     4.1305  -999.2500
  150.0000   -59.3808   209.4333     4.1153     4.1226  -999.2500
  150.5000   -59.4191   210.1224     4.1291     4.1133  -999.2500
  151.0000   -59.1006   207.1639     4.1428     4.1009  -999.2500
  151.5000   -58.1058   203.8363     4.1576     4.0895  -999.2500
  152.0000   -57.2144   205.4564     4.0657     4.0339  -999.2500
  152.5000   -57.7550   212.1364     3.7339     3.8541  -999.2500
  153.0000   -58.1326   240.3226     3.1096     3.6739  -999.2500
  153.5000   -57.5433   278.1959     2.4893     3.4969  -999.2500
  154.0000   -56.9676   321.2907     1.8676     3.2217  -999.2500
  154.5000   -56.4206   384.8102     1.2499     2.9286  -999.2500
  155.0000   -56.8230   443.8315     0.9069     2.6323  -999.2500
  155.5000   -57.4631   472.3871     0.7510     2.4825  -999.2500
  156.0000   -57.7190   494.2307     0.7523     2.4841  -999.2500
  156.5000   -57.5022   488.1164     0.7516     2.6002  -999.2500
  157.0000   -57.2879   479.6189     0.7497     2.7055  -999.2500
  157.5000   -57.0641   466.0314     0.7594     2.6226  -999.2500
  158.0000   -57.1067   443.8465     1.2144     2.4798  -999.2500
  158.5000   -57.8653   391.4572     1.7095     2.8043  -999.2500
  159.0000   -58.6328   332.7703     2.2039     3.1508  -999.2500
  159.5000   -59.4395   284.4659     2.6978     3.5003  -999.2500
