~VERSION INFORMATION
 VERS.                2.0:   CWLS LOG ASCII STANDARD - VERSION 2.0
 WRAP.                 NO:   ONE LINE PER DEPTH STEP
~WELL INFORMATION
#MNEM.UNIT      DATA TYPE    INFORMATION
#----------   ------------   ------------------------------
 STRT.F          534.0000:   START DEPTH
 STOP.F         1847.5000:   STOP DEPTH
 STEP.F            0.5000:   STEP LENGTH
 NULL.          -999.2500:   NO VALUE
 COMP. LAWRENCE/ALLISON INC:   COMPANY
 WELL.      18 SHX #18-27:   WELL
 FLD .             TEAPOT:   FIELD
 LOC .      S27 T39N R78W:   LOCATION
 CNTY.            NATRONA:   COUNTY
 STAT.            WYOMING:   STATE
 CTRY. UNITED STATES OF AMERICA:   COUNTRY
 SRVC.            Unknown:   SERVICE COMPANY
 DATE.        01-MAR-1985:   LOGDATE
 API .       490251102000:   API NUMBER
~CURVE INFORMATION
#MNEM.UNIT       API CODE    CURVE DESCRIPTION
#----------   ------------   ------------------------------
 DEPT.F                  :   
 ROP .MIN/FT 91 810 01 00:   RATE OF DRILLING PENETRATION
 TGAS.UNITS  91 830 01 00:   TOTAL GAS FROM HOTWIRE
~PARAMETER INFORMATION
#MNEM.UNIT          VALUE    DESCRIPTION
#----------   ------------   ------------------------------
 DATE.           3-1-1985:   RUN DATE
 DD  .F              1848:   DEPTH DRILLER
 DL  .F              1825:   DEPTH LOGGER
 TLI .F               535:   TOP LOG INTERVAL
 WITN.  ALBERT C. KRAVATZ:   WITNESSED BY
 CLNT.            A2DTECH:   CLIENT CODE
 ORIG.           5" PRINT:   ORIGIN OF DATA
 UWI .       490251102000:   UNIQUE WELL ID
 DICO. A2D Technologies, Inc.:   DIGITIZING COMPANY
~OTHER INFORMATION
~A   DEPT      ROP       TGAS   
  534.0000  -999.2500  -999.2500
  534.5000  -999.2500     9.0478
  535.0000  -999.2500     9.0650
  535.5000     0.7023     9.0831
  536.0000     0.7022     9.1011
  536.5000     0.7022     9.1191
  537.0000     0.7022     9.1371
  537.5000     0.7021     9.1551
  538.0000     0.7021     9.1732
  538.5000     0.7021     9.1912
  539.0000     0.7020     9.2092
  539.5000     0.7020     9.2272
  540.0000     0.7020     9.2452
  540.5000     0.7020     9.2632
  541.0000     0.7019     9.2813
  541.5000     0.7019     9.2993
  542.0000     0.7019     9.3173
  542.5000     0.7018     9.3353
  543.0000     0.7018     9.3533
  543.5000     0.7018     9.3714
  544.0000     0.7017     9.3894
  544.5000     0.7017     9.4074
  545.0000     0.7017     9.4254
  545.5000     0.7016     9.4434
  546.0000     0.7016     9.4614
  546.5000     0.7016     9.4795
  547.0000     0.7016     9.4975
  547.5000     0.7015     9.5155
  548.0000     0.7015     9.5335
  548.5000     0.7015     9.5515
  549.0000     0.7014     9.5696
  549.5000     0.7014     9.5876
  550.0000     0.7014     9.6056
  550.5000     0.7013     9.6236
  551.0000     0.7013     9.6416
  551.5000     0.7013     9.6596
  552.0000     0.7012     9.6777
  552.5000     0.7012     9.6957
  553.0000     0.7012     9.7137
  553.5000     0.7012     9.7317
  554.0000     0.7011     9.7497
  554.5000     0.7011     9.7678
  555.0000     0.7011     9.7858
  555.5000     0.7010     9.8038
  556.0000     0.7010     9.8218
  556.5000     0.7010     9.8398
  557.0000     0.7009     9.8578
  557.5000     0.7009     9.8759
  558.0000     0.7009     9.8939
  558.5000     0.7008     9.9119
  559.0000     0.7008     9.9299
  559.5000     0.7008     9.9479
  560.0000     0.7008     9.9660
  560.5000     0.7007     9.9840
  561.0000     0.7007    10.0020
  561.5000     0.7007    10.0200
  562.0000     0.7006    10.0380
  562.5000     0.7006    10.0561
  563.0000     0.7006    10.0741
  563.5000     0.7005    10.0921
  564.0000     0.7005    10.1101
  564.5000     0.7005    10.1281
  565.0000     0.7004    10.1461
  565.5000     0.7203    10.1642
  566.0000     0.7889    10.1822
  566.5000     0.8575    10.2002
  567.0000     0.9261    10.2182
  567.5000     0.9947    10.2362
  568.0000     1.0374    10.2543
  568.5000     0.9972    10.2723
  569.0000     0.9976    10.2903
  569.5000     0.9981    10.3083
  570.0000     0.9986    10.3263
  570.5000     0.9991    10.3443
  571.0000     0.9996    10.3624
  571.5000     1.0000    10.3804
  572.0000     1.0005    10.3984
  572.5000     1.0010    10.4164
  573.0000     1.0015    10.4344
  573.5000     1.0019    10.4525
  574.0000     1.0024    10.4705
  574.5000     1.0029    10.4885
  575.0000     1.0034    10.5065
  575.5000     1.0039    10.5245
  576.0000     1.0043    10.5425
  576.5000     1.0048    10.5606
  577.0000     1.0053    10.5786
  577.5000     1.0058    10.5966
  578.0000     1.0063    10.6146
  578.5000     1.0067    10.6326
  579.0000     1.0072    10.6507
  579.5000     1.0077    10.6687
  580.0000     1.0082    10.6867
  580.5000     1.0087    10.7047
  581.0000     1.0091    10.7227
  581.5000     1.0096    10.7407
  582.0000     1.0101    10.7588
  582.5000     1.0106    10.7768
  583.0000     1.0111    10.7948
  583.5000     1.0115    10.8128
  584.0000     1.0120    10.8308
  584.5000     1.0125    10.8489
  585.0000     1.0130    10.8669
  585.5000     1.0134    10.8849
  586.0000     1.0139    10.9029
  586.5000     1.0144    10.9209
  587.0000     1.0149    10.9390
  587.5000     1.0154    10.9570
  588.0000     1.0158    10.9750
  588.5000     1.0163    10.9930
  589.0000     1.0168    11.0110
  589.5000     1.0173    11.0290
  590.0000     1.0178    11.0471
  590.5000     1.0182    11.0651
  591.0000     1.0187    11.0831
  591.5000     1.0192    11.1011
  592.0000     1.0197    11.1191
  592.5000     1.0202    11.1372
  593.0000     1.0206    11.1552
  593.5000     1.0211    11.1732
  594.0000     1.0216    11.1912
  594.5000     1.0221    11.2092
  595.0000     1.0226    11.2272
  595.5000     1.0230    11.2453
  596.0000     1.0235    11.2633
  596.5000     1.0240    11.2813
  597.0000     1.0245    11.2993
  597.5000     1.0142    11.3173
  598.0000     0.9657    11.3354
  598.5000     0.9172    11.3534
  599.0000     0.8687    11.3714
  599.5000     0.8202    11.3894
  600.0000     0.7716    11.4074
  600.5000     0.7518    11.4096
  601.0000     0.7513    11.4068
  601.5000     0.7507    11.4040
  602.0000     0.7502    11.4012
  602.5000     0.7497    11.3984
  603.0000     0.7491    11.3956
  603.5000     0.7486    11.3928
  604.0000     0.7480    11.3900
  604.5000     0.7475    11.3871
  605.0000     0.7469    11.3843
  605.5000     0.7464    11.3815
  606.0000     0.7459    11.3787
  606.5000     0.7453    11.3759
  607.0000     0.7448    11.3731
  607.5000     0.7442    11.3703
  608.0000     0.7437    11.3675
  608.5000     0.7431    11.3647
  609.0000     0.7426    11.3618
  609.5000     0.7420    11.3590
  610.0000     0.7415    11.3562
  610.5000     0.7410    11.3534
  611.0000     0.7404    11.3506
  611.5000     0.7399    11.3478
  612.0000     0.7393    11.3450
  612.5000     0.7388    11.3422
  613.0000     0.7382    11.3394
  613.5000     0.7377    11.3365
  614.0000     0.7372    11.3337
  614.5000     0.7366    11.3309
  615.0000     0.7361    11.3281
  615.5000     0.7355    11.3253
  616.0000     0.7350    11.3225
  616.5000     0.7344    11.3197
  617.0000     0.7339    11.3169
  617.5000     0.7334    11.3141
  618.0000     0.7328    11.3112
  618.5000     0.7323    11.3084
  619.0000     0.7317    11.3056
  619.5000     0.7312    11.3028
  620.0000     0.7306    11.3000
  620.5000     0.7301    11.2972
  621.0000     0.7295    11.2944
  621.5000     0.7290    11.2916
  622.0000     0.7285    11.2888
  622.5000     0.7279    11.2859
  623.0000     0.7274    11.2831
  623.5000     0.7268    11.2803
  624.0000     0.7263    11.2775
  624.5000     0.7257    11.2747
  625.0000     0.7252    11.2719
  625.5000     0.7247    11.2691
  626.0000     0.7241    11.2663
  626.5000     0.7236    11.2635
  627.0000     0.7230    11.2606
  627.5000     0.7225    11.2578
  628.0000     0.7219    11.2550
  628.5000     0.7214    11.2522
  629.0000     0.7209    11.2494
  629.5000     0.7203    11.2466
  630.0000     0.7198    11.2438
  630.5000     0.7846    11.2410
  631.0000     0.8482    11.2382
  631.5000     0.9118    11.2353
  632.0000     0.9754    11.2325
  632.5000     1.0060    11.2297
  633.0000     1.0070    11.2269
  633.5000     1.0080    11.2241
  634.0000     1.0090    11.2213
  634.5000     1.0100    11.2185
  635.0000     1.0110    11.2157
  635.5000     1.0120    11.2129
  636.0000     1.0130    11.2100
  636.5000     1.0140    11.2072
  637.0000     1.0150    11.2044
  637.5000     1.0160    11.2016
  638.0000     1.0170    11.1988
  638.5000     1.0180    11.1960
  639.0000     1.0190    11.1932
  639.5000     1.0200    11.1904
  640.0000     1.0211    11.1876
  640.5000     1.0221    11.1847
  641.0000     1.0231    11.1819
  641.5000     1.0241    11.1791
  642.0000     1.0251    11.1763
  642.5000     1.0261    11.1735
  643.0000     1.0271    11.1707
  643.5000     1.0281    11.1679
  644.0000     1.0291    11.1651
  644.5000     1.0301    11.1623
  645.0000     1.0311    11.1594
  645.5000     1.0321    11.1566
  646.0000     1.0331    11.1538
  646.5000     1.0341    11.1510
  647.0000     1.0351    11.1482
  647.5000     1.0361    11.1454
  648.0000     1.0371    11.1426
  648.5000     1.0382    11.1398
  649.0000     1.0392    11.1370
  649.5000     1.0402    11.1341
  650.0000     1.0412    11.1313
  650.5000     1.0422    11.1285
  651.0000     1.0432    11.1257
  651.5000     1.0442    11.1229
  652.0000     1.0452    11.1201
  652.5000     1.0462    11.1173
  653.0000     1.0472    11.1145
  653.5000     1.0482    11.1117
  654.0000     1.0492    11.1088
  654.5000     1.0502    11.0921
  655.0000     1.0512    11.0613
