~VERSION INFORMATION
 VERS.                2.0:   CWLS LOG ASCII STANDARD - VERSION 2.0
 WRAP.                 NO:   ONE LINE PER DEPTH STEP
~WELL INFORMATION
#MNEM.UNIT      DATA TYPE    INFORMATION
#----------   ------------   ------------------------------
 STRT.F            0.0000:   START DEPTH
 STOP.F          984.0000:   STOP DEPTH
 STEP.F            0.5000:   STEP LENGTH
 NULL.          -999.2500:   NO VALUE
 COMP. LAWRENCE/ALLISON INC:   COMPANY
 WELL.     NPR 3 #51-X-11:   WELL
 FLD .             TEAPOT:   FIELD
 LOC .      S11 T38N R78W:   LOCATION
 CNTY.            NATRONA:   COUNTY
 STAT.            WYOMING:   STATE
 CTRY. UNITED STATES OF AMERICA:   COUNTRY
 SRVC.           Gearhart:   SERVICE COMPANY
 DATE.        22-AUG-1988:   LOGDATE
 API .       490251125400:   API NUMBER
~CURVE INFORMATION
#MNEM.UNIT       API CODE    CURVE DESCRIPTION
#----------   ------------   ------------------------------
 DEPT.F                  :   
 GRR .GAPI   07 310 01 00:   GAMMA RAY FROM RES. LOG.
 ILM .OHMM   07 120 44 00:   INDUCTION LOG MEDIUM
 ILD .OHMM   07 120 46 00:   INDUCTION LOG DEEP
~PARAMETER INFORMATION
#MNEM.UNIT          VALUE    DESCRIPTION
#----------   ------------   ------------------------------
 PD  .                 GL:   PERMANENT DATUM
 EPD .F              5187:   ELEVATION PERMANENT DATUM
 LMF .                 KB:   LOG MEASURED FROM
 DAPD.F                10:   FEET ABOVE PERMANENT DATUM
 DMF .                 KB:   DRILLING MEASURED FROM
 EKB .F              5197:   KELLING BUSHING
 EGL .F              5187:   GROUND LEVEL
 DATE.            8-22-88:   RUN DATE
 RUN .                  1:   RUN NUMBER
 DD  .F              1000:   DEPTH DRILLER
 DL  .F               992:   DEPTH LOGGER
 BLI .F             983.5:   BOTTOM LOG INTERVAL
 CS  .IN            9.625:   CASING SIZE
 CBD .F                49:   CASING BOTTOM DRILLER
 CBL .F                49:   CASING BOTTOM LOGGER
 BS  .IN             8.75:   BIT SIZE
 BSD .F              1000:   BIT SIZE AT DEPTH
 DFT .                AIR:   DRILLING FLUID TYPE
 BHT .F                70:   BOTTOM HOLE TEMPERATURE
 TLAB.HRS            0300:   TIME LOGGER AT BOTTOM
 MRT .F                70:   MAXIMUM RECORDED TEMPERATURE
 LUN .               7609:   LOGGING UNIT NUMBER
 LUL .           GILLETTE:   LOGGING UNIT LOCATION
 ENGI.          HUCKFELDT:   RECORDING ENGINEER
 WITN.             STRONG:   WITNESSED BY
 CLNT.            A2DTECH:   CLIENT CODE
 ORIG.      1" 2.5" PRINT:   ORIGIN OF DATA
 UWI .       490251125400:   UNIQUE WELL ID
 DICO. A2D Technologies, Inc.:   DIGITIZING COMPANY
~OTHER INFORMATION
~A    DEPT      GRR       ILM        ILD   
# ...
  910.0000    89.6759     9.3244     9.8526
  910.5000    91.9286     9.2262     9.7876
  911.0000    94.3198     9.1290     9.6516
  911.5000    96.1680     9.0329     9.5189
  912.0000    95.6200     8.9551     9.3870
  912.5000    94.2116     8.8168     9.2569
  913.0000    94.6415     8.7020     9.1286
  913.5000    97.0572     8.5889     9.0020
  914.0000    99.5845     8.4779     8.7888
  914.5000    97.7057     8.3688     8.5320
  915.0000    94.1217     8.2614     8.2879
  915.5000    93.9081     8.1653     7.8893
  916.0000    95.5503     8.0611     7.3573
  916.5000    97.8103     7.5761     6.8609
  917.0000    98.7398     6.7969     6.3978
  917.5000    99.3137     6.0976     5.9660
  918.0000   100.8557     5.4988     5.4110
  918.5000   108.8765     4.9668     5.4178
  919.0000   116.4090     4.4806     5.4493
  919.5000   121.0584     4.5658     5.4752
  920.0000   116.6758     4.9415     5.5013
  920.5000   107.5297     5.3482     5.7520
  921.0000    98.4065     5.7884     6.1471
  921.5000    96.4432     6.2648     6.5694
  922.0000    96.6155     6.7804     7.0206
  922.5000    96.9813     7.2521     7.5029
  923.0000    98.5770     7.5595     8.0183
  923.5000   100.7905     7.8800     8.2830
  924.0000   102.2786     8.1579     8.4551
  924.5000   102.4639     8.3344     8.6307
  925.0000   102.7832     8.4889     8.8101
  925.5000   102.0434     8.6463     8.9931
  926.0000   101.1873     8.8066     9.1799
  926.5000   100.3276     8.9698     9.3707
  927.0000    99.7797     9.1361     9.5653
  927.5000    98.1284     9.3055     9.7641
  928.0000    95.5953     9.4777     9.9669
  928.5000    93.2364     9.6531    10.1740
  929.0000    93.2168     9.8316    10.4005
  929.5000    94.4502    10.0135    10.4580
  930.0000    95.6886    10.2104    10.5202
  930.5000    96.3629    10.2066    10.5820
  931.0000    95.5373    10.2080    10.6948
  931.5000    94.8239    10.2080    10.8229
  932.0000    94.0768    10.2080    10.9525
  932.5000    93.2893    10.2080    11.0836
  933.0000    93.4340    10.2080    11.2161
  933.5000    94.6068    10.2133    11.3503
  934.0000    95.7846    10.2212    11.4205
  934.5000    96.8432    10.2292    11.4201
  935.0000    97.0060    10.2370    11.4190
  935.5000    94.0323    10.2451    11.4184
  936.0000    90.9078    10.2530    11.4184
  936.5000    89.9456    10.2610    11.4186
  937.0000    90.3708    10.2690    11.4189
  937.5000    91.3484    10.2770    11.4192
  938.0000    93.6656    10.2850    11.4190
  938.5000    95.9914    10.2930    11.4194
  939.0000    98.0520    10.3010    11.4185
  939.5000    97.4878    10.3090    11.4151
  940.0000    95.6330    10.3171    11.4651
  940.5000    94.0113    10.3251    11.5454
  941.0000    93.9842    10.3331    11.6350
  941.5000    95.7840    10.3412    11.5623
  942.0000    98.1454    10.3495    11.4187
  942.5000   100.3382    10.3579    11.2791
  943.0000   102.6889    10.3660    11.1412
  943.5000   102.3505    10.3731    11.0049
  944.0000   100.8560    10.3814    10.8704
  944.5000    97.2837    10.3936    10.7375
  945.0000    97.1912    10.4069    10.6062
  945.5000    97.1291    10.2798    10.4765
  946.0000    97.2712    10.0761    10.3484
  946.5000    98.8993     9.8765    10.2080
  947.0000   100.2908     9.6854    10.0522
  947.5000   100.5933     9.4980     9.8799
  948.0000   100.9529     9.3142     9.7106
  948.5000   101.2639     9.1256     9.5442
  949.0000   101.6096     9.0503     9.3806
  949.5000   101.8002     8.9721     9.2198
  950.0000   103.1589     8.8945     9.0616
  950.5000   105.4234     8.8175     8.9063
  951.0000   105.5958     8.7413     8.7786
  951.5000   103.4415     8.6657     8.7294
  952.0000   101.0731     8.5907     8.6805
  952.5000   102.0128     8.5164     8.6319
  953.0000   105.5058     8.4427     8.5836
  953.5000   107.2456     8.3697     8.5356
  954.0000   105.4675     8.2973     8.4871
  954.5000   103.6652     8.2256     8.4274
  955.0000   104.9818     8.1579     8.3604
  955.5000   107.6517     8.0899     8.2940
  956.0000   108.8762     8.0256     8.2280
  956.5000   109.2134     7.9618     8.1627
  957.0000   109.6917     7.8986     8.0978
  957.5000   110.1720     7.8358     8.0334
  958.0000   111.8386     7.7735     7.9551
  958.5000   114.1446     7.7117     7.8661
  959.0000   115.0872     7.6505     7.7784
  959.5000   114.9344     7.5897     7.6919
  960.0000   111.1696     7.4810     7.6064
  960.5000   105.9952     7.3519     7.5218
  961.0000    99.4353     7.2250     7.4338
  961.5000    93.8956     7.1003     7.3076
  962.0000    91.0624     6.9384     7.0876
  962.5000    89.0084     6.7205     6.8740
  963.0000    88.5924     6.5094     6.6668
  963.5000    88.4962     6.2804     6.5312
  964.0000    89.7250     5.1137     6.5757
  964.5000    91.0299     5.2183     6.6208
  965.0000    90.9795     5.5622     6.6661
  965.5000    90.0735     5.9381     6.7126
  966.0000    89.1666     6.2444     6.7677
  966.5000    90.8433     6.5748     6.9859
  967.0000    93.0809     6.9226     7.2668
  967.5000    91.5621     7.2889     7.5591
  968.0000    88.3585     7.7132     7.8630
  968.5000    87.6880     7.8628     8.1792
  969.0000    89.2490     8.0319     8.5081
  969.5000    90.5527     8.2046     8.7908
  970.0000    92.2788     8.3281     8.8123
  970.5000  -999.2500     8.3702     8.8307
  971.0000  -999.2500     8.4124     8.8492
  971.5000  -999.2500     8.4550     8.8676
  972.0000  -999.2500     8.4977     8.8857
  972.5000  -999.2500     8.5406     8.9036
  973.0000  -999.2500     8.5837     8.9214
  973.5000  -999.2500     8.6282     8.9417
  974.0000  -999.2500     8.4784     8.9566
  974.5000  -999.2500     8.3275     8.7397
  975.0000  -999.2500     8.1579     8.5622
  975.5000  -999.2500     8.1136     8.3883
  976.0000  -999.2500     8.0619     8.2180
  976.5000  -999.2500     8.0106     8.0511
  977.0000  -999.2500     7.9597     7.9755
  977.5000  -999.2500     7.9093     7.9330
  978.0000  -999.2500     7.8582     7.8907
  978.5000  -999.2500     7.9047     7.7757
  979.0000  -999.2500     7.9519     7.4119
  979.5000  -999.2500     8.0056     7.1567
  980.0000  -999.2500     7.5393     7.1569
  980.5000  -999.2500     7.0414     6.9975
  981.0000  -999.2500     6.6424     6.8559
  981.5000  -999.2500     6.6426     6.7839
  982.0000  -999.2500     6.6423     6.7125
  982.5000  -999.2500     6.3011     6.6434
  983.0000  -999.2500     5.9016     6.7585
  983.5000  -999.2500     5.5276     6.8726
  984.0000  -999.2500     5.0216     6.9884
