~VERSION INFORMATION
 VERS.                2.0:   CWLS LOG ASCII STANDARD - VERSION 2.0
 WRAP.                 NO:   ONE LINE PER DEPTH STEP
~WELL INFORMATION
#MNEM.UNIT      DATA TYPE    INFORMATION
#----------   ------------   ------------------------------
 STRT.F           82.0000:   START DEPTH
 STOP.F         1194.0000:   STOP DEPTH
 STEP.F            0.5000:   STEP LENGTH
 NULL.          -999.2500:   NO VALUE
 COMP.       INTEX OIL CO:   COMPANY
 WELL.   76S-11 NPR #3-11:   WELL
 FLD .             TEAPOT:   FIELD
 LOC .      S11 T38N R78W:   LOCATION
 CNTY.            NATRONA:   COUNTY
 STAT.            WYOMING:   STATE
 CTRY. UNITED STATES OF AMERICA:   COUNTRY
 SRVC.       Schlumberger:   SERVICE COMPANY
 DATE.        30-AUG-1966:   LOGDATE
 API .       490250972800:   API NUMBER
~CURVE INFORMATION
#MNEM.UNIT       API CODE    CURVE DESCRIPTION
#----------   ------------   ------------------------------
 DEPT.F                  :   
 SPR .MV     05 010 01 00:   SPONTANEOUS POTENTIAL FROM RES.
 CILD.MMHO   05 110 46 00:   CONDUCTIVITY INDUCTION LOG DEEP
 ILD .OHMM   05 120 46 00:   INDUCTION LOG DEEP
 ASN .OHMM   05 041 16 00:   AMPLIFIED SHORT NORMAL 16"
 CALD.IN     45 280 60 00:   CALIPER FROM DENSITY LOG
 CORR.G/C3   45 356 01 00:   DENSITY CORRECTION
 RHOB.G/C3   45 350 01 00:   BULK DENSITY
 DPHI.DEC    45 890 12 00:   DENSITY POROSITY SANDSTONE
 GRD .GAPI   45 310 01 00:   GAMMA RAY FROM DENSITY LOG
~PARAMETER INFORMATION
#MNEM.UNIT          VALUE    DESCRIPTION
#----------   ------------   ------------------------------
 PD  .                 GL:   PERMANENT DATUM
 EPD .F              5261:   ELEVATION PERMANENT DATUM
 LMF .                 KB:   LOG MEASURED FROM
 DAPD.F                 5:   FEET ABOVE PERMANENT DATUM
 DMF .                 KB:   DRILLING MEASURED FROM
 EKB .F              5266:   KELLING BUSHING
 EGL .F              5261:   GROUND LEVEL
 DATE.            8-30-66:   RUN DATE
 RUN .                  1:   RUN NUMBER
 DD  .F              1191:   DEPTH DRILLER
 DL  .F              1191:   DEPTH LOGGER
 BLI .F              1190:   BOTTOM LOG INTERVAL
 TLI .F                87:   TOP LOG INTERVAL
 CS  .IN            8.625:   CASING SIZE
 CBD .F                10:   CASING BOTTOM DRILLER
 BS  .IN             6.75:   BIT SIZE
 BSD .F              1191:   BIT SIZE AT DEPTH
 DFT .           CHEM-GEL:   DRILLING FLUID TYPE
 DFD .                9.8:   DRILLING FLUID DENSITY
 DFV .                 60:   DRILLING FLUID VISCOSITY
 MSS .         CIRCULATED:   MUD SAMPLE SOURCE
 RMS .OHMM            .76:   RESISTIVITY MUD SAMPLE
 MST .F                85:   MUD SAMPLE TEMPERATURE
 RMF .OHMM            .46:   RESISTIVITY MUD FILTRATE SAMPLE
 MFST.F                88:   MUD FILTRATE SAMPLE TEMPERATURE
 MFSS.                  M:   MUD FILTRATE SAMPLE SOURCE
 RMB .OHMM           .695:   RESISTIVITY MUD AT BHT
 BHT .F                93:   BOTTOM HOLE TEMPERATURE
 TCS .HRS               1:   TIME CURCULATED STOPPED
 MRT .F                93:   MAXIMUM RECORDED TEMPERATURE
 LUN .               3527:   LOGGING UNIT NUMBER
 LUL .               CSPR:   LOGGING UNIT LOCATION
 ENGI.               HAUG:   RECORDING ENGINEER
 WITN.                MAY:   WITNESSED BY
 CLNT.            A2DTECH:   CLIENT CODE
 ORIG. 2", 2.5", 5" PRINT:   ORIGIN OF DATA
 UWI .       490250972800:   UNIQUE WELL ID
 DICO. A2D Technologies, Inc.:   DIGITIZING COMPANY
~OTHER INFORMATION
~A   DEPT      SPR        CILD       ILD          ASN     CALD       CORR       RHOB       DPHI        GRD   
# ...
  921.5000   -42.3726   160.3543     5.9467     8.1501     7.2388     0.0760     2.5339     0.0754   107.6072
  922.0000   -42.6669   157.8343     6.0263     8.2481     7.2231     0.0828     2.5314     0.0724   106.6698
  922.5000   -42.8452   155.3144     6.1049     8.4087     7.2060     0.0710     2.5196     0.0818   107.0873
  923.0000   -42.7894   153.7259     6.1839     8.5679     7.2022     0.0572     2.4997     0.0984   110.5223
  923.5000   -42.6998   152.8859     6.2630     8.6608     7.2024     0.0752     2.5136     0.0906   113.2569
  924.0000   -42.6714   152.0459     6.3419     8.6989     7.2024     0.0921     2.5240     0.0827   114.5222
  924.5000   -42.6413   151.2059     6.4276     8.7509     7.2023     0.1001     2.5276     0.0775   113.1432
  925.0000   -42.5752   150.3659     6.4528     8.8380     7.2024     0.0841     2.5267     0.0771   111.7345
  925.5000   -42.5167   149.5260     6.4679     8.9485     7.2024     0.0824     2.5233     0.0786   110.3033
  926.0000   -42.4700   148.6860     6.4863     9.0369     7.2024     0.0999     2.5402     0.0669   108.6899
  926.5000   -42.4714   147.7949     6.5030     9.1144     7.2024     0.0909     2.5222     0.0748   109.2655
  927.0000   -42.4674   146.8349     6.5209     9.1912     7.2024     0.0705     2.5126     0.0879   111.2148
  927.5000   -42.4748   145.8749     6.5377     9.2555     7.2024     0.0618     2.5040     0.0921   113.2486
  928.0000   -42.4212   144.8816     6.5560     9.2764     7.2024     0.0575     2.5062     0.0874   112.7916
  928.5000   -42.2491   144.3662     6.5716     9.3042     7.2024     0.0547     2.5037     0.0906   111.5097
  929.0000   -42.0915   145.0702     6.5922     9.4036     7.2024     0.0509     2.4948     0.0976   110.2433
  929.5000   -42.1323   145.7775     6.6037     9.5268     7.2024     0.0466     2.4959     0.0957   109.0758
  930.0000   -42.2264   146.4824     6.6332     9.5585     7.2024     0.0621     2.5122     0.0872   107.8903
  930.5000   -42.2724   147.1844     6.5624     9.4229     7.2024     0.0773     2.5171     0.0842   107.0395
  931.0000   -42.2678   147.8811     6.5166     9.2679     7.2024     0.0543     2.5008     0.0907   108.6232
  931.5000   -42.2696   147.9517     6.5123     9.0849     7.2024     0.0174     2.4827     0.1024   110.5567
  932.0000   -42.2696   147.4717     6.4905     8.9527     7.2024     0.0227     2.4954     0.1032   112.5777
  932.5000   -42.2688   146.9917     6.4812     8.8373     7.2024     0.0559     2.5282     0.0807   113.6582
  933.0000   -42.2696   146.5117     6.4591     8.7219     7.2024     0.0861     2.5445     0.0676   112.3943
  933.5000   -42.1965   147.3945     6.4565     8.6108     7.2024     0.0943     2.5408     0.0637   112.2714
  934.0000   -42.1227   150.6344     6.3500     8.4932     7.2024     0.0995     2.5446     0.0646   112.6732
  934.5000   -41.9414   153.8744     6.1046     8.2920     7.2024     0.1017     2.5354     0.0695   113.0536
  935.0000   -42.0320   159.0002     5.8641     8.1039     7.2024     0.0925     2.5210     0.0791   113.4193
  935.5000   -41.9585   165.4146     5.6250     7.7934     7.2025     0.0659     2.4980     0.0887   113.7221
  936.0000   -41.6916   174.1154     5.3723     7.5537     7.2025     0.0755     2.5118     0.0945   114.9059
  936.5000   -41.4109   186.0279     5.1842     7.0295     7.2023     0.0955     2.5246     0.0771   117.0038
  937.0000   -41.2991   195.1098     4.7154     6.5796     7.2027     0.1130     2.5209     0.0898   119.1139
  937.5000   -41.4615   224.0292     4.1750     6.1898     7.2023     0.0803     2.4958     0.1055   119.1586
  938.0000   -41.6135   246.0080     3.6564     5.7249     7.2021     0.0880     2.4836     0.1079   117.6464
  938.5000   -41.5417   297.3990     3.1289     5.2593     7.2051     0.0995     2.4785     0.1134   115.9014
  939.0000   -41.2014   345.9082     2.5841     4.7885     7.1577     0.1115     2.4693     0.1195   115.6982
  939.5000   -41.0537   399.3760     2.3337     4.3162     7.0496     0.1145     2.4469     0.1262   116.8500
  940.0000   -41.0720   430.7922     2.1289     3.9107     7.0450     0.0979     2.4221     0.1329   117.7541
  940.5000   -41.0391   466.2595     1.9545     3.5669     7.0508     0.0854     2.3969     0.1497   116.6271
  941.0000   -40.8550   480.6714     1.9802     3.3259     7.0587     0.0976     2.3793     0.1679   115.0564
  941.5000   -40.6847   481.0496     2.0284     3.2463     7.0657     0.1107     2.3688     0.1729   113.3917
  942.0000   -40.5164   466.1891     2.0658     3.2590     7.0733     0.1246     2.3641     0.1750   112.6370
  942.5000   -40.4509   447.0388     2.1222     3.3512     7.0778     0.1342     2.3770     0.1682   111.6485
  943.0000   -40.4700   400.5112     2.1464     3.6131     7.1083     0.1197     2.3867     0.1631   112.3247
  943.5000   -40.4448   372.4762     2.4941     4.1417     7.1607     0.1039     2.4111     0.1495   114.3383
  944.0000   -40.6053   322.2922     3.0172     4.6980     7.2013     0.1006     2.4433     0.1394   115.7542
  944.5000   -40.9219   261.3636     3.4884     5.2679     7.2017     0.0988     2.4630     0.1213   115.4930
  945.0000   -41.2215   241.1580     3.9892     5.8172     7.2027     0.1013     2.4669     0.1182   115.5052
  945.5000   -41.4594   215.8199     4.4646     6.3506     7.2023     0.1134     2.4881     0.1053   118.8094
  946.0000   -41.4555   197.4009     4.9654     6.4769     7.2027     0.1262     2.5154     0.0795   121.5872
  946.5000   -41.3257   188.8855     5.1642     6.5529     7.2009     0.1200     2.5170     0.0811   124.6614
  947.0000   -41.1775   188.1237     5.1169     6.5598     7.2216     0.1020     2.5092     0.0856   124.3720
  947.5000   -41.0312   189.1218     4.9759     6.6757     7.2612     0.0874     2.5123     0.0874   124.6905
  948.0000   -40.8842   198.4735     4.8141     6.7700     7.3011     0.0941     2.5236     0.0785   126.4399
  948.5000   -40.8288   207.3842     4.6594     6.8673     7.3218     0.1049     2.5344     0.0700   127.3990
  949.0000   -40.7694   216.2949     4.5010     6.7791     7.3157     0.0995     2.5207     0.0778   127.2765
  949.5000   -40.7142   225.2055     4.3429     6.5200     7.3123     0.0920     2.5200     0.0874   127.3330
  950.0000   -40.6558   234.1162     4.1874     6.2659     7.3087     0.0995     2.5273     0.0724   127.2942
  950.5000   -40.5706   243.0269     4.0258     6.0234     7.3046     0.1123     2.5246     0.0778   127.2013
  951.0000   -40.4829   251.9375     3.8767     5.8228     7.3009     0.1149     2.5159     0.0913   125.4118
  951.5000   -40.4043   259.9800     3.7040     5.5997     7.2970     0.0891     2.4870     0.1047   123.6068
  952.0000   -40.3064   259.9800     3.6639     5.4908     7.2931     0.0681     2.4534     0.1182   121.6957
  952.5000   -40.2795   257.9840     3.7205     5.5072     7.2892     0.0591     2.4424     0.1260   119.8329
  953.0000   -40.3597   249.0001     3.8320     5.6748     7.2855     0.0555     2.4526     0.1268   118.5094
  953.5000   -40.4276   237.9821     4.0901     5.9252     7.2819     0.0645     2.4598     0.1160   118.7903
  954.0000   -40.5023   226.9642     4.3448     6.1282     7.2816     0.0757     2.4782     0.1029   119.4950
  954.5000   -40.5735   215.9462     4.6084     6.3508     7.2821     0.0831     2.5039     0.0898   121.4570
  955.0000   -40.6466   205.7108     4.8657     6.7167     7.2823     0.0857     2.5239     0.0807   122.6067
  955.5000   -40.7192   196.7687     5.1299     7.0413     7.3057     0.0889     2.5331     0.0740   121.7022
  956.0000   -40.7916   187.8266     5.4001     7.3825     7.3343     0.0913     2.5311     0.0723   120.8293
  956.5000   -40.8696   177.1457     5.5062     7.7037     7.3594     0.0895     2.5285     0.0753   119.9008
  957.0000   -41.0263   171.5744     5.6560     7.9181     7.3596     0.0836     2.5230     0.0793   119.0177
  957.5000   -41.1795   166.1677     5.8140     8.0854     7.3124     0.0774     2.5119     0.0842   118.0350
