~VERSION INFORMATION
 VERS.                2.0:   CWLS LOG ASCII STANDARD - VERSION 2.0
 WRAP.                 NO:   ONE LINE PER DEPTH STEP
~WELL INFORMATION
#MNEM.UNIT      DATA TYPE    INFORMATION
#----------   ------------   ------------------------------
 STRT.F           34.0000:   START DEPTH
 STOP.F          445.0000:   STOP DEPTH
 STEP.F            0.5000:   STEP LENGTH
 NULL.          -999.2500:   NO VALUE
 COMP. FENIX & SCISSON U.S. NAVY:   COMPANY
 WELL.       NPR #64-S-10:   WELL
 FLD .             TEAPOT:   FIELD
 LOC .      S10 T38N R78W:   LOCATION
 CNTY.            NATRONA:   COUNTY
 STAT.            WYOMING:   STATE
 CTRY. UNITED STATES OF AMERICA:   COUNTRY
 SRVC.              Welex:   SERVICE COMPANY
 DATE.        08-APR-1977:   LOGDATE
 API .       490251033400:   API NUMBER
~CURVE INFORMATION
#MNEM.UNIT       API CODE    CURVE DESCRIPTION
#----------   ------------   ------------------------------
 DEPT.F                  :   
 SPR .MV     07 010 01 00:   SPONTANEOUS POTENTIAL
 ILD .OHMM   07 120 46 00:   INDUCTION LOG DEEP
 ILM .OHMM   07 120 44 00:   INDUCTION LOG MEDIUM
 SGRD.OHMM   07 221 05 00:   SHALLOW SHORT GUARD RESISTIVITY
 CALD.IN     45 280 60 00:   CALIPER FROM DENSITY LOG
 GRD .GAPI   45 310 01 00:   GAMMA RAY FROM DENSITY LOG
 CORR.G/C3   45 356 01 00:   DENSITY CORRECTION
 RHOB.G/C3   45 350 01 00:   BULK DENSITY
 DPHI.DEC    45 890 12 00:   DENSITY POROSITY SANDSTONE
~PARAMETER INFORMATION
#MNEM.UNIT          VALUE    DESCRIPTION
#----------   ------------   ------------------------------
 PD  .                 GL:   PERMANENT DATUM
 EPD .F              5183:   ELEVATION PERMANENT DATUM
 LMF .                 GL:   LOG MEASURED FROM
 DMF .                 GL:   DRILLING MEASURED FROM
 EGL .F              5183:   GROUND LEVEL
 DATE.        08-APR-1977:   RUN DATE
 RUN .                  1:   RUN NUMBER
 DD  .F               455:   DEPTH DRILLER
 DL  .F               447:   DEPTH LOGGER
 BLI .F               445:   BOTTOM LOG INTERVAL
 TLI .F                34:   TOP LOG INTERVAL
 CS  .IN            8.625:   CASING SIZE
 BS  .IN            7.875:   BIT SIZE
 BSD .F               455:   BIT SIZE AT DEPTH
 DFT .           KCL- GEL:   DRILLING FLUID TYPE
 DFD .                8.3:   DRILLING FLUID DENSITY
 TCS .HRS            0100:   TIME CURCULATED STOPPED
 MRT .F                62:   MAXIMUM RECORDED TEMPERATURE
 ENGI.        E. CALLAHAN:   RECORDING ENGINEER
 WITN.            R. LYON:   WITNESSED BY
 CLNT.            A2DTECH:   CLIENT CODE
 ORIG.           5" PRINT:   ORIGIN OF DATA
 UWI .       490251033400:   UNIQUE WELL ID
 DICO. A2D Technologies, Inc.:   DIGITIZING COMPANY
~OTHER INFORMATION
~A   DEPT      SPR        ILD        ILM       SGRD       CALD        GRD        CORR        RHOB     DPHI   
# ...
  180.0000   -36.7825     5.5822     5.7152     7.9841     7.6775   130.3001     0.0480     2.4083     0.1465
  180.5000   -36.7914     5.5803     5.7933     6.2191     7.6489   127.6275     0.0406     2.4046     0.1465
  181.0000   -36.8002     5.6563     5.9120     5.5645     7.6362   127.6454     0.0362     2.3979     0.1513
  181.5000   -36.9594     5.7733     6.1608     6.0799     7.6226   125.4211     0.0364     2.4107     0.1512
  182.0000   -36.9684     5.8927     6.3755     9.0319     7.5945   123.6453     0.0380     2.4206     0.1401
  182.5000   -37.1296     6.0564     6.6438     9.6099     7.5818   123.2103     0.0411     2.4289     0.1337
  183.0000   -37.1384     6.3555     6.9277    10.0842     7.5836   124.1296     0.0428     2.4305     0.1328
  183.5000   -37.1473     6.6233     7.2145    10.5088     7.5854   126.3896     0.0474     2.4268     0.1341
  184.0000   -37.3065     6.8783     7.4653    10.8005     7.6021   129.3971     0.0476     2.4238     0.1353
  184.5000   -37.0145     7.1430     7.6721    10.4291     7.6189   132.1055     0.0477     2.4254     0.1330
  185.0000   -36.8708     7.3414     7.8311     9.6604     7.6356   130.4792     0.0448     2.4315     0.1273
  185.5000   -36.7292     7.4932     7.9372     9.5242     7.6673   130.6466     0.0434     2.4357     0.1282
  186.0000   -36.7403     7.6482     7.9884    10.2752     7.6691   132.7572     0.0421     2.4283     0.1285
  186.5000   -36.7491     7.7524     8.0415    10.9370     7.6559   134.5688     0.0407     2.4362     0.1260
  187.0000   -36.7579     7.8580     8.0934    11.0051     7.6428   135.5087     0.0408     2.4453     0.1233
  187.5000   -36.6164     7.8554     8.0901    11.0769     7.6142   133.4088     0.0395     2.4491     0.1221
  188.0000   -36.6256     7.8527     8.1431    11.0732     7.5866   131.4835     0.0381     2.4402     0.1248
  188.5000   -36.4836     7.8497     8.1397    11.0694     7.5884   129.5582     0.0367     2.4436     0.1232
  189.0000   -36.3443     7.8471     8.1931    11.0657     7.6051   129.2765     0.0354     2.4489     0.1211
  189.5000   -36.3531     7.8441     8.2468    10.8343     7.6069   132.5836     0.0370     2.4313     0.1277
  190.0000   -36.3619     7.8414     8.2426    10.5345     7.6236   134.0963     0.0402     2.4186     0.1325
  190.5000   -36.2182     7.7308     8.1823    10.4461     7.6553   133.9647     0.0538     2.4360     0.1234
  191.0000   -36.0766     7.6747     8.0663    10.7486     7.6571   132.9363     0.0555     2.4616     0.1153
  191.5000   -36.0877     7.6191     8.0630    10.8949     7.6589   132.5058     0.0511     2.4602     0.1141
  192.0000   -36.0965     7.5639     8.0040    10.5759     7.6458   131.9257     0.0452     2.4490     0.1192
  192.5000   -36.1053     7.5613     8.0008    10.2283     7.6476   130.8973     0.0498     2.4588     0.1173
  193.0000   -36.1143     7.6114     8.0532    10.1543     7.6493   129.5699     0.0590     2.4731     0.1065
  193.5000   -36.1233     7.6085     8.1060    10.2925     7.6661   128.6910     0.0621     2.4822     0.1032
  194.0000   -36.1340     7.6059     8.1025    10.5052     7.6679   129.1573     0.0593     2.4860     0.1025
  194.5000   -36.2932     7.6030     8.0426    10.7968     7.6543   130.9689     0.0519     2.4794     0.1058
  195.0000   -36.4524     7.5479     8.0393    11.0208     7.6411   132.6311     0.0490     2.4621     0.1121
  195.5000   -36.4612     7.4414     8.0360    10.9401     7.6434   134.1438     0.0492     2.4479     0.1169
  196.0000   -36.4708     7.2857     7.9773    10.4185     7.6452   135.2080     0.0493     2.4337     0.1268
  196.5000   -36.4789     7.1829     7.8642    10.2007     7.6469   135.5249     0.0494     2.4293     0.1316
  197.0000   -36.6381     7.0326     7.6459    10.1267     7.6487   134.4964     0.0511     2.4286     0.1328
  197.5000   -36.6469     6.8855     7.3313    10.3352     7.6505   133.4680     0.0512     2.4264     0.1351
  198.0000   -36.5053     6.7414     6.9810    10.9966     7.6523   132.8879     0.0513     2.4145     0.1390
  198.5000   -36.5141     6.5547     6.7383     9.9075     7.6541   133.5038     0.0515     2.4063     0.1465
  199.0000   -36.3498     6.2853     6.6383     6.6260     7.6559   134.1196     0.0516     2.4011     0.1492
  199.5000   -36.2310     6.0062     6.5047     5.6871     7.6577   134.2880     0.0532     2.4064     0.1428
  200.0000   -36.2399     5.8115     6.4526     8.8587     7.6442   131.4649     0.0534     2.4440     0.1215
  200.5000   -36.1459     5.8179     6.3892     9.2967     7.6493   130.4271     0.0566     2.4512     0.1200
  201.0000   -36.0590     5.8569     6.3258     9.0387     7.6543   129.2584     0.0537     2.4344     0.1253
  201.5000   -35.9721     5.8551     6.2309     9.5507     7.6593   128.2285     0.0524     2.4239     0.1355
  202.0000   -36.1090     5.7328     6.1005     9.8158     7.6643   127.0491     0.0526     2.4216     0.1376
  202.5000   -36.2626     5.6133     5.8851     9.2451     7.6667   126.1687     0.0527     2.4217     0.1349
  203.0000   -36.2681     5.5345     5.6875     5.4068     7.6682   125.5873     0.0544     2.4225     0.1358
  203.5000   -36.2724     5.5330     5.6856     4.9397     7.6697   125.6037     0.0561     2.4323     0.1360
  204.0000   -36.2767     5.6478     5.7237     5.4794     7.6861   126.5171     0.0577     2.4466     0.1270
  204.5000   -36.1307     5.8051     5.8823     8.9600     7.6876   128.3272     0.0594     2.4564     0.1176
  205.0000   -36.1361     6.0080     6.0878     9.5342     7.7040   129.6890     0.0581     2.4609     0.1155
  205.5000   -36.1405     6.2616     6.3484     9.7319     7.7055   130.7518     0.0582     2.4587     0.1155
  206.0000   -36.2952     6.4808     6.6572     9.6614     7.7070   130.7682     0.0569     2.4550     0.1164
  206.5000   -36.2995     6.7077     6.8898     9.4601     7.7235   130.4857     0.0525     2.4513     0.1172
  207.0000   -36.3039     6.8469     7.1305     9.5896     7.7250   129.7548     0.0467     2.4495     0.1187
  207.5000   -36.3083     6.9407     7.2786     9.7884     7.7115   129.0239     0.0423     2.4461     0.1208
  208.0000   -36.3136     6.9386     7.2756     9.7183     7.7130   128.2929     0.0365     2.4394     0.1226
  208.5000   -36.3180     6.8886     7.2732     9.3848     7.6846   127.4125     0.0367     2.4281     0.1249
  209.0000   -36.3223     6.6983     7.0224     9.9171     7.6712   126.6816     0.0428     2.4222     0.1306
  209.5000   -36.3266     6.3351     6.6874     9.9834     7.6428   126.2455     0.0490     2.4230     0.1348
  210.0000   -36.3310     5.9916     6.2806     9.9801     7.6443   126.2661     0.0469     2.4177     0.1354
  210.5000   -36.3353     5.7458     5.8578     9.9085     7.6308   127.3289     0.0395     2.3930     0.1414
  211.0000   -36.6425     5.4720     5.6172     7.2519     7.6323   128.5412     0.0337     2.3863     0.1536
  211.5000   -36.9459     5.2110     5.4617     4.9840     7.6338   129.4545     0.0331     2.3983     0.1593
  212.0000   -36.7998     5.2824     5.7310     4.6515     7.6353   129.3215     0.0468     2.4240     0.1422
  212.5000   -36.8052     5.4296     6.0141     9.3635     7.6667   127.8431     0.0560     2.4470     0.1250
  213.0000   -36.8096     5.6197     6.3111     9.8270     7.6682   126.9627     0.0539     2.4666     0.1136
  213.5000   -36.8139     5.8976     6.6229     9.1660     7.6846   127.1287     0.0428     2.4592     0.1147
  214.0000   -36.9686     6.1252     6.8543     6.9450     7.6562   127.4441     0.0317     2.4344     0.1258
  214.5000   -36.9730     6.4502     7.0938     9.1611     7.5830   128.0584     0.0349     2.4413     0.1237
  215.0000   -36.9774     6.7225     7.3484    10.0407     7.5247   128.2244     0.0403     2.4586     0.1174
  215.5000   -37.1331     6.9578     7.5975    10.5168     7.4664   126.8955     0.0465     2.4677     0.1137
  216.0000   -36.9860     7.1517     7.7547    10.5140     7.4679   123.9225     0.0504     2.4760     0.1092
