~VERSION INFORMATION
 VERS.                2.0:   CWLS LOG ASCII STANDARD - VERSION 2.0
 WRAP.                 NO:   ONE LINE PER DEPTH STEP
~WELL INFORMATION
#MNEM.UNIT      DATA TYPE    INFORMATION
#----------   ------------   ------------------------------
 STRT.F           30.0000:   START DEPTH
 STOP.F          458.0000:   STOP DEPTH
 STEP.F            0.5000:   STEP LENGTH
 NULL.          -999.2500:   NO VALUE
 COMP. FENIX & SCISSON INC:   COMPANY
 WELL. NPR 3 #53 SX 10-10:   WELL
 FLD .             TEAPOT:   FIELD
 LOC .      S10 T38N R78W:   LOCATION
 CNTY.            NATRONA:   COUNTY
 STAT.            WYOMING:   STATE
 CTRY. UNITED STATES OF AMERICA:   COUNTRY
 SRVC.              Welex:   SERVICE COMPANY
 DATE.        16-APR-1977:   LOGDATE
 API .       490251033200:   API NUMBER
~CURVE INFORMATION
#MNEM.UNIT       API CODE    CURVE DESCRIPTION
#----------   ------------   ------------------------------
 DEPT.F                  :   
 SPR .MV     07 010 01 00:   SPONTANEOUS POTENTIAL FROM RES.
 ILD .OHMM   07 120 46 00:   INDUCTION LOG DEEP
 ILM .OHMM   07 120 44 00:   INDUCTION LOG MEDIUM
 SGRD.OHMM   07 220 05 00:   SHALLOW GUARD RESISTIVITY
 GRD .GAPI   45 310 01 00:   GAMMA RAY FROM DENSITY LOG
 CALD.IN     45 280 60 00:   CALIPER FROM DENSITY LOG
 CORR.G/C3   45 356 01 00:   DENSITY CORRECTION
 RHOB.G/C3   45 350 01 00:   BULK DENSITY
 DPHI.DEC    45 890 12 00:   DENSITY POROSITY SANDSTONE
~PARAMETER INFORMATION
#MNEM.UNIT          VALUE    DESCRIPTION
#----------   ------------   ------------------------------
 PD  .                 GL:   PERMANENT DATUM
 EPD .F              5180:   ELEVATION PERMANENT DATUM
 LMF .                 GL:   LOG MEASURED FROM
 DMF .                 GL:   DRILLING MEASURED FROM
 EGL .F              5180:   GROUND LEVEL
 DATE.        16-APR-1977:   RUN DATE
 RUN .                  1:   RUN NUMBER
 DD  .F               455:   DEPTH DRILLER
 DL  .F               461:   DEPTH LOGGER
 BLI .F               459:   BOTTOM LOG INTERVAL
 TLI .F                30:   TOP LOG INTERVAL
 CS  .IN            8.625:   CASING SIZE
 BS  .IN            7.875:   BIT SIZE
 BSD .F               455:   BIT SIZE AT DEPTH
 DFT .            KCL MUD:   DRILLING FLUID TYPE
 DFD .                8.9:   DRILLING FLUID DENSITY
 TCS .HRS            0600:   TIME CURCULATED STOPPED
 MRT .F                66:   MAXIMUM RECORDED TEMPERATURE
 ENGI.               DOAK:   RECORDING ENGINEER
 WITN.      B. HARRINGTON:   WITNESSED BY
 CLNT.            A2DTECH:   CLIENT CODE
 ORIG.           5" PRINT:   ORIGIN OF DATA
 UWI .       490251033200:   UNIQUE WELL ID
 DICO. A2D Technologies, Inc.:   DIGITIZING COMPANY
~OTHER INFORMATION
~A   DEPT      SPR        ILD        ILM       SGRD         GRD        CALD      CORR        RHOB     DPHI   
# ...
  322.0000   -44.1715    11.2287    16.0132    18.6017    89.8778     7.7908     0.0319     2.4411     0.1238
  322.5000   -44.1536    11.3131    16.4748    18.6122    92.1348     7.7782     0.0321     2.4390     0.1234
  323.0000   -44.2849    11.3194    16.2609    18.7657    89.0427     7.7802     0.0306     2.4339     0.1276
  323.5000   -44.1180    11.3256    14.7718    19.0234    88.4694     7.7823     0.0280     2.4302     0.1306
  324.0000   -44.1002    11.4897    14.6784    18.6431    90.1391     7.7844     0.0282     2.4288     0.1323
  324.5000   -43.9340    11.5758    15.2093    19.1766    91.3560     7.7865     0.0284     2.4267     0.1335
  325.0000   -43.9162    11.8525    15.9757    19.1872    92.4243     7.8035     0.0316     2.4245     0.1341
  325.5000   -43.8984    12.6055    17.0145    19.0655    93.6412     7.7906     0.0333     2.4209     0.1370
  326.0000   -43.7322    14.2172    19.2843    21.4557    91.4406     7.7927     0.0351     2.4120     0.1454
  326.5000   -43.4176    15.5509    22.0085    24.1454    84.7823     7.7948     0.0353     2.4001     0.1550
  327.0000   -43.1031    16.5766    21.7228    30.3511    79.1641     7.7969     0.0325     2.3852     0.1603
  327.5000   -42.6401    17.7096    18.0370    27.3760    75.3290     7.7840     0.0282     2.3733     0.1654
  328.0000   -42.4739    19.1197    16.0489    30.8079    71.9397     7.7861     0.0239     2.3734     0.1663
  328.5000   -42.1594    20.2184    17.4507    37.1522    67.8074     7.7882     0.0241     2.3788     0.1593
  329.0000   -41.9932    21.5285    19.9159    47.6797    66.9440     7.7903     0.0258     2.3759     0.1614
  329.5000   -41.9754    23.4040    22.2628    40.4113    67.2694     7.7924     0.0260     2.3670     0.1700
  330.0000   -41.6608    24.7488    23.8748    45.4773    69.0806     7.7944     0.0247     2.3543     0.1796
  330.5000   -41.4946    25.9906    25.7812    40.4562    70.2975     7.7965     0.0234     2.3387     0.1862
  331.0000   -41.3285    26.9198    27.0804    40.1988    70.9130     7.7986     0.0191     2.3335     0.1901
  331.5000   -41.3106    27.1216    28.2491    41.0651    69.1652     7.8007     0.0148     2.3231     0.1963
  332.0000   -41.2928    27.1366    28.8632    45.5784    68.1533     7.8028     0.0120     2.3143     0.2034
  332.5000   -41.2750    26.9608    28.8852    47.3463    72.7877     7.7750     0.0062     2.3106     0.2046
  333.0000   -41.4100    26.6089    28.3137    45.3083    73.4102     7.7771     0.0019     2.3127     0.2013
  333.5000   -41.3877    26.2544    28.3353    45.6543    72.2426     7.7792     0.0021     2.3207     0.1968
  334.0000   -41.3699    27.1968    28.3569    49.2897    72.7236     7.7664     0.0083     2.3305     0.1934
  334.5000   -41.6488    26.8381    29.1744    46.9868    74.0891     7.7684     0.0146     2.3359     0.1885
  335.0000   -41.6310    27.7976    33.0664    42.9713    74.7117     7.7705     0.0148     2.3420     0.1843
  335.5000   -41.7660    29.3949    41.5735    43.2935    75.1856     7.7726     0.0134     2.3443     0.1825
  336.0000   -41.7437    31.5168    42.4692    48.3851    75.3624     7.7747     0.0122     2.3429     0.1819
  336.5000   -41.7259    32.8701    38.5874    73.2947    75.3906     7.7768     0.0109     2.3408     0.1839
  337.0000   -41.7081    33.5776    36.5317    38.8184    74.2300     7.7788     0.0126     2.3364     0.1865
  337.5000   -41.6903    33.8293    38.1155    40.4908    74.1085     7.7809     0.0128     2.3343     0.1885
  338.0000   -41.6725    33.8481    39.7604    42.5225    75.4751     7.7830     0.0145     2.3389     0.1876
  338.5000   -41.8075    32.9384    38.1736    43.1385    77.1378     7.7851     0.0148     2.3458     0.1838
  339.0000   -41.7852    30.3366    34.6778    41.6957    77.9089     7.7872     0.0165     2.3496     0.1788
  339.5000   -42.0641    28.7199    38.4971    44.3976    78.4027     7.8190     0.0212     2.3550     0.1761
  340.0000   -42.1991    27.3780    36.9608    48.6004    75.5879     7.8211     0.0229     2.3589     0.1726
  340.5000   -42.1768    27.0132    35.4857    48.6274    74.0728     7.8083     0.0231     2.3642     0.1680
  341.0000   -42.1590    26.8420    34.7771    43.8608    76.2386     7.8104     0.0279     2.3726     0.1646
  341.5000   -42.1412    27.2346    35.5398    39.0182    78.6442     7.7976     0.0296     2.3810     0.1611
  342.0000   -42.1234    27.0619    36.3124    37.7131    80.4554     7.7996     0.0313     2.3886     0.1569
  342.5000   -42.1056    25.2679    38.4070    37.4689    81.5237     7.8017     0.0299     2.3917     0.1540
  343.0000   -42.0877    23.9180    38.7030    38.0170    82.2949     7.8038     0.0302     2.3888     0.1565
  343.5000   -42.0699    24.1006    36.6481    39.1049    82.1745     7.8059     0.0289     2.3844     0.1603
  344.0000   -42.0521    24.7902    32.1606    39.9467    80.1224     7.8080     0.0276     2.3793     0.1624
  344.5000   -41.8859    25.3239    31.5184    39.9689    77.9218     7.8100     0.0263     2.3741     0.1639
  345.0000   -41.8681    25.3379    34.0416    39.4364    76.1669     7.8121     0.0280     2.3765     0.1632
  345.5000   -41.7019    25.7050    37.2718    40.0133    74.7092     7.8142     0.0298     2.3774     0.1632
  346.0000   -41.6841    24.6740    38.6050    40.3133    72.8057     7.8163     0.0315     2.3782     0.1632
  346.5000   -41.6663    24.1808    36.0601    40.0577    73.5769     7.8035     0.0347     2.3806     0.1622
  347.0000   -41.8013    23.8619    32.7579    40.0800    75.9824     7.8055     0.0364     2.3837     0.1592
  347.5000   -41.7790    23.5472    30.1725    39.5459    80.7655     7.8076     0.0381     2.3868     0.1555
  348.0000   -41.7612    22.7596    28.7633    37.9652    85.1027     7.8097     0.0383     2.3929     0.1513
  348.5000   -41.8962    23.0894    30.6393    36.9449    84.3880     7.8267     0.0385     2.3961     0.1510
  349.0000   -41.8739    24.5855    31.0837    39.3443    81.8901     7.8288     0.0388     2.3894     0.1557
  349.5000   -41.8561    25.9982    29.0346    40.4702    81.4715     7.8308     0.0374     2.3813     0.1614
  350.0000   -41.9015    26.7605    29.1696    40.3881    83.7296     7.8180     0.0332     2.3701     0.1680
  350.5000   -42.2540    26.9405    30.7225    39.4025    84.3496     7.8307     0.0288     2.3649     0.1679
  351.0000   -42.5303    26.2259    29.9008    38.0899    81.6969     7.8368     0.0245     2.3695     0.1661
  351.5000   -42.5066    25.3504    29.9488    37.3233    81.1248     7.8387     0.0202     2.3659     0.1652
  352.0000   -42.6313    24.3353    30.7878    38.3966    82.3389     7.8407     0.0157     2.3615     0.1688
  352.5000   -42.7619    23.8505    30.7905    38.6844    83.4028     7.8426     0.0113     2.3676     0.1696
  353.0000   -42.8866    23.6971    30.8290    38.1742    84.3181     7.8445     0.0099     2.3624     0.1672
  353.5000   -42.8570    23.7155    31.9608    37.4059    85.2334     7.8465     0.0101     2.3587     0.1723
  354.0000   -42.8333    24.5650    32.8214    35.1733    84.0685     7.8484     0.0087     2.3618     0.1720
  354.5000   -42.8096    26.3400    31.6914    32.1673    84.0923     7.8355     0.0089     2.3649     0.1677
  355.0000   -42.7860    27.4729    29.1473    30.8728    85.7506     7.8225     0.0105     2.3680     0.1665
  355.5000   -42.7623    26.1910    26.7683    30.0472    86.3740     7.7946     0.0107     2.3621     0.1707
  356.0000   -42.8929    23.4625    24.4368    30.0680    85.3524     7.7966     0.0123     2.3622     0.1715
  356.5000   -43.3084    23.8039    23.6194    29.8732    82.9988     7.7985     0.0140     2.3683     0.1688
  357.0000   -43.2847    23.0093    24.4638    29.4792    82.8529     7.8004     0.0142     2.3804     0.1649
  357.5000   -43.2610    21.9323    25.5141    29.4996    83.7893     7.7875     0.0128     2.3895     0.1577
  358.0000   -43.2374    22.8791    23.3335    29.5159    82.9216     7.7894     0.0130     2.3948     0.1483
