~VERSION INFORMATION
 VERS.                2.0:   CWLS LOG ASCII STANDARD - VERSION 2.0
 WRAP.                 NO:   ONE LINE PER DEPTH STEP
~WELL INFORMATION
#MNEM.UNIT      DATA TYPE    INFORMATION
#----------   ------------   ------------------------------
 STRT.F           33.0000:   START DEPTH
 STOP.F          560.0000:   STOP DEPTH
 STEP.F            0.5000:   STEP LENGTH
 NULL.          -999.2500:   NO VALUE
 COMP. BROWN JOHN E&C INC:   COMPANY
 WELL.        SX 85 #25-3:   WELL
 FLD .             TEAPOT:   FIELD
 LOC .       S3 T38N R78W:   LOCATION
 CNTY.            NATRONA:   COUNTY
 STAT.            WYOMING:   STATE
 CTRY. UNITED STATES OF AMERICA:   COUNTRY
 SRVC.       Schlumberger:   SERVICE COMPANY
 DATE.        23-SEP-1980:   LOGDATE
 API .       490251130600:   API NUMBER
~CURVE INFORMATION
#MNEM.UNIT       API CODE    CURVE DESCRIPTION
#----------   ------------   ------------------------------
 DEPT.F                  :   
 ILD .OHMM   07 120 46 00:   INDUCTION LOG DEEP
 ILM .OHMM   07 120 44 00:   INDUCTION LOG MEDIUM
 DPHI.DEC    45 890 12 00:   DENSITY POROSITY SANDSTONE
 RHOB.G/C3   45 350 01 00:   BULK DENSITY
 DRHO.G/C3   45 356 01 00:   DENSITY CORRECTION
 CALD.IN     45 280 60 00:   CALIPER
 GRD .GAPI   45 310 01 00:   GAMMA RAY FROM DENSITY LOG
~PARAMETER INFORMATION
#MNEM.UNIT          VALUE    DESCRIPTION
#----------   ------------   ------------------------------
 PD  .                 GL:   PERMANENT DATUM
 EPD .F              5144:   ELEVATION PERMANENT DATUM
 LMF .                 KB:   LOG MEASURED FROM
 DAPD.F                10:   FEET ABOVE PERMANENT DATUM
 DMF .                 KB:   DRILLING MEASURED FROM
 EKB .F              5154:   KELLING BUSHING
 EDF .F              5153:   DRILLING FLOOR
 EGL .F              5144:   GROUND LEVEL
 DATE.            9-23-90:   RUN DATE
 RUN .                  1:   RUN NUMBER
 DD  .F               564:   DEPTH DRILLER
 DL  .F               565:   DEPTH LOGGER
 BLI .F               559:   BOTTOM LOG INTERVAL
 TLI .F                40:   TOP LOG INTERVAL
 CS  .IN            8.625:   CASING SIZE
 CBD .F                50:   CASING BOTTOM DRILLER
 CBL .F                50:   CASING BOTTOM LOGGER
 BS  .IN            7.875:   BIT SIZE
 BSD .F               564:   BIT SIZE AT DEPTH
 DFT .                AIR:   DRILLING FLUID TYPE
 TCS .HRS            1900:   TIME CURCULATED STOPPED
 TLAB.HRS            2000:   TIME LOGGER AT BOTTOM
 LUN .               5882:   LOGGING UNIT NUMBER
 LUL .               CODY:   LOGGING UNIT LOCATION
 ENGI.          M. FISHER:   RECORDING ENGINEER
 WITN.          G. STRONG:   WITNESSED BY
 CLNT.            A2DTECH:   CLIENT CODE
 ORIG.        2" 5" PRINT:   ORIGIN OF DATA
 UWI .       490251130600:   UNIQUE WELL ID
 DICO. A2D Technologies, Inc.:   DIGITIZING COMPANY
~OTHER INFORMATION
~A   DEPT      ILD        ILM       DPHI       RHOB       DRHO       CALD         GRD  
   33.0000  -999.2500  -999.2500  -999.2500  -999.2500  -999.2500  -999.2500    64.4444
   33.5000  -999.2500  -999.2500  -999.2500  -999.2500  -999.2500  -999.2500    64.4444
   34.0000  -999.2500  -999.2500  -999.2500  -999.2500  -999.2500  -999.2500    66.4647
   34.5000  -999.2500  -999.2500  -999.2500  -999.2500  -999.2500  -999.2500    66.3435
   35.0000  -999.2500  -999.2500  -999.2500  -999.2500  -999.2500  -999.2500    65.6695
   35.5000  -999.2500  -999.2500  -999.2500  -999.2500  -999.2500  -999.2500    67.3251
   36.0000  -999.2500  -999.2500  -999.2500  -999.2500  -999.2500  -999.2500    70.7234
   36.5000  -999.2500  -999.2500  -999.2500  -999.2500  -999.2500  -999.2500    74.1481
   37.0000  -999.2500  -999.2500  -999.2500  -999.2500  -999.2500  -999.2500    74.1231
   37.5000  -999.2500  -999.2500  -999.2500  -999.2500  -999.2500  -999.2500    72.2491
   38.0000  -999.2500  -999.2500  -999.2500  -999.2500  -999.2500  -999.2500    70.6087
   38.5000  -999.2500  -999.2500  -999.2500  -999.2500  -999.2500  -999.2500    71.4569
   39.0000  -999.2500  -999.2500  -999.2500  -999.2500  -999.2500  -999.2500    72.1333
   39.5000  -999.2500  -999.2500  -999.2500  -999.2500  -999.2500  -999.2500    72.7848
   40.0000  -999.2500  -999.2500  -999.2500  -999.2500  -999.2500  -999.2500    73.1464
   40.5000  -999.2500  -999.2500  -999.2500  -999.2500  -999.2500  -999.2500    71.6252
   41.0000  -999.2500  -999.2500  -999.2500  -999.2500  -999.2500  -999.2500    70.9170
   41.5000  -999.2500  -999.2500  -999.2500  -999.2500  -999.2500  -999.2500    70.5581
   42.0000  -999.2500  -999.2500  -999.2500  -999.2500  -999.2500  -999.2500    70.9558
   42.5000  -999.2500  -999.2500  -999.2500  -999.2500  -999.2500  -999.2500    71.3436
   43.0000  -999.2500  -999.2500  -999.2500  -999.2500  -999.2500  -999.2500    69.8441
   43.5000  -999.2500  -999.2500  -999.2500  -999.2500  -999.2500  -999.2500    68.9084
   44.0000  -999.2500  -999.2500  -999.2500  -999.2500  -999.2500  -999.2500    69.9677
   44.5000  -999.2500  -999.2500  -999.2500  -999.2500  -999.2500  -999.2500    72.2367
   45.0000  -999.2500  -999.2500  -999.2500  -999.2500  -999.2500  -999.2500    74.7000
   45.5000  -999.2500  -999.2500  -999.2500  -999.2500  -999.2500  -999.2500    77.2552
   46.0000  -999.2500  -999.2500  -999.2500  -999.2500  -999.2500  -999.2500    80.0927
   46.5000  -999.2500  -999.2500  -999.2500  -999.2500  -999.2500  -999.2500    84.4197
   47.0000  1535.8254   679.5433  -999.2500  -999.2500  -999.2500  -999.2500    93.9384
   47.5000  1535.8254   679.5433  -999.2500  -999.2500  -999.2500  -999.2500   101.4765
   48.0000  1500.6572   608.0333     0.1482     2.3442    -0.0108     7.9528   107.9002
   48.5000     1.5864   415.0653     0.1390     2.3719    -0.0018     7.8846   114.3111
   49.0000     1.5646     5.5115     0.1346     2.3894     0.0020     7.8612   119.1948
   49.5000     3.4248     4.4372     0.1322     2.3968     0.0014     7.8612   121.6595
   50.0000   127.6848     4.2167     0.1304     2.4061    -0.0010     7.8689   122.4639
   50.5000  1452.7705     5.6774     0.1309     2.4069    -0.0050     7.9005   123.3001
   51.0000  1493.7208     7.5385     0.1331     2.3998    -0.0078     7.9127   125.0419
   51.5000   423.6291     9.2260     0.1350     2.3927    -0.0078     7.8828   128.5656
   52.0000     8.2599     6.3197     0.1337     2.3955    -0.0064     7.8535   127.6418
   52.5000     6.7172     5.7515     0.1332     2.3992    -0.0047     7.8417   125.8715
   53.0000     5.8763     6.3881     0.1339     2.3939    -0.0028     7.8428   124.4358
   53.5000     5.5417    10.7601     0.1346     2.3884    -0.0010     7.8441   126.2846
   54.0000     5.5358    36.7781     0.1334     2.3972    -0.0008     7.8455   128.3430
   54.5000     6.6867    79.9171     0.1300     2.4105    -0.0009     7.8468   128.4561
   55.0000     7.5595    46.2610     0.1269     2.4226    -0.0013     7.8481   127.0463
   55.5000     8.0288     7.1839     0.1261     2.4242    -0.0016     7.8494   127.2193
   56.0000     6.9870     7.1177     0.1256     2.4256    -0.0037     7.8507   129.2844
   56.5000     7.0651     7.1332     0.1250     2.4280    -0.0073     7.8520   131.3615
   57.0000     7.1491     7.2330     0.1240     2.4308    -0.0109     7.8533   133.4314
   57.5000     7.2340     7.3343     0.1210     2.4410    -0.0135     7.8546   131.0992
   58.0000     7.3183     7.4552     0.1181     2.4517    -0.0111     7.8559   125.1823
   58.5000     7.2575     7.3727     0.1151     2.4618    -0.0089     7.8573   119.6746
   59.0000     7.1844     7.2432     0.1160     2.4633    -0.0069     7.8586   123.0672
   59.5000     7.1120     7.1160     0.1189     2.4509    -0.0089     7.8599   127.3625
   60.0000     7.0404     6.9910     0.1221     2.4392    -0.0110     7.8612   130.3862
   60.5000     6.9694     6.8682     0.1213     2.4376    -0.0131     7.8601   131.5286
   61.0000     6.8578     6.7476     0.1218     2.4430    -0.0148     7.8587   131.3302
   61.5000     6.6673     6.6707     0.1251     2.4332    -0.0131     7.8574   130.4462
   62.0000     6.4919     6.6707     0.1277     2.4207    -0.0112     7.8561   129.5715
   62.5000     6.4316     6.5804     0.1302     2.4077    -0.0093     7.8548   130.1995
   63.0000     6.4633     6.4896     0.1300     2.4078    -0.0074     7.8534   132.4793
   63.5000     6.4878     6.4000     0.1294     2.4107    -0.0055     7.8521   132.7091
   64.0000     6.6258     6.3687     0.1287     2.4137    -0.0038     7.8508   128.9020
   64.5000     6.7613     6.6583     0.1305     2.4079    -0.0032     7.8495   125.1554
   65.0000     6.8997     6.8985     0.1338     2.3979    -0.0027     7.8481   123.7813
   65.5000     7.0520     7.1474     0.1322     2.4001    -0.0021     7.8468   121.9840
   66.0000     7.0839     7.3183     0.1229     2.4411    -0.0007     7.8455   118.4638
   66.5000     7.1186     7.2968     0.1071     2.4941     0.0027     7.8441   115.4003
   67.0000     7.1535     7.3375     0.0912     2.5530     0.0060     7.8428   114.2006
   67.5000     7.1885     7.3873     0.0968     2.5341     0.0091     7.8415   115.6048
   68.0000     7.2239     7.2817     0.1091     2.5007     0.0053     7.8450   118.6283
   68.5000     7.2683     7.1167     0.1182     2.4669     0.0012     7.8629   121.5651
   69.0000     7.3455     7.2320     0.1231     2.4375    -0.0029     7.8804   123.8051
   69.5000     7.4230     7.3700     0.1279     2.4197    -0.0070     7.8780   125.3408
   70.0000     7.5014     7.5107     0.1281     2.4159    -0.0110     7.8663   126.9049
   70.5000     7.5806     7.6542     0.1261     2.4289    -0.0138     7.8613   126.3672
   71.0000     7.6653     7.8024     0.1221     2.4463    -0.0113     7.8612   121.7461
   71.5000     7.6511     7.9510     0.1166     2.4638    -0.0084     7.8589   116.2707
   72.0000     7.6361     7.8197     0.1111     2.4813    -0.0057     7.8550   114.3510
   72.5000     7.6211     7.7398     0.1084     2.4846    -0.0028     7.8510   120.1203
   73.0000     7.6061     7.6607     0.1142     2.4657    -0.0026     7.8471   126.1497
   73.5000     7.5564     7.5824     0.1214     2.4379    -0.0041     7.8436   130.1772
   74.0000     7.3958     7.5246     0.1286     2.4094    -0.0055     7.8568   131.5253
   74.5000     7.2508     7.3299     0.1326     2.3995    -0.0067     7.8613   131.2324
   75.0000     7.1292     7.1106     0.1295     2.4195    -0.0044     7.8612   128.2622
   75.5000     6.9858     6.9225     0.1251     2.4400    -0.0022     7.8612   125.6470
   76.0000     6.9875     6.9225     0.1218     2.4479    -0.0018     7.8612   125.0119
   76.5000     6.9870     6.9225     0.1253     2.4457    -0.0053     7.8612   127.5815
   77.0000     6.9870     6.9225     0.1261     2.4415    -0.0087     7.8612   128.5749
   77.5000     6.9870     6.9870     0.1261     2.4413    -0.0122     7.8612   128.4306
   78.0000     6.9865     6.9966     0.1261     2.4419    -0.0148     7.8612   128.3512
