~VERSION INFORMATION
 VERS.                2.0:   CWLS LOG ASCII STANDARD - VERSION 2.0
 WRAP.                 NO:   ONE LINE PER DEPTH STEP
~WELL INFORMATION
#MNEM.UNIT      DATA TYPE    INFORMATION
#----------   ------------   ------------------------------
 STRT.F           26.0000:   START DEPTH
 STOP.F          533.5000:   STOP DEPTH
 STEP.F            0.5000:   STEP LENGTH
 NULL.          -999.2500:   NO VALUE
 COMP. BROWN JOHN E&C INC:   COMPANY
 WELL.  NPR 3 #76-531-X-3:   WELL
 FLD .             TEAPOT:   FIELD
 LOC .       S3 T38N R78W:   LOCATION
 CNTY.            NATRONA:   COUNTY
 STAT.            WYOMING:   STATE
 CTRY. UNITED STATES OF AMERICA:   COUNTRY
 SRVC.       Schlumberger:   SERVICE COMPANY
 DATE.        20-SEP-1990:   LOGDATE
 API .       490251130500:   API NUMBER
~CURVE INFORMATION
#MNEM.UNIT       API CODE    CURVE DESCRIPTION
#----------   ------------   ------------------------------
 DEPT.F                  :   
 ILM .OHMM   07 120 44 00:   INDUCTION LOG MEDIUM
 ILD .OHMM   07 120 46 00:   INDUCTION LOG DEEP
 CALD.IN     45 280 60 00:   CALIPER FROM DENSITY LOG
 GRD .GAPI   45 310 01 00:   GAMMA RAY FROM DENSITY LOG
 DPHI.DEC    45 890 12 00:   DENSITY POROSITY SANDSTONE
 RHOB.G/C3   45 350 01 00:   BULK DENSITY
 DRHO.G/C3   45 356 01 00:   DENSITY CORRECTION
~PARAMETER INFORMATION
#MNEM.UNIT          VALUE    DESCRIPTION
#----------   ------------   ------------------------------
 PD  .                 GL:   PERMANENT DATUM
 EPD .F              5148:   ELEVATION PERMANENT DATUM
 LMF .                 KB:   LOG MEASURED FROM
 DAPD.F                10:   FEET ABOVE PERMANENT DATUM
 DMF .                 KB:   DRILLING MEASURED FROM
 EKB .F              5158:   KELLING BUSHING
 EDF .F              5157:   DRILLING FLOOR
 EGL .F              5148:   GROUND LEVEL
 DATE.            9-20-90:   RUN DATE
 RUN .                  1:   RUN NUMBER
 DD  .F               535:   DEPTH DRILLER
 DL  .F               536:   DEPTH LOGGER
 BLI .F               530:   BOTTOM LOG INTERVAL
 TLI .F                49:   TOP LOG INTERVAL
 CBD .F                40:   CASING BOTTOM DRILLER
 CBL .F                49:   CASING BOTTOM LOGGER
 BS  .IN            7.875:   BIT SIZE
 BSD .F               535:   BIT SIZE AT DEPTH
 DFT .                AIR:   DRILLING FLUID TYPE
 TCS .HRS            0315:   TIME CURCULATED STOPPED
 TLAB.HRS            0409:   TIME LOGGER AT BOTTOM
 LUN .               6882:   LOGGING UNIT NUMBER
 LUL .               CODY:   LOGGING UNIT LOCATION
 ENGI.          M. FISHER:   RECORDING ENGINEER
 WITN.          G. STRONG:   WITNESSED BY
 CLNT.            A2DTECH:   CLIENT CODE
 ORIG.   2" 2.5" 5" PRINT:   ORIGIN OF DATA
 UWI .       490251130500:   UNIQUE WELL ID
 DICO. A2D Technologies, Inc.:   DIGITIZING COMPANY
~OTHER INFORMATION
~A   DEPT      ILM        ILD       CALD         GRD      DPHI       RHOB       DRHO   
   26.0000  -999.2500  -999.2500  -999.2500    75.1503  -999.2500  -999.2500  -999.2500
   26.5000  -999.2500  -999.2500  -999.2500    73.6219  -999.2500  -999.2500  -999.2500
   27.0000  -999.2500  -999.2500  -999.2500    71.6246  -999.2500  -999.2500  -999.2500
   27.5000  -999.2500  -999.2500  -999.2500    69.9833  -999.2500  -999.2500  -999.2500
   28.0000  -999.2500  -999.2500  -999.2500    68.0890  -999.2500  -999.2500  -999.2500
   28.5000  -999.2500  -999.2500  -999.2500    66.1699  -999.2500  -999.2500  -999.2500
   29.0000  -999.2500  -999.2500  -999.2500    65.9513  -999.2500  -999.2500  -999.2500
   29.5000  -999.2500  -999.2500  -999.2500    67.4080  -999.2500  -999.2500  -999.2500
   30.0000  -999.2500  -999.2500  -999.2500    70.3097  -999.2500  -999.2500  -999.2500
   30.5000  -999.2500  -999.2500  -999.2500    72.6812  -999.2500  -999.2500  -999.2500
   31.0000  -999.2500  -999.2500  -999.2500    73.1740  -999.2500  -999.2500  -999.2500
   31.5000  -999.2500  -999.2500  -999.2500    72.8459  -999.2500  -999.2500  -999.2500
   32.0000  -999.2500  -999.2500  -999.2500    72.1599  -999.2500  -999.2500  -999.2500
   32.5000  -999.2500  -999.2500  -999.2500    70.6120  -999.2500  -999.2500  -999.2500
   33.0000  -999.2500  -999.2500  -999.2500    69.0891  -999.2500  -999.2500  -999.2500
   33.5000  -999.2500  -999.2500  -999.2500    69.8329  -999.2500  -999.2500  -999.2500
   34.0000  -999.2500  -999.2500  -999.2500    71.9024  -999.2500  -999.2500  -999.2500
   34.5000  -999.2500  -999.2500  -999.2500    73.5428  -999.2500  -999.2500  -999.2500
   35.0000  -999.2500  -999.2500  -999.2500    73.3049  -999.2500  -999.2500  -999.2500
   35.5000  -999.2500  -999.2500  -999.2500    73.5526  -999.2500  -999.2500  -999.2500
   36.0000  -999.2500  -999.2500  -999.2500    74.6341  -999.2500  -999.2500  -999.2500
   36.5000  -999.2500  -999.2500  -999.2500    72.4871  -999.2500  -999.2500  -999.2500
   37.0000  -999.2500  -999.2500  -999.2500    70.7027  -999.2500  -999.2500  -999.2500
   37.5000  -999.2500  -999.2500  -999.2500    71.1640  -999.2500  -999.2500  -999.2500
   38.0000  -999.2500  -999.2500  -999.2500    72.0524  -999.2500  -999.2500  -999.2500
   38.5000  -999.2500  -999.2500  -999.2500    72.7709  -999.2500  -999.2500  -999.2500
   39.0000  -999.2500  -999.2500  -999.2500    72.1631  -999.2500  -999.2500  -999.2500
   39.5000  -999.2500  -999.2500  -999.2500    71.3494  -999.2500  -999.2500  -999.2500
   40.0000  -999.2500  -999.2500  -999.2500    70.7036  -999.2500  -999.2500  -999.2500
   40.5000  -999.2500  -999.2500  -999.2500    70.7822  -999.2500  -999.2500  -999.2500
   41.0000  -999.2500  -999.2500  -999.2500    73.1547  -999.2500  -999.2500  -999.2500
   41.5000  -999.2500  -999.2500  -999.2500    74.3042  -999.2500  -999.2500  -999.2500
   42.0000  -999.2500  -999.2500  -999.2500    71.7744  -999.2500  -999.2500  -999.2500
   42.5000  -999.2500  -999.2500  -999.2500    69.0609  -999.2500  -999.2500  -999.2500
   43.0000  -999.2500  -999.2500  -999.2500    69.9448  -999.2500  -999.2500  -999.2500
   43.5000  -999.2500  -999.2500  -999.2500    72.4640  -999.2500  -999.2500  -999.2500
   44.0000  -999.2500  -999.2500  -999.2500    74.8285  -999.2500  -999.2500  -999.2500
   44.5000  -999.2500  -999.2500  -999.2500    74.9533  -999.2500  -999.2500  -999.2500
   45.0000  -999.2500  -999.2500  -999.2500    74.8760  -999.2500  -999.2500  -999.2500
   45.5000  -999.2500  -999.2500  -999.2500    78.8894  -999.2500  -999.2500  -999.2500
   46.0000  -999.2500  -999.2500  -999.2500    82.9821  -999.2500  -999.2500  -999.2500
   46.5000  -999.2500  -999.2500  -999.2500    88.0491  -999.2500  -999.2500  -999.2500
   47.0000  -999.2500  -999.2500  -999.2500    91.8318  -999.2500  -999.2500  -999.2500
   47.5000  -999.2500  -999.2500  -999.2500    92.1830  -999.2500  -999.2500  -999.2500
   48.0000  -999.2500  -999.2500  -999.2500    91.7731  -999.2500  -999.2500  -999.2500
   48.5000   132.0300  -999.2500     8.0996    92.6587  -999.2500  -999.2500  -999.2500
   49.0000   209.8426  -999.2500     8.1054    99.0947  -999.2500  -999.2500  -999.2500
   49.5000    88.3156  -999.2500     8.1186   108.3298  -999.2500  -999.2500  -999.2500
   50.0000    65.4917  1394.0000     8.1142   121.5847     0.1435     2.3992  -999.2500
   50.5000   357.5508    99.4569     8.1106   127.9159     0.1292     2.4158    -0.0012
   51.0000   971.2783     6.3292     8.1072   129.8734     0.1269     2.4242    -0.0008
   51.5000   227.0598     1.7951     8.1039   130.7184     0.1266     2.4225    -0.0006
   52.0000     6.0062     5.9917     8.1005   131.5106     0.1266     2.4223     0.0005
   52.5000     6.9110   350.3374     8.0971   133.1691     0.1274     2.4208     0.0016
   53.0000     7.4669  1285.8239     8.0941   136.2246     0.1303     2.4059     0.0015
   53.5000     9.7108  1580.2277     8.0942   139.1789     0.1322     2.4018     0.0023
   54.0000    13.0311   350.3404     8.0942   139.2455     0.1296     2.4169     0.0042
   54.5000    15.8902    35.2830     8.0942   137.2376     0.1235     2.4388     0.0063
   55.0000    10.1386    12.0548     8.0942   135.5877     0.1156     2.4605     0.0071
   55.5000     7.5414     8.1773     8.0942   137.3506     0.1104     2.4705     0.0060
   56.0000    24.9116     7.5414     8.0942   139.3100     0.1109     2.4680     0.0050
   56.5000   465.2253     8.0006     8.0942   141.2870     0.1129     2.4651     0.0039
   57.0000   998.4623     9.1887     8.0942   142.8170     0.1138     2.4645     0.0029
   57.5000   280.4679    10.5533     8.0943   141.9328     0.1130     2.4655     0.0032
   58.0000     9.7576    11.2004     8.0985   140.9544     0.1118     2.4671     0.0042
   58.5000     9.1489     9.8680     8.1026   139.7111     0.1106     2.4688     0.0052
   59.0000     9.0356     9.0610     8.1068   136.6370     0.1094     2.4706     0.0055
   59.5000     8.9821     9.0646     8.1107   133.5269     0.1082     2.4724     0.0055
   60.0000     8.9821     9.4068     8.1153   131.3295     0.1070     2.4730     0.0042
   60.5000     9.3689     9.7674     8.1475   130.8786     0.1085     2.4715     0.0029
   61.0000     9.8947    10.1404     8.1805   130.5721     0.1100     2.4690     0.0016
   61.5000    10.4498    10.5272     8.2130   128.2026     0.1106     2.4678     0.0030
   62.0000    11.0456    10.9287     8.2315   125.3108     0.1052     2.4894     0.0048
   62.5000    11.3052    11.4078     8.2092   120.8933     0.0978     2.5191     0.0065
   63.0000    11.2503    11.4635     8.1874   119.2600     0.0921     2.5486     0.0064
   63.5000    11.1781    11.5155     8.1652   121.5350     0.0890     2.5649     0.0065
   64.0000    11.1064    11.4608     8.1407   124.8709     0.0946     2.5446     0.0065
   64.5000    11.0351    11.4097     8.1130   125.6860     0.1010     2.5075     0.0052
   65.0000    11.0990    11.0746     8.0852   123.4144     0.1048     2.4833     0.0035
   65.5000    10.5661    10.7653     8.0761   121.7562     0.1084     2.4728     0.0046
   66.0000    10.2087    10.4882     8.0788   123.0308     0.1119     2.4664     0.0060
   66.5000    10.1786    10.3746     8.0818   126.2951     0.1154     2.4623     0.0074
   67.0000    10.1439    10.2622     8.0848   127.6310     0.1162     2.4606     0.0072
   67.5000    10.1097    10.1931     8.0878   127.6572     0.1144     2.4665     0.0068
   68.0000    10.0757    10.1531     8.0908   127.6179     0.1125     2.4730     0.0061
   68.5000    10.0418    10.1132     8.0941   128.5469     0.1109     2.4780     0.0040
   69.0000    10.0080    10.0735     8.0830   131.8245     0.1107     2.4823     0.0020
   69.5000     9.9743    10.0340     8.0695   135.2656     0.1105     2.4813    -0.0001
   70.0000     9.9408     9.9945     8.0560   137.1916     0.1117     2.4781    -0.0022
   70.5000     9.9073     9.9554     8.0425   135.8360     0.1126     2.4754    -0.0033
   71.0000     9.8740     9.9194     8.0291   134.2396     0.1119     2.4773    -0.0026
