~VERSION INFORMATION
 VERS.                2.0:   CWLS LOG ASCII STANDARD - VERSION 2.0
 WRAP.                 NO:   ONE LINE PER DEPTH STEP
~WELL INFORMATION
#MNEM.UNIT      DATA TYPE    INFORMATION
#----------   ------------   ------------------------------
 STRT.F           39.0000:   START DEPTH
 STOP.F          478.0000:   STOP DEPTH
 STEP.F            0.5000:   STEP LENGTH
 NULL.          -999.2500:   NO VALUE
 COMP. FENIX & SCISSON, INC.:   COMPANY
 WELL.  S-3 NPR #3 #46S-3:   WELL
 FLD .              NPR-3:   FIELD
 LOC .       S3 T38N R78W:   LOCATION
 CNTY.            NATRONA:   COUNTY
 STAT.            WYOMING:   STATE
 CTRY. UNITED STATES OF AMERICA:   COUNTRY
 SRVC.      Dresser Atlas:   SERVICE COMPANY
 DATE.        28-MAR-1977:   LOGDATE
 API .       490251034100:   API NUMBER
~CURVE INFORMATION
#MNEM.UNIT       API CODE    CURVE DESCRIPTION
#----------   ------------   ------------------------------
 DEPT.F                  :   
 ILD .OHMM   07 120 46 00:   INDUCTION LOG DEEP
 ILM .OHMM   07 120 44 00:   INDUCTION LOG MEDIUM
 SFL .OHMM   07 220 01 00:   SHALLOW FOCUSED LOG RESISTIVITY
 SPR .MV     07 010 01 00:   SPONTANEOUS POTENTIAL
 CALD.IN     45 280 60 00:   CALIPER FROM DENSITY LOG
 GRD .GAPI   45 310 01 00:   GAMMA RAY FROM DENSITY LOG
 DPHI.DEC    45 890 12 00:   DENSITY POROSITY SANDSTONE
 RHOB.G/C3   45 350 01 00:   BULK DENSITY
 DRHO.G/C3   45 356 01 00:   DENSITY CORRECTION
~PARAMETER INFORMATION
#MNEM.UNIT          VALUE    DESCRIPTION
#----------   ------------   ------------------------------
 PD  .                 GL:   PERMANENT DATUM
 EPD .F              5186:   ELEVATION PERMANENT DATUM
 LMF .                 KB:   LOG MEASURED FROM
 DAPD.F                 3:   FEET ABOVE PERMANENT DATUM
 DMF .                 KB:   DRILLING MEASURED FROM
 EKB .F              5189:   KELLING BUSHING
 EGL .F              5186:   GROUND LEVEL
 DATE.        28-MAR-1977:   RUN DATE
 RUN .                  1:   RUN NUMBER
 DD  .F               480:   DEPTH DRILLER
 DL  .F               480:   DEPTH LOGGER
 BLI .F               478:   BOTTOM LOG INTERVAL
 TLI .F                40:   TOP LOG INTERVAL
 CS  .IN            8.625:   CASING SIZE
 CBD .F                40:   CASING BOTTOM DRILLER
 CBL .F                40:   CASING BOTTOM LOGGER
 BS  .IN            7.875:   BIT SIZE
 BSD .F               480:   BIT SIZE AT DEPTH
 DFT .           CHEM GEL:   DRILLING FLUID TYPE
 DFD .                8.9:   DRILLING FLUID DENSITY
 DFV .                 39:   DRILLING FLUID VISCOSITY
 DFPH.                 11:   DRILLING FLUID PH
 DFL .                 16:   DRILLING FLUID LOSS
 MSS .           FLOWLINE:   MUD SAMPLE SOURCE
 RMS .OHMM           0.41:   RESISTIVITY MUD SAMPLE
 MST .F                40:   MUD SAMPLE TEMPERATURE
 RMF .OHMM           0.29:   RESISTIVITY MUD FILTRATE SAMPLE
 MFST.F                62:   MUD FILTRATE SAMPLE TEMPERATURE
 RMC .OHMM           0.28:   RESISTIVITY MUD CAKE
 MCST.F                62:   MUD CAKE SAMPLE TEMPERATURE
 MFSS.               MEAS:   MUD FILTRATE SAMPLE SOURCE
 MCSS.               MEAS:   MUD CAKE SAMPLE SOURCE
 RMB .OHMM           0.26:   RESISTIVITY MUD AT BHT
 BHT .F                62:   BOTTOM HOLE TEMPERATURE
 TCS .HRS               6:   TIME CURCULATED STOPPED
 MRT .F                62:   MAXIMUM RECORDED TEMPERATURE
 LUN .               6145:   LOGGING UNIT NUMBER
 LUL .              GLTTE:   LOGGING UNIT LOCATION
 ENGI.              RANCK:   RECORDING ENGINEER
 WITN.     MR. STUEBINGER:   WITNESSED BY
 CLNT.            A2DTECH:   CLIENT CODE
 ORIG.           5" PRINT:   ORIGIN OF DATA
 UWI .       490251034100:   UNIQUE WELL ID
 DICO. A2D Technologies, Inc.:   DIGITIZING COMPANY
~OTHER INFORMATION
~A   DEPT      ILD        ILM        SFL        SPR       CALD         GRD      DPHI       RHOB       DRHO   
# ...
   75.5000     6.9910     7.5066     8.7113   -31.5853     7.7604   109.0596     0.1069     2.4806     0.0167
   76.0000     7.1919     7.6726     8.7177   -31.4162     7.7472   105.3373     0.1128     2.4589     0.0168
   76.5000     7.3472     7.8423     8.7235   -31.3973     7.7490   104.9028     0.1173     2.4425     0.0178
   77.0000     7.4538     8.0720     8.7305   -31.3783     7.7512   104.7683     0.1188     2.4373     0.0203
   77.5000     7.6147     8.2505     8.7367   -31.3589     7.7529   107.3244     0.1176     2.4359     0.0233
   78.0000     7.5652     7.8569     8.8475   -31.3357     7.7547   110.2325     0.1157     2.4412     0.0280
   78.5000     7.4755     7.4960     8.9455   -31.3168     7.7564   112.1907     0.1142     2.4533     0.0312
   79.0000     7.4078     7.3470     9.0681   -31.2979     7.7582   112.7494     0.1127     2.4632     0.0343
   79.5000     7.2659     7.3006     9.1382   -31.2789     7.7599   111.1234     0.1114     2.4670     0.0359
   80.0000     7.2183     7.3082     9.1441   -31.2600     7.7617   110.2412     0.1114     2.4671     0.0301
   80.5000     7.1545     7.3149     9.1515   -31.2411     7.7634   107.8642     0.1108     2.4656     0.0288
   81.0000     7.0622     7.3219     9.1579   -31.2221     7.7652   106.8288     0.1092     2.4687     0.0275
   81.5000     7.0296     7.3822     9.1649   -31.2032     7.7669   106.8471     0.1077     2.4733     0.0246
   82.0000     7.0329     7.6577     9.1080   -31.4798     7.7701   107.1607     0.1074     2.4787     0.0218
   82.5000     7.0368     7.9303     9.0513   -31.7612     7.7858   107.4742     0.1080     2.4787     0.0173
   83.0000     7.0399     8.1626     9.0596   -31.7423     7.8021   108.9836     0.1085     2.4758     0.0114
   83.5000     7.0924     8.2272     9.0662   -31.7233     7.8039   110.5232     0.1091     2.4707     0.0073
   84.0000     7.2599     8.1754     9.0729   -32.0094     7.8208   111.7040     0.1094     2.4677     0.0045
   84.5000     7.4538     8.0146     9.0795   -32.1366     7.8375   110.8249     0.1099     2.4663     0.0046
   85.0000     7.5619     7.9657     9.0862   -31.9668     7.8390   109.9426     0.1096     2.4656     0.0033
   85.5000     7.6715     7.9175     9.1564   -31.9474     7.8410   108.6120     0.1092     2.4657     0.0035
   86.0000     7.7877     7.9818     9.6272   -31.9242     7.8427   106.2350     0.1086     2.4659     0.0022
   86.5000     7.8965     8.0450     9.9712   -31.9053     7.8444   104.1569     0.1074     2.4683     0.0023
   87.0000     7.9643     8.2807    10.1892   -31.7362     7.8462   102.9757     0.1053     2.4712     0.0025
   87.5000     8.0274     8.5232    10.1967   -31.5671     7.8480   101.3461     0.1031     2.4739     0.0041
   88.0000     8.0743     8.7728    10.2034   -31.5482     7.8498   100.1649     0.1007     2.4781     0.0058
   88.5000     8.1345     9.0821    10.2111   -31.3791     7.8519   100.7774     0.0983     2.4827     0.0090
   89.0000     8.3932     9.3594    10.2191   -31.3601     7.8534   102.3003     0.0965     2.4866     0.0100
   89.5000     8.6687     9.6394    10.2266   -31.3408     7.8551   102.8998     0.0946     2.4911     0.0123
   90.0000     8.8633    10.0576    10.3138   -31.1712     7.8571   101.1045     0.0934     2.4950     0.0124
   90.5000     9.1264    10.3521    10.6807   -31.1484     7.8589   102.0354     0.0915     2.4981     0.0126
   91.0000     9.3852    10.5073    11.0674   -30.9794     7.8560   102.1995     0.0893     2.5012     0.0128
   91.5000     9.5763    10.7397    12.2102   -30.8103     7.8470   102.9615     0.0861     2.5035     0.0129
   92.0000     9.7151    10.9007    13.1924   -30.6412     7.8494   102.3782     0.0852     2.5036     0.0131
   92.5000     9.7872    11.0641    14.6564   -30.4721     7.8510    99.1044     0.0854     2.5037     0.0114
   93.0000     9.8604    11.0740    14.0666   -30.3030     7.8528    97.3253     0.0860     2.5015     0.0104
   93.5000     9.9342    11.1620    12.8556   -30.1336     7.8545    96.4430     0.0878     2.4986     0.0096
   94.0000     9.9385    11.1742    11.4892   -30.1103     7.8567    96.7566     0.0922     2.4949     0.0078
   94.5000    10.0127    11.1062    11.8462   -30.0913     7.8581    98.8773     0.0964     2.4897     0.0049
   95.0000    10.0188    10.9799    12.7103   -30.0724     7.8599   100.3737     0.0991     2.4846     0.0035
   95.5000    10.0389    10.8191    12.8980   -30.0994     7.8619    99.3452     0.1015     2.4786     0.0019
   96.0000    10.0267    10.7314    12.7289   -30.1959     7.8637    98.3135     0.1041     2.4727    -0.0006
   96.5000    10.0316    10.5387    12.5619   -30.2925     7.8802    98.9260     0.1072     2.4667    -0.0019
   97.0000    10.0361    10.3913    12.4836   -30.3891     7.8820    99.2396     0.1074     2.4646    -0.0002
   97.5000     9.9709    10.2469    12.4051   -30.4856     7.8838    98.0584     0.1065     2.4692     0.0029
   98.0000     9.9647    10.0539    12.2435   -30.5586     7.8855    95.2330     0.1046     2.4753     0.0076
   98.5000     9.7744     9.9236    12.0851   -30.5389     7.8873    93.0055     0.1013     2.4829     0.0138
   99.0000     9.6434     9.8050    12.0100   -30.5195     7.8891    91.8243     0.0959     2.4942     0.0199
   99.5000     9.3824     9.7446    12.0188   -30.4963     7.8721    92.7357     0.0904     2.5086     0.0261
  100.0000     9.1912     9.7540    12.0276   -30.3272     7.8443    93.7967     0.0908     2.5199     0.0307
  100.5000     8.8813     9.8313    11.7874   -30.3082     7.8465    93.9870     0.0934     2.5095     0.0309
  101.0000     8.8235     9.9124    11.0022   -30.1392     7.8336    94.7459     0.0966     2.4983     0.0311
  101.5000     8.9516    10.0581    10.4099   -29.9701     7.8208    94.1712     0.1005     2.4842     0.0312
  102.0000     9.1459    10.1396    10.4958   -29.8010     7.8081    94.4935     0.1042     2.4738     0.0329
  102.5000     9.2140    10.1906    11.0284   -29.7820     7.7953    95.1146     0.1085     2.4694     0.0368
  103.0000     9.2827    10.1554    11.4277   -29.6126     7.7980    94.6836     0.1103     2.4680     0.0423
  103.5000     9.2223    10.0256    11.5965   -29.4391     7.8002    94.2585     0.1054     2.4782     0.0486
  104.0000     9.2204     9.8262    11.6861   -29.4202     7.8024    94.7360     0.1018     2.4952     0.0561
  104.5000     9.2105     9.5635    11.6947   -29.2559     7.8046    95.3573     0.1008     2.4983     0.0622
  105.0000     9.1738     9.4344    11.6219   -29.3721     7.7912    95.7000     0.1038     2.4894     0.0639
  105.5000     9.0803     9.3165    11.5441   -29.5852     7.7784    95.8579     0.1083     2.4767     0.0595
  106.0000     9.0289     9.3269    10.8022   -29.7091     7.7812    95.8811     0.1124     2.4663     0.0477
  106.5000     9.0381     9.3352    10.5146   -30.1334     7.7984    96.2034     0.1152     2.4626     0.0389
  107.0000     9.0444     9.3427    10.3061   -30.2573     7.8006    97.1235     0.1163     2.4620     0.0345
  107.5000     8.9898     9.3513    10.1724   -30.2246     7.8033    96.9973     0.1153     2.4636     0.0330
  108.0000     8.8621     9.2950    10.0405   -30.3485     7.8055    96.1237     0.1138     2.4675     0.0304
  108.5000     8.8178     9.1741     9.9795   -30.3213     7.8071    96.4459     0.1131     2.4699     0.0306
  109.0000     8.7030     9.1118     9.9883   -30.2896     7.7946    97.0732     0.1131     2.4714     0.0322
  109.5000     8.7100     8.9997    10.3677   -30.2634     7.7971    97.2398     0.1131     2.4707     0.0324
  110.0000     8.5964     8.9450    10.5794   -30.5375     7.7992    95.6246     0.1136     2.4671     0.0310
  110.5000     8.6040     8.8906    10.2977   -30.5113     7.8164    92.6583     0.1148     2.4627     0.0282
  111.0000     8.6112     8.9629    10.1663   -30.6418     7.8186    92.0837     0.1157     2.4560     0.0269
  111.5000     8.6190     9.0973    10.1753   -30.7598     7.8208    91.9574     0.1165     2.4501     0.0225
