~VERSION INFORMATION
 VERS.                2.0:   CWLS LOG ASCII STANDARD - VERSION 2.0
 WRAP.                 NO:   ONE LINE PER DEPTH STEP
~WELL INFORMATION
#MNEM.UNIT      DATA TYPE    INFORMATION
#----------   ------------   ------------------------------
 STRT.F           28.5000:   START DEPTH
 STOP.F          625.0000:   STOP DEPTH
 STEP.F            0.5000:   STEP LENGTH
 NULL.          -999.2500:   NO VALUE
 COMP. FENIX & SCISSON INC:   COMPANY
 WELL.    NPR ##3 13-SX-3:   WELL
 FLD .             TEAPOT:   FIELD
 LOC .       S3 T38N R78W:   LOCATION
 CNTY.            NATRONA:   COUNTY
 STAT.            WYOMING:   STATE
 CTRY. UNITED STATES OF AMERICA:   COUNTRY
 SRVC.       Schlumberger:   SERVICE COMPANY
 DATE.        25-FEB-1977:   LOGDATE
 API .       490251028400:   API NUMBER
~CURVE INFORMATION
#MNEM.UNIT       API CODE    CURVE DESCRIPTION
#----------   ------------   ------------------------------
 DEPT.F                  :   
 SPR .MV     07 010 01 00:   SPONTANEOUS POTENTIAL
 ILD .OHMM   07 120 46 00:   INDUCTION LOG DEEP
 LL8 .OHMM   07 220 08 00:   LATEROLOG-8 RES.
 ILM .OHMM   07 120 44 00:   INDUCTION LOG MEDIUM
 GRD .GAPI   45 310 01 00:   GAMMA RAY FROM DENSITY LOG
 CALD.IN     45 280 60 00:   CALIPER
 RHOB.G/C3   45 350 01 00:   BULK DENSITY
 CORR.G/C3   45 356 01 00:   DENSITY CORRECTION
 DPOR.DEC    45 890 12 00:   DENSITY POROSITY SANDSTONE
~PARAMETER INFORMATION
#MNEM.UNIT          VALUE    DESCRIPTION
#----------   ------------   ------------------------------
 PD  .                 GL:   PERMANENT DATUM
 EPD .F              5227:   ELEVATION PERMANENT DATUM
 LMF .                 GL:   LOG MEASURED FROM
 DMF .                 GL:   DRILLING MEASURED FROM
 EKB .F              5232:   KELLING BUSHING
 EGL .F              5227:   GROUND LEVEL
 DATE.          2-25-1977:   RUN DATE
 RUN .                  1:   RUN NUMBER
 DD  .F               629:   DEPTH DRILLER
 DL  .F               626:   DEPTH LOGGER
 BLI .F               620:   BOTTOM LOG INTERVAL
 TLI .F                40:   TOP LOG INTERVAL
 CS  .IN            8.625:   CASING SIZE
 CBD .F                40:   CASING BOTTOM DRILLER
 CBL .F                40:   CASING BOTTOM LOGGER
 BS  .IN            7.875:   BIT SIZE
 BSD .F               629:   BIT SIZE AT DEPTH
 DFT .                KCL:   DRILLING FLUID TYPE
 DFD .                8.8:   DRILLING FLUID DENSITY
 DFV .                 45:   DRILLING FLUID VISCOSITY
 DFPH.                  8:   DRILLING FLUID PH
 DFL .                8.2:   DRILLING FLUID LOSS
 MSS .                PIT:   MUD SAMPLE SOURCE
 RMS .OHMM           .508:   RESISTIVITY MUD SAMPLE
 MST .F                60:   MUD SAMPLE TEMPERATURE
 RMF .OHMM           .419:   RESISTIVITY MUD FILTRATE SAMPLE
 MFST.F                58:   MUD FILTRATE SAMPLE TEMPERATURE
 MFSS.                  M:   MUD FILTRATE SAMPLE SOURCE
 RMB .OHMM            .41:   RESISTIVITY MUD AT BHT
 BHT .F                75:   BOTTOM HOLE TEMPERATURE
 TCS .HRS            1700:   TIME CURCULATED STOPPED
 TLAB.HRS            2130:   TIME LOGGER AT BOTTOM
 MRT .F                75:   MAXIMUM RECORDED TEMPERATURE
 LUN .               5642:   LOGGING UNIT NUMBER
 LUL .               CSPR:   LOGGING UNIT LOCATION
 ENGI.             MARTIN:   RECORDING ENGINEER
 CLNT.            A2DTECH:   CLIENT CODE
 ORIG.       2", 5" PRINT:   ORIGIN OF DATA
 UWI .       490251028400:   UNIQUE WELL ID
 DICO. A2D Technologies, Inc.:   DIGITIZING COMPANY
~OTHER INFORMATION
~A   DEPT      SPR        ILD        LL8        ILM         GRD      CALD         RHOB     CORR       DPOR   
# ...
  211.0000   -85.5493     9.4563     8.8343     9.1098   114.8943     8.1097     2.4606     0.0127     0.1141
  211.5000   -86.0899     9.6337     9.0405     9.2624   113.4635     8.0943     2.4563     0.0086     0.1162
  212.0000   -86.6497     9.8132     9.3262     9.4175   112.0186     8.0789     2.4588     0.0102     0.1117
  212.5000   -86.2731     9.9960     9.3019     9.5753   110.5815     8.0635     2.4696     0.0212     0.1061
  213.0000   -85.7532    10.1352     9.2646     9.7357   109.1355     8.0483     2.4801     0.0270     0.0994
  213.5000   -85.2314    10.0444     9.2275     9.8583   109.3792     8.0330     2.4786     0.0176     0.1017
  214.0000   -84.7014     9.9721     9.1906     9.7292   111.0402     8.0560     2.4757     0.0133     0.1042
  214.5000   -84.7847     9.9001     9.1538     9.6268   112.6999     8.1088     2.4730     0.0087     0.1067
  215.0000   -85.1888     9.8287     9.1171     9.5256   114.1650     8.1610     2.4703     0.0058     0.1092
  215.5000   -84.7501     9.7578     9.0806     9.4254   115.2383     8.1984     2.4676     0.0106     0.1110
  216.0000   -83.8853     9.6874     9.0442     9.3262   116.3332     8.1403     2.4673     0.0148     0.1102
  216.5000   -83.0071     9.6175     9.0080     9.2281   116.3222     8.0829     2.4690     0.0137     0.1093
  217.0000   -82.1429     9.5482     8.9719     9.1311   115.6482     8.0296     2.4706     0.0123     0.1094
  217.5000   -81.2453     9.4793     8.9360     9.0350   114.2649     8.1129     2.4637     0.0107     0.1127
  218.0000   -81.5872     9.4128     8.9002     8.9400   112.3750     8.2026     2.4531     0.0016     0.1160
  218.5000   -81.9312     9.4508     8.8646     8.9048   110.8654     8.2045     2.4425    -0.0066     0.1193
  219.0000   -81.9266     9.4968     8.8291     8.9900   110.0573     8.2022     2.4369    -0.0016     0.1218
  219.5000   -81.6196     9.5430     8.7814     9.0943   109.0492     8.2002     2.4555     0.0038     0.1145
  220.0000   -80.5993     9.5885     8.7425     9.2403   107.2535     8.1984     2.4740     0.0090     0.1065
  220.5000   -79.2172     9.7775     9.0363     9.4276   105.4691     8.1966     2.4931     0.0116     0.0985
  221.0000   -77.4602     9.9410     9.2846     9.5936   104.1886     8.1947     2.5002     0.0054     0.0944
  221.5000   -75.7145    10.1072     9.5408     9.7626   105.6717     8.1929     2.4909     0.0003     0.0907
  222.0000   -73.9592    10.2762     9.7018     9.9346   107.0976     8.1911     2.4833     0.0058     0.0940
  222.5000   -71.9327    10.4481     9.8426    10.1095   108.5034     8.1893     2.4979     0.0113     0.0970
  223.0000   -68.6407    10.6228     9.9856    10.2876   108.7877     8.1878     2.5083     0.0167     0.0904
  223.5000   -65.4036    10.8004    10.0540    10.4688   107.1930     8.1826     2.5003     0.0222     0.0858
  224.0000   -63.0594    10.9810    10.0734    10.6532   105.6122     8.0710     2.5083     0.0277     0.0827
  224.5000   -64.8079    11.1646    10.0928    10.8408   104.7880     8.1197     2.5033     0.0292     0.0814
  225.0000   -66.5129    11.3513    10.1122    11.0318   104.6257     8.1650     2.4928     0.0183     0.0986
  225.5000   -66.5861    11.5411    10.1316    11.2261   104.7944     8.2095     2.4867     0.0102     0.0922
  226.0000   -66.1935    11.7341    10.4475    11.4238   105.3532     8.2467     2.4916     0.0082     0.0962
  226.5000   -65.6443    11.9303    10.8522    11.6250   106.1381     8.2444     2.4796     0.0061     0.1019
  227.0000   -65.1146    12.2421    11.2725    11.8297   106.5461     8.2416     2.4716     0.0040     0.1073
  227.5000   -64.6211    12.5923    11.5365    12.0379   106.4607     8.2388     2.4766     0.0050     0.1039
  228.0000   -64.1191    12.9524    11.4303    12.2962   106.5369     8.2360     2.4919     0.0082     0.0973
  228.5000   -63.3874    13.3762    11.6847    12.5724   107.3117     8.2333     2.4931     0.0106     0.0923
  229.0000   -62.2058    13.5292    12.1310    12.8551   107.0326     8.2305     2.4886     0.0078     0.1019
  229.5000   -60.1235    13.6861    12.5979    13.1441   105.1983     8.2277     2.4863     0.0049     0.1006
  230.0000   -57.7514    13.8449    12.8888    13.4391   103.3782     8.2249     2.4748     0.0020     0.1018
  230.5000   -56.0312    14.0091    12.8338    13.6258   101.6050     8.2222     2.4573    -0.0009     0.1103
  231.0000   -58.7672    14.0091    12.7898    13.4841   100.5721     8.2194     2.4462     0.0013     0.1158
  231.5000   -61.5003    14.0099    12.5915    13.3650    99.5879     8.2166     2.4584     0.0039     0.1120
  232.0000   -61.5896    13.9358    12.2803    13.2469    99.1120     8.2138     2.4608     0.0064     0.1058
  232.5000   -60.5562    13.8417    11.9687    13.1299    99.5885     8.2111     2.4557     0.0082     0.1107
  233.0000   -60.3619    13.7479    11.9692    13.0139    99.3487     8.2083     2.4508     0.0086     0.1174
  233.5000   -60.1595    13.6550    12.0295    12.8989    99.2153     8.2055     2.4484     0.0090     0.1160
  234.0000   -59.9593    13.5626    12.0863    12.7849   100.8124     8.2027     2.4534     0.0095     0.1135
  234.5000   -59.5720    13.4709    12.0875    12.6720   102.3825     8.1999     2.4585     0.0099     0.1125
  235.0000   -58.8379    13.3798    11.7651    12.5600   103.9262     8.1972     2.4636     0.0104     0.1120
  235.5000   -56.8270    13.2893    11.5546    12.4491   104.9618     8.1944     2.4583     0.0108     0.1129
  236.0000   -54.4420    13.1994    11.3478    12.3883   105.7086     8.1916     2.4543     0.0122     0.1127
  236.5000   -51.9880    13.1102    11.1447    12.2934   103.8104     8.1888     2.4651     0.0156     0.1110
  237.0000   -50.5408    13.0215    11.0152    12.1992   101.8596     8.1858     2.4697     0.0127     0.1102
  237.5000   -51.4542    12.9334    11.3055    12.1057   100.7879     8.1917     2.4681     0.0058     0.1098
  238.0000   -54.0902    12.8460    11.5365    12.0130   100.1429     8.1988     2.4720    -0.0007     0.1082
  238.5000   -56.1029    12.7718    11.3251    11.9712    99.5041     8.2060     2.4759     0.0047     0.1062
  239.0000   -56.6414    12.7718    11.3664    12.0245    98.8659     8.2131     2.4799     0.0105     0.1042
  239.5000   -56.4960    12.7343    11.4102    12.0642    98.2263     8.2202     2.4809     0.0150     0.1044
  240.0000   -55.9140    12.6254    11.4542    12.1947    97.5904     8.2255     2.4498     0.0104     0.1111
  240.5000   -55.1902    12.5175    11.4981    12.0689    96.9535     8.2245     2.4562     0.0057     0.1150
  241.0000   -54.8041    12.4105    11.5364    11.9364    96.7925     8.2236     2.4716     0.0057     0.1107
  241.5000   -54.6999    12.3044    11.4901    11.8054    97.2830     8.2228     2.4813     0.0069     0.1070
  242.0000   -53.8447    12.1992    11.4494    11.6759    99.3962     8.2219     2.4587     0.0080     0.1126
  242.5000   -52.7416    12.0950    11.2635    11.5478   101.4789     8.2211     2.4404     0.0092     0.1178
  243.0000   -51.6360    11.9920    10.9553    11.4210   102.5214     8.2202     2.4536     0.0104     0.1156
  243.5000   -50.5965    11.8876    10.6590    11.2957   102.3873     8.2194     2.4612     0.0118     0.1128
  244.0000   -50.6976    11.7466    10.4794    11.1717   102.2571     8.2185     2.4651     0.0108     0.1099
  244.5000   -52.0726    11.5718    10.3725    11.0492   102.1167     8.2177     2.4682     0.0054     0.1094
  245.0000   -53.1407    11.4357    10.2642    10.9279   101.9754     8.2168     2.4588     0.0000     0.1138
  245.5000   -52.4233    11.3012    10.1565    10.8080   101.8608     8.2159     2.4495    -0.0053     0.1173
  246.0000   -51.7047    11.1683    10.0423    10.6894   100.1101     8.2151     2.4424    -0.0034     0.1198
  246.5000   -51.5446    11.0369     9.9872    10.5721    99.3637     8.2142     2.4469    -0.0004     0.1199
  247.0000   -51.0610    10.9071     9.9107    10.4560   100.1242     8.2134     2.4508     0.0026     0.1185
