~VERSION INFORMATION
 VERS.                2.0:   CWLS LOG ASCII STANDARD - VERSION 2.0
 WRAP.                 NO:   ONE LINE PER DEPTH STEP
~WELL INFORMATION
#MNEM.UNIT      DATA TYPE    INFORMATION
#----------   ------------   ------------------------------
 STRT.F           30.0000:   START DEPTH
 STOP.F          697.0000:   STOP DEPTH
 STEP.F            0.5000:   STEP LENGTH
 NULL.          -999.2500:   NO VALUE
 COMP. LAWRENCE/ALLISON INC:   COMPANY
 WELL.    81-66 SX #15-15:   WELL
 FLD .             TEAPOT:   FIELD
 LOC .      S15 T38N R78W:   LOCATION
 CNTY.            NATRONA:   COUNTY
 STAT.            WYOMING:   STATE
 CTRY. UNITED STATES OF AMERICA:   COUNTRY
 SRVC.           Gearhart:   SERVICE COMPANY
 DATE.        15-JUL-1987:   LOGDATE
 API .       490251117000:   API NUMBER
~CURVE INFORMATION
#MNEM.UNIT       API CODE    CURVE DESCRIPTION
#----------   ------------   ------------------------------
 DEPT.F                  :   
 GRR .GAPI   07 310 01 00:   GAMMA RAY
 ILD .OHMM   07 120 46 00:   INDUCTION LOG DEEP
 ILM .OHMM   07 120 44 00:   INDUCTION LOG MEDIUM
~PARAMETER INFORMATION
#MNEM.UNIT          VALUE    DESCRIPTION
#----------   ------------   ------------------------------
 PD  .                 GL:   PERMANENT DATUM
 EPD .F              5232:   ELEVATION PERMANENT DATUM
 LMF .                 KB:   LOG MEASURED FROM
 DAPD.F                 8:   FEET ABOVE PERMANENT DATUM
 DMF .                 KB:   DRILLING MEASURED FROM
 EKB .F              5240:   KELLING BUSHING
 EDF .F              5238:   DRILLING FLOOR
 EGL .F              5232:   GROUND LEVEL
 DATE.        28-AUG-1987:   RUN DATE
 RUN .                  1:   RUN NUMBER
 DD  .F               700:   DEPTH DRILLER
 DL  .F               706:   DEPTH LOGGER
 BLI .F               700:   BOTTOM LOG INTERVAL
 TLI .F                30:   TOP LOG INTERVAL
 CS  .IN            8.625:   CASING SIZE
 CBD .F                48:   CASING BOTTOM DRILLER
 CBL .F                48:   CASING BOTTOM LOGGER
 BS  .IN            7.875:   BIT SIZE
 BSD .F               700:   BIT SIZE AT DEPTH
 DFT .                AIR:   DRILLING FLUID TYPE
 TCS .HRS            0200:   TIME CURCULATED STOPPED
 TLAB.HRS            0449:   TIME LOGGER AT BOTTOM
 MRT .F                80:   MAXIMUM RECORDED TEMPERATURE
 LUN .               7597:   LOGGING UNIT NUMBER
 LUL .           GILLETTE:   LOGGING UNIT LOCATION
 ENGI.         WEATHERMON:   RECORDING ENGINEER
 WITN.             STRONG:   WITNESSED BY
 CLNT.            A2DTECH:   CLIENT CODE
 ORIG.       2", 5" PRINT:   ORIGIN OF DATA
 UWI .       490251117000:   UNIQUE WELL ID
 DICO. A2D Technologies, Inc.:   DIGITIZING COMPANY
~OTHER INFORMATION
~A   DEPT       GRR       ILD        ILM   
# ...
  394.0000   132.4333     7.9473     7.9269
  394.5000   131.2556     7.9521     7.8755
  395.0000   128.8675     8.0126     7.8793
  395.5000   125.2692     8.0175     7.8284
  396.0000   123.7882     8.0224     7.8330
  396.5000   125.3544     7.9716     7.8368
  397.0000   130.3056     7.9766     7.8953
  397.5000   133.8794     7.9816     7.8991
  398.0000   132.3991     7.9875     7.9581
  398.5000   126.3802     7.9923     7.9616
  399.0000   123.3870     7.9972     7.9657
  399.5000   122.2011     8.0021     8.0251
  400.0000   126.1752     8.0070     8.0851
  400.5000   131.3514     8.0119     8.0891
  401.0000   133.8045     8.0168     8.0938
  401.5000   129.9036     8.0217     8.0976
  402.0000   126.2692     8.0267     8.0443
  402.5000   127.8669     8.0315     8.0516
  403.0000   131.4662     7.9803     7.9445
  403.5000   133.3054     7.8213     7.8936
  404.0000   134.2368     7.7718     7.7346
  404.5000   133.6553     7.6690     7.6327
  405.0000   132.4687     7.6204     7.4789
  405.5000   131.2821     7.4536     7.3282
  406.0000   130.9973     7.0193     7.1806
  406.5000   133.1449     6.9254     7.0359
  407.0000   135.8918     6.8339     6.8462
  407.5000   137.7309     6.6977     6.6617
  408.0000   136.8311     6.5178     6.4821
  408.5000   135.6603     6.2986     6.2201
  409.0000   135.6899     6.0447     6.0495
  409.5000   136.6213     5.8009     5.8825
  410.0000   134.8296     5.6819     5.7715
  410.5000   130.6173     5.6093     5.7337
  411.0000   126.1024     5.6923     5.7777
  411.5000   122.4952     5.8160     5.9030
  412.0000   121.3027     6.0257     6.0731
  412.5000   125.5683     6.2429     6.2481
  413.0000   128.9203     6.5132     6.4214
  413.5000   131.6712     6.7952     6.6597
  414.0000   134.1684     7.0893     6.8555
  414.5000   132.3508     7.2434     7.0560
  415.0000   126.2978     7.3494     7.1032
  415.5000   124.8027     7.0052     6.8637
  416.0000   126.3452     6.4928     6.5863
  416.5000   126.9681     6.1022     5.9775
  417.0000   125.7875     5.8155     5.6961
  417.5000   124.9034     5.5810     5.3902
  418.0000   125.8349     5.3933     5.2449
  418.5000   129.4894     5.2851     5.1392
  419.0000   131.9337     5.3253     5.0709
  419.5000   131.9574     5.4421     5.1092
  420.0000   127.6247     5.6034     5.2571
  420.5000   121.7232     5.8008     5.4845
  421.0000   120.5307     6.1367     5.7617
  421.5000   120.5603     6.5353     6.0530
  422.0000   122.0969     7.0450     6.4034
  422.5000   123.9360     7.5548     6.8215
  423.0000   125.1700     8.0147     7.2668
  423.5000   124.8852     8.3037     7.6875
  424.0000   122.4942     8.5434     8.0201
  424.5000   119.7948     8.7901     8.3130
  425.0000   119.8185     8.8568     8.5485
  425.5000   120.4741     8.8007     8.5542
  426.0000   120.8270     8.7450     8.4404
  426.5000   121.1057     8.6897     8.2703
  427.0000   119.9192     8.6347     8.1603
  427.5000   118.4300     8.6412     8.1070
  428.0000   118.1452     8.5852     8.1125
  428.5000   119.9902     8.5918     8.1169
  429.0000   121.8294     8.5970     8.2928
  429.5000   123.0633     8.6024     8.4737
  430.0000   124.2973     8.6089     8.5446
  430.5000   125.8339     8.5530     8.6622
  431.0000   127.0802     8.5588     8.7275
  431.5000   126.6749     8.6246     8.7933
  432.0000   121.0697     8.6902     8.8596
  432.5000   118.6669     8.8391     8.9888
  433.0000   118.6965     8.9465     9.0565
  433.5000   119.0228     9.0145     9.1248
  434.0000   118.4413     9.0201     9.0663
  434.5000   116.6496     9.0257     9.0082
  435.0000   114.2527     8.9698     8.8208
  435.5000   110.6455     8.6081     8.4124
  436.0000   110.3379     7.9230     7.4769
  436.5000   114.3238     6.5694     5.9444
  437.0000   119.9396     6.1732     5.2102
  437.5000   126.6263     6.0916     4.8622
  438.0000   132.2525     6.2249     4.7305
  438.5000   134.3942     6.3601     4.9703
  439.0000   127.7613     6.6875     5.6769
  439.5000   116.5899     7.0852     6.4388
  440.0000   110.2596     7.7577     7.4231
  440.5000   110.8884     8.9690     8.2737
  441.0000   113.0301     9.5547     9.3965
  441.5000   114.5666     9.9684     9.9405
  442.0000   113.6826    10.3278    10.2984
  442.5000   112.7986    10.4790    10.3041
  443.0000   114.4811    10.5586    10.3097
  443.5000   120.1136    10.6389    10.3153
  444.0000   123.1630    10.7199    10.3209
  444.5000   123.1867    10.9544    10.3987
  445.0000   121.6976    11.2706    10.6292
  445.5000   118.9981    11.8406    11.1817
  446.0000   114.7858    13.1520    12.2275
  446.5000   108.7580    14.7106    13.3010
  447.0000    95.4686    16.2265    15.2980
  447.5000    85.2048    18.5326    17.8417
  448.0000    74.0334    21.1664    20.9539
  448.5000    61.7549    23.3629    23.1133
  449.0000    54.3176    25.0910    26.2156
  449.5000    52.3193    26.8723    29.7344
  450.0000    60.2157    27.4562    31.8972
  450.5000    64.4754    27.6649    34.0033
  451.0000    65.4069    27.4856    35.4544
  451.5000    63.6151    26.7511    35.7218
  452.0000    60.9157    26.2102    34.7589
  452.5000    60.0257    25.3329    32.4374
  453.0000    61.5682    24.9979    30.2708
  453.5000    64.6176    24.6579    28.6454
  454.0000    67.0863    24.3411    28.2644
  454.5000    69.2728    24.1880    27.6949
  455.0000    71.0486    24.2032    27.3265
  455.5000    72.2826    24.2203    27.1516
  456.0000    72.6088    24.2351    27.1669
  456.5000    71.7248    24.0780    27.1848
  457.0000    70.8408    23.7632    27.1996
  457.5000    70.2534    23.4485    27.0218
  458.0000    69.9746    23.1388    26.8488
  458.5000    70.0042    22.8328    26.3114
  459.0000    71.2382    22.3780    25.7812
  459.5000    72.4721    21.9289    25.0857
  460.0000    74.6547    21.6356    24.0723
  460.5000    76.8028    21.4986    23.5824
  461.0000    78.6006    21.6653    23.1119
  461.5000    78.9268    21.8300    22.9640
  462.0000    78.9505    22.3043    22.9796
  462.5000    78.9742    22.9482    22.9921
  463.0000    77.4851    23.6140    23.4905
  463.5000    74.1805    24.3136    24.8505
  464.0000    70.6389    25.1718    26.6580
  464.5000    67.2299    25.7188    28.7970
  465.0000    66.3545    25.9143    31.1076
  465.5000    66.0843    25.9301    33.1386
  466.0000    66.7756    25.5872    33.3885
  466.5000    67.9724    25.0737    32.4929
  467.0000    68.9125    24.4000    30.9632
  467.5000    70.1551    23.4161    29.0971
  468.0000    71.3977    22.2050    26.5921
  468.5000    72.9428    21.1589    24.3027
  469.0000    74.4880    20.2955    23.4834
  469.5000    75.7347    19.7331    23.1680
  470.0000    77.3172    19.0902    22.5466
  470.5000    79.1316    18.7023    21.4851
  471.0000    80.6768    18.5814    20.9060
  471.5000    82.5245    18.4612    20.6059
  472.0000    83.7671    18.4722    20.2150
  472.5000    85.3123    18.4805    20.0828
  473.0000    85.0420    18.4897    19.9542
  473.5000    83.8641    18.4985    19.8265
  474.0000    83.5938    18.3789    19.6996
  474.5000    84.5419    18.5183    19.5734
  475.0000    86.0871    18.6550    19.4503
  475.5000    86.7245    18.6654    19.4830
  476.0000    87.0513    18.6742    19.5328
  476.5000    84.0660    18.8136    19.5395
  477.0000    82.8880    18.8225    19.5461
  477.5000    82.3152    18.8315    19.5527
  478.0000    83.3041    18.7096    19.5593
  478.5000    84.8018    18.7188    19.5659
  479.0000    84.8408    18.7297    19.5727
  479.5000    85.4783    18.7370    19.4433
  480.0000    88.5363    18.7475    19.3165
  480.5000    90.3840    18.6241    19.0541
  481.0000    90.7109    18.3774    18.7984
  481.5000    89.2384    18.2564    18.5445
  482.0000    88.0604    18.1402    18.1671
  482.5000    86.5406    17.8981    17.9218
  483.0000    85.4100    17.7825    17.6798
  483.5000    85.4423    17.5449    17.4411
  484.0000    85.4746    17.3106    17.3259
  484.5000    85.2043    17.1986    17.0934
