~VERSION INFORMATION
 VERS.                2.0:   CWLS LOG ASCII STANDARD - VERSION 2.0
 WRAP.                 NO:   ONE LINE PER DEPTH STEP
~WELL INFORMATION
#MNEM.UNIT      DATA TYPE    INFORMATION
#----------   ------------   ------------------------------
 STRT.F           28.5000:   START DEPTH
 STOP.F          781.0000:   STOP DEPTH
 STEP.F            0.5000:   STEP LENGTH
 NULL.          -999.2500:   NO VALUE
 COMP. FENIX & SCISSON INC:   COMPANY
 WELL. NPR 3 23 SX 14 #23-14:   WELL
 FLD .        TEAPOT DOME:   FIELD
 LOC .      S14 T38N R78W:   LOCATION
 CNTY.            NATRONA:   COUNTY
 STAT.            WYOMING:   STATE
 CTRY. UNITED STATES OF AMERICA:   COUNTRY
 SRVC.            Unknown:   SERVICE COMPANY
 DATE.        13-MAY-1978:   LOGDATE
 API .       490251063400:   API NUMBER
~CURVE INFORMATION
#MNEM.UNIT       API CODE    CURVE DESCRIPTION
#----------   ------------   ------------------------------
 DEPT.F                  :   
 RHOB.G/C3   45 350 01 00:   BULK DENSITY
 DPHI.DEC    45 890 12 00:   DENSITY POROSITY SANDSTONE
 GRD .GAPI   45 310 01 00:   GAMMA RAY FROM DENSITY LOG
 CALD.IN     45 280 60 00:   CALIPER FROM DENSITY LOG
 CORR.G/C3   45 356 01 00:   DENSITY CORRECTION
 SN  .OHMM   05 040 16 00:   SHORT NORMAL 16"
 SPR .MV     05 010 01 00:   SPONTANEOUS POTENTIAL FROM RES.
 ILD .OHMM   05 120 46 00:   INDUCTION LOG DEEP
~PARAMETER INFORMATION
#MNEM.UNIT          VALUE    DESCRIPTION
#----------   ------------   ------------------------------
 PD  .                 GL:   PERMANENT DATUM
 EPD .F              5202:   ELEVATION PERMANENT DATUM
 LMF .                 KB:   LOG MEASURED FROM
 DMF .                 KB:   DRILLING MEASURED FROM
 EKB .F              5206:   KELLING BUSHING
 EGL .F              5202:   GROUND LEVEL
 DATE.          5-13-1978:   RUN DATE
 RUN .                  1:   RUN NUMBER
 DD  .F               785:   DEPTH DRILLER
 DL  .F               776:   DEPTH LOGGER
 BLI .F               770:   BOTTOM LOG INTERVAL
 TLI .F                50:   TOP LOG INTERVAL
 CS  .IN            8.625:   CASING SIZE
 CBD .F                40:   CASING BOTTOM DRILLER
 CBL .F                40:   CASING BOTTOM LOGGER
 BS  .IN            7.875:   BIT SIZE
 BSD .F               785:   BIT SIZE AT DEPTH
 DFT .                KCL:   DRILLING FLUID TYPE
 DFD .                8.6:   DRILLING FLUID DENSITY
 DFV .                 30:   DRILLING FLUID VISCOSITY
 DFPH.                 10:   DRILLING FLUID PH
 DFL .                 14:   DRILLING FLUID LOSS
 MSS .           FLOWLINE:   MUD SAMPLE SOURCE
 RMS .OHMM             .4:   RESISTIVITY MUD SAMPLE
 MST .F                69:   MUD SAMPLE TEMPERATURE
 RMF .OHMM            .36:   RESISTIVITY MUD FILTRATE SAMPLE
 MFST.F                72:   MUD FILTRATE SAMPLE TEMPERATURE
 RMC .OHMM            .56:   RESISTIVITY MUD CAKE
 MCST.F                73:   MUD CAKE SAMPLE TEMPERATURE
 MFSS.               MEAS:   MUD FILTRATE SAMPLE SOURCE
 RMB .OHMM            .35:   RESISTIVITY MUD AT BHT
 BHT .F                79:   BOTTOM HOLE TEMPERATURE
 TCS .HRS               2:   TIME CURCULATED STOPPED
 MRT .F                79:   MAXIMUM RECORDED TEMPERATURE
 LUN .               3006:   LOGGING UNIT NUMBER
 LUL .              CASP.:   LOGGING UNIT LOCATION
 ENGI.             MILLER:   RECORDING ENGINEER
 WITN.           MCGINLEY:   WITNESSED BY
 CLNT.            A2DTECH:   CLIENT CODE
 ORIG.           5" PRINT:   ORIGIN OF DATA
 UWI .       490251063400:   UNIQUE WELL ID
 DICO. A2D Technologies, Inc.:   DIGITIZING COMPANY
~OTHER INFORMATION
~A   DEPT     RHOB       DPHI         GRD      CALD       CORR         SN        SPR        ILD   
# ...
  271.5000     2.4730     0.1085    80.4972     7.5360     0.0321     9.3675   -63.4117     7.8549
  272.0000     2.4705     0.1083    81.1544     7.5190     0.0321     9.2627   -63.3374     7.7379
  272.5000     2.4686     0.1082    81.6135     7.4997     0.0321     9.1592   -63.2636     7.6179
  273.0000     2.4700     0.1088    81.0254     7.4804     0.0321     9.0567   -63.1895     7.4999
  273.5000     2.4704     0.1098    80.5564     7.4611     0.0321     8.9555   -63.1153     7.3836
  274.0000     2.4702     0.1107    81.7243     7.4418     0.0321     8.8553   -63.0412     7.2692
  274.5000     2.4699     0.1111    82.9449     7.4224     0.0321     8.7563   -62.9685     7.1565
  275.0000     2.4697     0.1114    83.0613     7.4035     0.0321     8.6108   -62.9695     7.0349
  275.5000     2.4695     0.1081    82.7291     7.3974     0.0321     8.6531   -63.0945     7.0349
  276.0000     2.4750     0.1034    82.1110     7.4236     0.0324     8.7397   -63.2176     7.0349
  276.5000     2.4810     0.0986    80.8996     7.4490     0.0329     8.8265   -63.3412     7.0798
  277.0000     2.4870     0.0962    79.6934     7.4700     0.0335     8.9135   -63.4646     7.2085
  277.5000     2.4883     0.0989    78.5289     7.4661     0.0341     9.0889   -63.5882     7.3396
  278.0000     2.4864     0.1010    78.3417     7.4626     0.0346     9.2916   -63.7119     7.4731
  278.5000     2.4845     0.1004    78.2085     7.4592     0.0352     9.4987   -63.8330     7.6090
  279.0000     2.4839     0.1003    78.4781     7.4561     0.0358     9.6144   -63.8627     7.7474
  279.5000     2.4844     0.1024    80.2561     7.4523     0.0357     9.5393   -63.6907     7.8880
  280.0000     2.4829     0.1029    81.2059     7.4268     0.0347     9.4879   -63.5224     8.0744
  280.5000     2.4814     0.1027    78.9457     7.3301     0.0338     9.4367   -63.3532     8.0363
  281.0000     2.4799     0.1044    77.2677     7.2293     0.0329     9.3858   -63.1845     7.9827
  281.5000     2.4784     0.1064    76.7931     7.0925     0.0320     9.3352   -63.0184     7.9294
  282.0000     2.4774     0.1051    76.4461     6.9553     0.0311     9.2849   -63.0266     7.8765
  282.5000     2.4772     0.1052    75.1768     6.8865     0.0302     9.2348   -63.2674     7.8240
  283.0000     2.4770     0.1076    74.8031     6.9328     0.0301     9.1850   -63.5050     7.7718
  283.5000     2.4768     0.1103    74.9434     7.0207     0.0301     9.1356   -63.7282     7.7199
  284.0000     2.4760     0.1131    75.1201     7.1342     0.0301     9.0990   -63.7588     7.6684
  284.5000     2.4656     0.1150    75.8482     7.1360     0.0301     9.1714   -63.7947     7.6413
  285.0000     2.4620     0.1133    77.3775     7.1603     0.0301     9.2296   -63.8312     7.7708
  285.5000     2.4624     0.1097    78.1234     7.2662     0.0303     9.2882   -63.8678     7.8601
  286.0000     2.4712     0.1062    78.2031     7.2942     0.0320     9.3472   -63.9044     7.9505
  286.5000     2.4799     0.1026    78.2800     7.3008     0.0337     9.4066   -63.9410     8.0419
  287.0000     2.4850     0.1024    77.3076     7.3068     0.0335     9.4664   -63.9775     8.1344
  287.5000     2.4813     0.1039    75.5743     7.2971     0.0327     9.5265   -64.0141     8.2280
  288.0000     2.4778     0.1055    74.4746     7.2228     0.0329     9.5265   -64.0507     8.3224
  288.5000     2.4745     0.1070    73.7500     6.9740     0.0372     9.5265   -64.0873     8.3766
  289.0000     2.4751     0.1061    73.1333     6.8053     0.0414     9.5265   -64.1238     8.3174
  289.5000     2.4783     0.1012    73.9774     6.8142     0.0456     9.5265   -64.1604     8.2697
  290.0000     2.4817     0.1006    76.1016     6.9264     0.0461     9.5265   -64.1970     8.2223
  290.5000     2.4797     0.1048    76.9881     7.0369     0.0461     9.5265   -64.2336     8.1752
  291.0000     2.4772     0.1082    76.2073     7.1878     0.0461     9.5265   -64.2706     8.1284
  291.5000     2.4740     0.1074    75.4060     7.4218     0.0459     9.5267   -64.3112     8.0818
  292.0000     2.4735     0.1041    74.8518     7.4743     0.0535     9.5266   -64.1716     8.0355
  292.5000     2.4808     0.1007    76.3387     7.5178     0.0631     9.5279   -63.9933     7.9894
  293.0000     2.4869     0.0973    79.3345     7.5623     0.0726     9.4473   -63.8165     7.9437
  293.5000     2.4884     0.0953    81.0791     7.5877     0.0783     9.3816   -63.8094     7.8981
  294.0000     2.4900     0.0950    80.9874     7.6093     0.0732     9.3164   -64.0126     7.8529
  294.5000     2.4898     0.0987    80.9266     7.6309     0.0657     9.2516   -64.2149     7.8079
  295.0000     2.4870     0.1002    80.3805     7.6491     0.0581     9.1872   -64.3061     7.7631
  295.5000     2.4842     0.1021    80.3169     7.6325     0.0505     9.1234   -64.2957     7.7187
  296.0000     2.4814     0.1051    82.1821     7.6162     0.0430     9.0599   -64.2834     7.6744
  296.5000     2.4786     0.1066    83.8957     7.6004     0.0380     8.9969   -64.2708     7.6304
  297.0000     2.4784     0.1053    82.9001     7.6005     0.0381     8.9331   -64.2585     7.5867
  297.5000     2.4796     0.1040    80.8055     7.6300     0.0381     8.9292   -64.2462     7.5432
  298.0000     2.4811     0.1028    80.3148     7.6594     0.0381     8.9253   -64.2338     7.5000
  298.5000     2.4825     0.1018    80.2524     7.6699     0.0387     8.9214   -64.2215     7.4570
  299.0000     2.4841     0.0981    79.1293     7.6700     0.0395     8.9174   -64.2092     7.4240
  299.5000     2.4879     0.0946    78.1249     7.6700     0.0402     8.9135   -64.1968     7.4028
  300.0000     2.4957     0.0950    78.7138     7.6700     0.0410     8.9096   -64.1845     7.3816
  300.5000     2.4970     0.0949    80.5215     7.6700     0.0417     8.9057   -64.1722     7.3606
  301.0000     2.4962     0.0947    80.5236     7.6719     0.0417     8.9017   -64.1598     7.3396
  301.5000     2.4954     0.0945    80.0020     7.6859     0.0404     8.8978   -64.1476     7.3186
  302.0000     2.4945     0.0943    79.8978     7.6999     0.0391     8.8939   -64.1354     7.2977
  302.5000     2.4937     0.0966    80.0794     7.7140     0.0378     8.8900   -64.1220     7.2769
  303.0000     2.4893     0.1006    82.1792     7.7280     0.0365     8.8860   -64.0509     7.2561
  303.5000     2.4854     0.1001    84.9506     7.7316     0.0353     8.8821   -63.8813     7.2354
  304.0000     2.4862     0.0992    83.3130     7.7335     0.0341     8.8782   -63.7132     7.2147
  304.5000     2.4870     0.0987    80.7280     7.7354     0.0337     8.8743   -63.5449     7.1941
  305.0000     2.4877     0.0990    79.9157     7.7373     0.0333     8.8704   -63.3742     7.1736
  305.5000     2.4884     0.0987    82.8347     7.7392     0.0329     8.8665   -63.2016     7.1531
  306.0000     2.4892     0.0976    85.0951     7.7411     0.0325     8.8626   -62.9742     7.1327
  306.5000     2.4881     0.0974    85.8129     7.7430     0.0321     8.8586   -63.2659     7.1123
  307.0000     2.4856     0.0998    86.0850     7.7449     0.0318     8.8547   -63.5388     7.0920
  307.5000     2.4832     0.1021    86.3561     7.7468     0.0314     8.8518   -63.8080     7.0718
  308.0000     2.4807     0.1038    86.3374     7.7486     0.0310     8.8764   -64.0776     7.0514
  308.5000     2.4785     0.1038    85.6158     7.7415     0.0306     8.8987   -64.3446     7.0347
  309.0000     2.4766     0.1045    83.8875     7.7112     0.0302     8.9208   -64.5151     7.0972
  309.5000     2.4777     0.1070    82.7546     7.6813     0.0302     8.9430   -64.5127     7.1624
  310.0000     2.4787     0.1053    82.9165     7.6514     0.0304     8.9653   -64.5131     7.2279
  310.5000     2.4797     0.1034    81.6390     7.6219     0.0306     8.9877   -64.5129     7.2940
  311.0000     2.4805     0.1048    78.7446     7.5588     0.0308     9.0101   -64.5129     7.3608
  311.5000     2.4793     0.1095    76.6506     7.4763     0.0310     9.0325   -64.5129     7.4281
