~VERSION INFORMATION
 VERS.                2.0:   CWLS LOG ASCII STANDARD - VERSION 2.0
 WRAP.                 NO:   ONE LINE PER DEPTH STEP
~WELL INFORMATION
#MNEM.UNIT      DATA TYPE    INFORMATION
#----------   ------------   ------------------------------
 STRT.F            0.0000:   START DEPTH
 STOP.F          978.0000:   STOP DEPTH
 STEP.F            0.5000:   STEP LENGTH
 NULL.          -999.2500:   NO VALUE
 COMP. FENIX & SCISSON INC:   COMPANY
 WELL. N.P.R #3 SX-14 #53:   WELL
 FLD .             TEAPOT:   FIELD
 LOC .      S14 T38N R78W:   LOCATION
 CNTY.            NATRONA:   COUNTY
 STAT.            WYOMING:   STATE
 CTRY. UNITED STATES OF AMERICA:   COUNTRY
 SRVC.              Welex:   SERVICE COMPANY
 DATE.        06-MAR-1977:   LOGDATE
 API .       490251029800:   API NUMBER
~CURVE INFORMATION
#MNEM.UNIT       API CODE    CURVE DESCRIPTION
#----------   ------------   ------------------------------
 DEPT.F                  :   
 SPR .MV     07 010 01 00:   SPONTANEOUS POTENTIAL
 SGRD.OHMM   07 220 05 00:   SHALLOW RESISTIVITY
 ILD .OHMM   07 120 46 00:   INDUCTION LOG DEEP
 ILM .OHMM   07 120 44 00:   INDUCTION LOG MEDIUM
 GRD .GAPI   45 310 01 00:   GAMMA RAY FROM DENSITY LOG
 CALD.IN     45 280 60 00:   CALIPER
 RHOB.G/C3   45 350 01 00:   BULK DENSITY
 DPHI.DEC    45 890 12 00:   DENSITY POROSITY SANDSTONE
 CORR.G/C3   45 356 01 00:   DENSITY CORRECTION
~PARAMETER INFORMATION
#MNEM.UNIT          VALUE    DESCRIPTION
#----------   ------------   ------------------------------
 PD  .                 GL:   PERMANENT DATUM
 EPD .F              5230:   ELEVATION PERMANENT DATUM
 LMF .                 GL:   LOG MEASURED FROM
 DMF .                 GL:   DRILLING MEASURED FROM
 EGL .F              5230:   GROUND LEVEL
 DATE.             3-6-77:   RUN DATE
 RUN .                  1:   RUN NUMBER
 DD  .F               989:   DEPTH DRILLER
 DL  .F               980:   DEPTH LOGGER
 BLI .F               978:   BOTTOM LOG INTERVAL
 TLI .F                50:   TOP LOG INTERVAL
 CS  .IN            8.625:   CASING SIZE
 CBD .F                42:   CASING BOTTOM DRILLER
 CBL .F                42:   CASING BOTTOM LOGGER
 BS  .IN            7.875:   BIT SIZE
 BSD .F               989:   BIT SIZE AT DEPTH
 DFT .            KCL MUD:   DRILLING FLUID TYPE
 DFD .                8.4:   DRILLING FLUID DENSITY
 DFV .                 30:   DRILLING FLUID VISCOSITY
 DFPH.                7.2:   DRILLING FLUID PH
 DFL .               14.4:   DRILLING FLUID LOSS
 MSS .            MUD PIT:   MUD SAMPLE SOURCE
 RMS .OHMM            .41:   RESISTIVITY MUD SAMPLE
 MST .F                48:   MUD SAMPLE TEMPERATURE
 RMF .OHMM            .39:   RESISTIVITY MUD FILTRATE SAMPLE
 MFST.F                48:   MUD FILTRATE SAMPLE TEMPERATURE
 RMC .OHMM            .55:   RESISTIVITY MUD CAKE
 MCST.F                48:   MUD CAKE SAMPLE TEMPERATURE
 MFSS.           FANN KIT:   MUD FILTRATE SAMPLE SOURCE
 MCSS.           FANN KIT:   MUD CAKE SAMPLE SOURCE
 RMB .OHMM            .34:   RESISTIVITY MUD AT BHT
 BHT .F                58:   BOTTOM HOLE TEMPERATURE
 TCS .HRS               2:   TIME CURCULATED STOPPED
 MRT .F                58:   MAXIMUM RECORDED TEMPERATURE
 LUN .               8611:   LOGGING UNIT NUMBER
 LUL .           GILLETTE:   LOGGING UNIT LOCATION
 ENGI.            C. DOAK:   RECORDING ENGINEER
 WITN.           S. BURKE:   WITNESSED BY
 CLNT.            A2DTECH:   CLIENT CODE
 ORIG.        2" 5" PRINT:   ORIGIN OF DATA
 UWI .       490251029800:   UNIQUE WELL ID
 DICO. A2D Technologies, Inc.:   DIGITIZING COMPANY
~OTHER INFORMATION
~A    DEPT     SPR       SGRD        ILD        ILM        GRD       CALD       RHOB       DPHI       CORR   
# ...
   36.5000  -999.2500  -999.2500  -999.2500  -999.2500  -999.2500  -999.2500     2.1758     0.2816    -0.3689
   37.0000  -999.2500  -999.2500  -999.2500  -999.2500  -999.2500  -999.2500     2.1727     0.2845    -0.3636
   37.5000  -999.2500  -999.2500  -999.2500  -999.2500  -999.2500  -999.2500     2.1717     0.2866    -0.3496
   38.0000  -999.2500  -999.2500  -999.2500  -999.2500   109.8606     7.8028     2.1763     0.2662    -0.3391
   38.5000  -999.2500  -999.2500  -999.2500  -999.2500   108.0179     7.8046     2.2447     0.1710     0.1320
   39.0000  -999.2500  -999.2500  -999.2500  -999.2500   105.4449     7.8082     2.3727     0.1486     0.0546
   39.5000  -999.2500  -999.2500  -999.2500  -999.2500   105.4303     7.8110     2.4289     0.1289     0.0514
   40.0000  -999.2500  -999.2500  -999.2500  -999.2500   110.8205     7.8149     2.4351     0.1274     0.0499
   40.5000  -999.2500  -999.2500  -999.2500  -999.2500   118.1968     7.8229     2.4404     0.1258     0.0495
   41.0000  -999.2500  -999.2500  -999.2500  -999.2500   125.1742     7.7757     2.4458     0.1243     0.0491
   41.5000  -999.2500  -999.2500  -999.2500  -999.2500   128.4574     8.6292     2.4504     0.1227     0.0487
   42.0000  -999.2500  -999.2500     0.5568     3.2167   127.1607     8.2158     2.4523     0.1218     0.0485
   42.5000  -999.2500  -999.2500     0.2695     3.2167   125.7877     7.9042     2.4543     0.1216     0.0489
   43.0000  -999.2500  -999.2500     0.3509     3.2167   127.7274     7.7845     2.4542     0.1213     0.0494
   43.5000  -999.2500  -999.2500     0.2995     4.6224   130.4268     7.7822     2.4541     0.1212     0.0498
   44.0000  -999.2500  -999.2500     0.2437     4.8255   134.2094     7.7827     2.4535     0.1217     0.0502
   44.5000  -999.2500  -999.2500     0.3534     5.3557   136.3015     7.7868     2.4523     0.1222     0.0514
   45.0000  -999.2500  -999.2500     0.5038     5.6129   135.9467     7.7995     2.4513     0.1212     0.0542
   45.5000  -999.2500  -999.2500     0.7182     5.8867   135.7042     7.8121     2.4578     0.1187     0.0605
   46.0000  -999.2500  -999.2500     1.2960     6.1739   136.5961     7.8247     2.4649     0.1162     0.0645
   46.5000  -999.2500  -999.2500     2.7772     6.3661   137.4923     7.8373     2.4600     0.1176     0.0650
   47.0000  -999.2500  -999.2500     4.8846     6.4947   137.0446     7.8499     2.4527     0.1205     0.0655
   47.5000  -999.2500  -999.2500     4.9684     6.6259   133.9885     7.8625     2.4453     0.1234     0.0659
   48.0000  -999.2500  -999.2500     5.0537     6.7598   129.0055     7.8752     2.4380     0.1263     0.0658
   48.5000  -999.2500  -999.2500     5.4161     6.8964   124.5203     7.8878     2.4308     0.1292     0.0631
   49.0000  -999.2500  -999.2500     6.0416     7.0357   122.6397     7.9005     2.4234     0.1320     0.0606
   49.5000  -999.2500  -999.2500     6.7392     7.1779   123.0956     7.9011     2.4190     0.1349     0.0580
   50.0000  -999.2500  -999.2500     7.2874     7.3229   125.7021     7.8996     2.4167     0.1378     0.0555
   50.5000  -999.2500  -999.2500     7.2193     7.4186   128.3062     7.8980     2.4145     0.1407     0.0529
   51.0000  -999.2500  -999.2500     6.9017     7.2048   129.8745     7.8964     2.4122     0.1409     0.0504
   51.5000  -999.2500  -999.2500     6.5255     7.0504   131.4230     7.8949     2.4103     0.1399     0.0478
   52.0000  -999.2500  -999.2500     6.6362     6.9567   132.9820     7.8933     2.4143     0.1410     0.0453
   52.5000  -999.2500  -999.2500     6.8309     7.0251   134.5454     7.8918     2.4187     0.1409     0.0427
   53.0000  -999.2500  -999.2500     6.6681     7.0844   136.1088     7.8902     2.4167     0.1375     0.0402
   53.5000  -999.2500  -999.2500     6.0626     6.7915   137.6360     7.8887     2.4111     0.1417     0.0376
   54.0000  -999.2500  -999.2500     5.5122     6.3433   137.3118     7.8871     2.4072     0.1446     0.0367
   54.5000  -999.2500  -999.2500     5.3795     6.4421   134.4001     7.8856     2.4074     0.1424     0.0371
   55.0000  -999.2500  -999.2500     5.3795     6.6171   131.5116     7.8841     2.4132     0.1391     0.0376
   55.5000  -999.2500  -999.2500     5.3795     6.7970   128.6374     7.8823     2.4194     0.1357     0.0381
   56.0000  -999.2500  -999.2500     5.5272     6.9807   127.2755     7.8745     2.4255     0.1324     0.0386
   56.5000  -999.2500  -999.2500     5.6862     7.1585   129.3426     7.8664     2.4319     0.1295     0.0391
   57.0000  -999.2500  -999.2500     5.8493     7.2068   128.8061     7.8582     2.4330     0.1300     0.0396
   57.5000  -999.2500  -999.2500     6.0067     7.2584   128.2497     7.8501     2.4309     0.1307     0.0400
   58.0000  -999.2500  -999.2500     6.0947     7.3098   127.7097     7.8420     2.4292     0.1314     0.0405
   58.5000  -999.2500  -999.2500     6.1789     7.3620   127.6882     7.8338     2.4328     0.1279     0.0410
   59.0000  -999.2500  -999.2500     6.2647     7.4139   128.3962     7.8257     2.4421     0.1238     0.0415
   59.5000  -999.2500  -999.2500     6.4103     7.4870   128.8937     7.8176     2.4481     0.1207     0.0420
   60.0000  -999.2500  -999.2500     6.5823     7.2895   127.2401     7.8095     2.4374     0.1289     0.0417
   60.5000  -999.2500  -999.2500     6.7589     6.9780   123.3572     7.8013     2.4213     0.1372     0.0382
   61.0000  -999.2500  -999.2500     6.9402     6.6798   121.6638     7.7932     2.4043     0.1455     0.0347
   61.5000  -999.2500  -999.2500     7.1264     6.5236   121.0822     7.7842     2.4004     0.1480     0.0311
   62.0000  -999.2500   438.9027     7.3176     8.4261   118.4290     7.8103     2.4084     0.1422     0.0328
   62.5000  -999.2500   274.2681     7.5139     9.3912   113.9448     7.8482     2.4171     0.1374     0.0360
   63.0000  -999.2500   482.1967     7.7154     9.5473   111.2053     7.8593     2.4249     0.1326     0.0383
   63.5000  -999.2500   679.8855     7.8011     9.6964   111.4728     7.8546     2.4212     0.1319     0.0374
   64.0000  -999.2500   692.4874     7.8466     9.8511   115.3030     7.8496     2.4175     0.1399     0.0365
   64.5000  -999.2500   535.4844     7.9111     9.9554   121.2277     7.8446     2.4263     0.1349     0.0401
   65.0000  -999.2500   560.4379     7.7988     9.7507   124.1047     7.8397     2.4372     0.1282     0.0451
   65.5000  -999.2500   588.3479     7.6135     9.5437   125.7859     7.8347     2.4480     0.1216     0.0501
   66.0000  -999.2500   631.0825     7.4322     9.3416   126.8135     7.8298     2.4587     0.1149     0.0551
   66.5000  -999.2500   673.6708     7.2554     9.1440   126.7627     7.8248     2.4662     0.1092     0.0601
   67.0000  -999.2500   659.3775     7.0827     8.9507   128.1147     7.8227     2.4641     0.1093     0.0596
   67.5000  -999.2500   632.3327     6.9142     8.7614   129.8427     7.8227     2.4586     0.1125     0.0587
   68.0000  -999.2500   603.3806     6.7497     8.5761   131.5182     7.8227     2.4530     0.1157     0.0579
   68.5000  -999.2500   686.1575     6.6902     8.3948   133.6189     7.8227     2.4515     0.1177     0.0570
   69.0000  -999.2500   607.3831     6.6689     8.3592   136.4370     7.8227     2.4528     0.1170     0.0562
   69.5000  -999.2500   530.5897     6.6477     8.6443   140.6048     7.8227     2.4541     0.1163     0.0553
   70.0000  -999.2500   597.8652     6.6265     8.8494   143.2138     7.8227     2.4554     0.1156     0.0545
   70.5000  -999.2500   597.8652     6.6053     9.0794   140.5362     7.8238     2.4543     0.1151     0.0537
   71.0000  -999.2500   613.8875     6.5838     8.7416   138.0345     7.8253     2.4501     0.1175     0.0528
   71.5000  -999.2500   637.5577     6.5980     8.3831   135.6039     7.8269     2.4459     0.1198     0.0520
   72.0000  -999.2500   601.9618     6.6125     8.2071   136.5390     7.8285     2.4417     0.1220     0.0512
   72.5000  -999.2500   574.6140     6.6271     8.2481   137.8172     7.8301     2.4376     0.1243     0.0504
