~VERSION INFORMATION
 VERS.                2.0:   CWLS LOG ASCII STANDARD - VERSION 2.0
 WRAP.                 NO:   ONE LINE PER DEPTH STEP
~WELL INFORMATION
#MNEM.UNIT      DATA TYPE    INFORMATION
#----------   ------------   ------------------------------
 STRT.F           33.0000:   START DEPTH
 STOP.F         1374.0000:   STOP DEPTH
 STEP.F            0.5000:   STEP LENGTH
 NULL.          -999.2500:   NO VALUE
 COMP. FENIX & SCISSON INC:   COMPANY
 WELL.   NPR-3 "S" #84-14:   WELL
 FLD .             TEAPOT:   FIELD
 LOC .      S14 T38N R78W:   LOCATION
 CNTY.            NATRONA:   COUNTY
 STAT.            WYOMING:   STATE
 CTRY. UNITED STATES OF AMERICA:   COUNTRY
 SRVC.            Unknown:   SERVICE COMPANY
 DATE.        18-MAR-1978:   LOGDATE
 API .       490251060400:   API NUMBER
~CURVE INFORMATION
#MNEM.UNIT       API CODE    CURVE DESCRIPTION
#----------   ------------   ------------------------------
 DEPT.F                  :   
 SPR .MV     05 010 01 00:   SPONTANEOUS POTENTIAL FROM RES.
 SN  .OHMM   05 040 16 00:   SHORT NORMAL 16"
 ILD .OHMM   05 120 46 00:   INDUCTION LOG DEEP
 CALD.IN     45 280 60 00:   CALIPER
 GRD .GAPI   45 310 01 00:   GAMMA RAY FROM DENSITY LOG
 CORR.G/C3   45 356 01 00:   DENSITY CORRECTION
 RHOB.G/C3   45 350 01 00:   BULK DENSITY
 DPHI.DEC    45 890 00 00:   DENSITY POROSITY
~PARAMETER INFORMATION
#MNEM.UNIT          VALUE    DESCRIPTION
#----------   ------------   ------------------------------
 PD  .                 GL:   PERMANENT DATUM
 EPD .F              5314:   ELEVATION PERMANENT DATUM
 LMF .                 KB:   LOG MEASURED FROM
 DMF .                 KB:   DRILLING MEASURED FROM
 EKB .F              5318:   KELLING BUSHING
 EGL .F              5314:   GROUND LEVEL
 DATE.          3-18-1978:   RUN DATE
 RUN .                  1:   RUN NUMBER
 DD  .F              1375:   DEPTH DRILLER
 DL  .F              1380:   DEPTH LOGGER
 BLI .F              1374:   BOTTOM LOG INTERVAL
 TLI .F                50:   TOP LOG INTERVAL
 CS  .IN            8.625:   CASING SIZE
 CBD .F                40:   CASING BOTTOM DRILLER
 CBL .F                50:   CASING BOTTOM LOGGER
 BS  .IN            7.875:   BIT SIZE
 BSD .F              1375:   BIT SIZE AT DEPTH
 DFT .                KCL:   DRILLING FLUID TYPE
 DFD .                8.1:   DRILLING FLUID DENSITY
 DFV .                 31:   DRILLING FLUID VISCOSITY
 DFPH.                 10:   DRILLING FLUID PH
 DFL .                8.4:   DRILLING FLUID LOSS
 MSS .           FLOWLINE:   MUD SAMPLE SOURCE
 RMS .OHMM            .28:   RESISTIVITY MUD SAMPLE
 MST .F                62:   MUD SAMPLE TEMPERATURE
 RMF .OHMM            .26:   RESISTIVITY MUD FILTRATE SAMPLE
 MFST.F                67:   MUD FILTRATE SAMPLE TEMPERATURE
 RMC .OHMM            .36:   RESISTIVITY MUD CAKE
 MCST.F                70:   MUD CAKE SAMPLE TEMPERATURE
 MFSS.               MEAS:   MUD FILTRATE SAMPLE SOURCE
 RMB .OHMM            .22:   RESISTIVITY MUD AT BHT
 BHT .F                80:   BOTTOM HOLE TEMPERATURE
 TCS .HRS               4:   TIME CURCULATED STOPPED
 MRT .F                80:   MAXIMUM RECORDED TEMPERATURE
 LUN .               2958:   LOGGING UNIT NUMBER
 LUL .               CASP:   LOGGING UNIT LOCATION
 ENGI.             MILLER:   RECORDING ENGINEER
 WITN.           MCGINLEY:   WITNESSED BY
 CLNT.            A2DTECH:   CLIENT CODE
 ORIG.      2" & 5" PRINT:   ORIGIN OF DATA
 UWI .       490251060400:   UNIQUE WELL ID
 DICO. A2D Technologies, Inc.:   DIGITIZING COMPANY
~OTHER INFORMATION
~A   DEPT      SPR         SN        ILD       CALD         GRD      CORR       RHOB       DPHI   
# ...
  276.0000   -53.3641     5.9429     5.6269     7.4865    98.2635    -0.0031     2.4595     0.1033
  276.5000   -52.1359     6.0259     5.7278     7.4868    97.4715    -0.0182     2.4586     0.1173
  277.0000   -52.1441     6.1094     5.8306     7.4871    96.7694    -0.0098     2.4378     0.1313
  277.5000   -52.2232     6.1694     5.9352     7.4875    92.8996    -0.0021     2.4166     0.1346
  278.0000   -52.3111     6.1749     6.0072     7.4878    89.8612     0.0032     2.4114     0.1342
  278.5000   -52.3987     6.1803     6.0304     7.4881    91.1793     0.0030     2.4114     0.1334
  279.0000   -52.4901     6.1859     6.0537     7.4885    93.6392     0.0039     2.4096     0.1322
  279.5000   -52.5944     6.1914     6.0770     7.4888    94.2642     0.0055     2.4135     0.1283
  280.0000   -52.6987     6.1969     6.1005     7.4891    95.1966     0.0071     2.4243     0.1243
  280.5000   -52.8037     6.2024     6.1185     7.4894    96.2932     0.0087     2.4275     0.1214
  281.0000   -52.9021     6.2079     6.1332     7.4898    95.4345     0.0069     2.4344     0.1210
  281.5000   -53.0865     6.2135     6.1478     7.4901    94.6713     0.0033     2.4363     0.1224
  282.0000   -53.2680     6.2189     6.1625     7.4904    94.7244    -0.0004     2.4265     0.1282
  282.5000   -53.4507     6.2232     6.1773     7.4908    95.4776    -0.0040     2.4161     0.1342
  283.0000   -53.6458     6.2532     6.1921     7.4911    97.1610    -0.0070     2.4115     0.1327
  283.5000   -53.2826     6.2894     6.2069     7.4914    98.8983    -0.0038     2.4190     0.1307
  284.0000   -52.8294     6.3259     6.2218     7.4918   100.6799    -0.0005     2.4207     0.1270
  284.5000   -52.6041     6.3756     6.2367     7.4921   101.4259    -0.0010     2.4304     0.1142
  285.0000   -52.5073     6.5313     6.2516     7.4924   101.4290    -0.0064     2.4435     0.1146
  285.5000   -52.0810     6.6907     6.2666     7.4928   100.2766    -0.0112     2.4474     0.1214
  286.0000   -51.4854     6.8541     6.2809     7.4931    98.5079    -0.0085     2.4433     0.1178
  286.5000   -50.8785     7.0215     6.4937     7.4934    98.1730    -0.0052     2.4378     0.1218
  287.0000   -50.7774     7.0884     6.7031     7.4937   101.6090    -0.0018     2.4279     0.1256
  287.5000   -50.9282     7.0990     6.9195     7.4941   104.3983    -0.0010     2.4265     0.1211
  288.0000   -51.0698     7.1096     6.9525     7.4944   104.6725    -0.0019     2.4330     0.1170
  288.5000   -50.8623     7.1202     6.9520     7.4947   104.6623    -0.0029     2.4399     0.1154
  289.0000   -50.6702     7.1308     6.9520     7.4951   104.6116    -0.0038     2.4424     0.1142
  289.5000   -50.6748     7.1414     6.9520     7.4954   103.3695    -0.0048     2.4423     0.1153
  290.0000   -50.6749     7.1471     6.9520     7.4957   101.3717    -0.0058     2.4350     0.1207
  290.5000   -50.6747     7.1469     6.9522     7.4961    99.3160    -0.0069     2.4251     0.1261
  291.0000   -50.6748     7.1470     6.9521     7.4964    99.0842    -0.0035     2.4152     0.1316
  291.5000   -50.6748     7.1447     6.9513     7.4967    99.7133     0.0012     2.4051     0.1377
  292.0000   -50.6749     7.1508     6.9558     7.4971   100.4025     0.0060     2.4034     0.1347
  292.5000   -50.6747     6.8829     6.7513     7.4974   101.1046     0.0106     2.4136     0.1317
  293.0000   -50.6438     6.6814     6.5970     7.4977   101.2689     0.0038     2.4125     0.1334
  293.5000   -50.6082     6.5171     6.4573     7.4981   101.2745    -0.0041     2.4009     0.1489
  294.0000   -50.5722     6.5363     6.4395     7.4984   101.2760    -0.0106     2.3884     0.1546
  294.5000   -50.5361     6.5515     6.4229     7.4987   101.2719    -0.0073     2.3780     0.1524
  295.0000   -50.5006     6.5666     6.4065     7.4990   101.2277    -0.0039     2.3814     0.1497
  295.5000   -50.5465     6.5775     6.3727     7.4994   100.0395    -0.0006     2.3850     0.1470
  296.0000   -50.9626     6.4553     6.2836     7.4997    97.9932     0.0010     2.3872     0.1471
  296.5000   -52.8267     6.3444     6.1958     7.5000    97.5952     0.0009     2.3858     0.1484
  297.0000   -52.1264     6.2353     6.1092     7.5004    97.4407     0.0036     2.3846     0.1478
  297.5000   -51.6496     6.1647     6.0239     7.5007    96.5318     0.0072     2.3914     0.1426
  298.0000   -50.9859     6.1668     5.9977     7.5010    97.0643     0.0090     2.4012     0.1374
  298.5000   -50.3492     6.1656     5.9977     7.5014    98.1941     0.0083     2.4165     0.1326
  299.0000   -50.4731     6.1664     5.9977     7.5017    99.3192     0.0076     2.4150     0.1286
  299.5000   -50.8722     6.1655     5.9977     7.5020   100.2610     0.0068     2.4178     0.1258
  300.0000   -51.0664     6.2512     6.0560     7.5023   100.0502     0.0061     2.4222     0.1249
  300.5000   -50.7696     6.3177     6.1215     7.5027    98.5198     0.0053     2.4257     0.1239
  301.0000   -50.5124     6.3848     6.1878     7.5030    97.0005     0.0046     2.4280     0.1230
  301.5000   -51.3008     6.4527     6.2547     7.5033    95.5428     0.0038     2.4302     0.1235
  302.0000   -52.0455     6.5170     6.3225     7.5031    93.6051     0.0031     2.4283     0.1243
  302.5000   -52.0316     6.5415     6.3909     7.5029    91.6693     0.0045     2.4258     0.1250
  303.0000   -51.9785     6.5789     6.4573     7.5026    89.7451     0.0046     2.4253     0.1251
  303.5000   -51.9274     6.6385     6.4578     7.5024    88.2812     0.0032     2.4273     0.1239
  304.0000   -51.8713     6.5825     6.3350     7.5022    88.9078     0.0017     2.4266     0.1246
  304.5000   -52.0625     6.4522     6.1446     7.5020    89.7638    -0.0006     2.4283     0.1260
  305.0000   -52.2953     6.3246     6.0705     7.5017    90.6570    -0.0012     2.4258     0.1280
  305.5000   -52.5299     6.1995     5.9771     7.5015    90.9113    -0.0014     2.4235     0.1300
  306.0000   -52.7659     6.0768     5.8846     7.5013    90.9207    -0.0016     2.4193     0.1320
  306.5000   -52.8014     5.9567     5.7935     7.5011    90.9161    -0.0018     2.4132     0.1339
  307.0000   -52.6967     5.8342     5.7038     7.5008    90.9097    -0.0021     2.4070     0.1359
  307.5000   -52.5909     5.7158     5.6155     7.5006    90.9817    -0.0023     2.4016     0.1379
  308.0000   -52.4841     5.5952     5.5286     7.5004    92.2847    -0.0025     2.4039     0.1394
  308.5000   -52.3774     5.4689     5.4430     7.5002    93.8053    -0.0027     2.4085     0.1388
  309.0000   -52.2707     5.4689     5.3689     7.4999    94.3112    -0.0029     2.4124     0.1380
  309.5000   -52.1641     5.4690     5.3539     7.4997    92.4718    -0.0072     2.4117     0.1370
  310.0000   -52.0693     5.4689     5.3376     7.4995    90.7600    -0.0129     2.4117     0.1423
  310.5000   -52.0681     5.4689     5.3214     7.4993    90.7115    -0.0126     2.4201     0.1406
  311.0000   -52.0685     5.4690     5.3052     7.4991    90.7147    -0.0115     2.4181     0.1246
  311.5000   -52.0684     5.4687     5.2891     7.4988    90.5095    -0.0108     2.4312     0.1142
  312.0000   -52.0686     5.4685     5.2707     7.4986    89.4156    -0.0125     2.4413     0.1209
  312.5000   -52.1250     5.5113     5.3104     7.4984    88.3322    -0.0466     2.4342     0.1287
  313.0000   -52.1904     5.5508     5.3714     7.4982    87.9461    -0.0281     2.4251     0.1362
  313.5000   -52.2595     5.5910     5.4331     7.4979    88.1122    -0.0075     2.4161     0.1397
  314.0000   -52.0817     5.6315     5.4955     7.4977    89.4213    -0.0070     2.4071     0.1429
  314.5000   -51.7844     5.6723     5.5586     7.4975    91.6526    -0.0111     2.3981     0.1462
  315.0000   -51.6449     5.7133     5.5989     7.4973    93.5696    -0.0150     2.3897     0.1474
  315.5000   -51.5016     5.7547     5.6691     7.4970    93.4725    -0.0104     2.3921     0.1429
  316.0000   -51.6697     5.7825     5.7272     7.4968    93.2540    -0.0033     2.3982     0.1359
