~VERSION INFORMATION
 VERS.                2.0:   CWLS LOG ASCII STANDARD - VERSION 2.0
 WRAP.                 NO:   ONE LINE PER DEPTH STEP
~WELL INFORMATION
#MNEM.UNIT      DATA TYPE    INFORMATION
#----------   ------------   ------------------------------
 STRT.F            0.0000:   START DEPTH
 STOP.F          701.0000:   STOP DEPTH
 STEP.F            0.5000:   STEP LENGTH
 NULL.          -999.2500:   NO VALUE
 COMP. U S NAVY-INTEX OIL:   COMPANY
 WELL. RES 3 TEAPOT DOM #22-S-2:   WELL
 FLD .             TEAPOT:   FIELD
 LOC .       S2 T38N R78W:   LOCATION
 CNTY.            NATRONA:   COUNTY
 STAT.            WYOMING:   STATE
 CTRY. UNITED STATES OF AMERICA:   COUNTRY
 SRVC.      NL McCullough:   SERVICE COMPANY
 DATE.        23-AUG-1961:   LOGDATE
 API .       490250647200:   API NUMBER
~CURVE INFORMATION
#MNEM.UNIT       API CODE    CURVE DESCRIPTION
#----------   ------------   ------------------------------
 DEPT.F                  :   
 GRN .GAPI   35 310 01 00:   GAMMA RAY
 NEUT.NAPI   35 330 01 00:   NEUTRON
~PARAMETER INFORMATION
#MNEM.UNIT          VALUE    DESCRIPTION
#----------   ------------   ------------------------------
 PD  .                 GL:   PERMANENT DATUM
 EPD .F              5115:   ELEVATION PERMANENT DATUM
 LMF .                 KB:   LOG MEASURED FROM
 DAPD.F                 6:   FEET ABOVE PERMANENT DATUM
 DMF .                 KB:   DRILLING MEASURED FROM
 EKB .F              5121:   KELLING BUSHING
 EGL .F              5115:   GROUND LEVEL
 DATE.          8-23-1961:   RUN DATE
 RUN .                  1:   RUN NUMBER
 DL  .F               676:   DEPTH LOGGER
 BLI .F               674:   BOTTOM LOG INTERVAL
 TLI .F               450:   TOP LOG INTERVAL
 DFT .                OIL:   DRILLING FLUID TYPE
 TCS .HRS              30:   TIME CURCULATED STOPPED
 ENGI.            JACKSON:   RECORDING ENGINEER
 WITN.             HUDSON:   WITNESSED BY
 CLNT.            A2DTECH:   CLIENT CODE
 ORIG.           5" PRINT:   ORIGIN OF DATA
 UWI .       490250647200:   UNIQUE WELL ID
 DICO. A2D Technologies, Inc.:   DIGITIZING COMPANY
~OTHER INFORMATION
~A    DEPT       GRN     NEUT   
# ...
  486.0000     6.1208   392.5320
  486.5000     6.2239   426.4849
  487.0000     6.4477   444.8304
  487.5000     6.4457   439.8133
  488.0000     6.6121   393.3571
  488.5000     6.5602   424.0486
  489.0000     6.4159   416.7598
  489.5000     6.3865   379.0242
  490.0000     6.4103   396.8559
  490.5000     6.3427   424.0893
  491.0000     6.1933   419.3546
  491.5000     6.0712   412.0242
  492.0000     6.1992   407.4601
  492.5000     6.5644   430.0804
  493.0000     6.5208   411.4722
  493.5000     6.4761   386.3198
  494.0000     6.3457   369.6000
  494.5000     6.1192   380.0561
  495.0000     6.2752   415.0158
  495.5000     6.4332   385.8943
  496.0000     6.5199   350.8949
  496.5000     6.5142   314.2018
  497.0000     6.3453   279.1420
  497.5000     6.4210   263.9243
  498.0000     6.2639   272.6679
  498.5000     6.3439   342.2006
  499.0000     6.7087   353.9736
  499.5000     6.6310   350.7253
  500.0000     6.7658   335.2888
  500.5000     7.1947   368.5817
  501.0000     7.1283   359.1188
  501.5000     6.7962   350.5107
  502.0000     6.7956   354.7940
  502.5000     6.7953   362.3687
  503.0000     6.8257   379.0567
  503.5000     6.8815   373.1180
  504.0000     6.8658   356.9627
  504.5000     6.6087   343.5944
  505.0000     6.5806   360.4926
  505.5000     6.7804   384.8136
  506.0000     6.7970   377.2333
  506.5000     6.7797   368.5875
  507.0000     6.7428   382.7888
  507.5000     6.7242   358.3357
  508.0000     6.6533   350.2940
  508.5000     6.4854   347.6749
  509.0000     6.4581   338.3177
  509.5000     6.4791   315.1967
  510.0000     6.6149   326.2429
  510.5000     6.7860   344.2142
  511.0000     6.9597   362.3679
  511.5000     7.0135   365.5359
  512.0000     7.0419   376.3155
  512.5000     7.0598   401.5268
  513.0000     7.0516   388.8903
  513.5000     7.0081   351.8181
  514.0000     6.9713   317.6270
  514.5000     6.9185   300.7135
  515.0000     6.8804   300.4327
  515.5000     6.6007   301.1415
  516.0000     6.5894   315.6799
  516.5000     6.6032   325.1472
  517.0000     6.6938   312.2905
  517.5000     6.7792   299.8541
  518.0000     6.9057   328.2678
  518.5000     6.8633   361.1410
  519.0000     6.6675   320.8302
  519.5000     6.5036   279.8680
  520.0000     6.6166   298.9947
  520.5000     6.7880   338.1020
  521.0000     6.9979   375.9780
  521.5000     6.9521   413.7413
  522.0000     6.8403   402.0128
  522.5000     6.7308   369.2402
  523.0000     6.6504   373.9739
  523.5000     6.5830   380.6068
  524.0000     6.5118   387.5763
  524.5000     6.3382   378.4500
  525.0000     6.1111   376.7042
  525.5000     6.1374   369.0326
  526.0000     6.5664   336.1616
  526.5000     6.5073   310.3640
  527.0000     6.3733   298.5484
  527.5000     6.6646   283.5604
  528.0000     6.4670   311.4410
  528.5000     6.6329   367.4618
  529.0000     6.5330   375.7632
  529.5000     6.3224   385.9527
  530.0000     6.2264   396.4101
  530.5000     5.9865   387.5055
  531.0000     6.1947   366.5230
  531.5000     6.0963   383.6177
  532.0000     6.0729   436.7653
  532.5000     6.1373   431.2285
  533.0000     6.4373   438.0212
  533.5000     6.3108   458.3899
  534.0000     6.1824   449.9943
  534.5000     6.2969   430.5139
  535.0000     6.1716   410.4099
  535.5000     6.1061   442.2213
  536.0000     6.1838   471.0779
  536.5000     6.4249   481.1473
  537.0000     6.3639   493.5482
  537.5000     6.0929   452.7444
  538.0000     6.0580   457.4514
  538.5000     6.0838   485.5769
  539.0000     6.1073   497.0449
  539.5000     6.0937   526.9555
  540.0000     5.9634   563.9755
  540.5000     5.9202   546.5151
  541.0000     5.9224   550.8331
  541.5000     5.9174   574.2104
  542.0000     5.9881   528.4310
  542.5000     6.1427   483.5667
  543.0000     6.3318   439.9372
  543.5000     6.2843   396.5855
  544.0000     6.1645   353.5484
  544.5000     6.1411   328.4798
  545.0000     6.3033   338.2869
  545.5000     6.4995   385.3346
  546.0000     6.3392   463.1495
  546.5000     5.9009   543.6490
  547.0000     5.8217   582.1058
  547.5000     5.7444   560.8360
  548.0000     5.7458   532.4329
  548.5000     5.8234   496.6602
  549.0000     5.9303   510.4634
  549.5000     6.0333   545.0453
  550.0000     6.1417   540.1463
  550.5000     6.1033   532.0184
  551.0000     6.0279   547.9001
  551.5000     5.9551   579.8687
  552.0000     5.8178   607.4545
  552.5000     5.4592   625.6707
  553.0000     5.0893   658.1340
  553.5000     4.7054   708.1378
  554.0000     4.3257   723.1613
  554.5000     3.8835   726.1696
  555.0000     3.7081   697.4215
  555.5000     3.5090   670.9197
  556.0000     3.3299   643.8556
  556.5000     3.1460   741.1476
  557.0000     2.9373   768.3806
  557.5000     2.9852   804.7448
  558.0000     3.0956   765.7654
  558.5000     3.2047   712.0612
  559.0000     3.3100   651.3713
  559.5000     3.4156   644.6295
  560.0000     3.4927   641.0117
  560.5000     3.5544   664.0178
  561.0000     3.4536   710.6809
  561.5000     3.3838   734.5136
  562.0000     3.3875   734.4071
  562.5000     3.3056   714.7837
  563.0000     3.2710   697.6453
  563.5000     3.3386   716.4310
  564.0000     3.4041   696.2416
  564.5000     3.5124   722.6424
  565.0000     3.5990   769.6442
  565.5000     3.3800   790.6511
  566.0000     3.3821   794.8350
  566.5000     3.4211   787.1900
  567.0000     3.5080   752.7453
  567.5000     3.4994   712.0458
  568.0000     3.4803   671.6995
  568.5000     3.4919   621.2973
  569.0000     3.5355   628.9168
  569.5000     3.5738   643.3159
  570.0000     3.5641   679.6634
  570.5000     3.8461   696.3580
  571.0000     4.0060   703.1642
  571.5000     3.9918   675.6659
  572.0000     3.9423   650.6835
  572.5000     3.8730   673.8400
  573.0000     3.8130   694.8954
  573.5000     3.7987   719.8986
  574.0000     3.7290   700.1249
  574.5000     4.0636   705.3566
  575.0000     3.9946   727.7359
  575.5000     3.9554   723.0616
  576.0000     3.8900   714.0627
  576.5000     3.9928   725.5031
  577.0000     4.2777   782.5314
  577.5000     4.3834   773.1889
  578.0000     4.2910   773.1862
  578.5000     4.4124   777.9600
  579.0000     4.4389   824.5919
  579.5000     4.3583   796.5889
  580.0000     4.2938   778.1411
  580.5000     4.2178   828.7181
  581.0000     4.1269   913.2689
  581.5000     4.1501   949.6532
  582.0000     4.2431   915.1313
  582.5000     4.5415   831.1846
  583.0000     4.3974   747.2863
  583.5000     4.3383   688.8576
  584.0000     4.4030   664.7990
  584.5000     4.5243   647.3792
  585.0000     4.7084   644.5643
  585.5000     4.7334   642.5834
  586.0000     4.7059   653.1671
  586.5000     4.5825   635.2470
  587.0000     4.5450   589.1034
  587.5000     4.5462   620.1987
  588.0000     4.6623   653.0142
  588.5000     4.7334   667.2404
  589.0000     4.7943   618.9881
  589.5000     4.8538   656.1603
  590.0000     4.8467   636.6339
  590.5000     4.7186   682.2937
  591.0000     4.5332   701.9571
  591.5000     4.4093   688.3118
  592.0000     4.3669   684.1748
  592.5000     4.3133   707.7186
  593.0000     4.3012   679.2146
  593.5000     4.3899   659.0892
  594.0000     4.2705   662.3165
  594.5000     4.3611   666.3139
  595.0000     4.5950   622.9477
  595.5000     4.5514   634.4109
  596.0000     4.5422   666.0927
  596.5000     4.5946   684.2706
  597.0000     4.6618   666.2830
  597.5000     4.6432   670.6271
  598.0000     4.4144   675.3046
  598.5000     4.3382   642.4148
  599.0000     4.5131   612.4774
  599.5000     4.6702   588.5681
  600.0000     4.6655   599.1950
  600.5000     4.6526   628.6138
  601.0000     4.6534   645.7775
  601.5000     4.7119   642.9266
  602.0000     4.7706   651.4535
  602.5000     4.6289   665.9581
  603.0000     4.5136   679.9124
  603.5000     4.4545   672.4926
  604.0000     4.3899   682.5107
  604.5000     4.1743   734.0972
  605.0000     3.8829   751.3881
  605.5000     3.9357   733.6478
  606.0000     4.0457   715.9102
  606.5000     4.2637   773.2913
  607.0000     4.4367   872.1793
