~VERSION INFORMATION
 VERS.                2.0:   CWLS LOG ASCII STANDARD - VERSION 2.0
 WRAP.                 NO:   ONE LINE PER DEPTH STEP
~WELL INFORMATION
#MNEM.UNIT      DATA TYPE    INFORMATION
#----------   ------------   ------------------------------
 STRT.F           18.0000:   START DEPTH
 STOP.F         2312.0000:   STOP DEPTH
 STEP.F            0.5000:   STEP LENGTH
 NULL.          -999.2500:   NO VALUE
 COMP. FENIX & SCISSON INC:   COMPANY
 WELL.  NPR 3 #51 SHX -15:   WELL
 FLD .             TEAPOT:   FIELD
 LOC .      S15 T38N R78W:   LOCATION
 CNTY.            NATRONA:   COUNTY
 STAT.            WYOMING:   STATE
 CTRY. UNITED STATES OF AMERICA:   COUNTRY
 SRVC.            Unknown:   SERVICE COMPANY
 DATE.        14-MAR-1978:   LOGDATE
 API .       490251060000:   API NUMBER
~CURVE INFORMATION
#MNEM.UNIT       API CODE    CURVE DESCRIPTION
#----------   ------------   ------------------------------
 DEPT.F                  :   
 ILD .OHMM   05 120 46 00:   INDUCTION LOG DEEP
 CILD.MMHO   05 110 46 00:   CONDUCTIVITY INDUCTION LOG DEEP
 CALD.IN     45 280 60 00:   CALIPER FROM DENSITY LOG
 GRD .GAPI   45 310 01 00:   GAMMA RAY FROM DENSITY LOG
 CORR.G/C3   45 356 01 00:   DENSITY CORRECTION
 RHOB.G/C3   45 350 01 00:   BULK DENSITY
 DPHI.DEC    45 890 12 00:   DENSITY POROSITY SANDSTONE
~PARAMETER INFORMATION
#MNEM.UNIT          VALUE    DESCRIPTION
#----------   ------------   ------------------------------
 PD  .                 GL:   PERMANENT DATUM
 EPD .F              5223:   ELEVATION PERMANENT DATUM
 LMF .                 KB:   LOG MEASURED FROM
 DAPD.F                10:   FEET ABOVE PERMANENT DATUM
 DMF .                 KB:   DRILLING MEASURED FROM
 EKB .F              5233:   KELLING BUSHING
 EGL .F              5223:   GROUND LEVEL
 DATE.            3-14-78:   RUN DATE
 RUN .                  1:   RUN NUMBER
 DD  .F              2323:   DEPTH DRILLER
 DL  .F              2314:   DEPTH LOGGER
 BLI .F              2312:   BOTTOM LOG INTERVAL
 TLI .F                20:   TOP LOG INTERVAL
 CS  .IN                9:   CASING SIZE
 CBD .F               680:   CASING BOTTOM DRILLER
 CBL .F               682:   CASING BOTTOM LOGGER
 BS  .IN            7.875:   BIT SIZE
 BSD .F              2323:   BIT SIZE AT DEPTH
 DFT .           AIR MIST:   DRILLING FLUID TYPE
 TCS .HRS               2:   TIME CURCULATED STOPPED
 LUN .               2958:   LOGGING UNIT NUMBER
 LUL .               CASP:   LOGGING UNIT LOCATION
 ENGI.             MILLER:   RECORDING ENGINEER
 WITN.           MCGINLEY:   WITNESSED BY
 CLNT.            A2DTECH:   CLIENT CODE
 ORIG.       2", 5" PRINT:   ORIGIN OF DATA
 UWI .       490251060000:   UNIQUE WELL ID
 DICO. A2D Technologies, Inc.:   DIGITIZING COMPANY
~OTHER INFORMATION
~A   DEPT      ILD       CILD       CALD         GRD      CORR       RHOB       DPHI   
# ...
 1838.0000    10.1934   103.7074     9.5662   100.8885     0.0096     2.5559     0.0656
 1838.5000     9.9606   103.7074     9.5662   102.8682     0.0095     2.5438     0.0796
 1839.0000     9.6695   103.7074     9.5662   103.4716     0.0129     2.5360     0.0782
 1839.5000     9.6559   103.7074     9.5662   101.5124     0.0215     2.5355     0.0768
 1840.0000     9.6605   103.2712     9.5662   101.1698     0.0355     2.5404     0.0692
 1840.5000     9.7264   102.6830     9.5662   103.6798     0.0500     2.5468     0.0556
 1841.0000     9.9172   102.0948     9.5662   100.1024     0.0501     2.5711     0.0688
 1841.5000    10.1045   101.7486     9.5662    94.0567     0.0370     2.5542     0.0825
 1842.0000    10.2928   101.8838     9.5662    88.8998     0.0369     2.5362     0.0835
 1842.5000    10.3807   102.0189     9.5662    91.4873     0.0439     2.5269     0.0838
 1843.0000    10.3816   102.1540     9.5662   100.0997     0.0752     2.5275     0.0773
 1843.5000    10.3984   102.2892     9.5662   108.7572     0.1064     2.5389     0.0752
 1844.0000    10.4169   102.4243     9.5662   106.8390     0.1159     2.5268     0.0850
 1844.5000    10.3825   102.5594     9.5662   104.4543     0.1204     2.4860     0.0939
 1845.0000    10.3091   102.7054     9.5662    99.3594     0.1576     2.5062     0.0984
 1845.5000    10.2355   104.0681     9.5662    94.8951     0.1759     2.5538     0.0728
 1846.0000    10.1628   105.5496     9.5662    96.7304     0.0601     2.4918     0.0848
 1846.5000    10.0088   107.0311     9.5662    97.1245     0.0936     2.5013     0.0766
 1847.0000     9.8256   108.5126     9.5670    95.9564     0.1151     2.5764     0.0680
 1847.5000     9.6682   109.9912     9.5362    97.2273     0.0540     2.5399     0.0775
 1848.0000     9.5676   110.8755     9.4958    98.6172     0.0197     2.5128     0.0912
 1848.5000     9.4873   111.1827     9.4552   101.5457     0.0052     2.5104     0.1008
 1849.0000     9.4550   111.4863     9.4256    98.4041     0.0043     2.5099     0.0997
 1849.5000     9.4174   112.6378     9.4229    99.3146     0.0044     2.5130     0.0988
 1850.0000     9.1976   115.7396     9.4198    97.7308     0.0059     2.5113     0.0941
 1850.5000     8.9536   118.8416     9.4165    96.0197     0.0079     2.5102     0.0889
 1851.0000     8.7302   119.8323     9.4134    99.8994     0.0113     2.5211     0.0838
 1851.5000     8.6690   119.9644     9.4102   107.0300     0.0153     2.5266     0.0801
 1852.0000     8.6549   120.0965     9.4070   115.9969     0.0194     2.5299     0.0767
 1852.5000     8.6543   120.2286     9.4038   110.0940     0.0190     2.5379     0.0744
 1853.0000     8.6543   120.3607     9.4006   101.2790     0.0169     2.5392     0.0824
 1853.5000     8.6248   120.4928     9.3974    96.8922     0.0148     2.5284     0.0915
 1854.0000     8.5675   120.6249     9.3942   103.4418     0.0156     2.5141     0.1000
 1854.5000     8.5103   120.8822     9.3910   110.4272     0.0165     2.4993     0.1036
 1855.0000     8.4528   122.0775     9.3876   108.5471     0.0120     2.4906     0.1076
 1855.5000     8.4028   123.2727     9.3969   105.6653     0.0022     2.4768     0.1211
 1856.0000     8.3655   124.4680     9.4107   104.8782    -0.0096     2.4547     0.1331
 1856.5000     8.3078   125.7515     9.4246   104.8781    -0.0213     2.4325     0.1586
 1857.0000     8.0765   130.4008     9.4385   108.0920    -0.0327     2.3901     0.1903
 1857.5000     7.7611   138.2176     9.4524   111.2043    -0.0418     2.3370     0.2230
 1858.0000     7.0797   147.0765     9.4662   106.4871    -0.0417     2.2662     0.2609
 1858.5000     6.4555   155.9354     9.4801   104.9529    -0.0364     2.1920     0.3027
 1859.0000     6.2213   163.2824     9.4940   105.0909    -0.0169     2.1179     0.3388
 1859.5000     6.0504   167.6828     9.5081   105.3211     0.0678     2.0477     0.3736
 1860.0000     5.8942   172.0834     9.5234   106.7898     0.2090     1.9724     0.4021
 1860.5000     5.7389   176.4776     9.5214   108.5932     0.0540     2.1810     0.2078
 1861.0000     5.5841   180.8823     9.3795   107.7766    -0.0334     2.0868     0.2183
 1861.5000     5.4788   182.4549     9.2320   107.0016    -0.0013     2.3175     0.2438
 1862.0000     5.4861   179.4640     9.1880   112.1536     0.0005     2.2372     0.2741
 1862.5000     5.7190   172.3524     9.1836   116.8057     0.0856     2.1560     0.3210
 1863.0000     5.9719   164.8297     9.1811   119.5728     0.1951     2.1122     0.2805
 1863.5000     6.1035   164.1924     9.1784   119.7475     0.0621     2.2983     0.1859
 1864.0000     6.1400   163.5231     9.1756   114.6474    -0.0187     2.2391     0.1266
 1864.5000     6.1762   162.8257     9.1727   118.9358    -0.0082     2.4962     0.1025
 1865.0000     6.2121   160.8216     9.1699   122.5643    -0.0087     2.4890     0.1024
 1865.5000     6.2482   158.7320     9.1689   125.7522    -0.0060     2.4914     0.1003
 1866.0000     6.2840   157.8179     9.1689   129.7997    -0.0051     2.4922     0.1023
 1866.5000     6.2854   157.8156     9.1689   135.5014    -0.0044     2.4878     0.1043
 1867.0000     6.2852   157.8792     9.1689   140.7706    -0.0034     2.4879     0.1057
 1867.5000     6.2851   158.0523     9.1689   140.5506    -0.0122     2.4879     0.1072
 1868.0000     6.2851   158.2254     9.1689   128.3180    -0.0196     2.4741     0.1245
 1868.5000     6.2774   158.3985     9.1689   121.5225    -0.0205     2.4494     0.1318
 1869.0000     6.2638   158.5716     9.1689   112.0054    -0.0276     2.4426     0.1494
 1869.5000     6.2504   158.7447     9.1689   102.7602    -0.0342     2.4081     0.1717
 1870.0000     6.2018   161.1423     9.1689    95.9075    -0.0382     2.3647     0.1991
 1870.5000     6.1286   165.1583     9.1688    97.3968    -0.0411     2.3189     0.2289
 1871.0000     5.9950   171.5150     9.1686    98.6361    -0.0340     2.2546     0.2642
 1871.5000     5.7565   179.5471     9.1698    98.4857    -0.0141     2.1866     0.3000
 1872.0000     5.5184   186.2325     9.2023   101.9978     0.0140     2.1185     0.3379
 1872.5000     5.2882   190.6638     9.2352   109.0759     0.0727     2.0504     0.3713
 1873.0000     5.3006   189.1193     9.3197   107.5746     0.2014     1.9823     0.3970
 1873.5000     5.3236   187.7875     9.4343   104.7348     0.3485     1.9026     0.3893
 1874.0000     5.3455   187.3237     9.4227   103.6198    -0.0413     2.4915     0.3646
 1874.5000     5.3671   186.8737     9.2105    99.3260    -0.0010     2.4876     0.1881
 1875.0000     5.3889   184.7862     9.1237    95.2039     0.0055     2.4609     0.1324
 1875.5000     5.4548   182.6946     9.1102    94.8461     0.0239     2.4378     0.1386
 1876.0000     5.5911   178.4594     9.1170   101.3699     0.0603     2.4278     0.1423
 1876.5000     5.7179   172.8457     9.1238   109.0786     0.0954     2.4258     0.1448
 1877.0000     5.6551   172.8457     9.1325   109.2068     0.1362     2.4318     0.1389
 1877.5000     5.6649   175.0143     9.1500   105.5287     0.0880     2.4659     0.1231
 1878.0000     5.5834   178.8577     9.1675   105.2154     0.0181     2.4153     0.2708
 1878.5000     5.3386   188.1215     9.1854   106.2656    -0.0427     2.3274     0.2696
 1879.0000     5.0956   197.2757     9.1822    99.8281    -0.0593     2.1947     0.2888
 1879.5000     4.8512   206.4299     9.1745    92.9175    -0.0539     2.1554     0.3226
 1880.0000     4.6330   212.9259     9.2055    91.6477    -0.0290     2.0734     0.3832
 1880.5000     4.5985   213.4590     9.2691    94.6610     0.0385     1.9915     0.3716
 1881.0000     4.5984   215.0046     9.2831    97.8661     0.0990     1.9099     0.3465
 1881.5000     4.5560   221.7269     9.3109    99.6036    -0.0547     1.8832     0.3334
 1882.0000     4.4895   230.8136     9.1819    96.8038    -0.0444     2.0095     0.4007
 1882.5000     4.4215   235.9719     9.1541    94.5835    -0.0118     2.0928     0.2734
 1883.0000     4.4219   231.0120     9.1582    92.8485     0.0667     2.0427     0.2821
