~VERSION INFORMATION
 VERS.                2.0:   CWLS LOG ASCII STANDARD - VERSION 2.0
 WRAP.                 NO:   ONE LINE PER DEPTH STEP
~WELL INFORMATION
#MNEM.UNIT      DATA TYPE    INFORMATION
#----------   ------------   ------------------------------
 STRT.F           44.0000:   START DEPTH
 STOP.F          666.0000:   STOP DEPTH
 STEP.F            0.5000:   STEP LENGTH
 NULL.          -999.2500:   NO VALUE
 COMP. FENIX & SCISSON INC:   COMPANY
 WELL.     NPR-3 #22SX-10:   WELL
 FLD .             TEAPOT:   FIELD
 LOC .      S10 T38N R78W:   LOCATION
 CNTY.            NATRONA:   COUNTY
 STAT.            WYOMING:   STATE
 CTRY. UNITED STATES OF AMERICA:   COUNTRY
 SRVC.            Unknown:   SERVICE COMPANY
 DATE.        11-JUL-1978:   LOGDATE
 API .       490251065600:   API NUMBER
~CURVE INFORMATION
#MNEM.UNIT       API CODE    CURVE DESCRIPTION
#----------   ------------   ------------------------------
 DEPT.F                  :   
 CALD.IN     45 280 60 00:   CALIPER FROM DENSITY LOG
 GRD .GAPI   45 310 01 00:   GAMMA RAY FROM DENSITY LOG
 CORR.G/C3   45 356 01 00:   DENSITY CORRECTION
 DPHI.DEC    45 890 12 00:   DENSITY POROSITY SANDSTONE
 RHOB.G/C3   45 350 01 00:   BULK DENSITY
 SPR .MV     05 010 01 00:   SPONTANEOUS POTENTIAL FROM RES.
 SN  .OHMM   05 040 16 00:   SHORT NORMAL 16"
 ILD .OHMM   05 120 46 00:   INDUCTION LOG DEEP
~PARAMETER INFORMATION
#MNEM.UNIT          VALUE    DESCRIPTION
#----------   ------------   ------------------------------
 PD  .                 GL:   PERMANENT DATUM
 EPD .F              5263:   ELEVATION PERMANENT DATUM
 LMF .                 KB:   LOG MEASURED FROM
 DAPD.F                 4:   FEET ABOVE PERMANENT DATUM
 DMF .                 KB:   DRILLING MEASURED FROM
 EKB .F              5267:   KELLING BUSHING
 EGL .F              5263:   GROUND LEVEL
 DATE.        11-JUL-1978:   RUN DATE
 RUN .                  1:   RUN NUMBER
 DD  .F               657:   DEPTH DRILLER
 DL  .F               666:   DEPTH LOGGER
 BLI .F               660:   BOTTOM LOG INTERVAL
 TLI .F                50:   TOP LOG INTERVAL
 CS  .IN            8.625:   CASING SIZE
 CBD .F                40:   CASING BOTTOM DRILLER
 BS  .IN            7.875:   BIT SIZE
 BSD .F               657:   BIT SIZE AT DEPTH
 DFT .                KCL:   DRILLING FLUID TYPE
 DFD .                8.6:   DRILLING FLUID DENSITY
 DFV .                 33:   DRILLING FLUID VISCOSITY
 DFPH.                9.0:   DRILLING FLUID PH
 DFL .                 14:   DRILLING FLUID LOSS
 MSS .           FLOWLINE:   MUD SAMPLE SOURCE
 RMS .OHMM            .16:   RESISTIVITY MUD SAMPLE
 MST .F                89:   MUD SAMPLE TEMPERATURE
 RMF .OHMM            .15:   RESISTIVITY MUD FILTRATE SAMPLE
 MFST.F                89:   MUD FILTRATE SAMPLE TEMPERATURE
 RMC .OHMM            .32:   RESISTIVITY MUD CAKE
 MCST.F                88:   MUD CAKE SAMPLE TEMPERATURE
 MFSS.               MEAS:   MUD FILTRATE SAMPLE SOURCE
 BHT .F                76:   BOTTOM HOLE TEMPERATURE
 TCS .HRS            0200:   TIME CURCULATED STOPPED
 MRT .F                76:   MAXIMUM RECORDED TEMPERATURE
 LUN .               2958:   LOGGING UNIT NUMBER
 LUL .               CASP:   LOGGING UNIT LOCATION
 ENGI.             MILLER:   RECORDING ENGINEER
 WITN.           MCGINLEY:   WITNESSED BY
 CLNT.            A2DTECH:   CLIENT CODE
 ORIG.           5" PRINT:   ORIGIN OF DATA
 UWI .       490251065600:   UNIQUE WELL ID
 DICO. A2D Technologies, Inc.:   DIGITIZING COMPANY
~OTHER INFORMATION
~A   DEPT     CALD         GRD      CORR       DPHI       RHOB        SPR         SN        ILD   
# ...
  489.5000     7.9912    57.5506     0.0065     0.1881     2.3581   -53.2160    10.7821    13.5088
  490.0000     7.9909    56.1876     0.0065     0.1770     2.3656   -53.3527    10.8645    13.7996
  490.5000     8.0058    55.2784     0.0064     0.1518     2.3761   -53.3411    10.8710    14.0000
  491.0000     8.0054    54.6717     0.0048     0.1500     2.3941   -53.3294    10.8776    14.1061
  491.5000     7.9900    53.7625     0.0003     0.1497     2.4181   -53.3179    10.8096    14.1156
  492.0000     7.9897    53.3071    -0.0043     0.1510     2.4324   -53.4547    10.8162    14.0281
  492.5000     7.9742    55.1517    -0.0074     0.1731     2.4211   -53.5914    10.8227    13.9417
  493.0000     7.9588    56.6404    -0.0089     0.1946     2.3993   -53.8765    10.8293    13.9511
  493.5000     7.9130    56.6309    -0.0060     0.1943     2.3599   -54.3071    10.9106    13.8511
  494.0000     7.8976    56.6294    -0.0030     0.1808     2.3429   -54.4468    10.9172    13.5002
  494.5000     7.8821    56.9305    -0.0001     0.1773     2.3690   -54.5836    10.9238    13.3249
  495.0000     7.8666    57.5744    -0.0001     0.1705     2.3860   -54.5691    11.0060    13.1496
  495.5000     7.8663    60.2205     0.0000     0.1646     2.3979   -54.5574    11.0141    13.2515
  496.0000     7.8820    61.0107     0.0000     0.1573     2.4099   -54.5458    11.0208    13.4439
  496.5000     7.8829    60.8286     0.0001     0.1507     2.4204   -54.5341    11.0274    13.5458
  497.0000     7.8838    59.0406     0.0001     0.1441     2.4288   -54.5223    11.1102    13.7425
  497.5000     7.8847    58.7365     0.0002     0.1567     2.4404   -54.3597    11.1169    13.9422
  498.0000     7.8856    58.7350     0.0003     0.1741     2.4223   -54.3481    11.0458    14.0478
  498.5000     7.8865    59.7925     0.0003     0.1762     2.3975   -54.3365    11.0541    14.1542
  499.0000     7.8559    60.3961     0.0004     0.1700     2.3877   -54.3249    11.0608    14.1638
  499.5000     7.8403    60.0938     0.0005     0.1685     2.3839   -54.4646    10.7674    14.1735
  500.0000     7.8398    59.6389     0.0005     0.1788     2.3946   -54.4874    10.7001    14.0857
  500.5000     7.8394    58.8836     0.0006     0.1838     2.3968   -54.5834    10.7519    14.1948
  501.0000     7.8389    57.9782     0.0007     0.1835     2.3832   -54.5668    10.7881    14.1061
  501.5000     7.8385    57.3731     0.0007     0.1979     2.3636   -54.5472    10.7207    14.0168
  502.0000     7.8380    58.1194     0.0038     0.2039     2.3471   -54.5312    10.7272    13.9325
  502.5000     7.8376    60.3671     0.0053     0.2036     2.3426   -54.5151    10.6586    13.9419
  503.0000     7.8371    61.4136     0.0098     0.1778     2.3441   -54.6515    10.6667    13.9513
  503.5000     7.8367    61.7106     0.0113     0.1736     2.3756   -54.7838    10.5999    13.8651
  504.0000     7.8362    59.7530     0.0008     0.1787     2.4004   -54.9161    10.6065    13.7794
  504.5000     7.8358    59.4482    -0.0023     0.1931     2.3861   -55.1968    10.6130    13.7891
  505.0000     7.8353    59.7440    -0.0053     0.1956     2.3613   -55.3291    10.6244    13.8003
  505.5000     7.8348    60.4902    -0.0053     0.1875     2.3538   -55.3090    10.6993    13.7127
  506.0000     7.8344    60.7871    -0.0053     0.1854     2.3613   -55.4453    10.7073    13.7243
  506.5000     7.8339    60.4812    -0.0053     0.1845     2.3733   -55.4253    10.7138    13.7335
  507.0000     7.8335    60.1764    -0.0068     0.1854     2.3725   -55.4092    10.7203    13.8376
  507.5000     7.8483    60.9226    -0.0068     0.1860     2.3703   -55.3932    10.7268    13.8469
  508.0000     7.8477    63.3205    -0.0083     0.1803     2.3778   -55.5255    10.7333    13.9518
  508.5000     7.8472    65.2680    -0.0098     0.1767     2.3823   -55.5089    10.6647    13.9612
  509.0000     7.8620    66.0142    -0.0113     0.1761     2.3853   -55.4894    10.6728    14.0670
  509.5000     7.8463    66.1610    -0.0128     0.1824     2.3845   -55.4733    10.6792    14.0765
  510.0000     7.8308    65.8550    -0.0173     0.1866     2.3763   -55.4573    10.6857    14.1833
  510.5000     7.8303    65.8505    -0.0173     0.1890     2.3702   -55.4412    10.7660    14.1930
  511.0000     7.8299    65.9962    -0.0113     0.1821     2.3672   -55.5775    10.7725    14.2046
  511.5000     7.8445    66.2931    -0.0067     0.1725     2.3672   -55.5575    10.7791    14.3123
  512.0000     7.8441    65.8370    -0.0067     0.1740     2.3913   -55.5414    10.7117    14.3219
  512.5000     7.8436    64.9316    -0.0066     0.1803     2.3912   -55.6777    10.7185    14.4304
  513.0000     7.8280    62.2244    -0.0065     0.1863     2.3800   -55.8060    10.6529    14.5397
  513.5000     7.8276    60.5682    -0.0064     0.1875     2.3724   -55.9384    10.6583    14.6499
  514.0000     7.8271    60.7139    -0.0063     0.1858     2.3694   -56.0712    10.6659    14.6598
  514.5000     7.8267    60.8606    -0.0062     0.1840     2.3687   -56.0546    10.6723    14.6697
  515.0000     7.8262    59.2033    -0.0061     0.1828     2.3739   -56.1869    10.6788    14.6795
  515.5000     7.8258    57.8475    -0.0060     0.1849     2.3777   -56.3193    10.6105    14.6894
  516.0000     7.8253    58.2934    -0.0059     0.1882     2.3732   -56.3027    10.6186    14.6994
  516.5000     7.8249    63.6943    -0.0058     0.1846     2.3671   -56.2831    10.5506    14.6085
  517.0000     7.8244    64.4406    -0.0057     0.1816     2.3716   -56.4195    10.5587    14.6188
  517.5000     7.8240    65.1868    -0.0056     0.1825     2.3776   -56.3994    10.4925    14.5280
  518.0000     7.8387    64.2814    -0.0055     0.1870     2.3701   -56.3833    10.4272    14.3418
  518.5000     7.8382    61.2739    -0.0055     0.1837     2.3641   -56.3673    10.3588    14.2531
  519.0000     7.8377    60.8201    -0.0054     0.1825     2.3761   -56.3512    10.2273    14.1626
  519.5000     7.8525    62.7664    -0.0053     0.1891     2.3671   -56.4876    10.1629    13.9811
  520.0000     7.8519    64.0541    -0.0053     0.1807     2.3626   -56.4675    10.0994    13.8923
  520.5000     7.8514    66.3002    -0.0068     0.1843     2.3769   -56.4515    10.0363    13.7119
  521.0000     7.8510    66.3576    -0.0068     0.1849     2.3768   -56.4354     9.9736    13.5338
  521.5000     7.8505    65.5736    -0.0068     0.1798     2.3678   -56.4193     9.9113    13.4521
  522.0000     7.8501    66.3105    -0.0053     0.1762     2.3731   -56.4033     9.8494    13.2777
  522.5000     7.8496    67.8729    -0.0038     0.1744     2.3798   -56.5356     9.8569    13.2867
  523.0000     7.8492    67.9912    -0.0023     0.1729     2.3858   -56.5193     9.8629    13.1955
  523.5000     7.8487    67.5360    -0.0008     0.1724     2.3911   -56.5030     9.8689    13.1230
  524.0000     7.8635    68.6348     0.0008     0.1628     2.3941   -56.4834     9.8749    13.1340
  524.5000     7.8629    70.5302     0.0008     0.1631     2.3978   -56.6198     9.8809    13.1429
  525.0000     7.8625    68.4984    -0.0008     0.1637     2.4031   -56.7521     9.8869    13.2424
  525.5000     7.8620    66.6693    -0.0023     0.1643     2.4068   -57.0328     9.8930    13.2514
  526.0000     7.8616    64.4865    -0.0053     0.1760     2.4038   -57.3094     9.8991    13.2603
  526.5000     7.8611    63.7552    -0.0068     0.1871     2.3865   -57.4458     9.8374    13.2693
  527.0000     7.8606    63.3003    -0.0068     0.1919     2.3692   -57.5781     9.8446    13.2782
  527.5000     7.8602    63.1456    -0.0068     0.1865     2.3602   -57.7104     9.8495    13.1961
  528.0000     7.8597    63.1411    -0.0066     0.1814     2.3640   -57.6903     9.7880    13.1146
  528.5000     7.8593    63.1366    -0.0053     0.1805     2.3722   -57.6743     9.7950    13.1234
  529.0000     7.8588    63.6246    -0.0053     0.1778     2.3805   -57.6582     9.7328    13.1324
  529.5000     7.8584    66.1922    -0.0053     0.1727     2.3910   -57.4938     9.7402    13.0511
