~VERSION INFORMATION
 VERS.                2.0:   CWLS LOG ASCII STANDARD - VERSION 2.0
 WRAP.                 NO:   ONE LINE PER DEPTH STEP
~WELL INFORMATION
#MNEM.UNIT      DATA TYPE    INFORMATION
#----------   ------------   ------------------------------
 STRT.F            0.5000:   START DEPTH
 STOP.F          696.0000:   STOP DEPTH
 STEP.F            0.5000:   STEP LENGTH
 NULL.          -999.2500:   NO VALUE
 COMP. LAWRENCE/ALLISON INC:   COMPANY
 WELL. SX 11 WP #26-44-11:   WELL
 FLD .             TEAPOT:   FIELD
 LOC .      S11 T38N R78W:   LOCATION
 CNTY.            NATRONA:   COUNTY
 STAT.            WYOMING:   STATE
 CTRY. UNITED STATES OF AMERICA:   COUNTRY
 SRVC.      Dresser Atlas:   SERVICE COMPANY
 DATE.        08-SEP-1984:   LOGDATE
 API .       490251097600:   API NUMBER
~CURVE INFORMATION
#MNEM.UNIT       API CODE    CURVE DESCRIPTION
#----------   ------------   ------------------------------
 DEPT.F                  :   
 AC  .US/F   60 520 00 00:   ACCOUSTIC
 SPR .MV     07 010 01 00:   SPONTANEOUS POTENTIAL FROM RES.
 RILD.OHMM   07 120 46 00:   RESISTIVITY INDUCTION LOG DEEP
 RILM.OHMM   07 120 44 00:   RESISTIVITY INDUCTION LOG MEDIUM
 RFOC.OHMM   07 220 04 00:   RESISTIVITY FOCUSED LOG
 GRR .GAPI   07 310 01 00:   GAMMA RAY FROM RESISTIVITY
 CALD.IN     45 280 60 00:   CALIPER FROM DENSITY LOG
 DEN .G/C3   45 350 01 00:   COMPENSATED BULK DENSTIY
 CORR.G/C3   45 356 01 00:   DENSITY CORRECTION
 PORD.DEC    45 890 12 00:   POROSITY DENSITY SANDSTONE
 CNC .DEC    42 890 03 00:   NEUTRON POROSITY SANDSTONE
~PARAMETER INFORMATION
#MNEM.UNIT          VALUE    DESCRIPTION
#----------   ------------   ------------------------------
 PD  .                 GL:   PERMANENT DATUM
 EPD .F              5186:   ELEVATION PERMANENT DATUM
 LMF .                 GL:   LOG MEASURED FROM
 DMF .                 GL:   DRILLING MEASURED FROM
 EGL .F              5186:   GROUND LEVEL
 DATE.         8-SEP-1984:   RUN DATE
 RUN .                  1:   RUN NUMBER
 DD  .F               712:   DEPTH DRILLER
 DL  .F               695:   DEPTH LOGGER
 BLI .F               693:   BOTTOM LOG INTERVAL
 CS  .IN            8.625:   CASING SIZE
 CBD .F                40:   CASING BOTTOM DRILLER
 CBL .F                45:   CASING BOTTOM LOGGER
 BS  .IN            7.875:   BIT SIZE
 BSD .F               712:   BIT SIZE AT DEPTH
 DFT .          KCL WATER:   DRILLING FLUID TYPE
 MSS .           FLOWLINE:   MUD SAMPLE SOURCE
 RMS .OHMM            .22:   RESISTIVITY MUD SAMPLE
 MST .F                72:   MUD SAMPLE TEMPERATURE
 RMF .OHMM            .17:   RESISTIVITY MUD FILTRATE SAMPLE
 MFST.F                72:   MUD FILTRATE SAMPLE TEMPERATURE
 RMC .OHMM            .28:   RESISTIVITY MUD CAKE
 MCST.F                72:   MUD CAKE SAMPLE TEMPERATURE
 MFSS.               CALC:   MUD FILTRATE SAMPLE SOURCE
 MCSS.               CALC:   MUD CAKE SAMPLE SOURCE
 RMB .OHMM            .18:   RESISTIVITY MUD AT BHT
 BHT .F                90:   BOTTOM HOLE TEMPERATURE
 TCS .HRS               3:   TIME CURCULATED STOPPED
 MRT .F                90:   MAXIMUM RECORDED TEMPERATURE
 LUN .               6274:   LOGGING UNIT NUMBER
 LUL .               GLTE:   LOGGING UNIT LOCATION
 ENGI.             RAUTIO:   RECORDING ENGINEER
 WITN.           JENNINGS:   WITNESSED BY
 CLNT.            A2DTECH:   CLIENT CODE
 ORIG. 1", 2', 2.5", 5" PRNT:   ORIGIN OF DATA
 UWI .       490251097600:   UNIQUE WELL ID
 DICO. A2D Technologies, Inc.:   DIGITIZING COMPANY
~OTHER INFORMATION
~A    DEPT      AC        SPR       RILD       RILM       RFOC         GRR      CALD        DEN       CORR       PORD        CNC   
# ...
  671.5000    97.2070   -17.7700     4.6850     5.1390     7.8610  -999.2500     7.8010     2.4730     0.0230     0.1240     0.2737
  672.0000    96.6240   -17.3780     5.3490     5.8730     7.8250  -999.2500     7.8090     2.4730     0.0150     0.1250     0.2625
  672.5000    96.0400   -16.9860     6.0120     6.6080     7.7760  -999.2500     7.8170     2.4720     0.0070     0.1250     0.2585
  673.0000    95.4570   -16.5950     6.7290     7.1890     7.7240  -999.2500     7.8250     2.4740     0.0000     0.1230     0.2684
  673.5000    95.4780   -16.2040     7.3920     7.4380     7.9050  -999.2500     7.8240     2.4750     0.0040     0.1220     0.2768
  674.0000    95.7930   -15.8160     7.5110     7.6690     8.1990  -999.2500     7.7900     2.4780     0.0020     0.1170     0.2829
  674.5000    96.1410   -15.5660     7.6290     7.7850     8.4930  -999.2500     7.7720     2.4950    -0.0130     0.1060     0.2862
  675.0000    96.4880   -15.6650     7.7470     7.9020     8.6250  -999.2500     7.7720     2.5140    -0.0220     0.0960     0.2815
  675.5000    96.8360   -15.7560     7.8660     8.0180     8.5180  -999.2500     7.7720     2.5210    -0.0130     0.0930     0.2775
  676.0000    97.1830   -15.8450     7.9560     8.1340     8.4680  -999.2500     7.7740     2.5120    -0.0020     0.1010     0.2977
  676.5000    97.5310   -15.9350     8.0000     8.2500     8.6100  -999.2500     7.7820     2.4990    -0.0060     0.1070     0.2990
  677.0000    97.8970   -16.0260     8.0440     8.3900     8.8550  -999.2500     7.7890     2.4960    -0.0140     0.1110     0.3000
  677.5000    98.2670   -16.1160     8.0880     8.3600     9.1980  -999.2500     7.7920     2.4980    -0.0070     0.1100     0.3151
  678.0000    98.2320   -16.2060     8.0460     8.3090     9.1510  -999.2500     7.7920     2.5010     0.0140     0.1080     0.3246
  678.5000    98.1990   -16.2960     8.0050     8.2580     9.0720  -999.2500     7.7920     2.5040     0.0100     0.1050     0.2848
  679.0000    98.1650   -16.3860     7.9640     8.2070     8.9480  -999.2500     7.7920     2.5080     0.0000     0.1030     0.2813
  679.5000    98.1310   -16.4740     7.9220     8.1560     8.9710  -999.2500     7.7920     2.5110     0.0080     0.1010     0.2794
  680.0000    98.0980   -16.4010     7.8810     8.1060     9.0230  -999.2500     7.7920     2.5110     0.0220     0.1020     0.2806
  680.5000    98.0680   -16.0280     7.8400     8.0550     9.0760  -999.2500     7.7910     2.5100     0.0280     0.1020     0.2815
  681.0000    98.7910   -15.6610     7.7980     8.0040     9.1290  -999.2500     7.7870     2.5100     0.0190     0.1020     0.2811
  681.5000    99.4410   -15.2930     7.7570     7.9530     9.1980  -999.2500     7.7840     2.5130     0.0110     0.1010     0.2832
  682.0000    99.8610   -14.9250     7.7160     7.9020     9.0230  -999.2500     7.7810     2.5160     0.0100     0.1000     0.2856
  682.5000    99.4960   -14.5690     7.6740     7.8510     8.7630  -999.2500     7.7780     2.5160     0.0130     0.1010     0.2843
  683.0000    98.8530   -14.6390     7.6330     7.8000     8.5030  -999.2500     7.7740     2.5090     0.0080     0.1020     0.2772
  683.5000    98.2090   -14.8570     7.5920     7.7240     8.2430  -999.2500     7.7740     2.5020     0.0010     0.1060     0.2725
  684.0000    97.5660   -15.0730     7.5500     7.7600     8.0140  -999.2500     7.7770     2.4940    -0.0080     0.1100     0.2669
  684.5000    97.0720   -15.2890     7.5140     7.8310     8.0140  -999.2500     7.7800     2.4920    -0.0080     0.1130     0.2662
  685.0000    97.1460   -15.5060     7.5800     7.9010     8.1960  -999.2500     7.7840     2.4940    -0.0060     0.1110     0.2652
  685.5000    97.3150   -15.5340     7.6690     7.9720     8.3590  -999.2500     7.7870     2.4980     0.0050     0.1070     0.2516
  686.0000    97.4700   -15.5220     7.7590     8.0420     8.5210  -999.2500     7.7900     2.5020     0.0020     0.1050     0.2442
  686.5000    97.8110   -15.5090     7.8480     8.0880     8.6120  -999.2500     7.7880     2.4970    -0.0150     0.1100     0.2432
  687.0000    98.1270   -15.4950     7.9400     8.0240     8.4700  -999.2500     7.7810     2.4910    -0.0220     0.1120     0.2434
  687.5000    98.4660   -15.4820     7.6890     7.9400     8.3550  -999.2500     7.7740     2.4910    -0.0070     0.1120     0.2434
  688.0000    98.3100   -15.4680     7.3770     7.7602     8.2410  -999.2500     7.7660     2.4950     0.0120     0.1090     0.2439
  688.5000  -999.2500   -15.4540     7.3860     7.7002     8.1270  -999.2500     7.7590     2.5030     0.0310     0.1040     0.2442
  689.0000  -999.2500   -15.4410     7.5479     7.6484     8.0140  -999.2500     7.7520     2.5110     0.0370     0.0990     0.2441
  689.5000  -999.2500   -15.4270     7.5058     7.5654     8.0140  -999.2500     7.7470     2.5120     0.0190     0.1000     0.2441
  690.0000  -999.2500   -15.4130     7.4637     7.5654     8.0140  -999.2500     7.7420     2.5070     0.0020     0.1030     0.2440
  690.5000  -999.2500   -15.4000     7.4216     7.5654     8.0140  -999.2500     7.7370     2.4990    -0.0050     0.1070     0.2439
  691.0000  -999.2500   -15.3860     7.3795     7.5654     8.0130  -999.2500     7.7320     2.4910    -0.0180     0.1110     0.2439
  691.5000  -999.2500   -15.3730     7.3375     7.5654     8.0140  -999.2500     7.7250     2.4860    -0.0290     0.1150     0.2438
  692.0000  -999.2500   -15.3590     7.2082     7.5654     7.9390  -999.2500     7.7160     2.4830    -0.0300     0.1190     0.2438
  692.5000  -999.2500   -15.3470     6.6132     7.5654     7.9450  -999.2500     7.7080     2.4760    -0.0110     0.1230     0.2440
  693.0000  -999.2500   -15.3470     6.0058  -999.2500     7.9350  -999.2500     7.7000     2.4710     0.0100     0.1250     0.2443
  693.5000  -999.2500   -15.3470  -999.2500  -999.2500  -999.2500  -999.2500     7.6910     2.4720     0.0200     0.1240     0.2445
  694.0000  -999.2500   -15.3470  -999.2500  -999.2500  -999.2500  -999.2500     7.6830     2.4790     0.0120     0.1170     0.2447
  694.5000  -999.2500  -999.2500  -999.2500  -999.2500  -999.2500  -999.2500     7.6750     2.4870     0.0040     0.1120     0.2447
  695.0000  -999.2500  -999.2500  -999.2500  -999.2500  -999.2500  -999.2500     7.6800     2.4930    -0.0020     0.1130     0.2446
  695.5000  -999.2500  -999.2500  -999.2500  -999.2500  -999.2500  -999.2500     7.6880     2.4890    -0.0080     0.1140     0.2452
  696.0000  -999.2500  -999.2500  -999.2500  -999.2500  -999.2500  -999.2500     7.6900     2.4860    -0.0152     0.1160     0.2448
