~VERSION INFORMATION
 VERS.                2.0:   CWLS LOG ASCII STANDARD - VERSION 2.0
 WRAP.                 NO:   ONE LINE PER DEPTH STEP
~WELL INFORMATION
#MNEM.UNIT      DATA TYPE    INFORMATION
#----------   ------------   ------------------------------
 STRT.F           64.0000:   START DEPTH
 STOP.F          795.0000:   STOP DEPTH
 STEP.F            0.5000:   STEP LENGTH
 NULL.          -999.2500:   NO VALUE
 COMP. LAWRENCE/ALLISON INC:   COMPANY
 WELL.      23-61 SX #2-2:   WELL
 FLD .             TEAPOT:   FIELD
 LOC .       S2 T38N R78W:   LOCATION
 CNTY.            NATRONA:   COUNTY
 STAT.            WYOMING:   STATE
 CTRY. UNITED STATES OF AMERICA:   COUNTRY
 SRVC.              Welex:   SERVICE COMPANY
 DATE.        14-AUG-1985:   LOGDATE
 API .       490251103800:   API NUMBER
~CURVE INFORMATION
#MNEM.UNIT       API CODE    CURVE DESCRIPTION
#----------   ------------   ------------------------------
 DEPT.F                  :   
 SPR .MV     07 010 01 00:   SPONTANEOUS POTENTIAL
 ILD .OHMM   07 120 46 00:   INDUCTION LOG DEEP
 ILM .OHMM   07 120 44 00:   INDUCTION LOG MEDIUM
 SGRD.OHMM   07 221 05 00:   SHALLOW SHORT GUARD RESISTIVITY
 DPHI.DEC    45 890 12 00:   DENSITY POROSITY SANDSTONE
 NPHI.DEC    42 890 03 00:   NEUTRON POROSITY SANDSTONE
 GRD .GAPI   45 310 01 00:   GAMMA RAY FROM DENSITY LOG
 CALD.IN     45 280 60 00:   CALIPER FROM DENSITY
 CORR.G/C3   45 356 01 00:   DENSITY CORRECTION
 RHOB.G/C3   45 350 01 00:   BULK DENSITY
~PARAMETER INFORMATION
#MNEM.UNIT          VALUE    DESCRIPTION
#----------   ------------   ------------------------------
 PD  .                 GL:   PERMANENT DATUM
 EPD .F              5112:   ELEVATION PERMANENT DATUM
 LMF .                 GL:   LOG MEASURED FROM
 DMF .                 GL:   DRILLING MEASURED FROM
 EGL .F              5112:   GROUND LEVEL
 DATE.        14-AUG-1985:   RUN DATE
 RUN .                  1:   RUN NUMBER
 DD  .F               800:   DEPTH DRILLER
 DL  .F               797:   DEPTH LOGGER
 BLI .F               795:   BOTTOM LOG INTERVAL
 TLI .F                76:   TOP LOG INTERVAL
 CS  .IN            8.625:   CASING SIZE
 CBD .F                76:   CASING BOTTOM DRILLER
 CBL .F                76:   CASING BOTTOM LOGGER
 BS  .IN            7.875:   BIT SIZE
 BSD .F               800:   BIT SIZE AT DEPTH
 DFT .                KCL:   DRILLING FLUID TYPE
 MSS .               TANK:   MUD SAMPLE SOURCE
 RMS .OHMM           0.22:   RESISTIVITY MUD SAMPLE
 MST .F                64:   MUD SAMPLE TEMPERATURE
 MFSS.               MEAS:   MUD FILTRATE SAMPLE SOURCE
 TCS .HRS            2230:   TIME CURCULATED STOPPED
 TLAB.HRS            0200:   TIME LOGGER AT BOTTOM
 LUN .               1892:   LOGGING UNIT NUMBER
 LUL .             CASPER:   LOGGING UNIT LOCATION
 ENGI.         T. QUINLAN:   RECORDING ENGINEER
 WITN.        N. JENNINGS:   WITNESSED BY
 CLNT.            A2DTECH:   CLIENT CODE
 ORIG.        2" 5" PRINT:   ORIGIN OF DATA
 UWI .       490251103800:   UNIQUE WELL ID
 DICO. A2D Technologies, Inc.:   DIGITIZING COMPANY
 R1  . POROSITY WITH SANDSTONE:   REMARKS 1
~OTHER INFORMATION
~A   DEPT      SPR        ILD        ILM       SGRD       DPHI       NPHI         GRD      CALD       CORR       RHOB   
# ...
  432.5000   -48.3331     8.1601     8.0625    10.7845     0.1256     0.2997   105.1632     7.9546     0.0451     2.4693
  433.0000   -46.2389     8.2104     8.0581    10.4804     0.1284     0.2987   109.3270     7.9843     0.0442     2.4662
  433.5000   -45.6395     8.1475     7.9977    10.4004     0.1305     0.2972   112.3002     7.9990     0.0411     2.4563
  434.0000   -45.9370     8.0853     7.9377    10.3933     0.1396     0.2963   113.1909     8.0137     0.0358     2.4471
  434.5000   -46.0854     8.0687     7.8782    10.4606     0.1421     0.2969   109.3181     8.0135     0.0296     2.4417
  435.0000   -45.9492     8.0482     7.7052    10.4516     0.1406     0.2982   105.7438     7.9985     0.0280     2.4447
  435.5000   -45.5845     8.0278     7.4857    10.6654     0.1379     0.2988   103.3599     8.0132     0.0280     2.4514
  436.0000   -45.4828     8.0065     7.3855    11.2699     0.1425     0.2989   102.4641     7.9982     0.0286     2.4506
  436.5000   -46.0792     8.0010     7.4331    10.9522     0.1486     0.2980   102.1635     8.0129     0.0286     2.4323
  437.0000   -46.0727     7.9955     7.4290    10.7179     0.1519     0.2965   102.7558     8.0128     0.0292     2.4232
  437.5000   -45.6278     8.0459     7.6361    10.4157     0.1550     0.2956   104.2410     7.9977     0.0322     2.4186
  438.0000   -46.2640     8.0997     7.8469    10.3362     0.1562     0.2956   105.4286     7.9976     0.0352     2.4147
  438.5000   -46.6985     8.1478     8.0084    10.4014     0.1489     0.2975   105.1101     7.9975     0.0381     2.4263
  439.0000   -46.8192     8.1992     8.0040    10.3941     0.1413     0.3054   102.7440     7.9973     0.0395     2.4418
  439.5000   -46.6679     8.2509     7.8888    10.5434     0.1322     0.3069   101.5506     7.9972     0.0410     2.4622
  440.0000   -47.5633     8.3611     7.8296    10.6738     0.1279     0.3055   103.3327     7.9970     0.0462     2.4682
  440.5000   -49.0566     8.2381     7.8253    10.7411     0.1309     0.3043   105.1155     7.9969     0.0386     2.4582
  441.0000   -49.8025     8.0619     7.8210    10.6573     0.1382     0.3058   105.7086     7.9967     0.0301     2.4498
  441.5000   -52.0432     7.7801     7.7624    10.4293     0.1398     0.3080   102.7287     7.9966     0.0248     2.4467
  442.0000   -52.6396     7.5608     7.5974    10.2777     0.1398     0.3089   101.2384     7.9964     0.0224     2.4467
  442.5000   -53.2360     7.5030     7.5931    10.1992     0.1395     0.3104   104.8062     7.9963     0.0246     2.4451
  443.0000   -53.3844     7.4979     7.5890    10.1213     0.1402     0.3114   106.2913     7.9961     0.0276     2.4435
  443.5000   -53.2331     7.5980     7.5847    10.0441     0.1408     0.3114   107.4796     7.9960     0.0313     2.4495
  444.0000   -53.2316     7.5400     7.5270    10.0371     0.1396     0.3095   106.5831     7.9958     0.0350     2.4524
  444.5000   -52.6322     7.4824     7.3158    10.0302     0.1363     0.3063   105.0920     7.9957     0.0380     2.4554
  445.0000   -52.0328     7.2715     7.1105    10.0233     0.1327     0.3054   103.6010     7.9955     0.0401     2.4591
  445.5000   -50.9850     7.0664     6.9110    10.0164     0.1312     0.3082   102.1100     7.9954     0.0423     2.4583
  446.0000   -50.6846     6.6782     6.7171     9.8708     0.1346     0.3122   101.5118     7.9952     0.0385     2.4491
  446.5000   -52.0284     6.4448     6.5286     9.7274     0.1398     0.3146   101.5089     7.9951     0.0308     2.4346
  447.0000   -52.6347     6.2189     6.3899     9.3874     0.1504     0.3171   103.5893     7.9949     0.0269     2.4208
  447.5000   -53.3956     6.0836     6.2106     8.8007     0.1578     0.3195   105.9822     7.9948     0.0238     2.4085
  448.0000   -54.1563     5.9562     6.1640     7.8507     0.1657     0.3214   107.4843     7.9946     0.0215     2.4002
  448.5000   -54.5636     5.9520     6.1606     7.0546     0.1672     0.3232   108.3424     7.9945     0.0199     2.4007
  449.0000   -54.5617     6.0317     6.2005     6.5574     0.1627     0.3220   108.0411     7.9944     0.0206     2.4221
  449.5000   -54.4108     6.1123     6.3723     8.3655     0.1427     0.3169   106.2524     7.9942     0.0289     2.4455
  450.0000   -53.9116     6.2452     6.5491    10.3791     0.1359     0.3111   103.7135     7.9941     0.0368     2.4561
  450.5000   -53.2138     6.3408     6.7761     9.5395     0.1340     0.3048   101.4916     7.9938     0.0431     2.4545
  451.0000   -53.2138     6.4526     7.0119     9.4014     0.1355     0.3001   101.1962     7.9934     0.0430     2.4506
  451.5000   -53.3632     6.6360     7.1067     9.4613     0.1364     0.2995   103.5809     7.9931     0.0429     2.4513
  452.0000   -53.8117     6.8171     7.2520     9.7231     0.1377     0.3037   106.2625     7.9928     0.0428     2.4505
  452.5000   -53.0643     6.9518     7.2977     9.9225     0.1383     0.3086   109.2416     7.9925     0.0420     2.4474
  453.0000   -51.7190     6.9961     7.2914     9.9163     0.1404     0.3102   110.7327     7.9922     0.0389     2.4450
  453.5000   -50.8221     6.9916     7.3900     9.9798     0.1471     0.3111   110.2648     7.9919     0.0327     2.4412
  454.0000   -51.2706     7.0364     7.3836    10.1135     0.1490     0.3099   107.0119     7.9916     0.0274     2.4313
  454.5000   -52.4664     6.9820     7.2763    10.1072     0.1493     0.3087   104.7430     7.9913     0.0235     2.4297
  455.0000   -53.3632     6.9776     7.2712     9.8229     0.1512     0.3100   103.6011     7.9910     0.0204     2.4266
  455.5000   -53.8117     6.9733     7.1655     9.6134     0.1536     0.3115   104.4970     7.9907     0.0195     2.4227
  456.0000   -53.3632     6.9689     7.0613     9.5406     0.1500     0.3124   105.1230     7.9904     0.0210     2.4242
  456.5000   -52.7653     6.9646     6.9586     9.4674     0.1473     0.3131   106.0128     7.9901     0.0224     2.4324
  457.0000   -52.3169     6.9118     6.8575     9.3965     0.1452     0.3137   106.8869     7.9898     0.0238     2.4362
  457.5000   -52.4664     6.7644     6.6641     9.3254     0.1443     0.3137   106.8899     7.9895     0.0200     2.4384
  458.0000   -53.2138     6.7602     6.5672     9.3196     0.1489     0.3128   105.3966     7.9892     0.0168     2.4300
  458.5000   -53.0585     6.5701     6.4267     9.3136     0.1562     0.3126   102.4315     7.9889     0.0115     2.4200
  459.0000   -51.9940     6.2967     6.2021     9.1694     0.1598     0.3129    99.4584     7.9886     0.0053     2.4116
  459.5000   -52.0319     5.9928     5.9436     9.0983     0.1614     0.3163    99.4334     7.9883     0.0098     2.4085
  460.0000   -53.0842     5.6246     5.7359     8.6083     0.1641     0.3205   102.1429     7.9732     0.0142     2.4054
  460.5000   -53.8636     5.3531     5.4587     7.9119     0.1669     0.3215   104.5268     7.9729     0.0217     2.4016
  461.0000   -55.0075     5.1663     5.3048     7.3741     0.1696     0.3227   106.0179     7.9726     0.0338     2.3977
  461.5000   -55.4559     4.9514     5.1552     6.3208     0.1706     0.3242   106.9138     7.9723     0.0473     2.3931
  462.0000   -55.9043     4.9139     5.1158     5.6891     0.1654     0.3252   106.9168     7.9720     0.0563     2.4044
  462.5000   -55.3064     4.9460     5.1480     5.6460     0.1567     0.3258   105.7293     7.9717     0.0653     2.4172
  463.0000   -53.9611     5.0467     5.3027     7.4072     0.1443     0.3231   103.3513     7.9714     0.0675     2.4384
  463.5000   -52.6158     5.2226     5.6010     8.3348     0.1325     0.3189    99.1877     7.9711     0.0667     2.4550
  464.0000   -52.0179     5.4425     5.9282     9.0571     0.1264     0.3168    97.7026     7.9708     0.0575     2.4655
  464.5000   -50.2242     5.6717     6.2841     9.1163     0.1286     0.3165    98.8960     7.9705     0.0468     2.4677
  465.0000   -48.2810     5.9935     6.5941     9.1092     0.1323     0.3181    99.7919     7.9702     0.0369     2.4563
  465.5000   -46.6368     6.2896     6.7772     9.4927     0.1348     0.3181    99.7949     7.9699     0.0315     2.4524
