~VERSION INFORMATION
 VERS.                2.0:   CWLS LOG ASCII STANDARD - VERSION 2.0
 WRAP.                 NO:   ONE LINE PER DEPTH STEP
~WELL INFORMATION
#MNEM.UNIT      DATA TYPE    INFORMATION
#----------   ------------   ------------------------------
 STRT.F           35.0000:   START DEPTH
 STOP.F          474.0000:   STOP DEPTH
 STEP.F            0.5000:   STEP LENGTH
 NULL.          -999.2500:   NO VALUE
 COMP.    FENIX & SCISSON:   COMPANY
 WELL.        NPR #53-S-3:   WELL
 FLD .             TEAPOT:   FIELD
 LOC .       S3 T38N R78W:   LOCATION
 CNTY.            NATRONA:   COUNTY
 STAT.            WYOMING:   STATE
 CTRY. UNITED STATES OF AMERICA:   COUNTRY
 SRVC.       Schlumberger:   SERVICE COMPANY
 DATE.        21-FEB-1977:   LOGDATE
 API .       490251027800:   API NUMBER
~CURVE INFORMATION
#MNEM.UNIT       API CODE    CURVE DESCRIPTION
#----------   ------------   ------------------------------
 DEPT.F                  :   
 SPR .MV     07 010 01 00:   SPONTANEOUS POTENTIAL
 ILD .OHMM   07 120 46 00:   INDUCTION LOG DEEP
 ILM .OHMM   07 120 44 00:   INDUCTION LOG MEDIUM
 LL8 .OHMM   07 220 08 00:   LATEROLOG-8 RES.
 CALD.IN     45 280 60 00:   CALIPER FROM DENSITY LOG
 CORR.G/C3   45 356 01 00:   DENSITY CORRECTION
 RHOB.G/C3   45 350 01 00:   BULK DENSITY
 DPHI.DEC    45 890 12 00:   DENSITY POROSITY SANDSTONE
 GRD .GAPI   45 310 01 00:   GAMMA RAY FROM DENSITY LOG
~PARAMETER INFORMATION
#MNEM.UNIT          VALUE    DESCRIPTION
#----------   ------------   ------------------------------
 PD  .                 GL:   PERMANENT DATUM
 EPD .F              5163:   ELEVATION PERMANENT DATUM
 LMF .                 GL:   LOG MEASURED FROM
 DMF .                 KB:   DRILLING MEASURED FROM
 EKB .F              5167:   KELLING BUSHING
 EGL .F              5163:   GROUND LEVEL
 DATE.        21-FEB-1977:   RUN DATE
 RUN .                  1:   RUN NUMBER
 DD  .F               480:   DEPTH DRILLER
 DL  .F               475:   DEPTH LOGGER
 BLI .F               474:   BOTTOM LOG INTERVAL
 TLI .F                39:   TOP LOG INTERVAL
 CS  .IN            8.625:   CASING SIZE
 CBD .F                40:   CASING BOTTOM DRILLER
 CBL .F                39:   CASING BOTTOM LOGGER
 BS  .IN            7.875:   BIT SIZE
 BSD .F               480:   BIT SIZE AT DEPTH
 DFT .            KCL MUD:   DRILLING FLUID TYPE
 DFD .                8.6:   DRILLING FLUID DENSITY
 DFV .                 35:   DRILLING FLUID VISCOSITY
 DFPH.                8.0:   DRILLING FLUID PH
 DFL .                6.8:   DRILLING FLUID LOSS
 MSS .           FLOWLINE:   MUD SAMPLE SOURCE
 RMS .OHMM            .41:   RESISTIVITY MUD SAMPLE
 MST .F                70:   MUD SAMPLE TEMPERATURE
 RMF .OHMM            .46:   RESISTIVITY MUD FILTRATE SAMPLE
 MFST.F                70:   MUD FILTRATE SAMPLE TEMPERATURE
 MFSS.               MEAS:   MUD FILTRATE SAMPLE SOURCE
 TCS .HRS               1:   TIME CURCULATED STOPPED
 LUN .               7680:   LOGGING UNIT NUMBER
 LUL .               CSPR:   LOGGING UNIT LOCATION
 ENGI.             TAYLOR:   RECORDING ENGINEER
 WITN.               JAPP:   WITNESSED BY
 CLNT.            A2DTECH:   CLIENT CODE
 ORIG.           5" PRINT:   ORIGIN OF DATA
 UWI .       490251027800:   UNIQUE WELL ID
 DICO. A2D Technologies, Inc.:   DIGITIZING COMPANY
~OTHER INFORMATION
~A   DEPT      SPR        ILD        ILM        LL8       CALD       CORR       RHOB       DPHI         GRD  
# ...
  254.0000   -52.9791     5.2295     5.3468     8.4096     8.3002     0.0453     2.4647     0.1152   105.7155
  254.5000   -52.8067     5.5686     5.8821     8.6532     8.3014     0.0266     2.4519     0.1191   107.2920
  255.0000   -52.7875     5.9708     6.3503     8.6508     8.3026     0.0176     2.4429     0.1239   108.6435
  255.5000   -52.6192     6.4466     6.8086     8.6567     8.3038     0.0206     2.4678     0.1164   109.0955
  256.0000   -52.6001     6.9122     7.1499     8.4836     8.3050     0.0281     2.4783     0.1100   109.5475
  256.5000   -52.5809     7.1595     7.4566     8.4286     8.3061     0.0424     2.4942     0.1021   109.1000
  257.0000   -52.4126     7.2632     7.7228     8.9141     8.3073     0.0447     2.4805     0.1006   108.2027
  257.5000   -52.3935     7.2671     7.8341     9.4262     8.3085     0.0342     2.4844     0.1054   106.6307
  258.0000   -52.3743     7.3216     8.0023     9.7632     8.3097     0.0162     2.4777     0.1029   103.4845
  258.5000   -52.3552     7.3257     8.0061     9.9045     8.3109     0.0253     2.4814     0.1005   104.6112
  259.0000   -52.3361     7.3297     8.0655     9.9787     8.3121     0.0171     2.4732     0.1041   105.7378
  259.5000   -52.3170     7.2830     8.0694     9.9841     8.3133     0.0088     2.4807     0.1020   106.1898
  260.0000   -52.2979     7.2880     8.0732     9.9208     8.3145     0.0171     2.4875     0.0987   106.4164
  260.5000   -52.4284     7.2919     8.0771     9.8564     8.3156     0.0254     2.4913     0.0956   105.5196
  261.0000   -52.4089     7.2959     8.0252     9.7264     8.3168     0.0201     2.4785     0.1041   104.3969
  261.5000   -52.3896     7.2486     8.0290     9.4673     8.3180     0.0142     2.4966     0.0962   106.6485
  262.0000   -52.3701     7.2535     7.9775     9.5384     8.3192     0.0296     2.5056     0.0871   110.6987
  262.5000   -52.3515     7.2064     7.9815     9.7437     8.3204     0.0405     2.4898     0.0916   111.6005
  263.0000   -52.4817     7.2113     7.9861     9.8166     8.3216     0.0226     2.4966     0.0895   112.5023
  263.5000   -52.4578     7.2153     7.9899     9.6849     8.3228     0.0338     2.5042     0.0967   113.1792
  264.0000   -52.4387     7.2192     7.9937     9.2303     8.3240     0.0181     2.4823     0.1009   112.2637
  264.5000   -52.4196     7.1732     7.9975     9.1126     8.3252     0.0347     2.4989     0.0924   107.9970
  265.0000   -52.4004     7.1276     8.0013     9.1810     8.3263     0.0212     2.4846     0.0976   108.5758
  265.5000   -52.3813     7.1316     8.0051     9.3150     8.3275     0.0114     2.4854     0.1027   113.2497
  266.0000   -52.3622     7.0850     8.0090     9.5155     8.3287     0.0347     2.5005     0.0903   114.5787
  266.5000   -52.3431     6.9885     8.0128     9.5867     8.3302     0.0460     2.5178     0.0824   114.9922
  267.0000   -52.3240     6.9411     7.9064     9.5259     8.3314     0.0183     2.4793     0.0970   114.9944
  267.5000   -52.3049     6.7632     7.8547     9.2711     8.3173     0.0093     2.4749     0.1077   114.5469
  268.0000   -52.2857     6.5822     7.6979     9.0845     8.3337     0.0146     2.4729     0.1098   113.4247
  268.5000   -52.4159     6.4051     7.3884     9.5415     8.3349     0.0139     2.4461     0.1172   110.7282
  269.0000   -52.3968     6.2336     6.9938     9.8826     8.3361     0.0109     2.4554     0.1206   110.7305
  269.5000   -52.5269     6.1513     6.6660     9.0379     8.3371     0.0147     2.4456     0.1197   111.1825
  270.0000   -52.5075     6.1122     6.4874     6.5338     8.3385     0.0057     2.4343     0.1266   112.0843
  270.5000   -52.6379     6.0734     6.4906     5.8519     8.3397     0.0087     2.4291     0.1317   113.8856
  271.0000   -52.6188     6.0356     6.5928     7.9382     8.3409     0.0208     2.4261     0.1350   115.4615
  271.5000   -52.7489     5.9551     6.6798     8.3364     8.3420     0.0231     2.4231     0.1365   112.7650
  272.0000   -52.7250     5.9172     6.7762     8.0576     8.3432     0.0170     2.4495     0.1265   112.9927
  272.5000   -52.7059     5.7995     6.7794     8.1179     8.3444     0.0141     2.4668     0.1132   111.6456
  273.0000   -52.6868     5.6835     6.6886     8.7642     8.3456     0.0164     2.4743     0.1075   108.9492
  273.5000   -52.8217     5.5314     6.5099     8.8299     8.3468     0.0194     2.4766     0.1041   108.0513
  274.0000   -52.7978     5.3079     6.2050     8.5228     8.3480     0.0270     2.4744     0.1123   111.6523
  274.5000   -52.7787     5.1280     5.7133     7.1881     8.3492     0.0210     2.4435     0.1243   116.1523
  275.0000   -52.7596     5.0289     5.0466     5.1902     8.3503     0.0120     2.4157     0.1388   115.9296
  275.5000   -52.7405     5.1379     4.9447     4.6198     8.3515     0.0098     2.3946     0.1556   111.8839
  276.0000   -52.5721     5.3216     5.3390     6.9039     8.3377     0.0188     2.3833     0.1607   108.0630
  276.5000   -52.1052     5.5120     5.8443     8.5590     8.3240     0.0069     2.3856     0.1619   107.3778
  277.0000   -51.9369     5.7887     6.2660     8.8649     8.3252    -0.0036     2.4123     0.1384   108.2924
  277.5000   -51.3207     6.1215     6.5348     8.8074     8.3115     0.0144     2.4607     0.1137   108.5195
  278.0000   -51.0030     6.4735     6.8176     8.6912     8.3126     0.0250     2.4884     0.0994   107.1365
  278.5000   -50.8343     6.7985     7.1074     8.6360     8.2988     0.0205     2.4822     0.1028   106.2751
  279.0000   -50.8149     6.9449     7.3179     8.6419     8.3000     0.0153     2.4738     0.1078   105.0390
  279.5000   -50.9458     7.0455     7.5200     8.7067     8.3012     0.0123     2.4836     0.1063   101.4835
  280.0000   -50.9219     7.0007     7.6814     8.7114     8.3176     0.0116     2.4881     0.1075   100.8844
  280.5000   -51.2060     6.7663     7.6851     8.8376     8.3035     0.0153     2.4700     0.1108   101.3370
  281.0000   -51.4806     6.3613     7.6357     8.9037     8.3048     0.0056     2.4640     0.1141   101.7890
  281.5000   -51.9093     5.8576     7.0794     8.9704     8.3062     0.0011     2.4799     0.1077   102.6908
  282.0000   -52.0394     5.3527     5.9166     9.2270     8.3074     0.0162     2.4859     0.1107   104.4921
  282.5000   -52.4681     5.1020     5.4101     6.5789     8.3086     0.0222     2.4490     0.1194   109.6668
  283.0000   -52.4490     4.9978     5.0859     4.2579     8.3096     0.0146     2.4438     0.1206   113.2672
  283.5000   -52.4298     4.9721     4.9832     4.4511     8.3109     0.0196     2.4174     0.1330   116.8676
  284.0000   -52.4107     5.0448     5.1261     6.9600     8.3121     0.0253     2.3941     0.1514   120.0177
  284.5000   -52.2424     5.1892     5.3831     8.2262     8.3133     0.0178     2.3926     0.1550   113.4988
  285.0000   -51.7755     5.3748     5.6922     7.0205     8.3145     0.0066     2.4107     0.1456   110.5775
  285.5000   -51.0101     5.6447     5.9776     8.3510     8.3157     0.0149     2.4401     0.1229   107.8810
  286.0000   -50.3940     5.9692     6.3208     8.9537     8.3169     0.0217     2.4619     0.1160   106.0842
  286.5000   -49.4722     6.3563     6.7814     9.1464     8.3028     0.0112     2.4717     0.1105   105.8609
  287.0000   -49.0119     6.7684     7.2321     9.1514     8.3043     0.0075     2.4740     0.1081   105.6383
  287.5000   -49.1426     7.1575     7.6481     9.2199     8.3055     0.0030     2.4679     0.1108   104.7415
  288.0000   -49.4172     7.4650     8.0694     9.4837     8.3067     0.0083     2.4691     0.1117   103.3944
  288.5000   -49.9951     7.6787     8.2998     9.7550     8.3078     0.0038     2.4751     0.1079   100.4731
  289.0000   -50.4237     7.7900     8.4195     9.9649     8.3090     0.0023     2.4786     0.1044    98.0016
  289.5000   -50.4046     7.8484     8.3068    10.0395     8.2952     0.0121     2.4831     0.0983    96.6544
  290.0000   -50.5395     7.8527     8.1975    10.1147     8.2964     0.0182     2.5117     0.0808    97.5563
