~VERSION INFORMATION
 VERS.                2.0:   CWLS LOG ASCII STANDARD - VERSION 2.0
 WRAP.                 NO:   ONE LINE PER DEPTH STEP
~WELL INFORMATION
#MNEM.UNIT      DATA TYPE    INFORMATION
#----------   ------------   ------------------------------
 STRT.F           88.0000:   START DEPTH
 STOP.F          893.0000:   STOP DEPTH
 STEP.F            0.5000:   STEP LENGTH
 NULL.          -999.2500:   NO VALUE
 COMP.          U.S. NAVY:   COMPANY
 WELL. RES 3 TEAPOT DOM #24S-35:   WELL
 FLD .        TEAPOT DOME:   FIELD
 LOC .      S35 T39N R78W:   LOCATION
 CNTY.            NATRONA:   COUNTY
 STAT.            WYOMING:   STATE
 CTRY. UNITED STATES OF AMERICA:   COUNTRY
 SRVC.       Schlumberger:   SERVICE COMPANY
 DATE.        26-JUL-1963:   LOGDATE
 API .       490250654800:   API NUMBER
~CURVE INFORMATION
#MNEM.UNIT       API CODE    CURVE DESCRIPTION
#----------   ------------   ------------------------------
 DEPT.F                  :   
 CALS.IN     60 280 50 00:   CALIPER FROM SONIC LOG
 DT  .US/F   60 520 00 00:   INTERVAL TRANSIT TIME
 GR  .GAPI   30 310 01 00:   GAMMA RAY
 ASN .OHMM   05 041 16 00:   AMPLIFIED SHORT NORMAL 16"
 CILD.MMHO   05 110 46 00:   CONDUCTIVITY INDUCTION LOG DEEP
 ILD .OHMM   05 120 46 00:   INDUCTION LOG DEEP
 SPR .MV     05 010 01 00:   SPONTANEOUS POTENTIAL FROM RES.
~PARAMETER INFORMATION
#MNEM.UNIT          VALUE    DESCRIPTION
#----------   ------------   ------------------------------
 PD  .                 GL:   PERMANENT DATUM
 EPD .F              5116:   ELEVATION PERMANENT DATUM
 LMF .                 KB:   LOG MEASURED FROM
 DAPD.F                 5:   FEET ABOVE PERMANENT DATUM
 DMF .                 KB:   DRILLING MEASURED FROM
 EKB .F              5121:   KELLING BUSHING
 EGL .F              5116:   GROUND LEVEL
 DATE.        26-JUL-1963:   RUN DATE
 RUN .                  1:   RUN NUMBER
 DD  .F               900:   DEPTH DRILLER
 DL  .F               894:   DEPTH LOGGER
 BLI .F               893:   BOTTOM LOG INTERVAL
 TLI .F                88:   TOP LOG INTERVAL
 CBD .F                10:   CASING BOTTOM DRILLER
 BS  .IN             6.75:   BIT SIZE
 BSD .F               900:   BIT SIZE AT DEPTH
 DFT .            GEL-OIL:   DRILLING FLUID TYPE
 DFD .                9.5:   DRILLING FLUID DENSITY
 DFV .                 92:   DRILLING FLUID VISCOSITY
 DFPH.                9.5:   DRILLING FLUID PH
 DFL .                5.8:   DRILLING FLUID LOSS
 MSS .           FLOWLINE:   MUD SAMPLE SOURCE
 RMS .OHMM           4.05:   RESISTIVITY MUD SAMPLE
 MST .F                75:   MUD SAMPLE TEMPERATURE
 RMF .OHMM           3.91:   RESISTIVITY MUD FILTRATE SAMPLE
 MFST.F                75:   MUD FILTRATE SAMPLE TEMPERATURE
 RMC .OHMM           3.54:   RESISTIVITY MUD CAKE
 MCST.F                75:   MUD CAKE SAMPLE TEMPERATURE
 MFSS.               MEAS:   MUD FILTRATE SAMPLE SOURCE
 MCSS.               MEAS:   MUD CAKE SAMPLE SOURCE
 TCS .HRS             0.5:   TIME CURCULATED STOPPED
 LUN .               4507:   LOGGING UNIT NUMBER
 LUL .               CSPR:   LOGGING UNIT LOCATION
 ENGI.             KNOBEL:   RECORDING ENGINEER
 WITN.          JORGENSON:   WITNESSED BY
 CLNT.            A2DTECH:   CLIENT CODE
 ORIG.           5" PRINT:   ORIGIN OF DATA
 UWI .       490250654800:   UNIQUE WELL ID
 DICO. A2D Technologies, Inc.:   DIGITIZING COMPANY
~OTHER INFORMATION
~A   DEPT     CALS         DT         GR          ASN      CILD         ILD      SPR   
   88.0000  -999.2500  -999.2500  -999.2500     0.1262   108.5378     1.4321   -30.0624
   88.5000  -999.2500  -999.2500  -999.2500     0.1378   108.6340     1.4113   -30.1821
   89.0000  -999.2500  -999.2500  -999.2500     0.8321   143.5655     1.7113   -30.2172
   89.5000  -999.2500  -999.2500  -999.2500     1.8154   215.6372     2.0113   -30.0705
   90.0000  -999.2500  -999.2500  -999.2500     2.0575   217.1476     2.3113   -29.6233
   90.5000  -999.2500  -999.2500  -999.2500     2.3752   214.8625     2.7618   -29.3259
   91.0000  -999.2500  -999.2500  -999.2500     2.8593   214.0966     3.2128   -29.0284
   91.5000  -999.2500  -999.2500  -999.2500     3.7519   213.3308     3.6639   -29.3354
   92.0000  -999.2500  -999.2500  -999.2500     4.4478   209.5282     4.1144   -29.6413
   92.5000  -999.2500  -999.2500  -999.2500     5.2950   204.9687     4.4144   -29.7964
   93.0000  -999.2500  -999.2500  -999.2500     5.8094   198.8918     4.7144   -29.9525
   93.5000  -999.2500  -999.2500  -999.2500     6.0514   194.3323     5.0143   -29.9764
   94.0000  -999.2500  -999.2500  -999.2500     6.1725   189.5801     5.3138   -30.1116
   94.5000  -999.2500  -999.2500  -999.2500     6.2935   185.9703     5.4627   -30.1161
   95.0000  -999.2500  -999.2500  -999.2500     6.3540   183.3965     5.6407   -30.1214
   95.5000  -999.2500  -999.2500  -999.2500     6.4297   181.3859     5.8379   -29.9748
   96.0000  -999.2500  -999.2500  -999.2500     6.4750   179.8773     5.9850   -29.8282
   96.5000  -999.2500  -999.2500  -999.2500     6.5961   179.1115     6.1334   -29.6817
   97.0000  -999.2500  -999.2500  -999.2500     6.7322   179.1043     6.2369   -29.4651
   97.5000  -999.2500  -999.2500  -999.2500     6.9138   179.8559     6.3558   -29.1880
   98.0000  -999.2500  -999.2500  -999.2500     7.2315   179.8470     6.4286   -28.9412
   98.5000  -999.2500  -999.2500  -999.2500     6.6717   178.3224     6.5020   -28.7947
   99.0000  -999.2500  -999.2500  -999.2500     6.8079   177.5566     6.5760   -28.8000
   99.5000  -999.2500  -999.2500  -999.2500     7.0802   177.5493     6.6488   -28.6534
  100.0000  -999.2500  -999.2500  -999.2500     6.9894   179.0580     6.7978   -28.5068
  100.5000  -999.2500  -999.2500  -999.2500     6.5809   179.8114     6.7196   -28.6629
  101.0000  -999.2500  -999.2500  -999.2500     6.6717   176.7676     6.6419   -28.8180
  101.5000  -999.2500  -999.2500  -999.2500     6.8381   173.5685     6.5564   -28.8220
  102.0000  -999.2500  -999.2500  -999.2500     6.9900   169.9230     6.3350   -28.9774
  102.5000  -999.2500  -999.2500  -999.2500     7.2466   169.1571     6.0308   -28.9826
  103.0000  -999.2500  -999.2500  -999.2500     7.5038   169.1500     6.0286   -28.9868
  103.5000  -999.2500  -999.2500  -999.2500     7.7458   169.9016     6.1776   -28.9911
  104.0000  -999.2500  -999.2500  -999.2500     7.6184   171.4119     6.1749   -28.8379
  104.5000  -999.2500  -999.2500  -999.2500     6.8986   172.9222     6.1728   -28.5481
  105.0000  -999.2500  -999.2500  -999.2500     7.4735   175.1895     6.1706   -28.5018
  105.5000  -999.2500  -999.2500  -999.2500     7.2315   185.0440     6.0169   -28.3353
  106.0000  -999.2500  -999.2500  -999.2500     6.7147   192.6241     5.8637   -28.2443
  106.5000  -999.2500  -999.2500  -999.2500     6.3540   201.7217     5.8616   -27.9618
  107.0000  -999.2500  -999.2500  -999.2500     6.1725   209.3018     5.9350   -27.8163
  107.5000  -999.2500  -999.2500  -999.2500     6.1120   207.7755     5.9323   -27.8205
  108.0000  -999.2500  -999.2500  -999.2500     6.0666   203.2160     6.0057   -27.6742
  108.5000  -999.2500  -999.2500  -999.2500     6.0363   197.1391     6.0791   -27.6792
  109.0000  -999.2500  -999.2500  -999.2500     6.0514   188.5305     6.2281   -27.6835
  109.5000  -999.2500  -999.2500  -999.2500     6.1725   177.3962     6.5275   -27.6878
  110.0000  -999.2500  -999.2500  -999.2500     6.4690   166.7669     6.8275   -27.8438
  110.5000  -999.2500  -999.2500  -999.2500     7.2315   159.1725     7.0525   -27.8481
  111.0000  -999.2500  -999.2500  -999.2500     7.7761   153.0956     7.2764   -28.0032
  111.5000  -999.2500  -999.2500  -999.2500     7.8669   148.5343     7.5003   -28.0075
  112.0000  -999.2500  -999.2500  -999.2500     7.1044   144.7335     7.6498   -28.0121
  112.5000  -999.2500  -999.2500  -999.2500     7.2315   143.2090     7.6471   -28.1678
  113.0000  -999.2500  -999.2500  -999.2500     8.0635   143.2018     7.4935   -28.3228
  113.5000  -999.2500  -999.2500  -999.2500     8.5023   145.4691     7.3402   -28.4781
  114.0000  -999.2500  -999.2500  -999.2500     7.9326   148.4969     7.1115   -28.6335
  114.5000  -999.2500  -999.2500  -999.2500     7.6248   150.0090     7.0339   -28.6383
  115.0000  -999.2500  -999.2500  -999.2500     7.8366   152.3015     6.7296   -28.6425
  115.5000  -999.2500  -999.2500  -999.2500     7.9576   155.3022     6.5004   -28.6471
  116.0000  -999.2500  -999.2500  -999.2500     7.8205   159.0887     6.3472   -28.5008
  116.5000  -999.2500  -999.2500  -999.2500     7.3374   162.1165     6.1940   -28.3547
  117.0000  -999.2500  -999.2500  -999.2500     7.2012   164.3855     6.1163   -28.2551
  117.5000  -999.2500  -999.2500  -999.2500     7.0802   166.6546     6.1137   -28.0493
  118.0000  -999.2500  -999.2500  -999.2500     6.9555   169.6824     6.1116   -27.9149
  118.5000  -999.2500  -999.2500  -999.2500     6.8684   173.4671     6.1094   -27.7694
  119.0000  -999.2500  -999.2500  -999.2500     6.7927   177.3849     6.1073   -27.7738
  119.5000  -999.2500  -999.2500  -999.2500     6.7322   181.7970     6.1046   -27.7789
  120.0000  -999.2500  -999.2500  -999.2500     6.6546   182.5504     6.1025   -27.6313
  120.5000  -999.2500  -999.2500  -999.2500     6.6263   182.5415     6.1004   -27.6365
  121.0000  -999.2500  -999.2500  -999.2500     6.6112   180.2580     6.1823   -27.6419
  121.5000  -999.2500  -999.2500  -999.2500     6.6263   178.7318     6.2610   -27.6461
  122.0000  -999.2500  -999.2500  -999.2500     6.6263   177.2072     6.3961   -27.6504
  122.5000  -999.2500  -999.2500  -999.2500     6.6566   175.6826     6.3934   -27.8054
  123.0000  -999.2500  -999.2500  -999.2500     6.7171   174.0516     6.4668   -27.8107
  123.5000  -999.2500  -999.2500  -999.2500     6.7776   170.3555     6.5397   -27.8150
  124.0000  -999.2500  -999.2500  -999.2500     6.9138   169.5897     6.5801   -27.8192
  124.5000  -999.2500  -999.2500  -999.2500     7.1104   168.0651     6.6866   -27.8235
  125.0000  -999.2500  -999.2500  -999.2500     7.1407   166.4138     6.7599   -27.8281
  125.5000  -999.2500  -999.2500  -999.2500     7.0499   163.4967     6.8328   -27.8330
  126.0000  -999.2500  -999.2500  -999.2500     6.8835   161.9721     6.8306   -27.8372
  126.5000  -999.2500  -999.2500  -999.2500     7.0499   160.4475     6.9041   -27.8416
  127.0000  -999.2500  -999.2500  -999.2500     7.3979   158.9212     6.9774   -27.8468
  127.5000  -999.2500  -999.2500  -999.2500     7.5189   158.1553     7.1258   -27.8510
  128.0000  -999.2500  -999.2500  -999.2500     7.6248   157.3895     7.1237   -27.6340
  128.5000  -999.2500  -999.2500  -999.2500     7.6853   157.3823     7.2727   -27.5430
  129.0000  -999.2500  -999.2500  -999.2500     7.7005   158.1321     7.1189   -27.4116
  129.5000  -999.2500  -999.2500  -999.2500     7.5038   158.8855     6.9657   -27.2655
  130.0000  -999.2500  -999.2500  -999.2500     7.0348   160.3941     6.8125   -27.1192
  130.5000  -999.2500  -999.2500  -999.2500     6.8079   161.9044     6.6594   -26.9729
  131.0000  -999.2500  -999.2500  -999.2500     6.7020   167.2065     6.3546   -26.9779
  131.5000  -999.2500  -999.2500  -999.2500     6.5961   170.2361     6.2014   -27.1329
  132.0000  -999.2500  -999.2500  -999.2500     6.4145   172.5052     6.0483   -27.2881
  132.5000  -999.2500  -999.2500  -999.2500     6.4902   174.0137     5.8937   -27.2926
  133.0000  -999.2500  -999.2500  -999.2500     6.5961   175.5240     5.7413   -27.2979
