~VERSION INFORMATION
 VERS.                2.0:   CWLS LOG ASCII STANDARD - VERSION 2.0
 WRAP.                 NO:   ONE LINE PER DEPTH STEP
~WELL INFORMATION
#MNEM.UNIT      DATA TYPE    INFORMATION
#----------   ------------   ------------------------------
 STRT.F            4.0000:   START DEPTH
 STOP.F          564.0000:   STOP DEPTH
 STEP.F            0.1000:   STEP LENGTH
 NULL.          -999.2500:   NO VALUE
 COMP.       F D SERV INC:   COMPANY
 WELL. NAVAL PETROLEUM RESERVE 3 SX-3 #88-4-3:   WELL
 FLD .             TEAPOT:   FIELD
 LOC .       S3 T38N R78W:   LOCATION
 CNTY.            NATRONA:   COUNTY
 STAT.            WYOMING:   STATE
 CTRY. UNITED STATES OF AMERICA:   COUNTRY
 SRVC.      Western Atlas:   SERVICE COMPANY
 DATE.        15-OCT-1992:   LOGDATE
 API .       490252255000:   API NUMBER
~CURVE INFORMATION
#MNEM.UNIT       API CODE    CURVE DESCRIPTION
#----------   ------------   ------------------------------
 DEPT.F                  :   
 GRR .GAPI   07 310 01 00:   GAMMA RAY
 RILD.OHMM   07 120 46 00:   INDUCTION LOG DEEP RESISTIVITY
 RILM.OHMM   07 120 44 00:   INDUCTION LOG MEDIUM RESISTIVITY
~PARAMETER INFORMATION
#MNEM.UNIT          VALUE    DESCRIPTION
#----------   ------------   ------------------------------
 PD  .                 GL:   PERMANENT DATUM
 EPD .F              5129:   ELEVATION PERMANENT DATUM
 LMF .                 KB:   LOG MEASURED FROM
 DAPD.F                10:   FEET ABOVE PERMANENT DATUM
 DMF .                 KB:   DRILLING MEASURED FROM
 EKB .F              5139:   KELLING BUSHING
 EGL .F              5129:   GROUND LEVEL
 DATE.        15-OCT-1992:   RUN DATE
 RUN .                  1:   RUN NUMBER
 DD  .F               570:   DEPTH DRILLER
 DL  .F               570:   DEPTH LOGGER
 BLI .F               564:   BOTTOM LOG INTERVAL
 TLI .F               564:   TOP LOG INTERVAL
 CS  .IN            8.625:   CASING SIZE
 CBL .F                94:   CASING BOTTOM LOGGER
 BS  .IN            7.875:   BIT SIZE
 BSD .F               570:   BIT SIZE AT DEPTH
 DFT .           AIR FOAM:   DRILLING FLUID TYPE
 TCS .HRS               4:   TIME CURCULATED STOPPED
 MRT .F                72:   MAXIMUM RECORDED TEMPERATURE
 LUN .            HL-6345:   LOGGING UNIT NUMBER
 LUL .          FT.MORGAN:   LOGGING UNIT LOCATION
 ENGI.             BURLEY:   RECORDING ENGINEER
 WITN.        DARY STRONG:   WITNESSED BY
 CLNT.            A2DTECH:   CLIENT CODE
 ORIG.           5" PRINT:   ORIGIN OF DATA
 UWI .       490252255000:   UNIQUE WELL ID
 DICO. A2D Technologies, Inc.:   DIGITIZING COMPANY
~OTHER INFORMATION
~A    DEPT      GRR      RILD       RILM   
# ...
  368.0000    90.9072    17.0710    16.9322
  368.1000    91.4546    16.9720    16.9317
  368.2000    91.9118    16.8736    16.9312
  368.3000    92.2368    16.8058    16.8610
  368.4000    92.4889    16.7960    16.7623
  368.5000    92.6647    16.6892    16.6642
  368.6000    92.6408    16.6896    16.5765
  368.7000    92.3677    16.6901    16.5760
  368.8000    92.1440    16.6905    16.5756
  368.9000    91.7207    16.6620    16.5077
  369.0000    91.3464    16.5653    16.4587
  369.1000    90.9504    16.4591    16.4583
  369.2000    90.1550    16.4595    16.4578
  369.3000    88.7695    16.4600    16.4573
  369.4000    87.2105    16.4604    16.3715
  369.5000    85.9779    16.4332    16.2758
  369.6000    85.1007    16.3461    16.2265
  369.7000    84.5660    16.3466    16.1991
  369.8000    84.5887    16.3470    16.1121
  369.9000    84.8706    16.3475    16.1116
  370.0000    85.0927    16.3479    16.1112
  370.1000    85.3448    16.3484    16.1107
  370.2000    85.5968    16.3489    16.1103
  370.3000    85.9178    16.3494    16.1098
  370.4000    86.4016    16.3498    16.1094
  370.5000    86.6859    16.3502    16.1089
  370.6000    86.6875    16.3507    16.1085
  370.7000    87.0246    16.3512    16.1080
  370.8000    87.4097    16.3516    16.1076
  370.9000    87.5952    16.3521    16.1071
  371.0000    87.5970    16.3525    16.1067
  371.1000    87.5991    16.3530    16.1061
  371.2000    87.6006    16.3535    16.1058
  371.3000    87.6024    16.3539    16.1053
  371.4000    87.6042    16.3544    16.1049
  371.5000    87.6060    16.3549    16.1044
  371.6000    87.6078    16.3553    16.1040
  371.7000    87.6099    16.3558    16.1034
  371.8000    87.6114    16.3562    16.1030
  371.9000    87.6132    16.3567    16.1026
  372.0000    87.6150    16.3571    16.1021
  372.1000    87.6168    16.3577    16.1017
  372.2000    87.6187    16.3581    16.1012
  372.3000    87.6207    16.3585    16.1007
  372.4000    87.6223    16.3590    16.1003
  372.5000    87.3033    16.3594    16.0999
  372.6000    86.9145    16.3599    16.0994
  372.7000    86.7254    16.3604    16.0990
  372.8000    86.7183    16.3608    16.0985
  372.9000    86.4286    16.3008    16.0980
  373.0000    86.0130    16.2472    16.0976
  373.1000    85.6724    16.2258    16.0972
  373.2000    85.4240    16.1316    16.0565
  373.3000    85.1186    16.0219    15.9837
  373.4000    84.6264    16.0223    15.9808
  373.5000    84.3342    15.9644    15.8709
  373.6000    84.1295    15.9110    15.7944
  373.7000    84.0367    15.9115    15.7590
  373.8000    84.0385    15.9119    15.7201
  373.9000    84.1494    15.9124    15.6479
  374.0000    84.6517    15.8371    15.6475
  374.1000    85.2472    15.8019    15.6470
  374.2000    85.6562    15.7642    15.6466
  374.3000    86.3116    15.6728    15.5904
  374.4000    86.9614    15.5818    15.5363
  374.5000    87.4637    15.4741    15.5170
  374.6000    87.9675    15.4745    15.4262
  374.7000    88.8671    15.4749    15.3183
  374.8000    89.2712    15.4389    15.2462
  374.9000    89.7733    15.3674    15.2104
  375.0000    90.1754    15.3679    15.1745
  375.1000    90.3774    15.2788    15.0857
  375.2000    90.0788    15.1902    14.9970
  375.3000    90.0806    15.1547    14.9096
  375.4000    90.0824    15.1203    14.8224
  375.5000    89.7874    15.0494    14.7867
  375.6000    89.4845    15.0499    14.7527
  375.7000    89.4390    15.0503    14.6824
  375.8000    89.1874    15.0507    14.6820
  375.9000    89.1892    14.9997    14.6816
  376.0000    89.1910    14.9462    14.6812
  376.1000    89.1928    14.9466    14.6808
  376.2000    89.1946    14.9471    14.6804
  376.3000    89.2863    14.9475    14.6800
  376.4000    89.7997    14.8801    14.6795
  376.5000    90.2908    14.7938    14.6791
  376.6000    90.5989    14.7402    14.6787
  376.7000    90.9945    14.7406    14.6783
  376.8000    91.4037    14.7410    14.6461
  376.9000    91.6982    14.6580    14.5604
  377.0000    92.2166    14.6386    14.4724
  377.1000    92.4605    14.6390    14.4720
  377.2000    92.7126    14.6394    14.4071
  377.3000    93.1057    14.6259    14.3700
  377.4000    93.4268    14.5378    14.3696
  377.5000    93.3884    14.5382    14.3692
  377.6000    93.1297    14.5386    14.3688
  377.7000    92.8916    14.4918    14.2882
  377.8000    92.6432    14.4077    14.2675
  377.9000    92.1173    14.3369    14.2671
  378.0000    91.3685    14.3374    14.2667
  378.1000    90.6949    14.2582    14.2538
  378.2000    90.4338    14.2378    14.1661
  378.3000    90.1981    14.2382    14.0875
  378.4000    89.7628    14.2386    14.0662
  378.5000    89.5368    14.2270    14.0212
  378.6000    89.6245    14.1397    13.9670
  378.7000    89.9472    14.1401    13.9666
  378.8000    90.7454    14.0795    13.9662
  378.9000    91.2171    14.0419    13.9658
  379.0000    91.7193    14.0147    13.9055
  379.1000    92.3555    13.9443    13.8673
  379.2000    93.0246    13.9448    13.8670
  379.3000    93.5268    13.9451    13.8666
  379.4000    94.0645    13.9455    13.8662
  379.5000    94.9964    13.9459    13.7908
  379.6000    95.6350    13.9463    13.7684
  379.7000    96.0058    13.9467    13.7680
  379.8000    96.2579    13.9471    13.7676
  379.9000    96.4792    13.9475    13.7672
  380.0000    96.1806    13.9479    13.7668
  380.1000    96.1823    13.9483    13.7665
  380.2000    96.0044    13.9487    13.7661
  380.3000    95.7560    13.9491    13.7657
  380.4000    95.5076    13.9495    13.7653
  380.5000    95.2870    13.9498    13.7740
  380.6000    95.2892    13.9502    13.8615
  380.7000    95.2908    13.9923    13.8611
  380.8000    95.1154    14.0494    13.8607
  380.9000    94.8669    14.0498    13.8603
  381.0000    94.6033    14.0502    13.8847
  381.1000    94.3048    14.0506    13.9572
  381.2000    94.0064    14.0510    13.9568
  381.3000    93.7079    14.0926    13.9564
  381.4000    93.3498    14.1508    13.9560
  381.5000    92.8752    14.1512    13.9556
  381.6000    92.6005    14.1516    13.9552
  381.7000    91.7068    14.1520    13.9548
  381.8000    90.1880    14.1524    13.9544
  381.9000    89.1747    14.1935    13.9541
  382.0000    88.9985    14.2530    14.0100
  382.1000    89.0003    14.2534    14.0917
  382.2000    89.0023    14.2538    14.1502
  382.3000    89.2253    14.2542    14.1567
  382.4000    89.6481    14.2546    14.2490
  382.5000    90.1504    14.2952    14.2487
  382.6000    90.7224    14.3794    14.2483
  382.7000    91.4364    14.4640    14.2877
  382.8000    91.7199    14.5599    14.3478
  382.9000    92.1595    14.5602    14.3474
  383.0000    92.6617    14.5607    14.3470
  383.1000    92.9281    14.6013    14.3466
  383.2000    92.9973    14.6641    14.4025
  383.3000    93.2493    14.6645    14.4469
  383.4000    93.5353    14.6650    14.4690
  383.5000    93.7534    14.6654    14.5533
  383.6000    93.8394    14.7229    14.6499
  383.7000    93.8412    14.7696    14.6495
  383.8000    93.9080    14.7700    14.6491
  383.9000    94.1456    14.7754    14.6487
  384.0000    94.1476    14.8750    14.6483
  384.1000    94.1492    14.9501    14.6479
  384.2000    93.9873    14.9807    14.6474
  384.3000    93.8520    14.9811    14.7202
  384.4000    93.8538    14.9815    14.7498
  384.5000    93.8556    14.9820    14.7494
  384.6000    93.8577    14.9824    14.7490
  384.7000    93.8593    15.0572    14.7486
  384.8000    93.8611    15.0889    14.7481
  384.9000    93.8629    15.0893    14.7477
  385.0000    93.8045    15.0897    14.7473
  385.1000    93.5656    15.0901    14.7469
  385.2000    93.5678    15.0906    14.7465
  385.3000    93.3600    15.0910    14.7461
  385.4000    93.2704    15.0356    14.7456
  385.5000    93.1639    14.9862    14.7452
  385.6000    92.9732    14.9866    14.6907
  385.7000    92.9750    14.9870    14.6413
  385.8000    92.9771    14.9875    14.6215
  385.9000    92.7717    14.9157    14.5359
  386.0000    92.6797    14.8292    14.4359
  386.1000    92.6815    14.7796    14.3663
