~VERSION INFORMATION
 VERS.                2.0:   CWLS LOG ASCII STANDARD - VERSION 2.0
 WRAP.                 NO:   ONE LINE PER DEPTH STEP
~WELL INFORMATION
#MNEM.UNIT      DATA TYPE    INFORMATION
#----------   ------------   ------------------------------
 STRT.F           80.0000:   START DEPTH
 STOP.F         1056.0000:   STOP DEPTH
 STEP.F            0.5000:   STEP LENGTH
 NULL.          -999.2500:   NO VALUE
 COMP. U S NAVY-INTEX OIL:   COMPANY
 WELL.      NPR 3 #68-S-2:   WELL
 FLD .        TEAPOT DOME:   FIELD
 LOC .       S2 T38N R78W:   LOCATION
 CNTY.            NATRONA:   COUNTY
 STAT.            WYOMING:   STATE
 CTRY. UNITED STATES OF AMERICA:   COUNTRY
 SRVC.       Schlumberger:   SERVICE COMPANY
 DATE.        21-JUL-1964:   LOGDATE
 API .       490250638800:   API NUMBER
~CURVE INFORMATION
#MNEM.UNIT       API CODE    CURVE DESCRIPTION
#----------   ------------   ------------------------------
 DEPT.F                  :   
 SPR .MV     05 010 01 00:   SPONTANEOUS POTENTIAL FROM RES.
 ASN .OHMM   05 041 16 00:   AMPLIFIED SHORT NORMAL 16"
 ILD .OHMM   05 120 46 00:   INDUCTION LOG DEEP
 CILD.MMHO   05 110 46 00:   CONDUCTIVITY INDUCTION LOG DEEP
 GR  .GAPI   30 310 01 00:   GAMMA RAY
 CALS.IN     60 280 50 00:   CALIPER FROM SONIC LOG
 DT  .US/F   60 520 00 00:   INTERVAL TRANSIT TIME
~PARAMETER INFORMATION
#MNEM.UNIT          VALUE    DESCRIPTION
#----------   ------------   ------------------------------
 PD  .                 GL:   PERMANENT DATUM
 EPD .F              5201:   ELEVATION PERMANENT DATUM
 LMF .                 KB:   LOG MEASURED FROM
 DAPD.F                 5:   FEET ABOVE PERMANENT DATUM
 DMF .                 KB:   DRILLING MEASURED FROM
 EKB .F              5206:   KELLING BUSHING
 EGL .F              5201:   GROUND LEVEL
 DATE.          8-12-1964:   RUN DATE
 RUN .                  1:   RUN NUMBER
 DD  .F              1055:   DEPTH DRILLER
 DL  .F              1057:   DEPTH LOGGER
 BLI .F              1055:   BOTTOM LOG INTERVAL
 TLI .F               450:   TOP LOG INTERVAL
 CS  .IN              4.5:   CASING SIZE
 BS  .IN             6.75:   BIT SIZE
 DFT .            GEL OIL:   DRILLING FLUID TYPE
 DFD .                9.3:   DRILLING FLUID DENSITY
 DFV .                 48:   DRILLING FLUID VISCOSITY
 DFPH.                 10:   DRILLING FLUID PH
 DFL .                 10:   DRILLING FLUID LOSS
 MSS .           FLOWLINE:   MUD SAMPLE SOURCE
 RMS .OHMM           1.07:   RESISTIVITY MUD SAMPLE
 MST .F                95:   MUD SAMPLE TEMPERATURE
 RMF .OHMM            .67:   RESISTIVITY MUD FILTRATE SAMPLE
 MFST.F                95:   MUD FILTRATE SAMPLE TEMPERATURE
 RMC .OHMM           1.44:   RESISTIVITY MUD CAKE
 MCST.F                95:   MUD CAKE SAMPLE TEMPERATURE
 MFSS.                 FP:   MUD FILTRATE SAMPLE SOURCE
 MCSS.                 FP:   MUD CAKE SAMPLE SOURCE
 TCS .HRS               1:   TIME CURCULATED STOPPED
 LUN .               4507:   LOGGING UNIT NUMBER
 LUL .               CSPR:   LOGGING UNIT LOCATION
 ENGI.             DANNER:   RECORDING ENGINEER
 WITN.         JORGENESEN:   WITNESSED BY
 CLNT.            A2DTECH:   CLIENT CODE
 ORIG.           2" PRINT:   ORIGIN OF DATA
 UWI .       490250638800:   UNIQUE WELL ID
 DICO. A2D Technologies, Inc.:   DIGITIZING COMPANY
~OTHER INFORMATION
~A   DEPT      SPR          ASN        ILD      CILD        GR       CALS         DT   
# ...
  444.0000   -34.0626     3.6798     3.3453   281.2705  -999.2500     6.7419  -999.2500
  444.5000   -34.0618     3.8839     3.4514   268.3821  -999.2500     6.7271  -999.2500
  445.0000   -34.1455     4.0397     3.5253   261.5694  -999.2500     6.7273  -999.2500
  445.5000   -34.2095     4.1322     3.5247   258.0569  -999.2500     6.6976  -999.2500
  446.0000   -34.2085     4.2242     3.5988   256.3541  -999.2500     6.6083  -999.2500
  446.5000   -34.0589     4.2649     3.5532   265.0936  -999.2500     6.3999  -999.2500
  447.0000   -34.0571     4.2595     3.5224   273.2615  -999.2500     6.8394  -999.2500
  447.5000   -33.8164     4.2500     3.4468   277.1758  -999.2500     6.6237  -999.2500
  448.0000   -33.5757     4.2265     3.4152   277.6191  -999.2500     6.6387  -999.2500
  448.5000   -33.4597     4.2175     3.2943   277.1689  -999.2500     6.6836  -999.2500
  449.0000   -33.3100     4.1753     3.1268   277.1652  -999.2500     6.6987  -999.2500
  449.5000   -33.1602     4.1126     2.9777   290.8495  -999.2500     6.7286  -999.2500
  450.0000   -33.1595     3.9955     2.9191   327.7526    66.4681     6.7288   116.7667
  450.5000   -33.1587     3.7938     2.8108   342.4373    66.7643     6.7140   118.3434
  451.0000   -33.3070     3.5053     2.7680   356.1313    66.9122     6.7142   119.9201
  451.5000   -33.3803     3.2761     2.7672   359.2276    67.0598     6.7292   121.7224
  452.0000   -33.4546     3.2846     2.7665   355.7146    66.7598     6.7294   123.9758
  452.5000   -33.6027     3.4576     2.7657   341.1270    63.1816     6.7295   126.0036
  453.0000   -33.6507     3.5300     2.7650   333.0138    61.6898     6.7148   125.7757
  453.5000   -33.8994     3.6097     2.8442   328.0617    59.0058     6.7000   124.0442
  454.0000   -34.0477     3.7712     2.9636   315.0737    55.7256     6.6852   120.5833
  454.5000   -34.0469     4.2310     3.1995   297.4771    53.9357     6.6705   116.9720
  455.0000   -34.0461     4.7159     3.4356   250.3346    56.0207     6.6557   114.6389
  455.5000   -34.0454     5.0268     3.7326   225.5920    54.9760     6.6559   113.5088
  456.0000   -34.0447     5.1910     4.2176   218.6809    52.7391     6.6560   113.0555
  456.5000   -34.0440     5.3008     4.9302   213.8647    51.2473     6.6562   113.5043
  457.0000   -34.0432     5.3904     5.1543   210.5880    47.3710     6.6414   114.1788
  457.5000   -34.0424     5.5184     5.1534   205.6733    50.0520     6.6416   114.4026
  458.0000   -34.0417     5.7209     5.1527   200.2626    54.3728     6.6417   113.7231
  458.5000   -34.0410     5.8784     5.1608   195.3422    57.0536     6.6270   112.5930
  459.0000   -34.0402     6.0808     5.3008   188.5486    61.8211     6.6271   110.7863
  459.5000   -34.0395     6.3034     5.6979   182.3321    65.0983     6.6273   109.3555
  460.0000   -34.1877     6.6377     6.1227   175.1488    64.5007     6.6275   108.3006
  460.5000   -34.1871     7.0106     6.3120   169.6147    63.7540     6.6127   107.4712
  461.0000   -34.3483     7.1012     6.3459   166.9569    62.2622     6.6128   106.8675
  461.5000   -34.4836     7.1457     6.2701   166.9527    62.4098     6.6130   106.5650
  462.0000   -34.6320     7.1224     6.2695   167.2717    66.8792     6.6280   107.1637
  462.5000   -34.6311     7.0983     6.1938   168.4647    70.1564     6.6282   107.6878
  463.0000   -34.6304     7.0559     6.1510   170.1414    69.4098     6.6283   107.9863
  463.5000   -34.6296     7.0203     6.0426   171.7868    68.1084     6.4646   107.9088
  464.0000   -34.6288     6.9961     5.9670   174.3747    69.2578     6.3902   107.4555
  464.5000   -34.6282     6.9634     5.8631   176.1758    69.0884     6.5990   107.2276
  465.0000   -34.6274     6.9303     5.7410   178.2738    63.5866     6.7631   107.6013
  465.5000   -34.6267     6.8914     5.6962   181.0596    61.4366     6.6440   107.4487
  466.0000   -34.4769     6.8553     5.5005   183.7353    60.5962     6.5994   106.5442
  466.5000   -34.4761     6.8160     5.4393   186.2609    60.1595     6.6145   106.8427
  467.0000   -34.3264     6.7679     5.3336   187.7702    61.7047     6.6146   109.3216
  467.5000   -34.1766     6.7233     5.2876   189.3230    62.5410     6.5998   109.6959
  468.0000   -34.1758     6.6819     5.2126   190.7137    63.3620     6.6000   108.5652
  468.5000   -34.0261     6.6535     5.2118   190.4564    61.7925     6.6449   109.0893
  469.0000   -34.0253     6.6062     5.2858   189.2186    60.7478     6.7344   109.6133
  469.5000   -34.0246     6.5823     5.3921   187.2245    60.7464     6.6899   109.8372
  470.0000   -34.0239     6.5772     5.4366   183.6312    57.7643     6.6751   109.5336
  470.5000   -34.1240     6.6672     5.6038   178.7904    55.3786     6.7349   108.9299
  471.0000   -34.1715     6.8748     5.8433   175.1287    58.2084     6.6903   107.4991
  471.5000   -34.3196     7.0976     6.1803   169.1108    57.4619     6.6458   105.6923
  472.0000   -34.5435     7.3272     6.3223   163.8992    54.9272     6.6310   103.7352
  472.5000   -34.6336     7.4352     6.5619   158.8106    56.1180     6.6759   102.1539
  473.0000   -34.9134     7.5372     6.8510   152.7302    51.3471     6.7505   101.1742
  473.5000   -35.1120     7.6126     7.1158   147.7417    42.8509     6.7954   100.1945
  474.0000   -35.2101     7.6291     7.2993   144.4893    44.0416     6.7806    99.4404
  474.5000   -34.8944     7.6424     7.3377   143.0469    45.0834     6.7361    98.9870
  475.0000   -34.6125     7.6424     7.2916   143.2291    48.5096     6.7064    99.2103
  475.5000   -34.4626     7.6275     7.2222   143.7835    49.2533     6.6916    99.7344
  476.0000   -34.1063     7.6030     7.1996   144.8711    52.0834     6.7067   100.2585
  476.5000   -34.0142     7.5262     7.0711   146.9194    49.3994     6.7218   100.9329
  477.0000   -33.9230     7.3729     6.9206   151.2121    57.1475     6.7219   101.6825
  477.5000   -33.8636     7.1965     6.7540   154.7435    56.9970     6.7370   102.4321
  478.0000   -33.8628     6.9082     6.5448   169.8063    62.3606     6.7371   102.5808
  478.5000   -33.9272     6.4274     6.2720   205.3386    60.1237     6.7522   102.5780
  479.0000   -34.0105     5.7889     5.7949   245.5323    59.5051     6.7523   102.5758
  479.5000   -33.8607     5.1843     5.0639   320.0923    55.9479     6.7525   103.0998
  480.0000   -33.6712     4.8336     2.9142   360.2657    59.7219     6.7675   104.3757
  480.5000   -33.4120     4.4179     1.9752   407.1390    61.6081     6.7677   108.8848
  481.0000   -33.4114     3.9545     1.8740   458.4751    60.9597     6.7678   115.0479
  481.5000   -33.2616     3.5891     1.8241   486.7497    58.7799     6.7680   122.2637
  482.0000   -33.2607     3.3107     1.7899   499.3893    59.6662     6.7681   128.8780
  482.5000   -33.2600     3.1523     1.8345   499.3861    53.5642     6.7384   135.7930
  483.0000   -33.2593     3.2418     2.1211   491.1979    42.6733     6.6939   145.1893
  483.5000   -33.4076     3.5215     2.3253   441.0110    36.1145     6.6493   144.2096
  484.0000   -33.7268     3.8023     2.8683   335.5350    28.6618     6.6196   136.7637
  484.5000   -34.0021     4.0307     3.9975   268.7161    29.5545     6.6049   125.2577
  485.0000   -34.2598     4.7383     5.7947   201.6256    28.0623     6.6051   114.5036
  485.5000   -34.5969     5.6332     7.3569   155.7970    35.2144     6.6052   108.1855
  486.0000   -34.9200     7.6741     7.7415   125.5511    34.7658     6.6054   101.6419
  486.5000   -35.2208     9.0261     8.6280   108.6013    36.7017     6.6055    97.8051
  487.0000   -35.4887     9.6682     9.3318    99.7988    43.8537     6.6057    97.8786
  487.5000   -35.7861     9.8182     9.7056    96.8192    43.4051     6.6058    97.6502
  488.0000   -35.9344     9.9130     9.8981   100.4888    44.1488     6.6060    96.5201
  488.5000   -35.9337     9.9833     9.8348   119.2450    44.5944     6.6061    95.5404
  489.0000   -35.7471     9.9785     8.6746   130.6997    45.0400     6.6063    94.9367
