~VERSION INFORMATION
 VERS.                2.0:   CWLS LOG ASCII STANDARD - VERSION 2.0
 WRAP.                 NO:   ONE LINE PER DEPTH STEP
~WELL INFORMATION
#MNEM.UNIT      DATA TYPE    INFORMATION
#----------   ------------   ------------------------------
 STRT.F           20.0000:   START DEPTH
 STOP.F          505.0000:   STOP DEPTH
 STEP.F            0.5000:   STEP LENGTH
 NULL.          -999.2500:   NO VALUE
 COMP.    FENIX & SCISSON:   COMPANY
 WELL.   NPR #3 #56-SX-10:   WELL
 FLD .             TEAPOT:   FIELD
 LOC .      S10 T38N R78W:   LOCATION
 CNTY.            NATRONA:   COUNTY
 STAT.            WYOMING:   STATE
 CTRY. UNITED STATES OF AMERICA:   COUNTRY
 SRVC.              Welex:   SERVICE COMPANY
 DATE.        01-MAY-1980:   LOGDATE
 API .       490251081300:   API NUMBER
~CURVE INFORMATION
#MNEM.UNIT       API CODE    CURVE DESCRIPTION
#----------   ------------   ------------------------------
 DEPT.F                  :   
 ILD .OHMM   07 120 46 00:   INDUCTION LOG DEEP
 ILM .OHMM   07 120 44 00:   INDUCTION LOG MEDIUM
 SGRD.OHMM   07 220 05 00:   SHALLOW GUARD RESISTIVITY
 SPR .MV     07 010 01 00:   SPONATANEOUS POTENTIAL FROM RES.
 CALD.IN     45 280 60 00:   CALIPER FROM DENSITY LOG
 DPHI.DEC    45 890 12 00:   DENSITY POROSITY SANDSTONE
 DRHO.G/C3   45 356 01 00:   DENSITY CORRECTION
 GRD .GAPI   45 310 01 00:   GAMMA RAY FROM DENSITY LOG
 RHOB.G/C3   45 350 01 00:   BULK DENSITY
~PARAMETER INFORMATION
#MNEM.UNIT          VALUE    DESCRIPTION
#----------   ------------   ------------------------------
 PD  .                 GL:   PERMANENT DATUM
 EPD .F              5180:   ELEVATION PERMANENT DATUM
 LMF .                 KB:   LOG MEASURED FROM
 DAPD.F                 4:   FEET ABOVE PERMANENT DATUM
 DMF .                 KB:   DRILLING MEASURED FROM
 EKB .F              5184:   KELLING BUSHING
 EGL .F              5180:   GROUND LEVEL
 DATE.        01-MAY-1980:   RUN DATE
 RUN .                  1:   RUN NUMBER
 DD  .F               489:   DEPTH DRILLER
 DL  .F               506:   DEPTH LOGGER
 BLI .F               504:   BOTTOM LOG INTERVAL
 TLI .F                30:   TOP LOG INTERVAL
 BS  .IN            7.875:   BIT SIZE
 BSD .F               489:   BIT SIZE AT DEPTH
 DFT .    WATER BASED MUD:   DRILLING FLUID TYPE
 DFD .                9.9:   DRILLING FLUID DENSITY
 DFV .                 46:   DRILLING FLUID VISCOSITY
 MSS .                PIT:   MUD SAMPLE SOURCE
 RMS .OHMM           0.99:   RESISTIVITY MUD SAMPLE
 MST .F                75:   MUD SAMPLE TEMPERATURE
 RMF .OHMM           0.78:   RESISTIVITY MUD FILTRATE SAMPLE
 MFST.F                75:   MUD FILTRATE SAMPLE TEMPERATURE
 RMC .OHMM           1.18:   RESISTIVITY MUD CAKE
 MCST.F                75:   MUD CAKE SAMPLE TEMPERATURE
 MFSS.               MEAS:   MUD FILTRATE SAMPLE SOURCE
 MCSS.               MEAS:   MUD CAKE SAMPLE SOURCE
 BHT .F               100:   BOTTOM HOLE TEMPERATURE
 TCS .HRS               1:   TIME CURCULATED STOPPED
 MRT .F               100:   MAXIMUM RECORDED TEMPERATURE
 LUN .               9685:   LOGGING UNIT NUMBER
 LUL .             CASPER:   LOGGING UNIT LOCATION
 ENGI.            TOTHILL:   RECORDING ENGINEER
 WITN.           DINSMORE:   WITNESSED BY
 CLNT.            A2DTECH:   CLIENT CODE
 ORIG.           5" PRINT:   ORIGIN OF DATA
 UWI .       490251081300:   UNIQUE WELL ID
 DICO. A2D Technologies, Inc.:   DIGITIZING COMPANY
~OTHER INFORMATION
~A   DEPT       ILD        ILM      SGRD        SPR       CALD       DPHI       DRHO        GRD       RHOB   
# ...
  166.0000     6.1875     9.0333     9.4817   -20.7346     7.9947     0.1358     0.0177   104.5964     2.4239
  166.5000     6.4103     9.0973     9.5488   -20.7288     7.9658     0.1424    -0.0003   105.4942     2.4142
  167.0000     6.6038     9.1655     9.5501   -20.7229     7.9220     0.1346    -0.0017   105.5142     2.4029
  167.5000     6.7744     9.2266     9.4855   -20.8680     7.9380     0.1292     0.0133   105.5342     2.4180
  168.0000     6.6827     9.2922     9.4869   -20.8607     8.0438     0.1232     0.0328   105.5542     2.4338
  168.5000     6.5464     9.4230     9.5543   -20.9638     8.0149     0.1262     0.0374   105.3433     2.4413
  169.0000     6.4132     9.3589     9.6220   -20.9985     7.9860     0.1244     0.0359   105.1424     2.4361
  169.5000     6.3702     9.4255     9.5566   -20.9925     7.9122     0.1220     0.0389   104.9315     2.4474
  170.0000     6.3276     9.1694     9.0434   -20.9854     7.8982     0.1268     0.0345   104.7256     2.4384
  170.5000     6.1992     8.9203     8.7975   -20.8301     8.0641     0.1318     0.0193   104.2988     2.4242
  171.0000     5.9483     8.6780     8.6777   -20.8242     8.0194     0.1390     0.0073   103.6411     2.4115
  171.5000     5.7060     8.5008     8.5596   -20.6689     7.9447     0.1471     0.0016   103.2093     2.3980
  172.0000     5.3894     8.2699     8.3273   -20.6631     7.9024     0.1474     0.0047   103.0030     2.4003
  172.5000     5.1116     8.0424     8.1036   -20.6572     7.9036     0.1348     0.0182   103.0233     2.4184
  173.0000     4.9048     7.7503     7.8241   -20.6514     7.9496     0.1360     0.0242   103.5106     2.4188
  173.5000     4.6416     6.6762     7.4503   -20.6456     7.9656     0.1393     0.0182   103.9676     2.4132
  174.0000     4.3622     5.7740     6.8645   -20.6398     7.8915     0.1387     0.0213   103.9920     2.4147
  174.5000     4.2437     4.8574     6.1459   -20.6338     7.9527     0.1435     0.0168   104.0119     2.4064
  175.0000     4.1289     4.7581     5.1702   -20.6278     8.0286     0.1404     0.0184   103.8010     2.4082
  175.5000     4.1013     5.9385     5.7763   -20.6207     8.0745     0.1446     0.0244   103.1433     2.4066
  176.0000     4.1306     7.1594     6.9639   -20.6149     8.0905     0.1461     0.0244   102.4856     2.4021
  176.5000     4.3066     7.8887     7.6205   -20.6091     8.1365     0.1446     0.0260   102.2797     2.4021
  177.0000     4.4939     8.2814     7.9998   -20.6039     8.1674     0.1380     0.0305   102.3047     2.4074
  177.5000     4.7555     8.3400     8.1123   -20.5974     8.1984     0.1290     0.0425   102.3247     2.4210
  178.0000     5.0529     8.5161     8.3991   -20.5916     8.2144     0.1224     0.0576   102.1188     2.4368
  178.5000     5.3416     9.0266     8.8279   -20.5857     8.2304     0.1158     0.0741   101.4561     2.4496
  179.0000     5.6079     9.3853     9.3203   -20.7294     8.2314     0.1105     0.0906   100.5768     2.4616
  179.5000     5.8874     9.2572     9.2572   -20.7235     8.2325     0.1052     0.0967    99.6939     2.4699
  180.0000     6.0538     9.0685     9.0683   -20.7374     8.2176     0.1017     0.0969    99.0361     2.4752
  180.5000     6.2250     8.9448     9.0698   -20.8613     8.0494     0.1101     0.0862    98.5896     2.4698
  181.0000     6.3569     9.0710     9.2613   -21.0035     7.9009     0.1125     0.0771    98.6250     2.4609
  181.5000     6.4468     9.2625     9.3269   -20.9985     7.8474     0.1098     0.0668    99.3270     2.4581
  182.0000     6.4929     9.3281     9.5238   -20.9925     7.9535     0.1101     0.0684    99.8253     2.4641
  182.5000     6.5847     9.4594     9.7249   -20.9865     8.0144     0.1065     0.0669   100.7225     2.4634
  183.0000     6.5861     9.5264     9.8920   -20.9802     8.0454     0.0996     0.0744   101.6461     2.4882
  183.5000     6.6334     9.5277    10.0700   -21.1241     8.0312     0.0915     0.0850   102.5697     2.4935
  184.0000     6.6808     9.5952    10.0621   -21.1181     7.9726     0.0864     0.0910   103.4933     2.5033
  184.5000     6.7753     9.7302     9.8550   -21.1121     8.0185     0.0801     0.0955   104.4169     2.5123
  185.0000     6.8237     9.7318     9.8674   -21.1063     8.0944     0.0839     0.0821   105.1146     2.5041
  185.5000     6.7777     9.8007     9.9373   -21.2496     8.1403     0.0878     0.0686   106.0382     2.4997
  186.0000     6.7794    10.0075    10.0076   -21.2436     8.1114     0.0878     0.0612   106.5100     2.4982
  186.5000     6.8279    10.0785    10.0783   -21.2668     8.0825     0.0835     0.0614   106.9818     2.5022
  187.0000     6.8293    10.0799    10.0799   -21.3812     8.0536     0.0809     0.0672   106.7759     2.5073
  187.5000     6.8307    10.0812    10.0812   -21.5247     8.0098     0.0932     0.0463   106.1182     2.4938
  188.0000     6.8321    10.0826    10.0826   -21.5182     7.9958     0.1025     0.0313   106.3645     2.4766
  188.5000     6.8338    10.0839    10.0144   -21.3629     7.8617     0.1040     0.0299   107.5746     2.4729
  189.0000     6.8349    10.0853     9.9467   -21.3571     7.8807     0.1048     0.0299   108.8941     2.4706
  189.5000     6.8840    10.2273     9.9429   -21.3512     7.9412     0.1057     0.0255   109.3659     2.4677
  190.0000     6.8852    10.1581     9.8808   -21.3453     7.9550     0.1072     0.0210   110.7413     2.4625
  190.5000     6.8867    10.0894     9.8825   -21.1898     7.8815     0.1096     0.0195   110.7613     2.4670
  191.0000     6.8882    10.0911     9.8838   -21.1839     7.8673     0.0991     0.0361   110.3245     2.4798
  191.5000     6.8896    10.0925     9.8851   -21.1779     7.9285     0.0985     0.0376   110.1186     2.4828
  192.0000     6.8435    10.0938     9.8180   -21.1711     8.0193     0.1012     0.0361   110.1436     2.4739
  192.5000     6.8449    10.0253     9.8196   -21.1659     8.0800     0.1045     0.0332   110.8413     2.4738
  193.0000     6.7991     9.9578     9.7529   -21.1594     8.0962     0.1108     0.0332   111.5390     2.4636
  193.5000     6.7015     9.9592     9.6202   -21.0041     8.1721     0.1160     0.0333   110.4295     2.4522
  194.0000     6.5708     9.7559     9.3591   -20.9985     8.2630     0.1186     0.0333   109.0940     2.4470
  194.5000     6.4372     9.5567     9.0420   -20.9925     8.2490     0.1221     0.0438   107.5327     2.4380
  195.0000     6.1340     9.3552     8.7964   -20.9865     8.1899     0.1254     0.0439   106.4232     2.4306
  195.5000     5.9266     9.0448     8.6065   -20.9806     8.1613     0.1290     0.0469   105.7655     2.4261
  196.0000     5.6475     8.5589     8.2108   -20.9735     8.1323     0.1242     0.0694   105.5596     2.4359
  196.5000     5.3445     8.0432     7.7696   -20.9686     7.9538     0.1317     0.0769   106.4882     2.4337
  197.0000     5.1638     7.5064     7.4033   -20.9312     7.8350     0.1401     0.0616   107.1859     2.4112
  197.5000     4.9206     7.1525     7.1525   -20.7505     7.7597     0.1505     0.0530   107.6577     2.3940
  198.0000     4.6244     6.8625     6.6752   -20.6512     7.7173     0.1487     0.0621   107.6777     2.3977
  198.5000     4.2801     6.4938     6.2297   -20.4958     7.7209     0.1538     0.0576   106.7941     2.3875
  199.0000     3.8529     5.9772     5.8950   -20.4900     7.8694     0.1613     0.0532   105.9055     2.3617
  199.5000     3.4365     5.5016     5.6170   -20.3347     7.9602     0.1811     0.0382   105.9305     2.3416
  200.0000     3.0137     5.5790     5.2786   -20.3288     7.9638     0.1924     0.0367   106.6280     2.3296
  200.5000     2.6798     4.9943     4.6801   -20.0095     7.9982     0.2005     0.0413   106.8716     2.3062
  201.0000     2.4160     4.4709     4.0581   -19.8673     8.0326     0.2116     0.0473   106.6626     2.2954
  201.5000     2.1605     4.0023     3.6077   -19.7169     8.0546     0.2200     0.0429   106.2289     2.2712
  202.0000     2.0027     3.5828     3.1852   -19.5631     8.1905     0.2305     0.0489   105.5693     2.2592
