~VERSION INFORMATION
 VERS.                2.0:   CWLS LOG ASCII STANDARD - VERSION 2.0
 WRAP.                 NO:   ONE LINE PER DEPTH STEP
~WELL INFORMATION
#MNEM.UNIT      DATA TYPE    INFORMATION
#----------   ------------   ------------------------------
 STRT.F            0.0000:   START DEPTH
 STOP.F         2838.0000:   STOP DEPTH
 STEP.F            0.5000:   STEP LENGTH
 NULL.          -999.2500:   NO VALUE
 COMP. INTEX OIL CO U S NAVY:   COMPANY
 WELL. NAVAL PETROLEUM RESERVE 3 29 #NPR #3 (204A29)-29:   WELL
 FLD .                N/A:   FIELD
 LOC .      S29 T39N R78W:   LOCATION
 CNTY.            NATRONA:   COUNTY
 STAT.            WYOMING:   STATE
 CTRY. UNITED STATES OF AMERICA:   COUNTRY
 SRVC.      NL McCullough:   SERVICE COMPANY
 DATE.        24-JUN-1965:   LOGDATE
 API .       490251021700:   API NUMBER
~CURVE INFORMATION
#MNEM.UNIT       API CODE    CURVE DESCRIPTION
#----------   ------------   ------------------------------
 DEPT.F                  :   
 GR  .GAPI   30 310 01 00:   GAMMA RAY
 HD  .IN     70 280 01 00:   DAIMETER
~PARAMETER INFORMATION
#MNEM.UNIT          VALUE    DESCRIPTION
#----------   ------------   ------------------------------
 PD  .                 GL:   PERMANENT DATUM
 LMF .                 GL:   LOG MEASURED FROM
 EDF .F              5016:   DRILLING FLOOR
 DATE.        24-JUN-1965:   RUN DATE
 RUN .                  1:   RUN NUMBER
 DD  .F              2838:   DEPTH DRILLER
 DL  .F              2838:   DEPTH LOGGER
 BLI .F              2836:   BOTTOM LOG INTERVAL
 TLI .F              2400:   TOP LOG INTERVAL
 CS  .IN            6.625:   CASING SIZE
 CBD .F              2820:   CASING BOTTOM DRILLER
 BSD .F              2838:   BIT SIZE AT DEPTH
 LUN .               1497:   LOGGING UNIT NUMBER
 ENGI.         COWLTHORPE:   RECORDING ENGINEER
 WITN.         MR. HUDSON:   WITNESSED BY
 CLNT.            A2DTECH:   CLIENT CODE
 ORIG.           5" PRINT:   ORIGIN OF DATA
 UWI .       490251021700:   UNIQUE WELL ID
 DICO. A2D Technologies, Inc.:   DIGITIZING COMPANY
~OTHER INFORMATION
~A    DEPT      GR           HD 
# ...
  364.5000  -999.2500     6.3459
  365.0000  -999.2500     6.3465
  365.5000  -999.2500     6.3471
  366.0000  -999.2500     6.3477
  366.5000  -999.2500     6.3633
  367.0000  -999.2500     6.3639
  367.5000  -999.2500     6.3795
  368.0000  -999.2500     6.3801
  368.5000  -999.2500     6.3807
  369.0000  -999.2500     6.3813
  369.5000  -999.2500     6.3819
  370.0000  -999.2500     6.3825
  370.5000  -999.2500     6.3832
  371.0000  -999.2500     6.3838
  371.5000  -999.2500     6.3844
  372.0000  -999.2500     6.3850
  372.5000  -999.2500     6.3856
  373.0000  -999.2500     6.3862
  373.5000  -999.2500     6.3868
  374.0000  -999.2500     6.3853
  374.5000  -999.2500     6.3830
  375.0000  -999.2500     6.3806
  375.5000  -999.2500     6.3783
  376.0000  -999.2500     6.3760
  376.5000  -999.2500     6.3737
  377.0000  -999.2500     6.3714
  377.5000  -999.2500     6.3691
  378.0000  -999.2500     6.3667
  378.5000  -999.2500     6.3644
  379.0000  -999.2500     6.3621
  379.5000  -999.2500     6.3598
  380.0000  -999.2500     6.3575
  380.5000  -999.2500     6.3551
  381.0000  -999.2500     6.3528
  381.5000  -999.2500     6.3512
  382.0000  -999.2500     6.3518
  382.5000  -999.2500     6.3524
  383.0000  -999.2500     6.3531
  383.5000  -999.2500     6.3536
  384.0000  -999.2500     6.3543
  384.5000  -999.2500     6.3549
  385.0000  -999.2500     6.3555
  385.5000  -999.2500     6.3561
  386.0000  -999.2500     6.3566
  386.5000  -999.2500     6.3572
  387.0000  -999.2500     6.3578
  387.5000  -999.2500     6.3735
  388.0000  -999.2500     6.3591
  388.5000  -999.2500     6.3596
  389.0000  -999.2500     6.3604
  389.5000  -999.2500     6.3609
  390.0000  -999.2500     6.3615
  390.5000  -999.2500     6.3621
  391.0000  -999.2500     6.3627
  391.5000  -999.2500     6.3633
  392.0000  -999.2500     6.3639
  392.5000  -999.2500     6.3645
  393.0000  -999.2500     6.3651
  393.5000  -999.2500     6.3657
  394.0000  -999.2500     6.3663
  394.5000  -999.2500     6.3668
  395.0000  -999.2500     6.3676
  395.5000  -999.2500     6.3682
  396.0000  -999.2500     6.3838
  396.5000  -999.2500     6.3995
  397.0000  -999.2500     6.4151
  397.5000  -999.2500     6.4157
  398.0000  -999.2500     6.4163
  398.5000  -999.2500     6.4169
  399.0000  -999.2500     6.4175
  399.5000  -999.2500     6.4181
  400.0000  -999.2500     6.4187
  400.5000  -999.2500     6.4193
  401.0000  -999.2500     6.3873
  401.5000  -999.2500     6.3753
  402.0000  -999.2500     6.3760
  402.5000  -999.2500     6.3764
  403.0000  -999.2500     6.3744
  403.5000  -999.2500     6.3726
  404.0000  -999.2500     6.3709
  404.5000  -999.2500     6.3691
  405.0000  -999.2500     6.3674
  405.5000  -999.2500     6.3657
  406.0000  -999.2500     6.3639
  406.5000  -999.2500     6.3622
  407.0000  -999.2500     6.3605
  407.5000  -999.2500     6.3587
  408.0000  -999.2500     6.3570
  408.5000  -999.2500     6.3553
  409.0000  -999.2500     6.3535
  409.5000  -999.2500     6.3518
  410.0000  -999.2500     6.3501
  410.5000  -999.2500     6.3483
  411.0000  -999.2500     6.3466
  411.5000  -999.2500     6.3608
  412.0000  -999.2500     6.3616
  412.5000  -999.2500     6.3774
  413.0000  -999.2500     6.3781
  413.5000  -999.2500     6.3939
  414.0000  -999.2500     6.3946
  414.5000  -999.2500     6.3953
  415.0000  -999.2500     6.3961
  415.5000  -999.2500     6.3970
  416.0000  -999.2500     6.3825
  416.5000  -999.2500     6.3834
  417.0000  -999.2500     6.3691
  417.5000  -999.2500     6.3698
  418.0000  -999.2500     6.3705
  418.5000  -999.2500     6.3712
  419.0000  -999.2500     6.3569
  419.5000  -999.2500     6.3577
  420.0000  -999.2500     6.3586
  420.5000  -999.2500     6.3593
  421.0000  -999.2500     6.3568
  421.5000  -999.2500     6.3455
  422.0000  -999.2500     6.3464
  422.5000  -999.2500     6.3472
  423.0000  -999.2500     6.3479
  423.5000  -999.2500     6.3486
  424.0000  -999.2500     6.3494
  424.5000  -999.2500     6.3501
  425.0000  -999.2500     6.3510
  425.5000  -999.2500     6.3518
  426.0000  -999.2500     6.3525
  426.5000  -999.2500     6.3532
  427.0000  -999.2500     6.3539
  427.5000  -999.2500     6.3547
  428.0000  -999.2500     6.3554
  428.5000  -999.2500     6.3562
  429.0000  -999.2500     6.3571
  429.5000  -999.2500     6.3578
  430.0000  -999.2500     6.3736
  430.5000  -999.2500     6.3743
  431.0000  -999.2500     6.3901
  431.5000  -999.2500     6.3908
  432.0000  -999.2500     6.3916
  432.5000  -999.2500     6.3923
  433.0000  -999.2500     6.3930
  433.5000  -999.2500     6.3940
  434.0000  -999.2500     6.3946
  434.5000  -999.2500     6.3954
  435.0000  -999.2500     6.4112
  435.5000  -999.2500     6.4120
  436.0000  -999.2500     6.4277
  436.5000  -999.2500     6.4134
  437.0000  -999.2500     6.3840
  437.5000  -999.2500     6.3697
  438.0000  -999.2500     6.3706
  438.5000  -999.2500     6.3713
  439.0000  -999.2500     6.3682
  439.5000  -999.2500     6.3578
  440.0000  -999.2500     6.3585
  440.5000  -999.2500     6.3592
  441.0000  -999.2500     6.3599
  441.5000  -999.2500     6.3685
  442.0000  -999.2500     6.3767
  442.5000  -999.2500     6.3774
  443.0000  -999.2500     6.3780
  443.5000  -999.2500     6.3788
  444.0000  -999.2500     6.3796
  444.5000  -999.2500     6.3953
  445.0000  -999.2500     6.3961
  445.5000  -999.2500     6.4119
  446.0000  -999.2500     6.4126
  446.5000  -999.2500     6.4135
  447.0000  -999.2500     6.4143
  447.5000  -999.2500     6.4150
  448.0000  -999.2500     6.4157
  448.5000  -999.2500     6.4165
  449.0000  -999.2500     6.4172
  449.5000  -999.2500     6.4179
  450.0000  -999.2500     6.4187
  450.5000  -999.2500     6.4177
  451.0000  -999.2500     6.4151
  451.5000  -999.2500     6.4125
  452.0000  -999.2500     6.4100
  452.5000  -999.2500     6.4074
  453.0000  -999.2500     6.4048
  453.5000  -999.2500     6.4022
  454.0000  -999.2500     6.3997
  454.5000  -999.2500     6.3971
  455.0000  -999.2500     6.3946
  455.5000  -999.2500     6.4254
  456.0000  -999.2500     6.4561
  456.5000  -999.2500     6.4868
  457.0000  -999.2500     6.4722
  457.5000  -999.2500     6.4427
  458.0000  -999.2500     6.4132
  458.5000  -999.2500     6.3987
  459.0000  -999.2500     6.3994
  459.5000  -999.2500     6.4000
  460.0000  -999.2500     6.3856
  460.5000  -999.2500     6.3861
  461.0000  -999.2500     6.3867
  461.5000  -999.2500     6.3873
  462.0000  -999.2500     6.4031
  462.5000  -999.2500     6.4037
  463.0000  -999.2500     6.4043
  463.5000  -999.2500     6.4049
  464.0000  -999.2500     6.4055
  464.5000  -999.2500     6.4061
  465.0000  -999.2500     6.4069
  465.5000  -999.2500     6.4092
  466.0000  -999.2500     6.4114
  466.5000  -999.2500     6.4137
  467.0000  -999.2500     6.4160
  467.5000  -999.2500     6.4182
  468.0000  -999.2500     6.4205
  468.5000  -999.2500     6.4228
  469.0000  -999.2500     6.4250
  469.5000  -999.2500     6.4273
  470.0000  -999.2500     6.4296
  470.5000  -999.2500     6.4318
  471.0000  -999.2500     6.4341
  471.5000  -999.2500     6.4364
  472.0000  -999.2500     6.4386
  472.5000  -999.2500     6.4409
  473.0000  -999.2500     6.4432
  473.5000  -999.2500     6.4454
  474.0000  -999.2500     6.4476
  474.5000  -999.2500     6.4482
  475.0000  -999.2500     6.4488
  475.5000  -999.2500     6.4495
  476.0000  -999.2500     6.4500
  476.5000  -999.2500     6.4507
  477.0000  -999.2500     6.4513
  477.5000  -999.2500     6.4518
  478.0000  -999.2500     6.4524
  478.5000  -999.2500     6.4530
  479.0000  -999.2500     6.4536
  479.5000  -999.2500     6.4693
  480.0000  -999.2500     6.4699
  480.5000  -999.2500     6.4706
  481.0000  -999.2500     6.4712
  481.5000  -999.2500     6.4566
  482.0000  -999.2500     6.4573
  482.5000  -999.2500     6.4579
  483.0000  -999.2500     6.4585
  483.5000  -999.2500     6.4741
  484.0000  -999.2500     6.4747
  484.5000  -999.2500     6.4753
  485.0000  -999.2500     6.4910
  485.5000  -999.2500     6.4916
