~VERSION INFORMATION
 VERS.                2.0:   CWLS LOG ASCII STANDARD - VERSION 2.0
 WRAP.                 NO:   ONE LINE PER DEPTH STEP
~WELL INFORMATION
#MNEM.UNIT      DATA TYPE    INFORMATION
#----------   ------------   ------------------------------
 STRT.F           29.0000:   START DEPTH
 STOP.F          642.0000:   STOP DEPTH
 STEP.F            0.5000:   STEP LENGTH
 NULL.          -999.2500:   NO VALUE
 COMP. FENIX & SCISSON INC:   COMPANY
 WELL.    NPR-3 SX #21-10:   WELL
 FLD .  TEAPOT DOME NPR 3:   FIELD
 LOC .      S10 T38N R78W:   LOCATION
 CNTY.            NATRONA:   COUNTY
 STAT.            WYOMING:   STATE
 CTRY. UNITED STATES OF AMERICA:   COUNTRY
 SRVC.            Unknown:   SERVICE COMPANY
 DATE.        03-JUL-1978:   LOGDATE
 API .       490251065400:   API NUMBER
~CURVE INFORMATION
#MNEM.UNIT       API CODE    CURVE DESCRIPTION
#----------   ------------   ------------------------------
 DEPT.F                  :   
 SPR .MV     05 010 01 00:   SPONTANEOUS POTENTIAL FROM RES.
 SN  .OHMM   05 040 16 00:   SHORT NORMAL 16"
 ILD .OHMM   05 120 46 00:   INDUCTION LOG DEEP
 CALD.IN     45 280 60 00:   CALIPER FROM DENSITY
 GRD .GAPI   45 310 01 00:   GAMMA RAY FROM DENSITY LOG
 CORR.G/C3   45 356 01 00:   DENSITY CORRECTION
 DPHI.DEC    45 890 12 00:   DENSITY POROSITY SANDSTONE
 DEN .G/C3   45 350 01 00:   COMPENSATED BULK DENSTIY
~PARAMETER INFORMATION
#MNEM.UNIT          VALUE    DESCRIPTION
#----------   ------------   ------------------------------
 PD  .                 GL:   PERMANENT DATUM
 EPD .F              5253:   ELEVATION PERMANENT DATUM
 LMF .                 KB:   LOG MEASURED FROM
 DAPD.F                 4:   FEET ABOVE PERMANENT DATUM
 DMF .                 KB:   DRILLING MEASURED FROM
 EKB .F              5257:   KELLING BUSHING
 EGL .F              5253:   GROUND LEVEL
 DATE.           7-3-1978:   RUN DATE
 RUN .                  1:   RUN NUMBER
 DD  .F               650:   DEPTH DRILLER
 DL  .F               648:   DEPTH LOGGER
 BLI .F               642:   BOTTOM LOG INTERVAL
 TLI .F                40:   TOP LOG INTERVAL
 CS  .IN            8.625:   CASING SIZE
 CBD .F                40:   CASING BOTTOM DRILLER
 CBL .F                40:   CASING BOTTOM LOGGER
 BS  .IN            7.875:   BIT SIZE
 BSD .F               650:   BIT SIZE AT DEPTH
 DFT .                KCL:   DRILLING FLUID TYPE
 DFD .                8.6:   DRILLING FLUID DENSITY
 DFV .                 32:   DRILLING FLUID VISCOSITY
 DFPH.                  9:   DRILLING FLUID PH
 MSS .           FLOWLINE:   MUD SAMPLE SOURCE
 RMS .OHMM            .24:   RESISTIVITY MUD SAMPLE
 MST .F                88:   MUD SAMPLE TEMPERATURE
 RMF .OHMM            .24:   RESISTIVITY MUD FILTRATE SAMPLE
 MFST.F                94:   MUD FILTRATE SAMPLE TEMPERATURE
 RMC .OHMM            .46:   RESISTIVITY MUD CAKE
 MCST.F                96:   MUD CAKE SAMPLE TEMPERATURE
 MFSS.               MEAS:   MUD FILTRATE SAMPLE SOURCE
 MCSS.               MEAS:   MUD CAKE SAMPLE SOURCE
 TCS .HRS               2:   TIME CURCULATED STOPPED
 LUN .               2958:   LOGGING UNIT NUMBER
 LUL .               CASP:   LOGGING UNIT LOCATION
 CLNT.            A2DTECH:   CLIENT CODE
 ORIG.           5" PRINT:   ORIGIN OF DATA
 UWI .       490251065400:   UNIQUE WELL ID
 DICO. A2D Technologies, Inc.:   DIGITIZING COMPANY
~OTHER INFORMATION
~A   DEPT      SPR         SN        ILD       CALD        GRD       CORR       DPHI        DEN   
   29.0000  -999.2500  -999.2500  -999.2500  -999.2500  -999.2500  -999.2500  -999.2500  -999.2500
   29.5000  -999.2500  -999.2500  -999.2500  -999.2500    84.3922  -999.2500  -999.2500  -999.2500
   30.0000  -999.2500  -999.2500  -999.2500  -999.2500    81.6814  -999.2500  -999.2500  -999.2500
   30.5000  -999.2500  -999.2500  -999.2500  -999.2500    80.0251  -999.2500  -999.2500  -999.2500
   31.0000  -999.2500  -999.2500  -999.2500  -999.2500    73.9646  -999.2500  -999.2500  -999.2500
   31.5000  -999.2500  -999.2500  -999.2500  -999.2500    73.3421  -999.2500  -999.2500  -999.2500
   32.0000  -999.2500  -999.2500  -999.2500  -999.2500    74.7257  -999.2500  -999.2500  -999.2500
   32.5000  -999.2500  -999.2500  -999.2500  -999.2500    75.7079  -999.2500  -999.2500  -999.2500
   33.0000  -999.2500  -999.2500  -999.2500  -999.2500    74.1524  -999.2500  -999.2500  -999.2500
   33.5000  -999.2500  -999.2500  -999.2500  -999.2500    70.6667  -999.2500  -999.2500  -999.2500
   34.0000  -999.2500  -999.2500  -999.2500  -999.2500    69.1799  -999.2500  -999.2500  -999.2500
   34.5000  -999.2500  -999.2500  -999.2500  -999.2500    67.5772  -999.2500  -999.2500  -999.2500
   35.0000  -999.2500  -999.2500  -999.2500  -999.2500    66.8731  -999.2500  -999.2500  -999.2500
   35.5000  -999.2500  -999.2500  -999.2500  -999.2500    67.3756  -999.2500  -999.2500  -999.2500
   36.0000  -999.2500  -999.2500  -999.2500  -999.2500    68.8102  -999.2500  -999.2500  -999.2500
   36.5000  -999.2500  -999.2500  -999.2500  -999.2500    68.4646  -999.2500  -999.2500  -999.2500
   37.0000  -999.2500  -999.2500  -999.2500  -999.2500    66.3216  -999.2500  -999.2500  -999.2500
   37.5000  -999.2500  -999.2500  -999.2500  -999.2500    62.9055  -999.2500  -999.2500  -999.2500
   38.0000  -999.2500  -999.2500  -999.2500  -999.2500    63.8643  -999.2500  -999.2500  -999.2500
   38.5000  -999.2500  -999.2500  -999.2500  -999.2500    67.7787  -999.2500  -999.2500  -999.2500
   39.0000  -999.2500  -999.2500  -999.2500  -999.2500    65.8210  -999.2500  -999.2500  -999.2500
   39.5000  -999.2500  -999.2500  -999.2500  -999.2500    61.1474  -999.2500  -999.2500  -999.2500
   40.0000  -999.2500  -999.2500  -999.2500  -999.2500    63.0973  -999.2500  -999.2500  -999.2500
   40.5000    12.6214     4.1618     2.3463     8.5651    76.3117     0.0013     0.1958     2.4049
   41.0000    -1.3166     4.9465     2.6206     8.3407    85.9970     0.0058     0.1949     2.3825
   41.5000    -5.0079     5.8782     2.5514     8.3108    90.1180     0.0087     0.1835     2.4071
   42.0000    -7.9562     5.9224     3.2744     8.3259    93.4789     0.0147     0.1847     2.4131
   42.5000   -10.3101     5.2720     5.0139     8.3410    92.9867     0.0206     0.1907     2.3892
   43.0000   -11.0355     5.0620     5.0862     8.3561    88.8899     0.0251     0.2057     2.3757
   43.5000   -11.4578     4.9276     4.7525     8.3562    88.1622     0.0295     0.2135     2.3607
   44.0000   -11.5780     4.8625     4.6589     8.3563    89.5221     0.0325     0.2240     2.3368
   44.5000   -11.2564     4.7990     4.5985     8.2666    95.7443     0.0280     0.2464     2.3016
   45.0000   -10.3415     4.8692     4.6980     8.2667   100.5949    -0.0004     0.2889     2.2709
   45.5000    -9.7236     5.1833     4.7339     8.2668   105.5015    -0.0139     0.3081     2.2260
   46.0000    -9.5513     6.4635     5.0129     8.2370   113.1465    -0.0155     0.3249     2.1819
   46.5000    -9.5275     7.1212     6.2513     8.2221   115.7610     0.0010     0.2566     2.1938
   47.0000    -9.5037     7.6329     7.6277     8.2222   114.2714     0.0084     0.2006     2.2955
   47.5000    -9.4754     8.0753     8.6395     8.2223   106.6889     0.0009     0.1893     2.3673
   48.0000    -9.6005     8.4784     9.7184     8.2374    97.7601    -0.0126     0.1955     2.4002
   48.5000   -10.6172     8.8542     9.5270     8.2375    92.1637    -0.0216     0.2228     2.3867
   49.0000   -11.1940     9.3422     9.6661     8.2526    88.7847    -0.0141     0.2219     2.3471
   49.5000   -11.7649     9.7417     9.9431     8.2677    88.9376     0.0023     0.2093     2.3418
   50.0000   -12.3358    10.0888    10.2987     8.2678    98.2301     0.0082     0.2027     2.3665
   50.5000   -12.9008    10.3765    10.8147     8.2379    94.5457     0.0082     0.2057     2.3740
   51.0000   -13.4717    10.8203    11.4350     8.2380   101.9233     0.0141     0.2105     2.3739
   51.5000   -13.8940    11.2058    11.8439     8.2381    92.7817     0.0096     0.2060     2.3739
   52.0000   -14.3163    11.6049    12.1834     8.1933    93.0797    -0.0024     0.2030     2.3717
   52.5000   -14.7445    11.9360    12.5413     8.1485    98.8348     0.0006     0.2279     2.3567
   53.0000   -15.1620    12.0257    12.9033     8.1187    96.3304     0.0170     0.2294     2.3298
   53.5000   -15.5833    12.1997    13.2636     8.1188    93.2360     0.0200     0.2252     2.3253
   54.0000   -15.7088    12.2071    13.2735     8.0740    90.7316     0.0095     0.2138     2.3462
   54.5000   -15.6850    12.2989    13.4673     7.9993    89.2596     0.0050     0.2016     2.3581
   55.0000   -15.8101    12.3064    13.5704     7.9844    87.7876     0.0034     0.1953     2.3671
   55.5000   -15.7860    12.3139    13.5804     7.9396    88.3806     0.0139     0.1899     2.3955
   56.0000   -15.7632    12.3215    13.4949     7.9247    90.8909     0.0198     0.1836     2.4007
   56.5000   -15.8883    12.3291    13.4123     7.8799    94.2862     0.0138     0.1812     2.4044
   57.0000   -15.8590    12.3368    13.3303     7.8202    96.6490     0.0198     0.1851     2.4053
   57.5000   -15.8356    12.2594    13.3426     7.7604    97.0944     0.0392     0.2091     2.4037
   58.0000   -15.6635    12.2687    13.3526     7.7605    96.7945     0.0481     0.2184     2.3618
   58.5000   -15.6401    12.3609    13.3625     7.8055    97.8378     0.0466     0.2169     2.3386
   59.0000   -15.6166    12.3685    13.3768     7.8805    98.1357     0.0256     0.2130     2.3356
   59.5000   -15.5932    12.2893    13.7560     7.9704    96.9587     0.0032     0.2184     2.3587
   60.0000   -15.4211    12.2987    14.1525     8.0453    89.5871     0.0046     0.2334     2.3266
   60.5000   -15.3977    12.3062    14.4583     8.1802    88.8525     0.0061     0.2172     2.3355
   61.0000   -15.3742    12.3137    14.5689     8.2701    89.4455     0.0031     0.2148     2.3437
   61.5000   -15.3508    12.3212    14.8837     8.3151    92.1033    -0.0074     0.2100     2.3564
   62.0000   -15.3273    12.3287    14.9976     8.3601    94.3186    -0.0089     0.2315     2.3624
   62.5000   -15.3039    12.3362    15.1123     8.3902    95.3540     0.0075     0.2307     2.3280
   63.0000   -15.2804    12.3438    15.3330     8.4202    97.4219     0.0059     0.2238     2.3205
   63.5000   -15.2570    12.3513    15.4503     8.4203   100.2272     0.0029     0.2187     2.3384
   64.0000   -15.3821    12.3589    15.4618     8.4055   100.9676     0.0199     0.2151     2.3249
   64.5000   -15.3581    12.3665    15.4733     8.3906   100.2331     0.0253     0.2136     2.3474
   65.0000   -15.7810    12.3742    15.5917     8.3757    96.6962     0.0111     0.2154     2.3563
   65.5000   -16.3460    12.3834    15.6034     8.3609    93.7493     0.0043     0.2289     2.3518
   66.0000   -16.4770    12.3060    15.6152     8.3161    87.4101     0.0073     0.2232     2.3316
   66.5000   -16.8993    12.3135    15.6293     8.3012    87.5606     0.0072     0.2181     2.3406
   67.0000   -16.8700    12.2347    15.6409     8.2863    90.6609     0.0041     0.2136     2.3480
   67.5000   -17.0010    12.2440    15.5452     8.2715    92.8762    -0.0034     0.2067     2.3555
   68.0000   -17.1203    12.2515    15.5568     8.2566    94.5016    -0.0108     0.2055     2.3667
   68.5000   -17.0968    12.2589    15.5683     8.2717    93.7671    -0.0107     0.2148     2.3697
   69.0000   -17.2278    12.1805    15.4702     8.2718    90.2302    -0.0048     0.2196     2.3554
