~VERSION INFORMATION
 VERS.                2.0:   CWLS LOG ASCII STANDARD - VERSION 2.0
 WRAP.                 NO:   ONE LINE PER DEPTH STEP
~WELL INFORMATION
#MNEM.UNIT      DATA TYPE    INFORMATION
#----------   ------------   ------------------------------
 STRT.F          714.0000:   START DEPTH
 STOP.F         1640.0000:   STOP DEPTH
 STEP.F            0.5000:   STEP LENGTH
 NULL.          -999.2500:   NO VALUE
 COMP. BROWN JOHN E&C INC:   COMPANY
 WELL. NPR 3 STX-15 #83-15:   WELL
 FLD .             TEAPOT:   FIELD
 LOC .      S15 T38N R78W:   LOCATION
 CNTY.            NATRONA:   COUNTY
 STAT.            WYOMING:   STATE
 CTRY. UNITED STATES OF AMERICA:   COUNTRY
 SRVC.            Unknown:   SERVICE COMPANY
 DATE.        30-AUG-1991:   LOGDATE
 API .       490251111300:   API NUMBER
~CURVE INFORMATION
#MNEM.UNIT       API CODE    CURVE DESCRIPTION
#----------   ------------   ------------------------------
 DEPT.F                  :   
 TGAS.UNITS  91 830 01 00:   TOTAL GAS FROM HOTWIRE
 C1  .VF     91 831 01 00:   METHANE
 C2  .VF     91 832 01 00:   ETHANE
 C3  .VF     91 833 01 00:   PROPANE
 C4  .VF     91 834 01 00:   BUTANE
 ROP .MIN/FT 91 810 01 00:   RAT OF DRILLING PENETRATION
~PARAMETER INFORMATION
#MNEM.UNIT          VALUE    DESCRIPTION
#----------   ------------   ------------------------------
 EKB .F              5265:   KELLING BUSHING
 EGL .F              5255:   GROUND LEVEL
 DATE.            5-30-91:   RUN DATE
 DD  .F              1626:   DEPTH DRILLER
 TCS .HRS            1200:   TIME CURCULATED STOPPED
 TLAB.HRS            1815:   TIME LOGGER AT BOTTOM
 ENGI.               HUSK:   RECORDING ENGINEER
 WITN.              TOWER:   WITNESSED BY
 CLNT.            A2DTECH:   CLIENT CODE
 ORIG.           5" PRINT:   ORIGIN OF DATA
 UWI .       490251111300:   UNIQUE WELL ID
 DICO. A2D Technologies, Inc.:   DIGITIZING COMPANY
~OTHER INFORMATION
~A   DEPT     TGAS         C1         C2         C3         C4          ROP 
# ...
 1494.0000    50.7434     9.2130     2.3993     3.3995  -999.2500     0.9499
 1494.5000    49.9170     9.0443     2.3216     3.3463  -999.2500     0.9575
 1495.0000    49.0897     8.8751     2.2441     3.2657  -999.2500     0.9651
 1495.5000    48.2633     8.7225     2.1664     3.2231  -999.2500     0.9727
 1496.0000    47.4371     8.3528     2.0888     3.1289  -999.2500     0.9765
 1496.5000    45.9773     8.0177     2.0111     3.1030  -999.2500     0.9710
 1497.0000    43.8877     7.6807     1.9336     2.7866  -999.2500     0.9655
 1497.5000    41.7954     7.3464     1.8559     2.3711  -999.2500     0.9600
 1498.0000    39.7061     7.0088     1.7878     1.8288  -999.2500     0.9545
 1498.5000    37.6136     6.6750  -999.2500     1.3852  -999.2500     0.9489
 1499.0000    35.5243     6.3370  -999.2500     1.2431  -999.2500     0.9435
 1499.5000    33.4319     6.0036  -999.2500     1.2793  -999.2500     0.9379
 1500.0000    31.5514     5.6989  -999.2500     1.1131  -999.2500     0.9325
 1500.5000    30.8158     5.6206  -999.2500     1.1576  -999.2500     0.9283
 1501.0000    30.1488     5.5450  -999.2500    10.0000  -999.2500     0.9057
 1501.5000    29.4807     5.4687  -999.2500    10.0000  -999.2500     0.8875
 1502.0000    27.2957     9.2908  -999.2500    10.0000  -999.2500     0.8695
 1502.5000    25.0051    12.7910  -999.2500    10.0000  -999.2500     0.8513
 1503.0000    25.0042    12.9285  -999.2500     8.8367  -999.2500     0.8332
 1503.5000    25.0051    13.0502  -999.2500     6.1545  -999.2500     0.8151
 1504.0000    25.0036    13.1705  -999.2500     6.0533  -999.2500     0.7970
 1504.5000    25.0047    13.2914  -999.2500     6.1381  -999.2500     0.7788
 1505.0000    25.0027    13.4123  -999.2500    10.0000  -999.2500     0.7608
 1505.5000    25.0040    13.5327  -999.2500    10.0000  -999.2500     0.7426
 1506.0000    25.0019    13.6541     5.9619    10.0000  -999.2500     0.7291
 1506.5000    25.0030    13.7741     5.9420    10.0000  -999.2500     0.7387
 1507.0000    25.0012    13.8957     5.9611    10.0000  -999.2500     0.7466
 1507.5000    25.0020    14.0156     5.9434    10.0000  -999.2500     0.7543
 1508.0000    25.0008    14.1372     5.9596    10.0000  -999.2500     0.7621
 1508.5000    25.0014    14.2575     5.9454    10.0000  -999.2500     0.7699
 1509.0000    25.0007    14.3786     5.9577    10.0000  -999.2500     0.7777
 1509.5000    25.0009    14.4994     5.9475     9.9441  -999.2500     0.7854
 1510.0000    25.0000    14.6216     5.9559     8.5947  -999.2500     0.7933
 1510.5000    25.0000    14.7425     5.9494     7.2775  -999.2500     0.8010
 1511.0000    24.9999    14.8634     5.9544     6.0931  -999.2500     0.8088
 1511.5000    24.9998    14.9842     5.9509     6.1008  -999.2500     0.8166
 1512.0000    24.9996    15.1051     5.9535     6.0947  -999.2500     0.8244
 1512.5000    24.9996    15.2260     6.1131     6.0996  -999.2500     0.8322
 1513.0000    24.9994    15.3468     6.4117     6.0989  -999.2500     0.8399
 1513.5000    25.0010    15.4677     6.7084     6.1016  -999.2500     0.8477
 1514.0000    25.0025    15.5886     7.0059     6.1024  -999.2500     0.8536
 1514.5000    25.0058    15.7160     7.3032     6.1049  -999.2500     0.8515
 1515.0000    25.0209    15.8393     7.6008     6.1067  -999.2500     0.8498
 1515.5000    25.0246    15.9546     7.8982     6.1084  -999.2500     0.8482
 1516.0000    25.0396    16.0765     8.1950     6.1083  -999.2500     0.8465
 1516.5000    25.0435    16.1994     8.4923     6.1118  -999.2500     0.8449
 1517.0000    25.0639    16.3209     8.7905     6.1099  -999.2500     0.8432
 1517.5000    25.0478    16.4439     9.0889     6.1153  -999.2500     0.8415
 1518.0000    25.0741    16.5655     9.3872     6.1122  -999.2500     0.8399
 1518.5000    24.6847    16.6882     9.6841     6.1160  -999.2500     0.8382
 1519.0000    24.1779    16.8081     9.9812     6.1121  -999.2500     0.8366
 1519.5000    23.5874    16.9298    10.2780     6.0976  -999.2500     0.8349
 1520.0000    23.0983    17.0498    10.5748     6.0976  -999.2500     0.8332
 1520.5000    22.6471    17.1718    11.3077     8.3419  -999.2500     0.8316
 1521.0000    26.2159    17.2912    12.4860  -999.2500     3.8124     0.8299
 1521.5000    34.5398    17.4139    15.1025  -999.2500     9.6805     0.8283
 1522.0000    46.2905    33.9800    19.3104  -999.2500    20.0000     0.8266
 1522.5000    93.2371    58.7754    23.5184  -999.2500    20.0000     0.8249
 1523.0000   159.5917    82.5622    28.3381  -999.2500    20.0000     0.8233
 1523.5000   225.7630   118.8876    33.4930  -999.2500    20.0000     0.8216
 1524.0000   292.1001   153.8062    38.6471  -999.2500    20.0000     0.8200
 1524.5000   360.6441   188.7248    46.1984  -999.2500    20.0000     0.8183
 1525.0000   383.3281   223.6434    57.1380  -999.2500    20.0000     0.8163
 1525.5000   399.7102   258.5620    68.0792  -999.2500    20.0000     0.8315
 1526.0000   413.8395   294.1860    73.9895  -999.2500    20.0000     0.8518
 1526.5000   416.9965   301.2202    76.3470  -999.2500    20.0000     0.8721
 1527.0000   415.9462   301.3736    78.7021  -999.2500    20.0000     0.8924
 1527.5000   414.8042   301.5271    79.7501  -999.2500    20.0000     0.9127
 1528.0000   413.7399   301.6806    79.7486  -999.2500    20.0000     0.9330
 1528.5000   412.6112   301.8341    79.7494  -999.2500    20.0000     0.9533
 1529.0000   411.5356   301.9876    79.7482  -999.2500    20.0000     0.9736
 1529.5000   410.6590   302.1411    79.7500  -999.2500    20.0000     0.9939
 1530.0000   410.6749   302.2946    79.7485  -999.2500    20.0000     1.0142
 1530.5000   410.6733   302.4481    79.7501  -999.2500    20.0000     1.0345
 1531.0000   410.6877   302.6016    79.7486  -999.2500    20.0000     1.0548
 1531.5000   410.6902   302.7550    79.0259  -999.2500    20.0000     1.0751
 1532.0000   410.7025   302.9085    78.3518  -999.2500    20.0000     1.0903
 1532.5000   410.7054   303.0620    77.6815  -999.2500    20.0000     1.1039
 1533.0000   410.7078   303.2155    77.0074  -999.2500    20.0000     1.1148
 1533.5000   410.7086   303.3690    76.3378  -999.2500    20.0000     1.1257
 1534.0000   410.7105   303.4884    75.6619  -999.2500    20.0000     1.1366
 1534.5000   410.7088   299.7364    74.9985  -999.2500    20.0000     1.1475
 1535.0000   407.2284   296.6667    72.2901  -999.2500    20.0000     1.1584
 1535.5000   401.9512   293.5969    69.6153  -999.2500    20.0000     1.1694
 1536.0000   396.6765   290.5271    66.9335  -999.2500    20.0000     1.1774
 1536.5000   391.3995   287.4574    64.2589  -999.2500    20.0000     1.1546
 1537.0000   387.9453   284.3876    64.0447  -999.2500    20.0000     1.1361
 1537.5000   385.7087   281.3178    60.1200  -999.2500    20.0000     1.1179
 1538.0000   383.4735   278.2480    56.1898  -999.2500    20.0000     1.0994
 1538.5000   381.2373   275.5814    52.2643  -999.2500    20.0000     1.0812
 1539.0000   379.0015   272.8314    48.8111  -999.2500    20.0000     1.0627
 1539.5000   376.7654   270.4035    48.8137  -999.2500    20.0000     1.0445
 1540.0000   374.5293   267.9761    48.8129  -999.2500    20.0000     1.0260
 1540.5000   372.2934   265.1134    48.8124  -999.2500    20.0000     1.0032
 1541.0000   370.0572   261.2388    48.8136  -999.2500    20.0000     1.0041
 1541.5000   367.8213   257.3627    48.8110  -999.2500    20.0000     1.0056
 1542.0000   365.5852   253.4877    47.3973  -999.2500    20.0000     1.0069
 1542.5000   363.3492   249.6113    44.5597  -999.2500    20.0000     1.0084
 1543.0000   361.1117   245.7357    41.7297  -999.2500    20.0000     1.0097
 1543.5000   358.8751   241.8602    38.8916  -999.2500    20.0000     1.0111
 1544.0000   356.6373   237.9836    36.9115  -999.2500    20.0000     1.0124
 1544.5000   354.4012   234.1091    36.9073  -999.2500    20.0000     1.0139
 1545.0000   352.1638   230.2316    36.9106  -999.2500    20.0000     1.0156
 1545.5000   349.9283   226.3580    36.9060  -999.2500    20.0000     1.0071
