~VERSION INFORMATION
 VERS.                2.0:   CWLS LOG ASCII STANDARD - VERSION 2.0
 WRAP.                 NO:   ONE LINE PER DEPTH STEP
~WELL INFORMATION
#MNEM.UNIT      DATA TYPE    INFORMATION
#----------   ------------   ------------------------------
 STRT.F           15.0000:   START DEPTH
 STOP.F         5640.0000:   STOP DEPTH
 STEP.F            0.5000:   STEP LENGTH
 NULL.          -999.2500:   NO VALUE
 COMP.       F D SERV INC:   COMPANY
 WELL. NAVAL PETROLEUM RESERVE 3 SX-1 #43-10:   WELL
 FLD .         N.P.R. #.3:   FIELD
 LOC .      S10 T38N R78W:   LOCATION
 CNTY.            NATRONA:   COUNTY
 STAT.            WYOMING:   STATE
 CTRY. UNITED STATES OF AMERICA:   COUNTRY
 SRVC.      Dresser Atlas:   SERVICE COMPANY
 DATE.        05-JUL-1986:   LOGDATE
 API .       490251101800:   API NUMBER
~CURVE INFORMATION
#MNEM.UNIT       API CODE    CURVE DESCRIPTION
#----------   ------------   ------------------------------
 DEPT.F                  :   
 GRR .GAPI   07 310 01 00:   GAMMA RAY
 ILD .OHMM   07 120 46 00:   INDUCTION LOG DEEP
 ILM .OHMM   07 120 44 00:   INDUCTION LOG MEDIUM
 CALS.IN     60 280 50 00:   CALIPER FROM SONIC LOG
 GRS .GAPI   60 310 01 00:   GAMMA RAY FROM SONIC LOG
 AC  .US/F   60 520 00 00:   ACCOUSTIC
~PARAMETER INFORMATION
#MNEM.UNIT          VALUE    DESCRIPTION
#----------   ------------   ------------------------------
 PD  .                 GL:   PERMANENT DATUM
 EPD .F              5205:   ELEVATION PERMANENT DATUM
 LMF .                 KB:   LOG MEASURED FROM
 DAPD.F                 5:   FEET ABOVE PERMANENT DATUM
 DMF .                 KB:   DRILLING MEASURED FROM
 EKB .F              5210:   KELLING BUSHING
 EGL .F              5205:   GROUND LEVEL
 DATE.        05-JUL-1986:   RUN DATE
 RUN .                  1:   RUN NUMBER
 DD  .F               560:   DEPTH DRILLER
 DL  .F               560:   DEPTH LOGGER
 BLI .F               550:   BOTTOM LOG INTERVAL
 TLI .F                15:   TOP LOG INTERVAL
 CS  .IN            8.625:   CASING SIZE
 CBD .F                47:   CASING BOTTOM DRILLER
 CBL .F                47:   CASING BOTTOM LOGGER
 BS  .IN            7.875:   BIT SIZE
 BSD .F               560:   BIT SIZE AT DEPTH
 DFT .                AIR:   DRILLING FLUID TYPE
 BHT .F                83:   BOTTOM HOLE TEMPERATURE
 TCS .HRS            2100:   TIME CURCULATED STOPPED
 TLAB.HRS            2230:   TIME LOGGER AT BOTTOM
 MRT .F                83:   MAXIMUM RECORDED TEMPERATURE
 LUN .               7609:   LOGGING UNIT NUMBER
 LUL .           GILLETTE:   LOGGING UNIT LOCATION
 ENGI.              BAURT:   RECORDING ENGINEER
 CLNT.            A2DTECH:   CLIENT CODE
 ORIG. 1" 2" 2.5", 5" PRINT:   ORIGIN OF DATA
 UWI .       490251101800:   UNIQUE WELL ID
 DICO. A2D Technologies, Inc.:   DIGITIZING COMPANY
 R2  . HEADER NOT CLEARLY VISIBLE:   REMARKS 2
~OTHER INFORMATION
~A   DEPT       GRR       ILD        ILM       CALS        GRS         AC   
# ...
 4851.0000  -999.2500  -999.2500  -999.2500    10.8627   109.2719    64.9598
 4851.5000  -999.2500  -999.2500  -999.2500    10.8622    99.3650    64.8115
 4852.0000  -999.2500  -999.2500  -999.2500    10.8618    96.6291    64.7360
 4852.5000  -999.2500  -999.2500  -999.2500    10.8614    95.4083    64.5852
 4853.0000  -999.2500  -999.2500  -999.2500    10.8608    91.1572    64.5852
 4853.5000  -999.2500  -999.2500  -999.2500    10.8452    89.6333    64.8869
 4854.0000  -999.2500  -999.2500  -999.2500    10.8296    89.3195    65.7362
 4854.5000  -999.2500  -999.2500  -999.2500    10.8141    89.6138    66.4706
 4855.0000  -999.2500  -999.2500  -999.2500    10.7985    92.9385    66.9985
 4855.5000  -999.2500  -999.2500  -999.2500    10.8132   102.0207    67.3001
 4856.0000  -999.2500  -999.2500  -999.2500    10.8127   108.0727    67.4510
 4856.5000  -999.2500  -999.2500  -999.2500    10.8122   107.4166    67.5301
 4857.0000  -999.2500  -999.2500  -999.2500    10.7966   105.9319    67.6772
 4857.5000  -999.2500  -999.2500  -999.2500    10.7659   104.4080    67.9035
 4858.0000  -999.2500  -999.2500  -999.2500    10.7352   102.2782    68.4314
 4858.5000  -999.2500  -999.2500  -999.2500    10.7346   102.5725    68.6576
 4859.0000  -999.2500  -999.2500  -999.2500    10.7190   106.3304    68.6604
 4859.5000  -999.2500  -999.2500  -999.2500    10.6732   112.2499    68.0201
 4860.0000  -999.2500  -999.2500  -999.2500    10.6349   114.3646    66.9231
 4860.5000  -999.2500  -999.2500  -999.2500    10.5965   112.2326    66.0935
 4861.0000  -999.2500  -999.2500  -999.2500    10.5506   107.0724    65.7164
 4861.5000  -999.2500  -999.2500  -999.2500    10.5350   100.9248    65.4902
 4862.0000  -999.2500  -999.2500  -999.2500    10.5194    97.3581    64.8721
 4862.5000  -999.2500  -999.2500  -999.2500    10.4734    98.5593    63.9065
 4863.0000  -999.2500  -999.2500  -999.2500    10.4427    97.6416    63.4540
 4863.5000  -999.2500  -999.2500  -999.2500    10.4119    90.9662    63.6048
 4864.0000  -999.2500  -999.2500  -999.2500    10.4115    85.2000    64.3590
 4864.5000  -999.2500  -999.2500  -999.2500    10.4111    83.3731    64.8869
 4865.0000  -999.2500  -999.2500  -999.2500    10.4105    88.2107    64.5852
 4865.5000  -999.2500  -999.2500  -999.2500    10.3949    92.7475    63.7557
 4866.0000  -999.2500  -999.2500  -999.2500    10.3945    94.8600    62.9261
 4866.5000  -999.2500  -999.2500  -999.2500    10.3941    95.1732    62.0965
 4867.0000  -999.2500  -999.2500  -999.2500    10.3936    93.5536    61.5686
 4867.5000  -999.2500  -999.2500  -999.2500    10.3628    88.7712    61.1037
 4868.0000  -999.2500  -999.2500  -999.2500    10.3472    83.0050    60.2866
 4868.5000  -999.2500  -999.2500  -999.2500    10.3165    80.8751    59.9095
 4869.0000  -999.2500  -999.2500  -999.2500    10.3009    79.3513    59.6078
 4869.5000  -999.2500  -999.2500  -999.2500    10.3005    76.5478    59.5324
 4870.0000  -999.2500  -999.2500  -999.2500    10.2848    70.5439    59.8341
 4870.5000  -999.2500  -999.2500  -999.2500    10.2843    66.8988    60.2112
 4871.0000  -999.2500  -999.2500  -999.2500    10.2839    69.3144    60.3620
 4871.5000  -999.2500  -999.2500  -999.2500    10.2835    71.7299    60.5882
 4872.0000  -999.2500  -999.2500  -999.2500    10.2830    73.2512    61.1916
 4872.5000  -999.2500  -999.2500  -999.2500    10.2825    75.0459    61.6440
 4873.0000  -999.2500  -999.2500  -999.2500    10.2821    75.3381    61.9457
 4873.5000  -999.2500  -999.2500  -999.2500    10.2969    75.9355    61.5686
 4874.0000  -999.2500  -999.2500  -999.2500    10.3266    78.9571    61.1161
 4874.5000  -999.2500  -999.2500  -999.2500    10.3111    80.4636    60.6637
 4875.0000  -999.2500  -999.2500  -999.2500    10.3105    76.5133    60.2866
 4875.5000  -999.2500  -999.2500  -999.2500    10.3253    74.9895    60.1357
 4876.0000  -999.2500  -999.2500  -999.2500    10.3248    75.8899    59.9849
 4876.5000  -999.2500  -999.2500  -999.2500    10.3244    76.4895    59.6078
 4877.0000  -999.2500  -999.2500  -999.2500    10.3391    75.5695    59.1554
 4877.5000  -999.2500  -999.2500  -999.2500    10.3387    73.6707    58.7783
 4878.0000  -999.2500  -999.2500  -999.2500    10.3533    69.4894    58.4766
 4878.5000  -999.2500  -999.2500  -999.2500    10.3528    66.7535    58.1750
 4879.0000  -999.2500  -999.2500  -999.2500    10.3677    63.4114    58.2504
 4879.5000  -999.2500  -999.2500  -999.2500    10.3974    59.4634    58.9291
 4880.0000  -999.2500  -999.2500  -999.2500    10.4121    58.2425    59.7587
 4880.5000  -999.2500  -999.2500  -999.2500    10.4269    59.7469    60.3620
 4881.0000  -999.2500  -999.2500  -999.2500    10.4416    64.8897    61.0456
 4881.5000  -999.2500  -999.2500  -999.2500    10.4563    67.0022    61.8703
 4882.0000  -999.2500  -999.2500  -999.2500    10.4709    69.4178    62.7753
 4882.5000  -999.2500  -999.2500  -999.2500    10.4874    72.1463    63.8399
 4883.0000  -999.2500  -999.2500  -999.2500    10.5155    78.4892    65.4148
 4883.5000  -999.2500  -999.2500  -999.2500    10.5149    93.0260    65.8673
 4884.0000  -999.2500  -999.2500  -999.2500    10.5145    99.0779    65.8475
 4884.5000  -999.2500  -999.2500  -999.2500    10.5141   108.7662    64.8869
 4885.0000  -999.2500  -999.2500  -999.2500    10.5136   112.6969    63.6802
 4885.5000  -999.2500  -999.2500  -999.2500    10.5283   106.3378    62.7753
 4886.0000  -999.2500  -999.2500  -999.2500    10.5278    95.7077    62.5389
 4886.5000  -999.2500  -999.2500  -999.2500    10.5274    92.9739    63.5405
 4887.0000  -999.2500  -999.2500  -999.2500    10.5270    98.4176    64.4344
 4887.5000  -999.2500  -999.2500  -999.2500    10.5720   103.8635    65.1131
 4888.0000  -999.2500  -999.2500  -999.2500    10.5867   109.1352    65.1885
 4888.5000  -999.2500  -999.2500  -999.2500    10.6013   111.4219    64.2081
 4889.0000  -999.2500  -999.2500  -999.2500    10.6009   107.1686    63.1523
 4889.5000  -999.2500  -999.2500  -999.2500    10.6156   102.6144    62.2132
 4890.0000  -999.2500  -999.2500  -999.2500    10.6303    94.7270    61.1161
 4890.5000  -999.2500  -999.2500  -999.2500    10.6450    84.9519    60.3620
 4891.0000  -999.2500  -999.2500  -999.2500    10.6445    81.0711    59.8341
 4891.5000  -999.2500  -999.2500  -999.2500    10.6441    74.6988    59.6833
 4892.0000  -999.2500  -999.2500  -999.2500    10.6588    73.7810    59.7587
 4892.5000  -999.2500  -999.2500  -999.2500    10.6894    74.9845    60.2112
 4893.0000  -999.2500  -999.2500  -999.2500    10.7184    73.7612    61.3424
 4893.5000  -999.2500  -999.2500  -999.2500    10.7332    71.3286    62.2474
 4894.0000  -999.2500  -999.2500  -999.2500    10.7479    70.4108    62.6998
 4894.5000  -999.2500  -999.2500  -999.2500    10.7474    78.5839    62.7010
 4895.0000  -999.2500  -999.2500  -999.2500    10.7621    84.9389    62.3982
 4895.5000  -999.2500  -999.2500  -999.2500    10.7616    87.6575    62.3982
 4896.0000  -999.2500  -999.2500  -999.2500    10.7611    89.2083    62.1719
 4896.5000  -999.2500  -999.2500  -999.2500    10.7607    90.0644    61.7195
 4897.0000  -999.2500  -999.2500  -999.2500    10.7603    89.4475    60.9653
 4897.5000  -999.2500  -999.2500  -999.2500    10.7598    86.7115    59.9602
 4898.0000  -999.2500  -999.2500  -999.2500    10.7746    75.4907    58.7029
 4898.5000  -999.2500  -999.2500  -999.2500    10.7740    73.0005    58.5520
 4899.0000  -999.2500  -999.2500  -999.2500    10.7736    71.8348    58.9291
 4899.5000  -999.2500  -999.2500  -999.2500    10.7732    71.2201    59.2308
 4900.0000  -999.2500  -999.2500  -999.2500    10.7879    68.7879    59.0045
 4900.5000  -999.2500  -999.2500  -999.2500    10.7879    67.2757    58.5573
 4901.0000  -999.2500  -999.2500  -999.2500    10.7879    67.2793    58.0226
 4901.5000  -999.2500  -999.2500  -999.2500    10.7879    66.9792    57.7201
 4902.0000  -999.2500  -999.2500  -999.2500    10.7879    65.1639    58.6997
 4902.5000  -999.2500  -999.2500  -999.2500    10.8030    63.6517    60.5090
