~VERSION INFORMATION
 VERS.                2.0:   CWLS LOG ASCII STANDARD - VERSION 2.0
 WRAP.                 NO:   ONE LINE PER DEPTH STEP
~WELL INFORMATION
#MNEM.UNIT      DATA TYPE    INFORMATION
#----------   ------------   ------------------------------
 STRT.F           26.0000:   START DEPTH
 STOP.F          476.0000:   STOP DEPTH
 STEP.F            0.5000:   STEP LENGTH
 NULL.          -999.2500:   NO VALUE
 COMP. FENIX & SCISSON INC:   COMPANY
 WELL.         SX-3 #66-3:   WELL
 FLD .             TEAPOT:   FIELD
 LOC .       S3 T38N R78W:   LOCATION
 CNTY.            NATRONA:   COUNTY
 STAT.            WYOMING:   STATE
 CTRY. UNITED STATES OF AMERICA:   COUNTRY
 SRVC.              Welex:   SERVICE COMPANY
 DATE.        02-APR-1977:   LOGDATE
 API .       490251032800:   API NUMBER
~CURVE INFORMATION
#MNEM.UNIT       API CODE    CURVE DESCRIPTION
#----------   ------------   ------------------------------
 DEPT.F                  :   
 CALD.IN     45 280 60 00:   CALIPER FROM DENSITY LOG
 GRD .GAPI   45 310 01 00:   GAMMA RAY FROM DENSITY LOG
 CORR.G/C3   45 356 01 00:   DENSITY CORRECTION
 DPHI.DEC    45 890 12 00:   DENSITY POROSITY SANDSTONE
 RHOB.G/C3   45 350 01 00:   BULK DENSITY
~PARAMETER INFORMATION
#MNEM.UNIT          VALUE    DESCRIPTION
#----------   ------------   ------------------------------
 PD  .                 GL:   PERMANENT DATUM
 LMF .                 GL:   LOG MEASURED FROM
 DMF .                 GL:   DRILLING MEASURED FROM
 EGL .F              5152:   GROUND LEVEL
 DATE.        02-APR-1977:   RUN DATE
 RUN .                  1:   RUN NUMBER
 DD  .F               485:   DEPTH DRILLER
 DL  .F               480:   DEPTH LOGGER
 BLI .F               478:   BOTTOM LOG INTERVAL
 TLI .F                34:   TOP LOG INTERVAL
 CS  .IN            8.625:   CASING SIZE
 BS  .IN            7.875:   BIT SIZE
 BSD .F               485:   BIT SIZE AT DEPTH
 DFT .                KCL:   DRILLING FLUID TYPE
 DFD .                8.9:   DRILLING FLUID DENSITY
 BHT .F                61:   BOTTOM HOLE TEMPERATURE
 TCS .HRS            0300:   TIME CURCULATED STOPPED
 MRT .F                61:   MAXIMUM RECORDED TEMPERATURE
 ENGI.            C. DOAK:   RECORDING ENGINEER
 WITN.   R. B. HARRINGTON:   WITNESSED BY
 CLNT.            A2DTECH:   CLIENT CODE
 ORIG.           5" PRINT:   ORIGIN OF DATA
 UWI .       490251032800:   UNIQUE WELL ID
 DICO. A2D Technologies, Inc.:   DIGITIZING COMPANY
~OTHER INFORMATION
~A   DEPT       CALD      GRD       CORR       DPHI       RHOB   
# ...
  148.0000     7.9526   109.8323     0.0309     0.1215     2.4512
  148.5000     7.9392   106.7266     0.0355     0.1187     2.4595
  149.0000     7.9407   105.4010     0.0402     0.1157     2.4670
  149.5000     7.9422   103.9268     0.0433     0.1109     2.4745
  150.0000     7.9436   104.0833     0.0464     0.1091     2.4644
  150.5000     7.9424   106.1855     0.0420     0.1183     2.4560
  151.0000     7.9412   107.0893     0.0377     0.1312     2.4224
  151.5000     7.9400   105.0295     0.0348     0.1395     2.4068
  152.0000     7.9388   106.2345     0.0304     0.1434     2.4023
  152.5000     7.9377   106.1023     0.0290     0.1443     2.4009
  153.0000     7.9226   105.8174     0.0277     0.1389     2.4010
  153.5000     7.8946   107.6208     0.0248     0.1350     2.4190
  154.0000     7.8072   109.8660     0.0226     0.1358     2.4205
  154.5000     7.7322   111.4601     0.0181     0.1391     2.4101
  155.0000     7.7656   114.3550     0.0136     0.1367     2.4132
  155.5000     7.8413   113.9256     0.0087     0.1322     2.4199
  156.0000     7.9021   111.8617     0.0028     0.1301     2.4252
  156.5000     7.9184   109.9464    -0.0001     0.1292     2.4260
  157.0000     7.9051   110.4085    -0.0028     0.1252     2.4306
  157.5000     7.9065   111.0192     0.0049     0.1213     2.4471
  158.0000     7.9080   110.4412     0.0109     0.1291     2.4352
  158.5000     7.9095   108.0801     0.0049     0.1347     2.4226
  159.0000     7.9110   110.4739     0.0005     0.1488     2.4085
  159.5000     7.9124   112.8676    -0.0037     0.1547     2.3973
  160.0000     7.9139   113.6269    -0.0021     0.1526     2.3928
  160.5000     7.9154   112.6031    -0.0018     0.1499     2.3989
  161.0000     7.9169   110.1813     0.0011     0.1463     2.4034
  161.5000     7.9184   107.5587     0.0028     0.1427     2.4080
  162.0000     7.9199   104.9229     0.0059     0.1442     2.4110
  162.5000     7.9214   106.7263     0.0075     0.1495     2.3954
  163.0000     7.9229   109.4173     0.0091     0.1522     2.3924
  163.5000     7.9094   110.0280     0.0107     0.1543     2.3902
  164.0000     7.8961   108.7070     0.0093     0.1572     2.3851
  164.5000     7.8979   107.5347     0.0077     0.1656     2.3747
  165.0000     7.8991   106.5109     0.0021     0.1727     2.3620
  165.5000     7.9009   106.0774    -0.0023     0.1760     2.3554
  166.0000     7.9021   106.5436    -0.0037     0.1727     2.3637
  166.5000     7.9036   107.3029    -0.0035     0.1401     2.3996
  167.0000     7.9053   108.9537     0.0026     0.1338     2.4146
  167.5000     7.9065   111.6446     0.0087     0.1305     2.4206
  168.0000     7.9231   113.4440     0.0148     0.1284     2.4304
  168.5000     7.9394   113.7576     0.0194     0.1251     2.4394
  169.0000     7.9409   114.5168     0.0210     0.1221     2.4470
  169.5000     7.9572   115.1275     0.0242     0.1193     2.4515
  170.0000     7.9587   114.8467     0.0243     0.1211     2.4456
  170.5000     7.9601   113.0800     0.0244     0.1256     2.4337
  171.0000     7.9616   112.5020     0.0230     0.1309     2.4278
  171.5000     7.9479   112.8155     0.0216     0.1327     2.4204
  172.0000     7.9052   112.0889     0.0187     0.1330     2.4249
  172.5000     7.8770   108.3905     0.0159     0.1342     2.4182
  173.0000     7.8488   106.9210     0.0115     0.1380     2.4063
  173.5000     7.8206   107.9775     0.0042     0.1395     2.4131
  174.0000     7.8221   112.6001    -0.0017     0.1419     2.4147
  174.5000     7.8384   112.7650    -0.0076     0.1460     2.4005
  175.0000     7.8399   111.1469    -0.0075     0.1388     2.4066
  175.5000     7.8710   110.2717    -0.0073     0.1313     2.4238
  176.0000     7.9022   109.3965    -0.0057     0.1259     2.4373
  176.5000     7.9333   108.5213    -0.0056     0.1217     2.4464
  177.0000     7.9496   107.4975    -0.0025     0.1190     2.4509
  177.5000     7.9660   108.7026    -0.0009     0.1142     2.4577
  178.0000     7.9674   109.7590     0.0007     0.1076     2.4652
  178.5000     7.9689   110.2211     0.0053     0.1037     2.4735
  179.0000     7.9704   109.4946     0.0085     0.0977     2.4803
  179.5000     7.9719   107.4307     0.0101     0.0956     2.4841
  180.0000     7.9733   107.8928     0.0102     0.1061     2.4789
  180.5000     7.9600   108.3508     0.0103     0.1156     2.4625
  181.0000     7.9615   107.4797     0.0089     0.1204     2.4491
  181.5000     7.9481   108.2390     0.0106     0.1236     2.4425
  182.0000     7.9496   110.4842     0.0107     0.1206     2.4440
  182.5000     7.9512   113.0265     0.0123     0.1170     2.4546
  183.0000     7.9525   114.8259     0.0154     0.1143     2.4606
  183.5000     7.9540   116.7739     0.0185     0.1212     2.4547
  184.0000     7.9556   117.3846     0.0201     0.1193     2.4548
  184.5000     7.9572   117.5495     0.0232     0.1145     2.4645
  185.0000     7.9525   118.0116     0.0234     0.1196     2.4488
  185.5000     7.9451   116.6907     0.0235     0.1267     2.4399
  186.0000     7.9467   115.6669     0.0236     0.1335     2.4279
  186.5000     7.9481   115.6833     0.0222     0.1406     2.4107
  187.0000     7.9496   115.9968     0.0208     0.1477     2.3981
  187.5000     7.9361   115.7160     0.0210     0.1550     2.3853
  188.0000     7.9376   114.0978     0.0196     0.1655     2.3689
  188.5000     7.8797   112.4797     0.0182     0.1753     2.3524
  189.0000     7.8222   110.8616     0.0153     0.1825     2.3362
  189.5000     7.8089   109.9864     0.0125     0.1905     2.3220
  190.0000     7.8104   110.2999     0.0111     0.2045     2.3086
  190.5000     7.8267   113.1394     0.0082     0.2191     2.2911
  191.0000     7.8430   112.2642     0.0068     0.2275     2.2729
  191.5000     7.8593   108.5631     0.0024     0.2364     2.2556
  192.0000     7.8904   104.8621    -0.0034     0.2409     2.2404
  192.5000     7.9216   111.5690    -0.0063     0.2209     2.2831
  193.0000     7.9527   114.6712    -0.0002     0.2008     2.3108
  193.5000     7.9542   119.1797     0.0074     0.1772     2.3647
  194.0000     7.9557   124.6938     0.0135     0.1503     2.3969
  194.5000     7.9572   126.9389     0.0211     0.1383     2.4052
  195.0000     7.9587   122.3491     0.0228     0.1296     2.4254
  195.5000     7.9601   120.1366     0.0244     0.1242     2.4397
  196.0000     7.9616   120.7473     0.0245     0.1245     2.4278
  196.5000     7.9482   121.7997     0.0231     0.1281     2.4331
  197.0000     7.9647   122.4144     0.0217     0.1254     2.4391
  197.5000     7.9659   125.2540     0.0203     0.1268     2.4339
  198.0000     7.9676   125.5634     0.0175     0.1295     2.4258
  198.5000     7.9689   124.2424     0.0176     0.1277     2.4311
  199.0000     7.9706   125.4516     0.0177     0.1226     2.4453
  199.5000     7.9721   126.0623     0.0163     0.1220     2.4514
  200.0000     7.9730   125.1628     0.0135     0.1303     2.4316
  200.5000     7.9665   125.5019     0.0121     0.1347     2.4201
  201.0000     7.9610   127.3012     0.0137     0.1396     2.4059
  201.5000     7.9554   130.8836     0.0153     0.1488     2.3865
  202.0000     7.9499   127.9281     0.0168     0.1554     2.3813
  202.5000     7.9495   126.7557     0.0184     0.1562     2.3933
  203.0000     7.9359   124.3945     0.0185     0.1496     2.3993
  203.5000     7.9198   119.2102     0.0186     0.1457     2.4039
  204.0000     7.8882   117.8891     0.0171     0.1442     2.4039
  204.5000     7.8504   118.4997     0.0112     0.1421     2.4039
  205.0000     7.8519   119.9108     0.0068     0.1397     2.4084
  205.5000     7.8975   122.0998     0.0053     0.1364     2.4160
  206.0000     7.9136   123.3007     0.0054     0.1337     2.4227
  206.5000     7.9147   119.4577     0.0070     0.1313     2.4250
  207.0000     7.9159   116.3536     0.0071     0.1310     2.4220
  207.5000     7.9171   117.2614     0.0086     0.1301     2.4296
  208.0000     7.9183   118.6150     0.0087     0.1268     2.4371
  208.5000     7.9043   116.8481     0.0103     0.1241     2.4476
