~VERSION INFORMATION
 VERS.                2.0:   CWLS LOG ASCII STANDARD - VERSION 2.0
 WRAP.                 NO:   ONE LINE PER DEPTH STEP
~WELL INFORMATION
#MNEM.UNIT      DATA TYPE    INFORMATION
#----------   ------------   ------------------------------
 STRT.F            4.0000:   START DEPTH
 STOP.F          674.0000:   STOP DEPTH
 STEP.F            0.5000:   STEP LENGTH
 NULL.          -999.2500:   NO VALUE
 COMP. LAWRENCE/ALLISON INC:   COMPANY
 WELL.         21X #10-10:   WELL
 FLD .             TEAPOT:   FIELD
 LOC .      S10 T38N R78W:   LOCATION
 CNTY.            NATRONA:   COUNTY
 STAT.            WYOMING:   STATE
 CTRY. UNITED STATES OF AMERICA:   COUNTRY
 SRVC.           Gearhart:   SERVICE COMPANY
 DATE.        17-AUG-1987:   LOGDATE
 API .       490251118400:   API NUMBER
~CURVE INFORMATION
#MNEM.UNIT       API CODE    CURVE DESCRIPTION
#----------   ------------   ------------------------------
 DEPT.F                  :   
 GRR .GAPI   07 310 01 00:   GAMMA RAY FROM RESISTIVITY
 ILD .OHMM   07 120 46 00:   INDUCTION LOG DEEP
 ILM .OHMM   07 120 44 00:   INDUCTION LOG MEDIUM
~PARAMETER INFORMATION
#MNEM.UNIT          VALUE    DESCRIPTION
#----------   ------------   ------------------------------
 PD  .                 GL:   PERMANENT DATUM
 EPD .F              5253:   ELEVATION PERMANENT DATUM
 LMF .                 KB:   LOG MEASURED FROM
 DAPD.F                12:   FEET ABOVE PERMANENT DATUM
 DMF .                 KB:   DRILLING MEASURED FROM
 EKB .F              5265:   KELLING BUSHING
 EDF .F              5263:   DRILLING FLOOR
 EGL .F              5253:   GROUND LEVEL
 DATE.        17-AUG-1987:   RUN DATE
 RUN .                  1:   RUN NUMBER
 DD  .F               690:   DEPTH DRILLER
 DL  .F               682:   DEPTH LOGGER
 BLI .F               674:   BOTTOM LOG INTERVAL
 TLI .F                60:   TOP LOG INTERVAL
 CS  .IN            8.625:   CASING SIZE
 CBD .F                50:   CASING BOTTOM DRILLER
 CBL .F                60:   CASING BOTTOM LOGGER
 BS  .IN             7.87:   BIT SIZE
 BSD .F               690:   BIT SIZE AT DEPTH
 DFT .               FOAM:   DRILLING FLUID TYPE
 TCS .HRS            1500:   TIME CURCULATED STOPPED
 TLAB.HRS            1609:   TIME LOGGER AT BOTTOM
 LUN .               7597:   LOGGING UNIT NUMBER
 LUL .           GILLETTE:   LOGGING UNIT LOCATION
 ENGI.           JOHNSTON:   RECORDING ENGINEER
 WITN.             STRONG:   WITNESSED BY
 CLNT.            A2DTECH:   CLIENT CODE
 ORIG.       2", 5" PRINT:   ORIGIN OF DATA
 UWI .       490251118400:   UNIQUE WELL ID
 DICO. A2D Technologies, Inc.:   DIGITIZING COMPANY
~OTHER INFORMATION
~A    DEPT      GRR       ILD        ILM   
# ...
  277.0000   104.4667     8.7921     8.1613
  277.5000   105.3971     8.7328     8.2190
  278.0000   107.2357     8.7346     8.2771
  278.5000   106.9466     8.7975     8.2200
  279.0000   106.9614     8.7997     8.1068
  279.5000   107.2802     8.8015     8.0510
  280.0000   109.1188     8.8649     7.9399
  280.5000   111.2695     8.9287     7.9405
  281.0000   113.4772     9.0560     8.2231
  281.5000   115.5463     9.1212     8.5156
  282.0000   114.6530     9.2512     8.8186
  282.5000   112.2363     9.2530     9.0057
  283.0000   109.5156     9.2550     9.1968
  283.5000   110.4423     9.2477     9.1975
  284.0000   111.6729     9.1310     9.1175
  284.5000   111.9917     9.0694     9.0082
  285.0000   112.0066     9.0712     8.9462
  285.5000   111.4134     9.0096     8.8811
  286.0000   108.9808     8.8871     8.7620
  286.5000   108.4037     8.8889     8.7017
  287.0000   109.6381     8.8907     8.7024
  287.5000   109.6529     8.8925     8.7030
  288.0000   109.6678     8.8944     8.7265
  288.5000   111.2024     8.8962     8.7651
  289.0000   114.5607     8.8984     8.7658
  289.5000   116.3993     8.9625     8.7664
  290.0000   113.0706     8.9644     8.7670
  290.5000   109.1341     8.9662     8.7676
  291.0000   108.5410     8.9053     8.7682
  291.5000   107.9480     8.8452     8.7688
  292.0000   109.5887     8.8475     8.6478
  292.5000   113.4526     8.7877     8.4694
  293.0000   116.2030     8.7285     8.4110
  293.5000   117.7376     8.6696     8.3530
  294.0000   116.2327     8.6715     8.3538
  294.5000   112.6001     8.6129     8.2961
  295.0000   108.9676     8.4958     8.3549
  295.5000   106.2468     8.4381     8.3555
  296.0000   106.8696     8.3812     8.2979
  296.5000   109.0122     8.2668     8.1835
  297.0000   109.0598     8.1544     8.1200
  297.5000   109.6534     8.0431     8.0151
  298.0000   109.6683     7.9334     7.8497
  298.5000   109.0752     7.8251     7.7415
  299.0000   107.2664     7.7723     7.5816
  299.5000   106.0654     7.6134     7.4251
  300.0000   105.4691     7.4024     7.0718
  300.5000   110.0434     7.0538     6.6892
  301.0000   112.1831     7.1050     6.4612
  301.5000   112.8582     7.2063     6.6455
  302.0000   110.9913     7.3090     6.8350
  302.5000   111.3072     7.3616     6.8842
  303.0000   111.0152     7.5188     6.9339
  303.5000   111.0274     7.6793     7.1316
  304.0000   114.1397     7.8432     7.6485
  304.5000   117.5410     7.9550     7.7576
  305.0000   118.6626     7.9584     7.8683
  305.5000   118.3702     7.9582     7.8699
  306.0000   115.0417     7.9599     7.8168
  306.5000   115.3577     7.9529     7.7640
  307.0000   115.9776     7.8533     7.6580
  307.5000   116.5975     7.8469     7.5538
  308.0000   116.3026     7.6939     7.5554
  308.5000   112.6701     7.6416     7.4518
  309.0000   109.0347     7.5377     7.3504
  309.5000   107.2230     7.3319     7.1997
  310.0000   107.5390     7.1817     7.0516
  310.5000   109.3747     7.1329     6.8593
  311.0000   112.4262     7.0359     6.7186
  311.5000   113.0461     6.7021     6.5808
  312.0000   111.5384     6.3842     6.3564
  312.5000   103.9516     5.9971     6.0126
  313.0000   101.5320     5.9984     5.8049
  313.5000   101.8582     6.0416     5.3324
  314.0000   104.3524     6.0851     4.9832
  314.5000   107.7183     6.0864     5.0546
  315.0000   108.6221     6.1734     5.4209
  315.5000   110.1057     6.2179     5.7735
  316.0000   111.9414     6.5302     6.3230
  316.5000   112.8653     6.9062     6.8288
  317.0000   111.3575     7.0537     7.3751
  317.5000   110.1507     7.1045     7.7458
  318.0000   110.4697     7.5136     7.9113
  318.5000   110.7856     7.7276     7.9683
  319.0000   111.1016     7.8926     8.0258
  319.5000   111.4176     8.0387     8.0274
  320.0000   113.2533     8.0627     8.1419
  320.5000   114.4811     8.0644     8.2581
  321.0000   116.3168     8.1225     8.3837
  321.5000   117.8486     8.1843     8.4957
  322.0000   118.2046     8.3557     8.4975
  322.5000   117.2647     8.4159     8.4992
  323.0000   115.1490     8.5362     8.4948
  323.5000   112.4102     8.5380     8.4431
  324.0000   110.3098     8.5398     8.4451
  324.5000   110.9301     8.5415     8.4471
  325.0000   112.2593     8.6030     8.5080
  325.5000   113.9963     8.6650     8.5693
  326.0000   113.7043     8.7885     8.6311
  326.5000   111.8926     8.7903     8.6933
  327.0000   110.6888     8.7921     8.7560
  327.5000   110.7008     8.7939     8.7578
  328.0000   113.4484     8.7346     8.7555
  328.5000   115.2841     8.6757     8.6400
  329.0000   115.9040     8.5570     8.5224
  329.5000   116.2200     8.4406     8.4060
  330.0000   119.2715     8.3760     8.4666
  330.5000   119.5875     8.2697     8.5277
  331.0000   119.5995     8.3293     8.5213
  331.5000   119.3075     8.3893     8.4127
  332.0000   114.7603     8.3910     8.4149
  332.5000   114.7467     8.2190     8.4166
  333.0000   115.6961     8.1069     8.3598
  333.5000   116.0172     7.9958     8.0748
  334.0000   118.4964     7.8867     7.7996
  334.5000   120.9706     7.7795     7.5865
  335.0000   122.1272     7.4623     7.3279
  335.5000   120.3185     7.0589     7.0781
  336.0000   117.2910     6.8662     6.4656
  336.5000   115.1753     6.0155     5.9892
  337.0000   114.2755     5.6485     5.9904
  337.5000   114.2875     4.9394     5.7460
  338.0000   114.2995     4.6043     5.0950
  338.5000   114.6154     4.1318     4.5493
  339.0000   115.5393     3.7483     4.0282
  339.5000   116.1592     3.2840     3.6286
  340.0000   115.8673     2.8571     3.0698
  340.5000   114.9644     2.7984     2.7270
  341.0000   112.8518     2.8384     2.5974
  341.5000   111.3440     2.8191     2.5619
  342.0000   106.4928     2.8001     2.6535
  342.5000   103.7692     2.8600     2.7292
  343.0000   106.2129     3.0672     2.8267
  343.5000   108.3727     3.4781     3.0528
  344.0000   115.1527     3.7824     3.4141
  344.5000   119.3546     4.2002     3.8449
  345.0000   120.9017     4.8007     4.3908
  345.5000   122.0814     5.2229     5.0541
  346.0000   122.7013     5.5672     5.4307
  346.5000   121.7984     5.9159     6.0145
  347.0000   121.2056     6.2131     6.2729
  347.5000   121.2176     6.3457     6.3182
  348.0000   123.3572     6.3911     6.2755
  348.5000   125.1929     6.3043     6.1898
  349.0000   126.7247     6.2614     6.1477
  349.5000   127.3446     6.1763     6.0641
  350.0000   125.6457     6.0494     5.9719
  350.5000   123.1270     5.8027     5.7765
  351.0000   127.4156     5.4505     5.5789
  351.5000   130.4817     5.2279     5.3130
  352.0000   132.9400     5.0848     5.1588
  352.5000   131.7508     5.0150     4.8873
  353.0000   129.3459     4.9463     4.7531
  353.5000   127.8528     4.9470     4.6226
  354.0000   126.3596     5.0171     4.5907
  354.5000   123.6507     5.2323     4.7540
  355.0000   121.5299     5.4948     5.0273
  355.5000   121.2724     5.5340     5.0983
  356.0000   123.4334     5.7712     5.2449
  356.5000   124.3719     6.1457     5.7985
  357.0000   124.0946     6.5446     6.3308
  357.5000   122.6014     6.8252     6.5104
  358.0000   119.8859     7.0191     6.7892
  358.5000   119.9192     7.2784     7.1795
  359.0000   120.5537     7.5810     7.4349
  359.5000   123.3484     7.6885     7.6458
  360.0000   126.4641     7.7975     7.8628
  360.5000   127.0166     7.7986     7.9738
  361.0000   125.5235     7.8539     7.9189
  361.5000   125.8608     7.6926     7.8098
  362.0000   126.1914     7.6400     7.5954
  362.5000   126.2180     7.2267     7.2845
  363.0000   125.6368     7.2277     7.1340
  363.5000   123.8397     7.1724     6.9867
  364.0000   124.1703     6.8855     6.8425
  364.5000   124.5009     6.6971     6.7012
  365.0000   123.3184     6.6052     6.5598
  365.5000   121.8253     6.5600     6.3827
  366.0000   120.6361     6.2052     6.1214
  366.5000   120.3522     5.7079     5.7492
  367.0000   120.9934     5.2505     5.3621
  367.5000   123.4516     5.0713     4.8296
