~VERSION INFORMATION
 VERS.                2.0:   CWLS LOG ASCII STANDARD - VERSION 2.0
 WRAP.                 NO:   ONE LINE PER DEPTH STEP
~WELL INFORMATION
#MNEM.UNIT      DATA TYPE    INFORMATION
#----------   ------------   ------------------------------
 STRT.F           82.0000:   START DEPTH
 STOP.F         1194.0000:   STOP DEPTH
 STEP.F            0.5000:   STEP LENGTH
 NULL.          -999.2500:   NO VALUE
 COMP.       INTEX OIL CO:   COMPANY
 WELL.   76S-11 NPR #3-11:   WELL
 FLD .             TEAPOT:   FIELD
 LOC .      S11 T38N R78W:   LOCATION
 CNTY.            NATRONA:   COUNTY
 STAT.            WYOMING:   STATE
 CTRY. UNITED STATES OF AMERICA:   COUNTRY
 SRVC.       Schlumberger:   SERVICE COMPANY
 DATE.        30-AUG-1966:   LOGDATE
 API .       490250972800:   API NUMBER
~CURVE INFORMATION
#MNEM.UNIT       API CODE    CURVE DESCRIPTION
#----------   ------------   ------------------------------
 DEPT.F                  :   
 SPR .MV     05 010 01 00:   SPONTANEOUS POTENTIAL FROM RES.
 CILD.MMHO   05 110 46 00:   CONDUCTIVITY INDUCTION LOG DEEP
 ILD .OHMM   05 120 46 00:   INDUCTION LOG DEEP
 ASN .OHMM   05 041 16 00:   AMPLIFIED SHORT NORMAL 16"
 CALD.IN     45 280 60 00:   CALIPER FROM DENSITY LOG
 CORR.G/C3   45 356 01 00:   DENSITY CORRECTION
 RHOB.G/C3   45 350 01 00:   BULK DENSITY
 DPHI.DEC    45 890 12 00:   DENSITY POROSITY SANDSTONE
 GRD .GAPI   45 310 01 00:   GAMMA RAY FROM DENSITY LOG
~PARAMETER INFORMATION
#MNEM.UNIT          VALUE    DESCRIPTION
#----------   ------------   ------------------------------
 PD  .                 GL:   PERMANENT DATUM
 EPD .F              5261:   ELEVATION PERMANENT DATUM
 LMF .                 KB:   LOG MEASURED FROM
 DAPD.F                 5:   FEET ABOVE PERMANENT DATUM
 DMF .                 KB:   DRILLING MEASURED FROM
 EKB .F              5266:   KELLING BUSHING
 EGL .F              5261:   GROUND LEVEL
 DATE.            8-30-66:   RUN DATE
 RUN .                  1:   RUN NUMBER
 DD  .F              1191:   DEPTH DRILLER
 DL  .F              1191:   DEPTH LOGGER
 BLI .F              1190:   BOTTOM LOG INTERVAL
 TLI .F                87:   TOP LOG INTERVAL
 CS  .IN            8.625:   CASING SIZE
 CBD .F                10:   CASING BOTTOM DRILLER
 BS  .IN             6.75:   BIT SIZE
 BSD .F              1191:   BIT SIZE AT DEPTH
 DFT .           CHEM-GEL:   DRILLING FLUID TYPE
 DFD .                9.8:   DRILLING FLUID DENSITY
 DFV .                 60:   DRILLING FLUID VISCOSITY
 MSS .         CIRCULATED:   MUD SAMPLE SOURCE
 RMS .OHMM            .76:   RESISTIVITY MUD SAMPLE
 MST .F                85:   MUD SAMPLE TEMPERATURE
 RMF .OHMM            .46:   RESISTIVITY MUD FILTRATE SAMPLE
 MFST.F                88:   MUD FILTRATE SAMPLE TEMPERATURE
 MFSS.                  M:   MUD FILTRATE SAMPLE SOURCE
 RMB .OHMM           .695:   RESISTIVITY MUD AT BHT
 BHT .F                93:   BOTTOM HOLE TEMPERATURE
 TCS .HRS               1:   TIME CURCULATED STOPPED
 MRT .F                93:   MAXIMUM RECORDED TEMPERATURE
 LUN .               3527:   LOGGING UNIT NUMBER
 LUL .               CSPR:   LOGGING UNIT LOCATION
 ENGI.               HAUG:   RECORDING ENGINEER
 WITN.                MAY:   WITNESSED BY
 CLNT.            A2DTECH:   CLIENT CODE
 ORIG. 2", 2.5", 5" PRINT:   ORIGIN OF DATA
 UWI .       490250972800:   UNIQUE WELL ID
 DICO. A2D Technologies, Inc.:   DIGITIZING COMPANY
~OTHER INFORMATION
~A   DEPT      SPR        CILD       ILD          ASN     CALD       CORR       RHOB       DPHI        GRD   
# ...
  958.0000   -41.3568   161.9254     5.9644     8.2319     7.2559     0.0893     2.5369     0.0734   118.1196
  958.5000   -41.4309   158.4431     6.1286     8.3665     7.2044     0.0989     2.5579     0.0566   118.7730
  959.0000   -41.2039   157.5267     6.2241     8.4055     7.2031     0.0872     2.5332     0.0620   119.3180
  959.5000   -40.9687   159.0503     6.0967     8.3711     7.2017     0.0846     2.5214     0.0803   120.7025
  960.0000   -40.8831   162.9253     5.9590     8.3276     7.2025     0.0766     2.5110     0.0920   121.8378
  960.5000   -40.9891   166.7938     5.8210     8.2271     7.2022     0.0668     2.4751     0.1063   120.5333
  961.0000   -41.0298   170.6419     5.6847     8.1285     7.2024     0.0745     2.4852     0.1045   119.1567
  961.5000   -40.8140   174.4787     5.5455     8.0189     7.2019     0.0882     2.5073     0.0930   119.4101
  962.0000   -40.4375   178.3115     5.4118     7.9160     7.2025     0.0762     2.4972     0.0878   120.2726
  962.5000   -40.3191   182.2238     5.2438     7.7740     7.2042     0.0660     2.5017     0.0968   122.1448
  963.0000   -40.6019   187.3427     5.0411     7.6055     7.2303     0.0810     2.5175     0.0885   121.6386
  963.5000   -40.8250   193.7139     4.8440     7.4453     7.2541     0.0911     2.5249     0.0748   121.2220
  964.0000   -40.8168   200.0852     4.6442     7.2775     7.2806     0.0657     2.5168     0.0806   120.6765
  964.5000   -40.7160   210.2411     4.4458     7.1135     7.3035     0.0540     2.4936     0.0976   120.2285
  965.0000   -40.7221   223.7832     4.2467     6.7794     7.3302     0.0554     2.4832     0.1003   119.7573
  965.5000   -40.8609   238.0240     4.0469     6.4949     7.3610     0.0551     2.4813     0.1016   120.6081
  966.0000   -40.8193   245.0100     3.8554     6.1069     7.4031     0.0459     2.4794     0.1092   121.5731
  966.5000   -40.8072   242.0160     3.8488     5.8317     7.3343     0.0378     2.4627     0.1176   122.6228
  967.0000   -40.7794   238.9833     3.9513     5.8324     7.2666     0.0368     2.4431     0.1259   124.0052
  967.5000   -40.7601   233.6390     4.0486     5.8869     7.1987     0.0474     2.4339     0.1320   125.2914
  968.0000   -40.7368   228.2947     4.1399     6.1286     7.1196     0.0570     2.4372     0.1297   124.3641
  968.5000   -40.7152   220.4105     4.2589     6.5408     7.0725     0.0671     2.4528     0.1260   123.5551
  969.0000   -40.6933   208.6011     4.4795     6.9823     7.0417     0.0676     2.4695     0.1120   122.6951
  969.5000   -40.6707   196.7916     4.8972     7.4427     7.0517     0.0613     2.4879     0.0999   121.7917
  970.0000   -40.6618   184.9822     5.3932     7.6870     7.0540     0.0604     2.5062     0.0874   124.0751
  970.5000   -40.6629   171.1577     5.7302     7.8467     7.0593     0.0827     2.5254     0.0809   125.3031
  971.0000   -40.6625   167.5820     5.7769     7.9230     7.0643     0.0957     2.5264     0.0739   125.0352
  971.5000   -40.6627   165.3000     5.8153     8.0149     7.0689     0.0834     2.5158     0.0826   124.9368
  972.0000   -40.6629   165.5959     5.8507     8.1390     7.0736     0.0774     2.5070     0.0930   127.8788
  972.5000   -40.6613   165.8918     5.8883     8.3000     7.0787     0.0851     2.5162     0.0809   127.6410
  973.0000   -40.6468   166.1677     5.9246     8.4059     7.0841     0.0903     2.5332     0.0684   127.6175
  973.5000   -40.6316   164.5569     5.9612     8.4593     7.1030     0.0689     2.5215     0.0771   127.3883
  974.0000   -40.6165   163.0479     5.9979     8.5218     7.1229     0.0567     2.5329     0.0744   128.7473
  974.5000   -40.6014   161.5389     6.0336     8.5962     7.1427     0.0511     2.5282     0.0716   130.6645
  975.0000   -40.5863   160.1796     6.0276     8.6712     7.1617     0.0585     2.5212     0.0806   129.4127
  975.5000   -40.5712   161.4083     6.0134     8.7142     7.1635     0.0516     2.5179     0.0884   127.1921
  976.0000   -40.5561   162.5261     6.0010     8.7260     7.1649     0.0357     2.5006     0.0973   124.9589
  976.5000   -40.5410   163.6438     5.9878     8.6954     7.1655     0.0243     2.4813     0.1079   123.7186
  977.0000   -40.5259   164.7616     5.9750     8.6680     7.1666     0.0296     2.4771     0.1079   123.0660
  977.5000   -40.5108   165.8793     5.9620     8.6423     7.1675     0.0355     2.4923     0.1007   123.4621
  978.0000   -40.4958   165.6528     5.9491     8.6017     7.1684     0.0418     2.5059     0.0936   124.5828
  978.5000   -40.4805   164.9590     5.9361     8.5455     7.1694     0.0397     2.5056     0.0882   123.8190
  979.0000   -40.4631   164.2653     5.9233     8.5656     7.1704     0.0309     2.5013     0.0905   125.3125
  979.5000   -40.4260   163.5715     5.9105     8.6407     7.1713     0.0245     2.5025     0.0937   126.7144
  980.0000   -40.3765   162.8777     5.8977     8.6909     7.1723     0.0304     2.5120     0.0882   128.1293
  980.5000   -40.3287   162.1756     5.8851     8.6843     7.1732     0.0358     2.5215     0.0816   129.7479
  981.0000   -40.2814   162.5898     5.8719     8.6591     7.1742     0.0303     2.5167     0.0779   130.0826
  981.5000   -40.2414   163.0090     5.8599     8.6274     7.1751     0.0291     2.5083     0.0841   130.4328
  982.0000   -40.2080   165.3550     5.8458     8.5274     7.1761     0.0336     2.5033     0.0901   129.9628
  982.5000   -40.1720   168.1637     5.8334     8.4190     7.1771     0.0378     2.5012     0.0953   129.2770
  983.0000   -40.1419   174.8485     5.7232     8.3003     7.1780     0.0419     2.5004     0.0940   129.8721
  983.5000   -40.1012   180.1397     5.5725     8.1323     7.1790     0.0401     2.5024     0.0914   130.8087
  984.0000   -40.0831   182.1657     5.4286     7.9361     7.1799     0.0371     2.5048     0.0890   130.3773
  984.5000   -39.9297   184.1218     5.2831     7.7367     7.1809     0.0335     2.4926     0.0945   130.6205
  985.0000   -39.6614   186.0778     5.1350     7.5541     7.1818     0.0305     2.4763     0.1044   132.1752
  985.5000   -39.4941   189.9281     4.9945     7.3283     7.1828     0.0271     2.4581     0.1154   133.6728
  986.0000   -39.6689   195.9641     4.8338     7.2653     7.1838     0.0301     2.4525     0.1196   134.0201
  986.5000   -39.8783   203.7126     4.7117     7.3731     7.1847     0.0395     2.4466     0.1249   133.0480
  987.0000   -40.0410   213.3152     4.5266     7.3441     7.1857     0.0487     2.4732     0.1038   132.2212
  987.5000   -39.7899   222.7212     4.3186     7.1581     7.1866     0.0574     2.5110     0.0873   129.1023
  988.0000   -39.6979   231.6633     4.1174     6.8842     7.1876     0.0646     2.5055     0.0858   126.0354
  988.5000   -39.8442   236.0279     3.9467     6.6027     7.1886     0.0567     2.4969     0.0949   123.7217
  989.0000   -39.9576   236.5403     3.9446     6.3452     7.1895     0.0501     2.4870     0.1031   123.4035
  989.5000   -40.0461   237.0260     3.9291     6.3488     7.1905     0.0534     2.4789     0.1095   120.9297
  990.0000   -39.9850   236.0279     3.9728     6.4200     7.1914     0.0515     2.4706     0.1074   118.4783
  990.5000   -39.8893   231.6447     4.0303     6.5925     7.1924     0.0463     2.4865     0.1035   117.6456
  991.0000   -39.9625   224.8345     4.2027     6.8276     7.1933     0.0505     2.5120     0.0995   119.8685
  991.5000   -40.2880   212.9215     4.5580     7.0690     7.1943     0.0485     2.5270     0.0933   121.9633
  992.0000   -40.6035   201.0085     4.8849     7.3204     7.1953     0.0528     2.5244     0.0825   122.9393
  992.5000   -40.4096   189.0955     5.2002     7.5153     7.1962     0.0557     2.5156     0.0754   122.7439
  993.0000   -39.9810   178.2635     5.5756     7.6033     7.1972     0.0497     2.5082     0.0860   123.8983
  993.5000   -39.9598   172.3288     5.6405     7.6531     7.1981     0.0586     2.5181     0.0878   126.1754
  994.0000   -40.1851   173.3414     5.2918     7.6708     7.1991     0.0703     2.5138     0.0846   127.9039
