~VERSION INFORMATION
 VERS.                2.0:   CWLS LOG ASCII STANDARD - VERSION 2.0
 WRAP.                 NO:   ONE LINE PER DEPTH STEP
~WELL INFORMATION
#MNEM.UNIT      DATA TYPE    INFORMATION
#----------   ------------   ------------------------------
 STRT.F           44.0000:   START DEPTH
 STOP.F          666.0000:   STOP DEPTH
 STEP.F            0.5000:   STEP LENGTH
 NULL.          -999.2500:   NO VALUE
 COMP. FENIX & SCISSON INC:   COMPANY
 WELL.     NPR-3 #22SX-10:   WELL
 FLD .             TEAPOT:   FIELD
 LOC .      S10 T38N R78W:   LOCATION
 CNTY.            NATRONA:   COUNTY
 STAT.            WYOMING:   STATE
 CTRY. UNITED STATES OF AMERICA:   COUNTRY
 SRVC.            Unknown:   SERVICE COMPANY
 DATE.        11-JUL-1978:   LOGDATE
 API .       490251065600:   API NUMBER
~CURVE INFORMATION
#MNEM.UNIT       API CODE    CURVE DESCRIPTION
#----------   ------------   ------------------------------
 DEPT.F                  :   
 CALD.IN     45 280 60 00:   CALIPER FROM DENSITY LOG
 GRD .GAPI   45 310 01 00:   GAMMA RAY FROM DENSITY LOG
 CORR.G/C3   45 356 01 00:   DENSITY CORRECTION
 DPHI.DEC    45 890 12 00:   DENSITY POROSITY SANDSTONE
 RHOB.G/C3   45 350 01 00:   BULK DENSITY
 SPR .MV     05 010 01 00:   SPONTANEOUS POTENTIAL FROM RES.
 SN  .OHMM   05 040 16 00:   SHORT NORMAL 16"
 ILD .OHMM   05 120 46 00:   INDUCTION LOG DEEP
~PARAMETER INFORMATION
#MNEM.UNIT          VALUE    DESCRIPTION
#----------   ------------   ------------------------------
 PD  .                 GL:   PERMANENT DATUM
 EPD .F              5263:   ELEVATION PERMANENT DATUM
 LMF .                 KB:   LOG MEASURED FROM
 DAPD.F                 4:   FEET ABOVE PERMANENT DATUM
 DMF .                 KB:   DRILLING MEASURED FROM
 EKB .F              5267:   KELLING BUSHING
 EGL .F              5263:   GROUND LEVEL
 DATE.        11-JUL-1978:   RUN DATE
 RUN .                  1:   RUN NUMBER
 DD  .F               657:   DEPTH DRILLER
 DL  .F               666:   DEPTH LOGGER
 BLI .F               660:   BOTTOM LOG INTERVAL
 TLI .F                50:   TOP LOG INTERVAL
 CS  .IN            8.625:   CASING SIZE
 CBD .F                40:   CASING BOTTOM DRILLER
 BS  .IN            7.875:   BIT SIZE
 BSD .F               657:   BIT SIZE AT DEPTH
 DFT .                KCL:   DRILLING FLUID TYPE
 DFD .                8.6:   DRILLING FLUID DENSITY
 DFV .                 33:   DRILLING FLUID VISCOSITY
 DFPH.                9.0:   DRILLING FLUID PH
 DFL .                 14:   DRILLING FLUID LOSS
 MSS .           FLOWLINE:   MUD SAMPLE SOURCE
 RMS .OHMM            .16:   RESISTIVITY MUD SAMPLE
 MST .F                89:   MUD SAMPLE TEMPERATURE
 RMF .OHMM            .15:   RESISTIVITY MUD FILTRATE SAMPLE
 MFST.F                89:   MUD FILTRATE SAMPLE TEMPERATURE
 RMC .OHMM            .32:   RESISTIVITY MUD CAKE
 MCST.F                88:   MUD CAKE SAMPLE TEMPERATURE
 MFSS.               MEAS:   MUD FILTRATE SAMPLE SOURCE
 BHT .F                76:   BOTTOM HOLE TEMPERATURE
 TCS .HRS            0200:   TIME CURCULATED STOPPED
 MRT .F                76:   MAXIMUM RECORDED TEMPERATURE
 LUN .               2958:   LOGGING UNIT NUMBER
 LUL .               CASP:   LOGGING UNIT LOCATION
 ENGI.             MILLER:   RECORDING ENGINEER
 WITN.           MCGINLEY:   WITNESSED BY
 CLNT.            A2DTECH:   CLIENT CODE
 ORIG.           5" PRINT:   ORIGIN OF DATA
 UWI .       490251065600:   UNIQUE WELL ID
 DICO. A2D Technologies, Inc.:   DIGITIZING COMPANY
~OTHER INFORMATION
~A   DEPT     CALD         GRD      CORR       DPHI       RHOB        SPR         SN        ILD   
# ...
  530.0000     7.8579    67.6477    -0.0038     0.1718     2.3985   -57.4777     9.7456    12.9727
  530.5000     7.8575    68.2432    -0.0053     0.1697     2.3977   -57.6101     9.7515    12.8925
  531.0000     7.8570    68.5385    -0.0053     0.1682     2.3962   -57.7424     9.6911    12.8128
  531.5000     7.8566    68.6836    -0.0053     0.1646     2.4015   -57.8747     9.6970    12.8214
  532.0000     7.8561    69.1112    -0.0070     0.1631     2.4082   -58.0070     9.7029    12.7401
  532.5000     7.8557    66.7668    -0.0068     0.1749     2.4037   -58.2837     9.7088    12.6635
  533.0000     7.8401    64.2290    -0.0053     0.1749     2.3887   -58.4200     9.7145    12.6720
  533.5000     7.8396    62.7747    -0.0053     0.1737     2.3849   -58.5523     9.7205    12.5916
  534.0000     7.8392    62.9529    -0.0038     0.1692     2.3879   -58.6806     9.7275    12.4301
  534.5000     7.8387    63.2636    -0.0038     0.1587     2.4097   -58.6646     9.7334    12.3531
  535.0000     7.8384    63.5286    -0.0038     0.1566     2.4157   -58.8009     9.7393    12.2769
  535.5000     7.8228    63.0156    -0.0038     0.1542     2.4195   -58.7808     9.7452    12.1175
  536.0000     7.8224    59.7517    -0.0053     0.1515     2.4255   -58.7648     9.7511    12.0426
  536.5000     7.8219    60.2524    -0.0068     0.1551     2.4300   -58.7487     9.7571    11.9702
  537.0000     7.8215    61.5845    -0.0143     0.1623     2.4239   -58.8813     9.7635    11.9783
  537.5000     7.8361    62.3173    -0.0158     0.1764     2.4006   -58.8650     9.7686    11.9864
  538.0000     7.8356    63.0871    -0.0128     0.1770     2.3849   -58.8487     9.7747    11.9103
  538.5000     7.8352    65.3563    -0.0083     0.1662     2.3818   -58.8329     9.7808    11.9203
  539.0000     7.8347    67.8800    -0.0038     0.1623     2.3954   -58.9652     9.7872    11.9284
  539.5000     7.8343    69.2254    -0.0053     0.1593     2.4089   -58.9451     9.7932    11.9364
  540.0000     7.8338    70.2403    -0.0053     0.1566     2.4164   -59.0815     9.8001    11.9445
  540.5000     7.8334    69.0851    -0.0068     0.1560     2.4179   -59.0614     9.8050    11.8706
  541.0000     7.8329    66.8517    -0.0068     0.1557     2.4201   -59.1977     9.8120    11.8786
  541.5000     7.8325    66.4730    -0.0083     0.1561     2.4231   -59.1777     9.8180    11.8052
  542.0000     7.8320    68.3105    -0.0081     0.1588     2.4186   -59.1616     9.8240    11.8132
  542.5000     7.8316    69.6172    -0.0080     0.1558     2.4126   -59.1455     9.8299    11.7278
  543.0000     7.8311    67.9468    -0.0079     0.1498     2.4118   -58.9811     9.8359    11.6676
  543.5000     7.8307    65.3330    -0.0078     0.1450     2.4268   -58.9651     9.8419    11.5975
  544.0000     7.8302    60.8768    -0.0077     0.1462     2.4449   -58.9490     9.8479    11.6053
  544.5000     7.8298    59.8394    -0.0076     0.1600     2.4306   -58.9330     9.8539    11.6131
  545.0000     7.8293    61.3566    -0.0075     0.1549     2.4140   -58.9169     9.8598    11.6210
  545.5000     7.8289    63.7477    -0.0074     0.1489     2.4148   -58.7522     9.9339    11.6288
  546.0000     7.8284    65.5439    -0.0072     0.1432     2.4298   -58.7359     9.9404    11.6366
  546.5000     7.8279    67.0321    -0.0071     0.1450     2.4411   -58.7164     9.9462    11.6445
  547.0000     7.8275    67.6246    -0.0070     0.1489     2.4388   -58.7003     9.9525    11.6523
  547.5000     7.8270    67.1697    -0.0069     0.1495     2.4320   -58.6843     9.9596    11.6602
  548.0000     7.8266    67.1652    -0.0068     0.1498     2.4298   -58.6682     9.9656    11.6681
  548.5000     7.8261    67.6126    -0.0067     0.1504     2.4283   -58.6522     9.9717    11.6761
  549.0000     7.8257    67.7568    -0.0066     0.1516     2.4260   -58.6361     9.9777    11.6842
  549.5000     7.8252    67.1511    -0.0065     0.1522     2.4245   -58.6201     9.9838    11.7743
  550.0000     7.8248    67.1471    -0.0064     0.1507     2.4328   -58.6080     9.9172    11.7841
  550.5000     7.8176    67.8819    -0.0062     0.1420     2.4410   -58.6359     9.9010    11.8310
  551.0000     7.8105    68.4875    -0.0061     0.1532     2.4388   -58.6598     9.8848    11.9563
  551.5000     7.8034    69.0807    -0.0060     0.1613     2.4260   -58.6838     9.8685    11.9620
  552.0000     7.7976    69.6753    -0.0059     0.1637     2.4124   -58.7029     9.8523    12.0502
  552.5000     7.7978    69.9711    -0.0058     0.1580     2.4072   -58.6864     9.8360    12.0560
  553.0000     7.7979    67.8615    -0.0057     0.1541     2.4139   -58.6731     9.8183    12.0617
  553.5000     7.8131    67.1048    -0.0056     0.1520     2.4237   -58.6599     9.8236    12.0675
  554.0000     7.8283    67.6994    -0.0055     0.1580     2.4282   -58.6467     9.8290    12.0732
  554.5000     7.8435    68.4444    -0.0054     0.1604     2.4094   -58.6334     9.8343    11.9962
  555.0000     7.8737    68.8887    -0.0053     0.1571     2.4079   -58.6202     9.8397    11.9197
  555.5000     7.8738    69.0329    -0.0052     0.1496     2.4214   -58.6068     9.9129    11.8434
  556.0000     7.8740    69.4774    -0.0050     0.1445     2.4289   -58.7421     9.9183    11.7680
  556.5000     7.8741    69.4714    -0.0049     0.1409     2.4357   -58.7285     9.9921    11.6130
  557.0000     7.8593    69.1651    -0.0048     0.1499     2.4424   -58.7151     9.9976    11.5390
  557.5000     7.8594    67.8078    -0.0047     0.1510     2.4251   -58.6771    10.0721    11.4654
  558.0000     7.8445    67.6497    -0.0046     0.1466     2.4319   -58.5374    10.0776    11.4709
  558.5000     7.8296    69.4504    -0.0045     0.1424     2.4394   -58.5242    10.1529    11.4763
  559.0000     7.8298    70.1922    -0.0044     0.1373     2.4469   -58.5109    10.1594    11.4819
  559.5000     7.8299    68.8138    -0.0042     0.1392     2.4492   -58.3493    10.2350    11.4999
  560.0000     7.8150    68.3785    -0.0041     0.1383     2.4460   -58.3361    10.2405    11.6532
  560.5000     7.7976    69.2862    -0.0040     0.1344     2.4521   -58.3228    10.2461    11.8201
  561.0000     7.6720    69.5677    -0.0039     0.1470     2.4491   -58.3096    10.3224    12.1554
  561.5000     7.5147    69.0732    -0.0038     0.1602     2.4371   -58.1480    10.3280    12.5864
  562.0000     7.5149    66.7210    -0.0037     0.1713     2.3950   -57.8380    10.3336    13.0326
  562.5000     7.6178    64.0437    -0.0036     0.1782     2.3852   -57.6764    10.3392    13.4947
  563.0000     7.7943    62.4302    -0.0034     0.1827     2.3792   -57.0697    10.3448    13.9732
  563.5000     7.8913    60.8276    -0.0035     0.1937     2.3693   -56.3146    10.3504    14.3696
  564.0000     7.9516    60.5214    -0.0005     0.2019     2.3451   -55.4111    10.2837    14.6759
  564.5000     7.9518    60.9658     0.0070     0.2211     2.3209   -54.9849    10.1502    14.7842
  565.0000     7.9519    61.1115     0.0189     0.2304     2.3000   -54.3461    10.0860    14.6882
  565.5000     7.9370    60.3533     0.0324     0.2386     2.2852   -53.8877    10.0223    14.3970
  566.0000     7.8620    58.0951     0.0399     0.2303     2.2830   -52.8359     9.9592    13.9172
  566.5000     7.8020    58.9900     0.0353     0.2105     2.3011   -51.7841     9.8964    13.1789
  567.0000     7.7720    59.7363     0.0278     0.2025     2.3308   -51.0290     9.9018    12.5658
  567.5000     7.7722    60.4795     0.0202     0.2001     2.3425   -50.8674     9.8395    12.0638
  568.0000     7.7874    61.2243     0.0142     0.1987     2.3468   -50.7058     9.8449    11.9868
  568.5000     7.7725    60.9180     0.0081     0.1990     2.3483   -50.6925     9.8503    12.0753
  569.0000     7.7576    59.1103     0.0035     0.1987     2.3483   -50.6793     9.8567    12.1644
  569.5000     7.7427    58.5037    -0.0025     0.1983     2.3483   -50.6661     9.8621    12.1722
  570.0000     7.7128    58.6479    -0.0071     0.1975     2.3498   -50.8012     9.9355    12.3446
