~VERSION INFORMATION
 VERS.                2.0:   CWLS LOG ASCII STANDARD - VERSION 2.0
 WRAP.                 NO:   ONE LINE PER DEPTH STEP
~WELL INFORMATION
#MNEM.UNIT      DATA TYPE    INFORMATION
#----------   ------------   ------------------------------
 STRT.F            1.0000:   START DEPTH
 STOP.F          528.0000:   STOP DEPTH
 STEP.F            0.5000:   STEP LENGTH
 NULL.          -999.2500:   NO VALUE
 COMP. LAWRENCE/ALLISON INC:   COMPANY
 WELL.     78-31 STX #3-3:   WELL
 FLD .             TEAPOT:   FIELD
 LOC .       S3 T38N R78W:   LOCATION
 CNTY.            NATRONA:   COUNTY
 STAT.            WYOMING:   STATE
 CTRY. UNITED STATES OF AMERICA:   COUNTRY
 SRVC.           Gearhart:   SERVICE COMPANY
 DATE.        26-JUN-1988:   LOGDATE
 API .       490251123100:   API NUMBER
~CURVE INFORMATION
#MNEM.UNIT       API CODE    CURVE DESCRIPTION
#----------   ------------   ------------------------------
 DEPT.F                  :   
 GRR .GAPI   07 310 01 00:   GAMMA RAY
 RILD.OHMM   07 120 46 00:   INDUCTION LOG DEEP RESISTIVITY
 RILM.OHMM   07 120 44 00:   INDUCTION LOG MEDIUM RESISTIVITY
~PARAMETER INFORMATION
#MNEM.UNIT          VALUE    DESCRIPTION
#----------   ------------   ------------------------------
 PD  .                 GL:   PERMANENT DATUM
 EPD .F              5154:   ELEVATION PERMANENT DATUM
 LMF .                 KB:   LOG MEASURED FROM
 DAPD.F                10:   FEET ABOVE PERMANENT DATUM
 DMF .                 KB:   DRILLING MEASURED FROM
 EKB .F              5164:   KELLING BUSHING
 EGL .F              5154:   GROUND LEVEL
 DATE.        26-JUN-1988:   RUN DATE
 RUN .                  1:   RUN NUMBER
 DD  .F               520:   DEPTH DRILLER
 DL  .F               536:   DEPTH LOGGER
 BLI .F             527.5:   BOTTOM LOG INTERVAL
 TLI .F                51:   TOP LOG INTERVAL
 CS  .IN            9.625:   CASING SIZE
 CBD .F                51:   CASING BOTTOM DRILLER
 CBL .F                51:   CASING BOTTOM LOGGER
 BS  .IN             8.75:   BIT SIZE
 BSD .F               520:   BIT SIZE AT DEPTH
 DFT .                AIR:   DRILLING FLUID TYPE
 TLAB.HRS            1920:   TIME LOGGER AT BOTTOM
 MRT .F                70:   MAXIMUM RECORDED TEMPERATURE
 LUN .               7597:   LOGGING UNIT NUMBER
 LUL .           GILLETTE:   LOGGING UNIT LOCATION
 ENGI.          HUCKFELDT:   RECORDING ENGINEER
 WITN.              FIVAS:   WITNESSED BY
 CLNT.            A2DTECH:   CLIENT CODE
 ORIG.           5" PRINT:   ORIGIN OF DATA
 UWI .       490251123100:   UNIQUE WELL ID
 DICO. A2D Technologies, Inc.:   DIGITIZING COMPANY
~OTHER INFORMATION
~A    DEPT       GRR     RILD       RILM   
    1.0000     8.8198  -999.2500  -999.2500
    1.5000    13.0772  -999.2500  -999.2500
    2.0000    17.9406  -999.2500  -999.2500
    2.5000    18.5579  -999.2500  -999.2500
    3.0000    13.7281  -999.2500  -999.2500
    3.5000     9.1976  -999.2500  -999.2500
    4.0000     6.7883  -999.2500  -999.2500
    4.5000     6.5000  -999.2500  -999.2500
    5.0000     8.9394  -999.2500  -999.2500
    5.5000    11.7153  -999.2500  -999.2500
    6.0000    16.0404  -999.2500  -999.2500
    6.5000    22.8733  -999.2500  -999.2500
    7.0000    28.3968  -999.2500  -999.2500
    7.5000    29.3209  -999.2500  -999.2500
    8.0000    29.9419  -999.2500  -999.2500
    8.5000    30.8659  -999.2500  -999.2500
    9.0000    31.7900  -999.2500  -999.2500
    9.5000    33.3200  -999.2500  -999.2500
   10.0000    36.6683  -999.2500  -999.2500
   10.5000    42.7439  -999.2500  -999.2500
   11.0000    50.9406  -999.2500  -999.2500
   11.5000    56.7132  -999.2500  -999.2500
   12.0000    59.7584  -999.2500  -999.2500
   12.5000    58.8643  -999.2500  -999.2500
   13.0000    56.4550  -999.2500  -999.2500
   13.5000    53.7426  -999.2500  -999.2500
   14.0000    51.9394  -999.2500  -999.2500
   14.5000    51.6513  -999.2500  -999.2500
   15.0000    52.3064  -999.2500  -999.2500
   15.5000    53.5000  -999.2500  -999.2500
   16.0000    54.7302  -999.2500  -999.2500
   16.5000    54.7451  -999.2500  -999.2500
   17.0000    55.6692  -999.2500  -999.2500
   17.5000    57.1993  -999.2500  -999.2500
   18.0000    60.8506  -999.2500  -999.2500
   18.5000    62.3807  -999.2500  -999.2500
   19.0000    62.6986  -999.2500  -999.2500
   19.5000    60.8954  -999.2500  -999.2500
   20.0000    62.4255  -999.2500  -999.2500
   20.5000    65.1677  -999.2500  -999.2500
   21.0000    66.6978  -999.2500  -999.2500
   21.5000    67.3188  -999.2500  -999.2500
   22.0000    67.3337  -999.2500  -999.2500
   22.5000    67.0455  -999.2500  -999.2500
   23.0000    67.9697  -999.2500  -999.2500
   23.5000    68.9106  -999.2500  -999.2500
   24.0000    69.5147  -999.2500  -999.2500
   24.5000    68.0145  -999.2500  -999.2500
   25.0000    68.3362  -999.2500  -999.2500
   25.5000    68.9572  -999.2500  -999.2500
   26.0000    69.5782  -999.2500  -999.2500
   26.5000    70.1992  -999.2500  -999.2500
   27.0000    70.5172  -999.2500  -999.2500
   27.5000    70.8352  -999.2500  -999.2500
   28.0000    71.4562  -999.2500  -999.2500
   28.5000    71.7742  -999.2500  -999.2500
   29.0000    72.0922  -999.2500  -999.2500
   29.5000    71.5010  -999.2500  -999.2500
   30.0000    68.7887  -999.2500  -999.2500
   30.5000    69.4097  -999.2500  -999.2500
   31.0000    72.1519  -999.2500  -999.2500
   31.5000    73.6820  -999.2500  -999.2500
   32.0000    75.2121  -999.2500  -999.2500
   32.5000    76.7591  -999.2500  -999.2500
   33.0000    78.0034  -999.2500  -999.2500
   33.5000    79.1970  -999.2500  -999.2500
   34.0000    79.5143  -999.2500  -999.2500
   34.5000    78.0179  -999.2500  -999.2500
   35.0000    78.0328  -999.2500  -999.2500
   35.5000    79.2599  -999.2500  -999.2500
   36.0000    80.4869  -999.2500  -999.2500
   36.5000    81.4110  -999.2500  -999.2500
   37.0000    80.8161  -999.2500  -999.2500
   37.5000    79.6227  -999.2500  -999.2500
   38.0000    79.3308  -999.2500  -999.2500
   38.5000    79.3495  -999.2500  -999.2500
   39.0000    79.3645  -999.2500  -999.2500
   39.5000    78.7733  -999.2500  -999.2500
   40.0000    77.2731  -999.2500  -999.2500
   40.5000    75.1669  -999.2500  -999.2500
   41.0000    73.0606  -999.2500  -999.2500
   41.5000    70.9043  -999.2500  -999.2500
   42.0000    69.4209  -999.2500  -999.2500
   42.5000    69.5201  -999.2500  -999.2500
   43.0000    69.7908  -999.2500  -999.2500
   43.5000    69.8057  -999.2500  -999.2500
   44.0000    70.1237  -999.2500  -999.2500
   44.5000    70.7447  -999.2500  -999.2500
   45.0000    71.6687  -999.2500  -999.2500
   45.5000    72.2897  -999.2500  -999.2500
   46.0000    72.6040  -999.2500  -999.2500
   46.5000    71.4068  -999.2500  -999.2500
   47.0000    72.6376  -999.2500  -999.2500
   47.5000    73.8647  -999.2500  -999.2500
   48.0000    75.0917  -999.2500  -999.2500
   48.5000    76.9249  -999.2500  -999.2500
   49.0000    78.7580  -999.2500  -999.2500
   49.5000    83.0154  -999.2500  -999.2500
   50.0000    88.4848  -999.2500  -999.2500
   50.5000   103.9603  -999.2500  -999.2500
   51.0000   113.3722     2.0660    19.1033
   51.5000   118.5416     1.9807     4.6052
   52.0000   121.2868     3.7341     3.0941
   52.5000   121.6033     6.4751     3.5314
   53.0000   118.8984    15.4729     4.3215
   53.5000   115.5830    16.9365     5.4380
   54.0000   115.2934    11.6991     7.4922
   54.5000   115.3158     8.6656    10.5406
   55.0000   114.1217     8.1357    12.7204
   55.5000   113.5333     8.3048    12.8068
   56.0000   114.7676     8.8396    11.6118
   56.5000   116.3182     9.4088    10.2394
   57.0000   117.5656    10.3700     8.7199
   57.5000   117.8485    10.8102     8.1873
   58.0000   118.1731    10.8055     7.9592
   58.5000   119.4032    10.2873     7.9025
   59.0000   119.7241     9.5911     8.0269
   59.5000   118.2269     8.7570     8.4679
   60.0000   116.7252     8.4541     8.7056
   60.5000   116.7476     8.5699     8.8254
   61.0000   116.7655     8.8092     8.8223
   61.5000   116.1729     8.8677     8.7586
   62.0000   116.4983     8.8647     8.6954
   62.5000   116.2088     8.8564     8.5726
   63.0000   116.5342     8.6751     8.3929
   63.5000   117.4612     8.6016     8.3323
   64.0000   119.9034     8.4301     8.2721
   64.5000   122.9516     8.3686     8.3278
   65.0000   124.7979     8.3076     8.3837
   65.5000   124.7788     8.3628     8.3814
   66.0000   124.2175     8.4184     8.3791
   66.5000   124.2399     8.4751     8.3185
   67.0000   123.9504     8.5315     8.2584
   67.5000   124.8819     8.5882     8.1413
   68.0000   126.4149     8.7051     8.1391
   68.5000   125.5238     8.7637     8.0803
   69.0000   123.7235     8.8220     8.0781
   69.5000   121.9233     8.8806     8.1330
   70.0000   120.7291     9.0015     8.1876
   70.5000   118.9288     9.0613     8.3584
   71.0000   117.1286     9.1854     8.5918
   71.5000   115.6313     9.3113     8.8324
   72.0000   114.1341     9.4388     9.0803
   72.5000   113.8485     9.5679     9.2691
   73.0000   114.4730     9.5646     9.3315
   73.5000   115.0970     9.4949     9.3941
   74.0000   116.3435     9.4915     9.3915
   74.5000   117.2880     9.3488     9.4546
   75.0000   118.1811     9.1494     9.4519
   75.5000   116.0823     8.9043     9.4488
   76.0000   114.8836     8.7780     9.4462
   76.5000   114.9060     8.7749     9.4436
   77.0000   116.7421     8.7719     9.3754
   77.5000   118.8812     8.7689     9.3077
   78.0000   119.8083     8.7659     9.1125
   78.5000   119.8262     8.7020     8.8595
   79.0000   120.1427     8.5785     8.6737
   79.5000   119.5590     8.5160     8.5512
   80.0000   118.3648     8.3368     8.4895
   80.5000   117.4692     8.1614     8.3696
   81.0000   117.7946     8.0456     8.3092
   81.5000   119.3277     7.9315     8.1350
   82.0000   119.0426     7.8190     8.0732
   82.5000   117.5403     7.8163     7.9621
   83.0000   116.9572     7.8136     7.9046
   83.5000   117.8849     7.8109     7.9020
   84.0000   117.5434     7.8082     7.9551
   84.5000   115.1973     7.9151     8.0091
   85.0000   114.9077     8.0272     8.0629
   85.5000   115.2332     8.2519     8.1171
   86.0000   115.5541     8.4260     8.2864
   86.5000   116.4812     8.6036     8.3999
   87.0000   116.8021     8.7116     8.5751
   87.5000   114.0928     8.8919     8.7545
   88.0000   111.0804     8.9511     8.9365
   88.5000   109.5787     8.9480     9.1867
   89.0000   112.0254     9.0082     9.3132
   89.5000   114.1645     9.0044     9.5076
   90.0000   116.6067     9.0013     9.6427
   90.5000   118.1397     8.9981     9.7030
   91.0000   119.3698     8.9950     9.6997
   91.5000   117.8617     8.9919     9.6297
