~VERSION INFORMATION
 VERS.                2.0:   CWLS LOG ASCII STANDARD - VERSION 2.0
 WRAP.                 NO:   ONE LINE PER DEPTH STEP
~WELL INFORMATION
#MNEM.UNIT      DATA TYPE    INFORMATION
#----------   ------------   ------------------------------
 STRT.F           32.0000:   START DEPTH
 STOP.F          571.0000:   STOP DEPTH
 STEP.F            0.5000:   STEP LENGTH
 NULL.          -999.2500:   NO VALUE
 COMP. FENIX & SCISSON INCORP.:   COMPANY
 WELL.      NPR-3 #21-S-3:   WELL
 FLD .             TEAPOT:   FIELD
 LOC .       S3 T38N R78W:   LOCATION
 CNTY.            NATRONA:   COUNTY
 STAT.            WYOMING:   STATE
 CTRY. UNITED STATES OF AMERICA:   COUNTRY
 SRVC.           BIRDWELL:   SERVICE COMPANY
 DATE.        25-JUL-1978:   LOGDATE
 API .       490251067100:   API NUMBER
~CURVE INFORMATION
#MNEM.UNIT       API CODE    CURVE DESCRIPTION
#----------   ------------   ------------------------------
 DEPT.F                  :   
 CALD.IN     45 280 60 00:   CALIPER FROM DENSITY LOG
 CORR.G/C3   45 356 01 00:   DENSITY CORRECTION
 DPHI.DEC    45 890 10 00:   DENSITY POROSITY LIMESTONE
 GRD .GAPI   45 310 01 00:   GAMMA RAY FROM DENSITY LOG
 RHOB.G/C3   45 350 01 00:   BULK DENSITY
 ILD .OHMM   05 120 46 00:   INDUCTION LOG DEEP
 SN  .OHMM   05 040 16 00:   SHORT NORMAL 16"
 SPR .MV     05 010 01 00:   SPONTANEOUS POTENTIAL FROM RES.
 NPHI.DEC    42 890 01 00:   NEUTRON POROSITY LIMESTONE
~PARAMETER INFORMATION
#MNEM.UNIT          VALUE    DESCRIPTION
#----------   ------------   ------------------------------
 PD  .                 GL:   PERMANENT DATUM
 EPD .F              5203:   ELEVATION PERMANENT DATUM
 LMF .                 KB:   LOG MEASURED FROM
 DAPD.F                 4:   FEET ABOVE PERMANENT DATUM
 DMF .                 KB:   DRILLING MEASURED FROM
 EKB .F              5207:   KELLING BUSHING
 EGL .F              5203:   GROUND LEVEL
 DATE.        25-JUL-1978:   RUN DATE
 RUN .                  1:   RUN NUMBER
 DD  .F               565:   DEPTH DRILLER
 DL  .F               573:   DEPTH LOGGER
 BLI .F               566:   BOTTOM LOG INTERVAL
 TLI .F                46:   TOP LOG INTERVAL
 CS  .IN            8.625:   CASING SIZE
 CBD .F                40:   CASING BOTTOM DRILLER
 CBL .F                48:   CASING BOTTOM LOGGER
 BS  .IN            7.875:   BIT SIZE
 BSD .F               565:   BIT SIZE AT DEPTH
 DFT .                KCL:   DRILLING FLUID TYPE
 DFD .                8.6:   DRILLING FLUID DENSITY
 DFV .                 30:   DRILLING FLUID VISCOSITY
 DFPH.                  9:   DRILLING FLUID PH
 MSS .           FLOWLINE:   MUD SAMPLE SOURCE
 LUN .               2958:   LOGGING UNIT NUMBER
 LUL .               CASP:   LOGGING UNIT LOCATION
 WITN.           MCGINLEY:   WITNESSED BY
 CLNT.            A2DTECH:   CLIENT CODE
 ORIG.           5" PRINT:   ORIGIN OF DATA
 UWI .       490251067100:   UNIQUE WELL ID
 DICO. A2D Technologies, Inc.:   DIGITIZING COMPANY
~OTHER INFORMATION
~A   DEPT     CALD       CORR       DPHI         GRD      RHOB        ILD         SN        SPR       NPHI   
# ...
  543.0000     7.0458     0.0073     0.1213    98.9878     2.4823    11.7525    11.4101   -41.9589     0.3009
  543.5000     7.0459     0.0088     0.1228    98.2389     2.4815    11.7621    11.2614   -41.9445     0.3006
  544.0000     7.0162     0.0073     0.1249    97.0391     2.4755    11.6906    10.8889   -41.9301     0.3003
  544.5000     7.0163     0.0088     0.1267    98.6922     2.4732    11.7023    10.5980   -41.9156     0.3003
  545.0000     7.0164     0.0104     0.1270   100.1952     2.4710    11.7117    10.6802   -42.0534     0.3000
  545.5000     7.0465     0.0089     0.1267    98.6531     2.4725    11.6383    10.6875   -41.7382     0.2994
  546.0000     7.0766     0.0104     0.1261    96.5425     2.4755    11.6499    10.6962   -41.4264     0.2988
  546.5000     7.0767     0.0104     0.1237    94.1940     2.4755    11.5769    10.7034   -41.2630     0.2955
  547.0000     7.0769     0.0104     0.1201    94.0449     2.4779    11.4300    10.7105   -41.3977     0.2878
  547.5000     7.0770     0.0104     0.1192    94.9476     2.4823    11.3606    10.6422   -41.5319     0.2850
  548.0000     7.0771     0.0120     0.1204    97.2014     2.4801    11.3701    10.6511   -41.6625     0.2844
  548.5000     7.0773     0.0120     0.1219    98.5542     2.4779    11.3007    10.6582   -41.6480     0.2853
  549.0000     7.0625     0.0135     0.1228    98.1052     2.4779    11.1573    10.6654   -41.7858     0.2871
  549.5000     7.0626     0.0135     0.1231    97.5061     2.4779    11.0873    10.6008   -42.0649     0.2943
  550.0000     7.0871     0.0120     0.1231    97.2072     2.4809    10.9466    10.6079   -41.9019     0.3000
  550.5000     7.0420     0.0135     0.1222    98.3008     2.4809    10.7298    10.6884   -42.1835     0.3009
  551.0000     7.0420     0.0150     0.1219    99.0254     2.4810    10.5935    10.3331   -42.6149     0.3012
  551.5000     7.0420     0.0135     0.1210    99.0327     2.4801    10.3851     9.6512   -42.8977     0.3012
  552.0000     7.0270     0.0135     0.1180    97.9890     2.4931     9.9725     9.5252   -42.8797     0.3012
  552.5000     7.0270     0.0150     0.1153    96.9452     2.4989     9.6361     9.6641   -42.7168     0.3012
  553.0000     7.0270     0.0150     0.1144    95.7495     2.4944     9.4529     9.9425   -42.7024     0.3009
  553.5000     7.0420     0.0135     0.1147    96.3592     2.4914     9.4623    10.1571   -42.8402     0.3009
  554.0000     7.0420     0.0045     0.1165    96.8169     2.4914     9.3402    10.0247   -43.2680     0.3003
  554.5000     7.0420     0.0030     0.1258    96.0586     2.4876     9.2179     9.7585   -43.4027     0.2925
  555.0000     7.0420     0.0090     0.1309    95.0050     2.4734     9.1008     9.4994   -43.3878     0.2922
  555.5000     7.0420     0.0075     0.1300    94.5866     2.4674     8.9823     9.3110   -43.6899     0.2931
  556.0000     7.0420     0.0060     0.1266    95.1963     2.4734     8.8676     9.1889   -43.8048     0.2940
  556.5000     7.0420     0.0075     0.1225    98.8072     2.4757     8.7550     9.1233   -43.4897     0.2943
  557.0000     7.0420     0.0060     0.1204   101.2169     2.4764     8.7619     9.0137   -43.1781     0.2940
  557.5000     7.0571     0.0075     0.1204   102.7257     2.4764     8.7689     9.0212   -42.8666     0.3057
  558.0000     7.0871     0.0075     0.1225   102.7330     2.4794     8.7759     8.9637   -42.7036     0.3075
  558.5000     7.1021     0.0105     0.1240   103.9415     2.4839     8.7829     8.9711   -42.9864     0.3120
  559.0000     7.1321     0.0120     0.1225   104.0991     2.4772     8.7901     8.9771   -43.2692     0.3332
  559.5000     7.1321     0.0105     0.1174   103.3573     2.4809     8.7986     9.0452   -43.6970     0.3323
  560.0000     7.1321     0.0105     0.1177   102.7622     2.4884     8.8057     9.1139   -43.8312     0.3311
  560.5000     7.0871     0.0105     0.1201   106.0746     2.4884     8.7504     8.9348   -43.8168     0.3305
  561.0000     7.0571     0.0105     0.1186   107.4314     2.4861     8.5800     8.7562   -43.8024     0.3308
  561.5000     7.0420     0.0105     0.1186   105.9390     2.4839     8.5276     8.7019   -43.9402     0.3317
  562.0000     7.0420     0.0090     0.1192   103.5439     2.4809     8.4171     8.5899   -44.0708     0.3323
  562.5000     7.0433     0.0075     0.1213   105.3530     2.4801     8.3093     8.5363   -44.0565     0.3326
  563.0000     7.0871     0.0060     0.1183   106.5616     2.4839     8.2038     8.4835   -44.0416     0.3323
  563.5000     7.1021     0.0075     0.1243   105.9008     2.4884     8.0980     8.4893   -44.0241     0.3111
  564.0000     7.1021     0.0105     0.1258   102.3737     2.4801     7.9386     8.4963   -44.0097     0.3108
  564.5000     7.0871     0.0075     0.1219   108.3886     2.4757     7.8362     8.5019   -43.8468     0.3172
  565.0000     6.7117     0.0090     0.1201   109.3597     2.4809     7.6821     8.5076   -43.6838     0.3263
  565.5000     6.5916     0.0105     0.1198  -999.2500     2.4839     7.4749     8.5721   -43.6694     0.3347
  566.0000     7.1286     0.0107     0.1249  -999.2500     2.4825     7.6430     8.5779   -43.6550     0.3234
  566.5000  -999.2500  -999.2500  -999.2500  -999.2500  -999.2500     8.0825     8.6430   -43.6404     0.3219
  567.0000  -999.2500  -999.2500  -999.2500  -999.2500  -999.2500     8.4032     8.7689   -43.4770     0.3207
  567.5000  -999.2500  -999.2500  -999.2500  -999.2500  -999.2500  -999.2500  -999.2500  -999.2500     0.3225
  568.0000  -999.2500  -999.2500  -999.2500  -999.2500  -999.2500  -999.2500  -999.2500  -999.2500     0.3413
  568.5000  -999.2500  -999.2500  -999.2500  -999.2500  -999.2500  -999.2500  -999.2500  -999.2500     0.3787
  569.0000  -999.2500  -999.2500  -999.2500  -999.2500  -999.2500  -999.2500  -999.2500  -999.2500     0.3611
  569.5000  -999.2500  -999.2500  -999.2500  -999.2500  -999.2500  -999.2500  -999.2500  -999.2500     0.3608
  570.0000  -999.2500  -999.2500  -999.2500  -999.2500  -999.2500  -999.2500  -999.2500  -999.2500     0.3500
  570.5000  -999.2500  -999.2500  -999.2500  -999.2500  -999.2500  -999.2500  -999.2500  -999.2500     0.3572
  571.0000  -999.2500  -999.2500  -999.2500  -999.2500  -999.2500  -999.2500  -999.2500  -999.2500     0.3808
