~VERSION INFORMATION
 VERS.                2.0:   CWLS LOG ASCII STANDARD - VERSION 2.0
 WRAP.                 NO:   ONE LINE PER DEPTH STEP
~WELL INFORMATION
#MNEM.UNIT      DATA TYPE    INFORMATION
#----------   ------------   ------------------------------
 STRT.F           20.0000:   START DEPTH
 STOP.F          964.0000:   STOP DEPTH
 STEP.F            0.5000:   STEP LENGTH
 NULL.          -999.2500:   NO VALUE
 COMP. FENIX & SCISSON INC:   COMPANY
 WELL.    NPR-3 SX #58-11:   WELL
 FLD .             TEAPOT:   FIELD
 LOC .      S11 T38N R78W:   LOCATION
 CNTY.            NATRONA:   COUNTY
 STAT.            WYOMING:   STATE
 CTRY. UNITED STATES OF AMERICA:   COUNTRY
 SRVC.            Unknown:   SERVICE COMPANY
 DATE.        09-MAR-1978:   LOGDATE
 API .       490251060100:   API NUMBER
~CURVE INFORMATION
#MNEM.UNIT       API CODE    CURVE DESCRIPTION
#----------   ------------   ------------------------------
 DEPT.F                  :   
 SPR .MV     05 010 01 00:   SPONTANEOUS POTENTIAL FROM RES.
 SN  .OHMM   05 040 16 00:   SHORT NORMAL 16"
 ILD .OHMM   05 120 46 00:   INDUCTION LOG DEEP
 CALD.IN     45 280 60 00:   CALIPER
 GRD .GAPI   45 310 01 00:   GAMMA RAY FROM DENSITY LOG
 CORR.G/C3   45 356 01 00:   DENSITY CORRECTION
 RHOB.G/C3   45 350 01 00:   BULK DENSITY
 DPHI.DEC    45 890 12 00:   DENSITY POROSITY SANDSTONE
~PARAMETER INFORMATION
#MNEM.UNIT          VALUE    DESCRIPTION
#----------   ------------   ------------------------------
 PD  .                 GL:   PERMANENT DATUM
 EPD .F              5219:   ELEVATION PERMANENT DATUM
 LMF .                 KB:   LOG MEASURED FROM
 DAPD.F                 4:   FEET ABOVE PERMANENT DATUM
 DMF .                 KB:   DRILLING MEASURED FROM
 EKB .F              5223:   KELLING BUSHING
 EGL .F              5219:   GROUND LEVEL
 DATE.           3-9-1978:   RUN DATE
 RUN .                  1:   RUN NUMBER
 DD  .F               963:   DEPTH DRILLER
 DL  .F               966:   DEPTH LOGGER
 BLI .F               960:   BOTTOM LOG INTERVAL
 TLI .F                80:   TOP LOG INTERVAL
 CS  .IN            8.625:   CASING SIZE
 CBD .F                40:   CASING BOTTOM DRILLER
 BS  .IN            7.875:   BIT SIZE
 BSD .F               963:   BIT SIZE AT DEPTH
 DFT .         LIGNO SULF:   DRILLING FLUID TYPE
 DFD .                8.6:   DRILLING FLUID DENSITY
 DFV .                 30:   DRILLING FLUID VISCOSITY
 DFPH.               10.5:   DRILLING FLUID PH
 DFL .                4.8:   DRILLING FLUID LOSS
 MSS .          FLOW LINE:   MUD SAMPLE SOURCE
 RMS .OHMM            1.7:   RESISTIVITY MUD SAMPLE
 MST .F                60:   MUD SAMPLE TEMPERATURE
 RMF .OHMM            1.5:   RESISTIVITY MUD FILTRATE SAMPLE
 MFST.F                74:   MUD FILTRATE SAMPLE TEMPERATURE
 RMC .OHMM            2.8:   RESISTIVITY MUD CAKE
 MCST.F                68:   MUD CAKE SAMPLE TEMPERATURE
 MFSS.               MEAS:   MUD FILTRATE SAMPLE SOURCE
 MCSS.               MEAS:   MUD CAKE SAMPLE SOURCE
 RMB .OHMM           1.38:   RESISTIVITY MUD AT BHT
 BHT .F                74:   BOTTOM HOLE TEMPERATURE
 TCS .HRS               4:   TIME CURCULATED STOPPED
 MRT .F                74:   MAXIMUM RECORDED TEMPERATURE
 LUN .               2958:   LOGGING UNIT NUMBER
 LUL .               CASP:   LOGGING UNIT LOCATION
 ENGI.             MILLER:   RECORDING ENGINEER
 WITN.         HARRINGTON:   WITNESSED BY
 CLNT.            A2DTECH:   CLIENT CODE
 ORIG.      2" , 5" PRINT:   ORIGIN OF DATA
 UWI .       490251060100:   UNIQUE WELL ID
 DICO. A2D Technologies, Inc.:   DIGITIZING COMPANY
~OTHER INFORMATION
~A   DEPT      SPR         SN        ILD       CALD         GRD      CORR       RHOB       DPHI   
# ...
  506.0000   -27.1488     7.1480     6.6592     7.9000    87.1409     0.0155     2.4986     0.1048
  506.5000   -27.2164     7.0511     6.6817     7.9000    87.2900     0.0143     2.4965     0.1048
  507.0000   -27.2942     6.9131     6.7045     7.9000    87.3296     0.0130     2.4950     0.1048
  507.5000   -27.4653     6.9461     6.7292     7.9000    86.9472     0.0116     2.4916     0.1080
  508.0000   -27.6298     7.0064     6.7648     7.9000    85.2220     0.0105     2.4876     0.1110
  508.5000   -27.7940     7.0680     6.8005     7.9000    81.9667     0.0093     2.4792     0.1139
  509.0000   -27.9599     7.0436     6.8365     7.9000    78.8952     0.0154     2.4709     0.1167
  509.5000   -28.0288     7.2756     6.8726     7.9000    77.2074     0.0208     2.4702     0.1137
  510.0000   -27.6676     7.5817     6.9090     7.9000    76.0108     0.0208     2.4795     0.1108
  510.5000   -27.3126     7.6685     6.9455     7.9000    78.3115     0.0209     2.4865     0.1080
  511.0000   -27.0549     7.7944     6.9823     7.9000    81.8899     0.0209     2.4884     0.1062
  511.5000   -27.5535     7.9401     7.0192     7.9000    86.0561     0.0207     2.4906     0.1059
  512.0000   -27.3997     7.8666     7.0564     7.9000    85.2159     0.0203     2.4925     0.1056
  512.5000   -26.8090     7.8663     7.0937     7.9000    84.1007     0.0199     2.4928     0.1073
  513.0000   -26.4436     7.9824     7.1452     7.9000    83.3456     0.0196     2.4874     0.1091
  513.5000   -26.4488     8.1205     7.2049     7.9000    83.5826     0.0192     2.4821     0.1108
  514.0000   -26.5356     8.2609     7.2650     7.9000    83.6619     0.0188     2.4760     0.1116
  514.5000   -26.7896     8.4038     7.3257     7.9000    83.7717     0.0185     2.4774     0.1072
  515.0000   -26.8229     8.5491     7.3850     7.9000    83.2960     0.0181     2.4848     0.1003
  515.5000   -26.7845     8.5774     7.4363     7.9000    80.3377     0.0177     2.4921     0.0944
  516.0000   -26.7441     8.6251     7.4879     7.9000    78.6722     0.0174     2.4963     0.0972
  516.5000   -26.7036     8.6730     7.5399     7.9000    82.3368     0.0170     2.4960     0.0992
  517.0000   -26.6633     8.7212     7.5923     7.9000    86.3103     0.0190     2.4961     0.0989
  517.5000   -26.6231     8.7697     7.6451     7.9000    87.1134     0.0217     2.4958     0.0985
  518.0000   -26.5827     8.8185     7.6982     7.9000    87.7286     0.0245     2.4988     0.0944
  518.5000   -26.5426     8.8710     7.7317     7.9000    88.0652     0.0214     2.5080     0.0881
  519.0000   -26.5030     8.9363     7.7974     7.9000    86.8886     0.0170     2.5137     0.0901
  519.5000   -26.4566     9.0615     7.8637     7.9000    85.6790     0.0194     2.5094     0.0937
  520.0000   -26.8203     9.1882     7.9306     7.9000    84.5507     0.0252     2.5049     0.0942
  520.5000   -27.4143     9.3168     7.9981     7.9000    83.5783     0.0305     2.4990     0.0897
  521.0000   -27.5710     9.4473     8.0661     7.9000    85.8784     0.0363     2.5059     0.0817
  521.5000   -27.4576     9.5614     8.1256     7.9000    89.1475     0.0367     2.5216     0.0809
  522.0000   -27.3440     9.7086     8.2644     7.9000    87.9958     0.0371     2.5244     0.0740
  522.5000   -27.2739     9.8581     8.4054     7.9000    80.9336     0.0341     2.5308     0.0675
  523.0000   -27.4766    10.0099     8.5492     7.9000    75.9441     0.0278     2.5515     0.0646
  523.5000   -27.6355    10.1884     8.6961     7.9000    75.6702     0.0213     2.5455     0.0734
  524.0000   -27.0741    10.4350     8.8463     7.9000    78.3167     0.0153     2.5347     0.0840
  524.5000   -26.6466    10.6741     8.8710     7.9000    83.1833     0.0098     2.5170     0.1013
  525.0000   -26.6841    10.6712     8.9619     7.9000    82.6924     0.0170     2.4970     0.1069
  525.5000   -26.7122    11.0729     8.9760     7.9000    82.7413     0.0243     2.4782     0.1048
  526.0000   -26.7400    10.9150     8.9902     7.9000    83.0468     0.0248     2.4827     0.1028
  526.5000   -26.7683    10.5141     9.0043     7.9000    83.3946     0.0249     2.4887     0.1008
  527.0000   -26.7966    10.1895     9.0186     7.9000    83.7409     0.0248     2.4953     0.0996
  527.5000   -26.8249    10.1758     9.0364     7.9000    84.5490     0.0248     2.5015     0.0988
  528.0000   -26.8451    10.1514     8.9268     7.9000    85.3462     0.0225     2.5001     0.0981
  528.5000   -26.7871    10.1270     8.7821     7.9000    84.7676     0.0201     2.4986     0.0981
  529.0000   -26.7287    10.1026     8.6285     7.9000    84.9040     0.0176     2.4967     0.0994
  529.5000   -26.6707    10.0784     8.6026     7.9000    85.6475     0.0179     2.4947     0.1008
  530.0000   -26.6124    10.0541     8.5746     7.9000    86.3084     0.0193     2.4962     0.0986
  530.5000   -26.5537    10.0300     8.5466     7.9000    88.3669     0.0207     2.5017     0.0960
  531.0000   -26.4965    10.0058     8.5187     7.9000    90.0630     0.0222     2.4999     0.0967
  531.5000   -26.5103    10.0029     8.4909     7.9000    92.0234     0.0235     2.4980     0.0976
  532.0000   -26.9485    10.0029     8.4705     7.9000    90.5184     0.0247     2.4967     0.0964
  532.5000   -27.3876    10.0029     8.4451     7.9000    88.7538     0.0228     2.5023     0.0936
  533.0000   -27.8211    10.0029     8.4066     7.9000    87.0542     0.0211     2.5072     0.0956
  533.5000   -27.9315     9.9064     8.3682     7.9000    87.0407     0.0193     2.4966     0.0978
  534.0000   -27.5075     9.7565     8.3301     7.9000    86.6895     0.0174     2.4938     0.1000
  534.5000   -27.0983     9.6116     8.2921     7.9000    85.8594     0.0177     2.4906     0.1006
  535.0000   -27.1119     9.4599     8.2542     7.9000    85.8872     0.0194     2.4885     0.0999
  535.5000   -27.2117     9.4666     8.2165     7.9000    85.9530     0.0209     2.4936     0.0991
  536.0000   -27.1738     9.3757     8.1791     7.9000    86.0560     0.0224     2.4959     0.0984
  536.5000   -27.0655     9.3995     8.1604     7.9000    86.1860     0.0241     2.4953     0.0976
  537.0000   -26.9559     9.4636     8.1554     7.9000    85.7410     0.0246     2.4949     0.0969
  537.5000   -26.8459     9.4042     8.1504     7.9000    84.4430     0.0237     2.4939     0.0962
  538.0000   -26.7372     9.3263     8.1454     7.9000    84.2053     0.0229     2.4994     0.0880
  538.5000   -26.6435     9.2903     8.1405     7.9000    84.1797     0.0221     2.5150     0.0815
  539.0000   -26.6465     9.4349     8.1355     7.9000    84.0614     0.0212     2.5295     0.0722
  539.5000   -26.6468     9.6373     8.1306     7.9000    81.6254     0.0210     2.5410     0.0749
  540.0000   -26.6469     9.8441     8.1256     7.9000    79.1997     0.0214     2.5355     0.0799
  540.5000   -26.6470    10.0554     8.1207     7.9000    77.4215     0.0216     2.5287     0.0848
  541.0000   -26.6870    10.2704     8.1157     7.9000    80.5758     0.0219     2.5209     0.0890
  541.5000   -26.7629    10.4748     8.1108     7.9000    85.9818     0.0222     2.5133     0.0916
  542.0000   -26.8369    10.2852     8.1058     7.9000    89.9237     0.0225     2.5059     0.0944
  542.5000   -26.8206    10.1103     8.1011     7.9000    91.7177     0.0228     2.4982     0.0948
  543.0000   -26.7185     9.9384     8.0966     7.9000    93.1171     0.0231     2.4993     0.0955
  543.5000   -26.6534     9.4976     8.0903     7.9000    92.9878     0.0234     2.5034     0.0962
  544.0000   -26.8845     9.0364     8.0293     7.9000    93.1718     0.0237     2.4996     0.0970
  544.5000   -27.1116     8.8280     7.7627     7.9000    93.2419     0.0240     2.4966     0.0976
  545.0000   -27.2463     8.6285     7.5056     7.9000    94.6034     0.0243     2.5014     0.0973
  545.5000   -27.0972     8.3926     7.2578     7.9000    96.8594     0.0246     2.5059     0.0970
  546.0000   -26.8612     8.1561     7.0435     7.9000    97.9137     0.0252     2.5034     0.0968
