~VERSION INFORMATION
 VERS.                2.0:   CWLS LOG ASCII STANDARD - VERSION 2.0
 WRAP.                 NO:   ONE LINE PER DEPTH STEP
~WELL INFORMATION
#MNEM.UNIT      DATA TYPE    INFORMATION
#----------   ------------   ------------------------------
 STRT.F           34.0000:   START DEPTH
 STOP.F          662.0000:   STOP DEPTH
 STEP.F            0.5000:   STEP LENGTH
 NULL.          -999.2500:   NO VALUE
 COMP. FENIX & SCISSON INC:   COMPANY
 WELL.     55 S 34 #34-34:   WELL
 FLD .          N.P.R. #3:   FIELD
 LOC .      S34 T39N R78W:   LOCATION
 CNTY.            NATRONA:   COUNTY
 STAT.            WYOMING:   STATE
 CTRY. UNITED STATES OF AMERICA:   COUNTRY
 SRVC.       Schlumberger:   SERVICE COMPANY
 DATE.        15-MAR-1977:   LOGDATE
 API .       490251030500:   API NUMBER
~CURVE INFORMATION
#MNEM.UNIT       API CODE    CURVE DESCRIPTION
#----------   ------------   ------------------------------
 DEPT.F                  :   
 GRD .GAPI   45 310 01 00:   GAMMA RAY FROM DENSITY LOG
 CORR.G/C3   45 356 01 00:   DENSITY CORRECTION
 RHOB.G/C3   45 350 01 00:   BULK DENSITY
 DPOR.DEC    45 890 12 00:   DENSITY POROSITY SANDSTONE
 SPR .MV     07 010 01 00:   SPONTANEOUS POTENTIAL
 LL8 .OHMM   07 220 08 00:   LATEROLOG-8 RES.
 ILD .OHMM   07 120 46 00:   INDUCTION LOG DEEP
 ILM .OHMM   07 120 44 00:   INDUCTION LOG MEDIUM
 CALD.IN     45 280 60 00:   CALIPER
~PARAMETER INFORMATION
#MNEM.UNIT          VALUE    DESCRIPTION
#----------   ------------   ------------------------------
 PD  .                 GL:   PERMANENT DATUM
 EPD .F              5087:   ELEVATION PERMANENT DATUM
 LMF .                 GL:   LOG MEASURED FROM
 DMF .                 GL:   DRILLING MEASURED FROM
 EKB .F              5091:   KELLING BUSHING
 EGL .F              5087:   GROUND LEVEL
 DATE.            3-15-77:   RUN DATE
 RUN .                  1:   RUN NUMBER
 DD  .F               670:   DEPTH DRILLER
 DL  .F               663:   DEPTH LOGGER
 BLI .F               657:   BOTTOM LOG INTERVAL
 TLI .F                40:   TOP LOG INTERVAL
 CS  .IN            8.625:   CASING SIZE
 CBD .F                40:   CASING BOTTOM DRILLER
 CBL .F                40:   CASING BOTTOM LOGGER
 BS  .IN            7.875:   BIT SIZE
 BSD .F               670:   BIT SIZE AT DEPTH
 DFT .                KCL:   DRILLING FLUID TYPE
 DFD .                8.6:   DRILLING FLUID DENSITY
 DFV .                 31:   DRILLING FLUID VISCOSITY
 DFPH.                  8:   DRILLING FLUID PH
 DFL .                8.8:   DRILLING FLUID LOSS
 MSS .                PIT:   MUD SAMPLE SOURCE
 RMS .OHMM           .246:   RESISTIVITY MUD SAMPLE
 MST .F                76:   MUD SAMPLE TEMPERATURE
 RMF .OHMM           .243:   RESISTIVITY MUD FILTRATE SAMPLE
 MFST.F                76:   MUD FILTRATE SAMPLE TEMPERATURE
 MFSS.                  M:   MUD FILTRATE SAMPLE SOURCE
 RMB .OHMM           .267:   RESISTIVITY MUD AT BHT
 BHT .F                70:   BOTTOM HOLE TEMPERATURE
 TCS .HRS            1800:   TIME CURCULATED STOPPED
 TLAB.HRS            2200:   TIME LOGGER AT BOTTOM
 MRT .F                70:   MAXIMUM RECORDED TEMPERATURE
 LUN .               5642:   LOGGING UNIT NUMBER
 LUL .               CSPR:   LOGGING UNIT LOCATION
 ENGI.             MARTIN:   RECORDING ENGINEER
 WITN.              BURKE:   WITNESSED BY
 CLNT.            A2DTECH:   CLIENT CODE
 ORIG. 2", 2.5", 5" PRINT:   ORIGIN OF DATA
 UWI .       490251030500:   UNIQUE WELL ID
 DICO. A2D Technologies, Inc.:   DIGITIZING COMPANY
~OTHER INFORMATION
~A   DEPT       GRD      CORR       RHOB       DPOR        SPR        LL8        ILD        ILM       CALD   
# ...
  253.0000   115.8921    -0.0022     2.4669     0.1070   -55.2880    10.2265     8.8643     9.2924     8.3230
  253.5000   117.1935     0.0172     2.4797     0.0914   -55.0990    10.3618     8.9142     9.3446     8.3223
  254.0000   119.0675     0.0219     2.4843     0.0934   -54.9100    10.6204     8.9610     9.3844     8.3217
  254.5000   120.2767     0.0043     2.4839     0.0976   -54.7210    11.0077     9.0543     9.5095     8.3210
  255.0000   119.1180     0.0087     2.4836     0.0990   -54.5319    11.4060     9.1928     9.6541     8.3204
  255.5000   118.7005     0.0159     2.4881     0.0950   -54.3432    11.8190     9.3334     9.8020     8.3198
  256.0000   119.4995     0.0204     2.4913     0.0922   -54.1452    11.9295     9.4761     9.9519     8.3191
  256.5000   117.0152     0.0014     2.4851     0.0977   -54.1535    11.9275     9.6210    10.1041     8.3185
  257.0000   112.9368     0.0017     2.4815     0.0997   -54.2278    11.8935     9.7681    10.2586     8.3179
  257.5000   110.9675     0.0095     2.4875     0.0978   -54.3035    11.8723     9.9175    10.4155     8.3172
  258.0000   111.3432     0.0172     2.4949     0.0918   -54.3786    11.8511    10.0692    10.5747     8.3166
  258.5000   112.0480     0.0210     2.4925     0.0946   -54.4536    11.8279    10.2232    10.7365     8.3158
  259.0000   111.1228     0.0133     2.4903     0.0898   -54.5287    11.8129    10.3795    10.9007     8.3144
  259.5000   109.6935     0.0071     2.4905     0.0930   -54.6036    12.4974    10.5782    11.0772     8.3130
  260.0000   109.2116     0.0138     2.5006     0.0886   -54.6838    13.2737    10.6585    11.1818     8.3115
  260.5000   110.9894     0.0167     2.5062     0.0802   -54.5901    13.5675    10.7618    11.2833     8.3101
  261.0000   112.8030     0.0020     2.4960     0.0896   -54.4372    12.8446    10.8749    11.3878     8.3087
  261.5000   113.5077     0.0186     2.4762     0.0986   -54.2830    12.2593    10.8749    11.3708     8.3073
  262.0000   112.5301     0.0104     2.4592     0.1081   -54.1293    12.3422    10.7721    11.2590     8.3059
  262.5000   111.7638     0.0247     2.4716     0.1058   -53.9756    12.4508    10.6661    11.1482     8.3045
  263.0000   112.8357     0.0166     2.4777     0.1034   -53.8220    12.4874    10.5612    11.0384     8.3030
  263.5000   114.4683     0.0024     2.4707     0.1042   -53.6670    12.0185    10.4572    10.9298     8.3016
  264.0000   115.4586     0.0099     2.4656     0.1038   -53.5070    11.7071    10.3543    10.8222     8.3002
  264.5000   111.8727     0.0197     2.4671     0.1075   -53.5005    11.7071    10.2524    10.7156     8.2988
  265.0000   110.0163    -0.0019     2.4530     0.1106   -53.6104    11.8560    10.1516    10.6101     8.2974
  265.5000   112.8400     0.0019     2.4594     0.1104   -53.7276    11.9791    10.1018    10.5758     8.2960
  266.0000   114.6204    -0.0057     2.4696     0.1064   -53.8444    12.0353    10.0856    10.5578     8.2946
  266.5000   115.1134     0.0205     2.4820     0.1010   -53.9611    11.7563    10.0682    10.5397     8.2931
  267.0000   115.1179     0.0155     2.4766     0.1027   -54.0778    11.5997    10.0510    10.5216     8.2917
  267.5000   114.7870     0.0049     2.4708     0.1043   -54.1944    11.7525    10.0337    10.5035     8.2903
  268.0000   114.6784     0.0182     2.4882     0.0962   -54.3111    11.9802    10.0164    10.4854     8.2889
  268.5000   115.3733     0.0144     2.5029     0.0850   -54.4278    12.1503     9.9992    10.4674     8.2875
  269.0000   117.0334     0.0047     2.5010     0.0918   -54.5444    11.6172     9.9820    10.4494     8.2861
  269.5000   118.5764     0.0123     2.4998     0.0863   -54.6611    11.2517     9.9648    10.4314     8.2847
  270.0000   117.9194     0.0187     2.5178     0.0764   -54.7787    11.0735     9.9477    10.4134     8.2832
  270.5000   115.1462     0.0169     2.5237     0.0721   -54.8957    11.8100     9.9305    10.3955     8.2818
  271.0000   115.1148     0.0202     2.5130     0.0781   -54.9003    12.2593     9.9135    10.3776     8.2804
  271.5000   116.1397     0.0148     2.5005     0.0866   -54.8629    11.5602     9.8964    10.3598     8.2790
  272.0000   116.0578     0.0089     2.4913     0.1102   -54.7749    10.8749     9.8794    10.3420     8.2776
  272.5000   113.6533     0.0123     2.4813     0.1072   -54.6876    11.2344     9.8624    10.3242     8.2764
  273.0000   113.9405     0.0069     2.4711     0.1030   -54.6000    11.7420     9.8454    10.3064     8.2763
  273.5000   114.9359    -0.0049     2.4606     0.1142   -54.5125    12.1468     9.8285    10.2897     8.2763
  274.0000   114.6659    -0.0054     2.4603     0.1112   -54.4250    12.0453     9.7562    10.1945     8.2763
  274.5000   113.8705     0.0108     2.4760     0.1052   -54.3374    11.7070     9.6513    10.0858     8.2763
  275.0000   113.8143     0.0049     2.4754     0.1034   -54.2491    11.3783     9.5485     9.9784     8.2763
  275.5000   115.1664     0.0155     2.4715     0.1045   -54.1625    11.0581     9.4467     9.8721     8.2763
  276.0000   115.8007     0.0269     2.4766     0.1030   -54.1502    10.7744     9.3461     9.7669     8.2763
  276.5000   117.0147     0.0241     2.4869     0.0986   -54.3702    10.7744     9.2465     9.6629     8.2763
  277.0000   119.9195     0.0260     2.4972     0.0966   -54.5799    10.7970     9.1482     9.5583     8.2763
  277.5000   120.6489     0.0412     2.5042     0.0881   -54.7900    10.8210     9.0121     9.4082     8.2763
  278.0000   119.1175     0.0436     2.4915     0.0951   -55.0000    10.8447     8.8684     9.2582     8.2763
  278.5000   117.8237     0.0122     2.4792     0.0986   -55.2101    10.8749     8.7166     9.1277     8.2763
  279.0000   119.7338     0.0055     2.4670     0.1074   -55.4200    10.8275     8.5826     8.9519     8.2763
  279.5000   122.5736     0.0063     2.4594     0.1083   -55.6322    10.5714     8.4035     8.7646     8.2763
  280.0000   121.4445     0.0107     2.4597     0.1066   -55.6993    10.0739     8.2281     8.5816     8.2763
  280.5000   119.8298     0.0005     2.4603     0.1079   -55.7006     9.5997     8.0564     8.4024     8.2763
  281.0000   120.9432    -0.0026     2.4698     0.1090   -55.6744     9.1277     7.8883     8.2275     8.2763
  281.5000   124.0069     0.0174     2.4709     0.1057   -55.6299     9.0720     7.7236     8.0535     8.2763
  282.0000   126.9884     0.0210     2.4706     0.0986   -55.5851     8.9753     7.5944     7.9212     8.2763
  282.5000   129.0158     0.0123     2.4756     0.0987   -55.5404     8.8797     7.4523     7.8038     8.2763
  283.0000   129.5799     0.0042     2.4802     0.0993   -55.4957     8.7973     7.4523     7.8038     8.2763
  283.5000   127.3074     0.0023     2.4807     0.0999   -55.4511     8.7938     7.6362     8.0294     8.2763
  284.0000   121.9840    -0.0001     2.4768     0.1015   -55.4062     9.5975     7.8026     8.2044     8.2763
  284.5000   116.6504    -0.0010     2.4733     0.1044   -55.3619    10.3415     7.9728     8.3833     8.2763
  285.0000   114.4752    -0.0010     2.4651     0.1079   -55.3156    10.6762     8.1466     8.5661     8.2763
  285.5000   112.9719     0.0043     2.4580     0.1123   -55.4129    10.3850     8.3242     8.7528     8.2763
  286.0000   112.8677     0.0158     2.4645     0.1049   -55.5909    10.4892     8.5057     8.9437     8.2763
  286.5000   113.0362     0.0103     2.4694     0.1065   -55.7713    10.6249     8.6911     9.1287     8.2763
  287.0000   113.2001     0.0065     2.4692     0.1058   -55.9514    10.7751     8.7166     9.1278     8.2763
  287.5000   112.3738     0.0031     2.4764     0.1000   -56.1315    10.5764     8.6782     9.0860     8.2763
  288.0000   109.9876     0.0047     2.4849     0.0950   -56.3127    10.3054     8.6434     9.0477     8.2763
  288.5000   108.3563     0.0139     2.4932     0.0912   -56.4931    10.0091     8.6087     9.0099     8.2763
  289.0000   110.1566     0.0249     2.4944     0.0882   -56.5016    10.1002     8.5742     8.9722     8.2763
