~VERSION INFORMATION
 VERS.                2.0:   CWLS LOG ASCII STANDARD - VERSION 2.0
 WRAP.                 NO:   ONE LINE PER DEPTH STEP
~WELL INFORMATION
#MNEM.UNIT      DATA TYPE    INFORMATION
#----------   ------------   ------------------------------
 STRT.F           78.5000:   START DEPTH
 STOP.F         1021.0000:   STOP DEPTH
 STEP.F            0.5000:   STEP LENGTH
 NULL.          -999.2500:   NO VALUE
 COMP. U S NAVY/INTEX OIL CO:   COMPANY
 WELL.     NRR 3 ##65S-11:   WELL
 FLD .             TEAPOT:   FIELD
 LOC .      S11 T38N R78W:   LOCATION
 CNTY.            NATRONA:   COUNTY
 STAT.            WYOMING:   STATE
 CTRY. UNITED STATES OF AMERICA:   COUNTRY
 SRVC.       Schlumberger:   SERVICE COMPANY
 DATE.        09-MAR-1960:   LOGDATE
 API .       490250634100:   API NUMBER
~CURVE INFORMATION
#MNEM.UNIT       API CODE    CURVE DESCRIPTION
#----------   ------------   ------------------------------
 DEPT.F                  :   
 SPR .MV     05 010 01 00:   SPONTANEOUS POTENTIAL FROM RES.
 ILD .OHMM   05 120 46 00:   INDUCTION LOG DEEP
 CILD.MMHO   05 110 00 00:   CONDUCTIVITY INDUCTION LOG
 ASN .OHMM   05 041 16 00:   AMPLIFIED SHORT NORMAL 16"
~PARAMETER INFORMATION
#MNEM.UNIT          VALUE    DESCRIPTION
#----------   ------------   ------------------------------
 PD  .                 GL:   PERMANENT DATUM
 EPD .F              5227:   ELEVATION PERMANENT DATUM
 LMF .                 KB:   LOG MEASURED FROM
 DAPD.F                 5:   FEET ABOVE PERMANENT DATUM
 DMF .                 KB:   DRILLING MEASURED FROM
 EKB .F              5232:   KELLING BUSHING
 EGL .F              5227:   GROUND LEVEL
 DATE.             3-9-60:   RUN DATE
 RUN .                  1:   RUN NUMBER
 DD  .F              1025:   DEPTH DRILLER
 DL  .F              1026:   DEPTH LOGGER
 BLI .F              1021:   BOTTOM LOG INTERVAL
 TLI .F                80:   TOP LOG INTERVAL
 CBD .F                12:   CASING BOTTOM DRILLER
 BS  .IN            7.875:   BIT SIZE
 BSD .F              1025:   BIT SIZE AT DEPTH
 DFT .          OIL EMULS:   DRILLING FLUID TYPE
 DFD .               10.2:   DRILLING FLUID DENSITY
 DFV .                 36:   DRILLING FLUID VISCOSITY
 DFPH.                7.5:   DRILLING FLUID PH
 DFL .                  4:   DRILLING FLUID LOSS
 MSS .          FLOW LINE:   MUD SAMPLE SOURCE
 RMS .OHMM           2.18:   RESISTIVITY MUD SAMPLE
 MST .F                64:   MUD SAMPLE TEMPERATURE
 RMF .OHMM           1.17:   RESISTIVITY MUD FILTRATE SAMPLE
 MFST.F                63:   MUD FILTRATE SAMPLE TEMPERATURE
 RMC .OHMM           2.02:   RESISTIVITY MUD CAKE
 MCST.F                64:   MUD CAKE SAMPLE TEMPERATURE
 MFSS.                  M:   MUD FILTRATE SAMPLE SOURCE
 MCSS.                  M:   MUD CAKE SAMPLE SOURCE
 TCS .HRS             .75:   TIME CURCULATED STOPPED
 LUN .               2795:   LOGGING UNIT NUMBER
 LUL .               CSPR:   LOGGING UNIT LOCATION
 ENGI.              SCOTT:   RECORDING ENGINEER
 WITN.          JORGENSEN:   WITNESSED BY
 CLNT.            A2DTECH:   CLIENT CODE
 ORIG.           2" PRINT:   ORIGIN OF DATA
 UWI .       490250634100:   UNIQUE WELL ID
 DICO. A2D Technologies, Inc.:   DIGITIZING COMPANY
~OTHER INFORMATION
~A   DEPT      SPR        ILD       CILD        ASN   
# ...
  808.5000   -47.0041     6.8646   142.0616     9.0465
  809.0000   -47.0381     6.8632   144.4406     9.0149
  809.5000   -47.0732     6.8770   146.8195     8.8998
  810.0000   -47.1061     6.7421   149.1984     8.7138
  810.5000   -47.1441     6.4807   151.5773     8.5441
  811.0000   -47.1576     6.2523   153.9563     8.3711
  811.5000   -47.0263     6.0089   157.6428     8.1923
  812.0000   -46.8884     5.7737   162.0608     8.0354
  812.5000   -46.7516     5.5332   166.4788     7.8585
  813.0000   -46.6145     5.2972   173.5753     7.7085
  813.5000   -46.4776     5.0542   181.8590     7.4644
  814.0000   -46.3401     4.8242   190.1428     7.1416
  814.5000   -46.2041     4.5696   198.4265     6.8651
  815.0000   -46.0653     4.3608   206.7103     6.5677
  815.5000   -45.9313     4.0371   214.9940     6.2826
  816.0000   -45.7924     4.0118   223.2778     5.9687
  816.5000   -45.7740     3.9600   232.9659     5.9463
  817.0000   -45.8187     4.1037   232.9659     5.9855
  817.5000   -45.8486     4.5025   230.9619     6.3950
  818.0000   -45.8853     4.8206   217.9118     6.8900
  818.5000   -45.9185     5.1797   202.8226     7.3707
  819.0000   -45.9535     5.5177   187.7335     7.8767
  819.5000   -45.9877     5.8652   172.6443     8.0776
  820.0000   -46.0222     6.2118   156.9551     8.2732
  820.5000   -46.0565     6.5382   153.0560     8.4667
  821.0000   -46.0907     6.6049   150.4004     8.6592
  821.5000   -46.1254     6.6365   147.8362     8.8419
  822.0000   -46.1557     6.6752   147.1949     8.9461
  822.5000   -46.1127     6.7112   146.5659     9.0380
  823.0000   -46.0547     6.7484   145.9482     9.1367
  823.5000   -45.9995     6.7852   145.3378     9.2246
  824.0000   -45.9430     6.8218   144.7896     9.3379
  824.5000   -45.8871     6.8592   144.9481     9.4040
  825.0000   -45.8307     6.8954   145.0938     9.4066
  825.5000   -45.7749     6.9346   145.2394     9.4293
  826.0000   -45.7181     6.9592   145.3851     9.4000
  826.5000   -45.6632     6.9271   145.5307     9.3445
  827.0000   -45.6042     6.8950   145.6763     9.2939
  827.5000   -45.5666     6.8627   145.8220     9.2460
  828.0000   -45.6484     6.8307   145.9677     9.2010
  828.5000   -45.7378     6.7986   146.1133     9.1684
  829.0000   -45.8252     6.7663   146.2590     9.1697
  829.5000   -45.9145     6.7345   146.4046     9.1680
  830.0000   -46.0006     6.7021   146.5502     9.1602
  830.5000   -46.0936     6.6626   146.6959     9.1322
  831.0000   -46.1512     6.5334   147.5992     9.0838
  831.5000   -46.0820     6.3658   150.0461     8.9966
  832.0000   -46.0140     6.2044   152.8056     8.8372
  832.5000   -45.9449     6.0400   157.2520     8.6684
  833.0000   -45.8768     5.8770   162.3497     8.3357
  833.5000   -45.8079     5.7135   167.4474     7.9670
  834.0000   -45.7396     5.5499   172.5451     7.5747
  834.5000   -45.6704     5.3872   177.6428     7.2828
  835.0000   -45.6030     5.2217   182.7405     7.0931
  835.5000   -45.5324     5.0723   187.8757     7.1818
  836.0000   -45.4680     5.0571   189.8998     7.4439
  836.5000   -45.3901     5.0604   190.5646     7.6776
  837.0000   -45.3619     5.0581   189.9529     7.6294
  837.5000   -45.4055     5.0613   189.3412     7.3660
  838.0000   -45.4395     5.0397   188.7295     7.0721
  838.5000   -45.4788     5.0004   188.1177     6.7723
  839.0000   -45.5154     4.9625   189.6364     6.6540
  839.5000   -45.5532     4.9290   192.5494     6.7431
  840.0000   -45.5909     4.8827   195.4624     6.8985
  840.5000   -45.6275     4.8957   197.8958     7.0903
  841.0000   -45.6667     5.2024   196.5231     7.5978
  841.5000   -45.7008     5.4980   185.6851     7.9719
  842.0000   -45.7448     5.7931   170.9018     8.1437
  842.5000   -45.7292     6.0830   161.6608     8.2302
  843.0000   -45.6565     6.1694   159.3153     8.3038
  843.5000   -45.5941     6.0019   159.7733     8.2717
  844.0000   -45.5266     5.7813   163.3417     8.2362
  844.5000   -45.4618     5.5631   167.9445     8.0066
  845.0000   -45.3955     5.3453   174.9356     7.6491
  845.5000   -45.3298     5.1248   181.9267     7.2642
  846.0000   -45.2640     4.9102   188.9178     6.8729
  846.5000   -45.1976     4.6800   195.9090     6.4776
  847.0000   -45.1329     4.4970   203.0643     6.4175
  847.5000   -45.0651     4.4746   210.0969     6.4092
  848.0000   -45.0025     4.7854   214.1465     6.6342
  848.5000   -44.9424     5.1608   207.2528     7.0790
  849.0000   -45.0270     5.5264   196.1533     7.5772
  849.5000   -45.1720     5.8941   185.0520     8.0700
  850.0000   -45.2941     6.2645   173.9548     8.5570
  850.5000   -45.4263     6.6270   162.8648     9.0655
  851.0000   -45.5525     7.0053   151.8412     9.3847
  851.5000   -45.6828     7.2551   142.3647     9.5184
  852.0000   -45.8103     7.2914   137.6353     9.6807
  852.5000   -45.9426     7.3483   135.5962     9.8276
  853.0000   -45.8950     7.3951   133.5571     9.9321
  853.5000   -45.8028     7.4488   131.7635     9.9519
  854.0000   -45.7200     7.4967   131.6003     9.9718
  854.5000   -45.6329     7.5503   131.4547     9.9916
  855.0000   -45.5479     7.5562   131.3007    10.0115
  855.5000   -45.4618     7.5335   131.1585    10.0313
  856.0000   -45.3761     7.5156   131.0119    10.0512
  856.5000   -45.2904     7.4981   130.8667    10.0710
  857.0000   -45.2045     7.4746   130.7585    10.0909
  857.5000   -45.1197     7.4818   130.4009    10.1107
  858.0000   -45.0321     7.5517   130.1087    10.1306
  858.5000   -44.9592     7.6179   129.7565    10.1504
  859.0000   -44.9988     7.6889   128.7796    10.1703
  859.5000   -45.0521     7.7537   127.5561    10.1901
  860.0000   -45.1032     7.8283   126.3327    10.3085
  860.5000   -45.1546     7.8864   125.1092    10.4817
  861.0000   -45.2067     7.9769   123.7475    10.6882
  861.5000   -45.2569     7.8214   123.7475    10.7598
  862.0000   -45.3116     7.4100   128.6640    10.6453
  862.5000   -45.3440     7.0230   136.3811    10.2135
  863.0000   -45.2724     6.6204   147.1202     9.8583
  863.5000   -45.1988     6.2256   157.8594     9.2419
  864.0000   -45.1253     5.8270   168.5985     8.1095
  864.5000   -45.0521     5.4284   179.3377     6.8489
  865.0000   -44.9787     5.0319   190.0768     6.9227
  865.5000   -44.9054     4.6683   200.8160     7.0384
  866.0000   -44.8317     4.6664   210.9218     7.2196
  866.5000   -44.7586     4.6265   210.9218     8.2911
  867.0000   -44.6844     5.2818   194.6092     9.3902
  867.5000   -44.6126     6.3585   170.1403     9.9810
  868.0000   -44.5362     7.3373   145.6713    10.4721
  868.5000   -44.4683     8.3380   121.2024    10.9050
  869.0000   -44.3819     9.3480   108.2832    11.3431
  869.5000   -44.3679     9.6658   102.7054    11.7863
  870.0000   -44.4655     9.5313    99.6994    12.2289
  870.5000   -44.5528     9.4847   101.8682    12.5751
  871.0000   -44.6442     9.3920   103.6807    12.6105
  871.5000   -44.7421     9.3254   105.4932    12.6396
  872.0000   -44.8448     9.1815   107.7154    12.6754
  872.5000   -44.9697     9.1599   106.3627    12.9760
  873.0000   -45.0690     9.1822   104.6149    13.0761
  873.5000   -45.3701     9.7473   102.8672    13.9003
  874.0000   -45.9581    10.5118   100.1703    15.2605
  874.5000   -46.4496    11.2635    95.5843    17.3132
  875.0000   -47.3621    11.9958    89.1386    19.3583
  875.5000   -48.6692    13.1959    79.5257    21.3986
  876.0000   -49.9259    15.0763    69.9013    23.4453
  876.5000   -51.1938    16.9249    60.2723    25.5054
  877.0000   -52.4861    18.8280    50.6454    27.5659
  877.5000   -53.5969    20.6553    44.0059    29.7446
  878.0000   -54.1097    22.5954    41.1423    29.4208
  878.5000   -54.1371    23.5314    39.9530    28.8091
  879.0000   -53.8365    23.1499    40.7177    28.1974
  879.5000   -53.6652    22.2341    41.4823    27.5857
  880.0000   -53.6977    21.4163    42.2470    26.9739
  880.5000   -53.7581    21.0578    43.6087    26.5214
  881.0000   -53.8116    20.7196    45.4439    26.1952
