~VERSION INFORMATION
 VERS.                2.0:   CWLS LOG ASCII STANDARD - VERSION 2.0
 WRAP.                 NO:   ONE LINE PER DEPTH STEP
~WELL INFORMATION
#MNEM.UNIT      DATA TYPE    INFORMATION
#----------   ------------   ------------------------------
 STRT.F           36.0000:   START DEPTH
 STOP.F          564.0000:   STOP DEPTH
 STEP.F            0.5000:   STEP LENGTH
 NULL.          -999.2500:   NO VALUE
 COMP.    FENIX & SCISSON:   COMPANY
 WELL.        NPR #73-S-3:   WELL
 FLD .             TEAPOT:   FIELD
 LOC .       S3 T38N R78W:   LOCATION
 CNTY.            NATRONA:   COUNTY
 STAT.            WYOMING:   STATE
 CTRY. UNITED STATES OF AMERICA:   COUNTRY
 SRVC.       Schlumberger:   SERVICE COMPANY
 DATE.        19-FEB-1977:   LOGDATE
 API .       490251027900:   API NUMBER
~CURVE INFORMATION
#MNEM.UNIT       API CODE    CURVE DESCRIPTION
#----------   ------------   ------------------------------
 DEPT.F                  :   
 SPR .MV     07 010 01 00:   SPONTANEOUS POTENTIAL
 ILD .OHMM   07 120 46 00:   INDUCTION LOG DEEP
 ILM .OHMM   07 120 44 00:   INDUCTION LOG MEDIUM
 LL8 .OHMM   07 220 08 00:   LATEROLOG-8 RES.
 CALD.IN     45 280 60 00:   CALIPER FROM DENSITY LOG
 CORR.G/C3   45 356 01 00:   DENSITY CORRECTION
 RHOB.G/C3   45 350 01 00:   BULK DENSITY
 DPHI.DEC    45 890 12 00:   DENSITY POROSITY SANDSTONE
 GRD .GAPI   45 310 01 00:   GAMMA RAY FROM DENSITY LOG
~PARAMETER INFORMATION
#MNEM.UNIT          VALUE    DESCRIPTION
#----------   ------------   ------------------------------
 PD  .                 GL:   PERMANENT DATUM
 EPD .F              5128:   ELEVATION PERMANENT DATUM
 LMF .                 GL:   LOG MEASURED FROM
 DAPD.F                 5:   FEET ABOVE PERMANENT DATUM
 DMF .                 KB:   DRILLING MEASURED FROM
 EKB .F              5133:   KELLING BUSHING
 EGL .F              5128:   GROUND LEVEL
 DATE.        19-FEB-1977:   RUN DATE
 RUN .                  1:   RUN NUMBER
 DD  .F               570:   DEPTH DRILLER
 DL  .F               565:   DEPTH LOGGER
 BLI .F               564:   BOTTOM LOG INTERVAL
 TLI .F                36:   TOP LOG INTERVAL
 CS  .IN            8.625:   CASING SIZE
 CBD .F                40:   CASING BOTTOM DRILLER
 CBL .F                41:   CASING BOTTOM LOGGER
 BS  .IN            7.875:   BIT SIZE
 BSD .F               570:   BIT SIZE AT DEPTH
 DFT .                FGM:   DRILLING FLUID TYPE
 DFD .                8.9:   DRILLING FLUID DENSITY
 DFV .                 31:   DRILLING FLUID VISCOSITY
 DFPH.                8.2:   DRILLING FLUID PH
 DFL .                9.2:   DRILLING FLUID LOSS
 MSS .            MUD PIT:   MUD SAMPLE SOURCE
 RMS .OHMM           .244:   RESISTIVITY MUD SAMPLE
 MST .F                78:   MUD SAMPLE TEMPERATURE
 RMF .OHMM           .233:   RESISTIVITY MUD FILTRATE SAMPLE
 MFST.F                68:   MUD FILTRATE SAMPLE TEMPERATURE
 RMC .OHMM            .36:   RESISTIVITY MUD CAKE
 MCST.F                78:   MUD CAKE SAMPLE TEMPERATURE
 MFSS.               MEAS:   MUD FILTRATE SAMPLE SOURCE
 MCSS.               CALC:   MUD CAKE SAMPLE SOURCE
 RMB .OHMM            .35:   RESISTIVITY MUD AT BHT
 BHT .F                55:   BOTTOM HOLE TEMPERATURE
 TCS .HRS               2:   TIME CURCULATED STOPPED
 MRT .F                55:   MAXIMUM RECORDED TEMPERATURE
 LUN .               7711:   LOGGING UNIT NUMBER
 LUL .               CSPR:   LOGGING UNIT LOCATION
 ENGI.                FIX:   RECORDING ENGINEER
 WITN.           VOORHEES:   WITNESSED BY
 CLNT.            A2DTECH:   CLIENT CODE
 ORIG.           5" PRINT:   ORIGIN OF DATA
 UWI .       490251027900:   UNIQUE WELL ID
 DICO. A2D Technologies, Inc.:   DIGITIZING COMPANY
~OTHER INFORMATION
~A   DEPT      SPR        ILD        ILM        LL8       CALD       CORR       RHOB       DPHI        GRD   
# ...
  255.0000   -54.3666     9.6494     8.0504     9.0848     9.3581     0.0244     2.4475     0.1211   107.6310
  255.5000   -53.9015     9.7892     8.0571     8.9682     9.3863     0.0154     2.4536     0.1174   105.7039
  256.0000   -53.7344     9.8643     7.9537     9.0375     9.3870     0.0162     2.4467     0.1225   106.0123
  256.5000   -53.5674     9.8788     7.6912     9.1075     9.3878     0.0200     2.4469     0.1204   106.7678
  257.0000   -53.2498     9.8792     7.3864     9.1150     9.3885     0.0215     2.4462     0.1210   107.0762
  257.5000   -53.0842     9.7504     7.1426     8.9981     9.3892     0.0231     2.4485     0.1198   107.3845
  258.0000   -52.9171     9.4288     6.9069     8.9439     9.3900     0.0246     2.4575     0.1159   107.0929
  258.5000   -52.6010     9.1167     6.8168     8.8291     9.3907     0.0111     2.4373     0.1234   106.3517
  259.0000   -52.4340     8.8151     6.8239     8.6561     9.4063     0.0128     2.4418     0.1225   105.3291
  259.5000   -52.4159     8.4649     6.8296     8.4284     9.4517     0.0285     2.4306     0.1257   105.0184
  260.0000   -52.3979     8.2413     6.9300     8.2066     9.4971     0.0278     2.4246     0.1357   101.4775
  260.5000   -52.3799     8.0790     6.9837     7.9907    10.1823     0.0323     2.4352     0.1242    97.1659
  261.0000   -52.3618     7.9746     7.0378     7.7272    10.5253     0.0333     2.4232     0.1296    95.3878
  261.5000   -52.3438     7.6578     7.0436     7.1705    10.8832     0.0436     2.3910     0.1395    95.2465
  262.0000   -52.4793     7.4044     7.0495     7.0784    11.3899     0.0786     2.3685     0.1615    96.0046
  262.5000   -52.7548     7.3579     6.9113     7.0843    11.4799     0.0993     2.3580     0.1756    97.3562
  263.0000   -53.0394     7.2642     6.8588     6.9934    11.4509     0.0592     2.3280     0.1991   100.7942
  263.5000   -53.4684     7.0723     6.7262     6.9037    10.9705     0.0461     2.3198     0.2030   102.4439
  264.0000   -53.8975     6.8855     6.5909     6.7221    10.6786     0.0972     2.3694     0.1708   103.3484
  264.5000   -54.3220     6.8422     6.3837     6.5452    10.9489     0.1272     2.3842     0.1575   103.9549
  265.0000   -54.7511     6.8488     6.4346     6.2860    10.3825     0.1198     2.3394     0.1918   106.0516
  265.5000   -55.1802     6.9013     6.5727     5.7140     9.5202     0.0177     2.3117     0.1966   108.8935
  266.0000   -55.4602     7.0994     6.7154     5.7382     8.8662     0.0035     2.3388     0.1764   110.3942
  266.5000   -55.7447     7.3032     6.9561     6.8443     8.7330     0.0118     2.3854     0.1568   109.5103
  267.0000   -55.7258     7.4701     7.1071     7.9943     8.7187     0.0178     2.4042     0.1502   106.6890
  267.5000   -55.7079     7.6822     7.3115     8.3088     8.7030     0.0156     2.4122     0.1457   107.8916
  268.0000   -55.6900     7.9003     7.4701     7.9258     8.6993     0.0224     2.4512     0.1275   108.9451
  268.5000   -55.3741     8.0688     7.6849     7.6375     8.6955     0.0232     2.4579     0.1176   109.8496
  269.0000   -55.0581     8.1844     7.8517     8.0210     8.6919     0.0127     2.4623     0.1161   111.2012
  269.5000   -54.8862     8.2461     7.9671     8.4510     8.6778     0.0060     2.4548     0.1192   114.9409
  270.0000   -54.5753     8.3668     7.9738     8.5164     8.6787     0.0022     2.4436     0.1290   115.5539
  270.5000   -54.2592     8.3732     7.8697     8.4651     8.6794     0.0008     2.4346     0.1323   115.7034
  271.0000   -53.9431     8.3796     7.7171     8.3564     8.6802     0.0106     2.4301     0.1290   115.8625
  271.5000   -53.6270     8.3861     7.5658     8.3061     8.6658     0.0151     2.4332     0.1263   111.5535
  272.0000   -53.3109     8.3333     7.3666     8.2561     8.6668     0.0189     2.4445     0.1218   111.1141
  272.5000   -53.2928     8.2825     7.1726     8.2063     8.6675     0.0265     2.4551     0.1139   111.8722
  273.0000   -53.2748     8.2320     7.0305     8.2132     8.6682     0.0288     2.4649     0.1112   112.6277
  273.5000   -53.2568     8.1272     6.9417     8.1637     8.6690     0.0258     2.4664     0.1118   112.9361
  274.0000   -53.2387     8.0222     6.8985     8.0037     8.6697     0.0228     2.4650     0.1139   112.3502
  274.5000   -53.2207     7.8642     6.9533     7.7398     8.6704     0.0229     2.4553     0.1193   112.8077
  275.0000   -53.3517     7.6565     7.0057     7.5881     8.6712     0.0297     2.4598     0.1169   113.8612
  275.5000   -53.4827     7.5058     6.6653     7.6468     8.6719     0.0350     2.4607     0.1135   115.0638
  276.0000   -53.6137     7.3566     6.1935     7.6532     8.6726     0.0365     2.4652     0.1153   115.9683
  276.5000   -53.8937     7.2117     5.9530     7.4008     8.6734     0.0275     2.4561     0.1168   116.5747
  277.0000   -54.3228     7.0226     5.8780     7.0107     8.6890     0.0276     2.4451     0.1195   116.7341
  277.5000   -54.7518     6.8371     5.8829     6.8262     8.6897     0.0253     2.4262     0.1267   116.4463
  278.0000   -55.0319     6.4757     5.8878     6.6466     8.6905     0.0209     2.4240     0.1354   114.9663
  278.5000   -55.3164     6.1323     5.9744     6.1255     8.6912     0.0217     2.4226     0.1366   112.5922
  279.0000   -55.5964     6.3152     6.1886     5.2702     8.7070     0.0277     2.4196     0.1384   112.3040
  279.5000   -55.4249     6.4944     6.4547     6.3940     8.7077     0.0330     2.4219     0.1381   112.4638
  280.0000   -55.1088     6.6330     6.5948     7.3424     8.7085     0.0323     2.4212     0.1371   112.0270
  280.5000   -54.6133     6.8213     6.6917     7.6579     8.7092     0.0248     2.4355     0.1315   111.4411
  281.0000   -54.1785     7.0644     6.8370     7.6107     8.7099     0.0279     2.4506     0.1191   110.8525
  281.5000   -53.7134     7.4700     7.1310     7.7225     8.7107     0.0249     2.4469     0.1194   110.5676
  282.0000   -53.5201     7.9535     7.3360     7.8899     8.7263     0.0189     2.4499     0.1206   113.2926
  282.5000   -53.2340     8.1257     7.5470     8.0610     8.7568     0.0130     2.4507     0.1202   113.7183
  283.0000   -53.0472     8.3016     7.7108     8.1233     8.7724     0.0175     2.4680     0.1115   113.7308
  283.5000   -52.9002     8.3654     7.9325     8.1301     8.8029     0.0235     2.4651     0.1136   114.3373
  284.0000   -53.0316     8.3127     7.9391     8.1369     8.8334     0.0258     2.4726     0.1106   116.1360
  284.5000   -53.1626     8.3782     7.8913     8.1998     8.8490     0.0236     2.4712     0.1063   117.4876
  285.0000   -53.2936     8.5595     7.7899     8.3202     8.8795     0.0237     2.4697     0.1066   117.6444
  285.5000   -53.5736     8.7448     7.8503     8.4424     8.8951     0.0252     2.4690     0.1111   115.2728
  286.0000   -53.8539     8.8729     7.9110     8.5664     8.9107     0.0175     2.4518     0.1201   112.1534
  286.5000   -54.1337     8.9410     7.9163     8.6922     8.9412     0.0180     2.4493     0.1207   111.5650
  287.0000   -53.9666     9.0096     7.9228     8.8198     8.9573     0.0215     2.4579     0.1168   113.0683
  287.5000   -53.9486     9.0788     7.9294     8.8880     8.9874     0.0223     2.4677     0.1099   114.2708
  288.0000   -53.9305     9.1485     7.9359     8.9568     9.0179     0.0215     2.4715     0.1067   115.3244
  288.5000   -53.7635     9.3466     7.9425     9.0883     9.0335     0.0187     2.4700     0.1104   115.9308
  289.0000   -53.8945     9.5489     7.7867     9.2854     9.0790     0.0172     2.4795     0.1086   116.8353
  289.5000   -53.8764     9.7537     7.6339     9.4867     9.1244     0.0127     2.5128     0.0934   118.4850
  290.0000   -54.0119     9.6942     7.5360     9.5601     9.1698     0.0240     2.5175     0.0794   119.9856
  290.5000   -54.1429     9.9044     7.4906     9.5681     9.2151     0.0278     2.5153     0.0808   119.6979
  291.0000   -54.2739     9.8363     7.3438     9.5094     9.2754     0.0204     2.4823     0.0995   117.3237
