~VERSION INFORMATION
 VERS.                2.0:   CWLS LOG ASCII STANDARD - VERSION 2.0
 WRAP.                 NO:   ONE LINE PER DEPTH STEP
~WELL INFORMATION
#MNEM.UNIT      DATA TYPE    INFORMATION
#----------   ------------   ------------------------------
 STRT.F           30.0000:   START DEPTH
 STOP.F         3375.5000:   STOP DEPTH
 STEP.F            0.5000:   STEP LENGTH
 NULL.          -999.2500:   NO VALUE
 COMP.       INTEX OIL CO:   COMPANY
 WELL.   NPR ##3 57-SX-34:   WELL
 FLD .             TEAPOT:   FIELD
 LOC .      S34 T39N R78W:   LOCATION
 CNTY.            NATRONA:   COUNTY
 STAT.            WYOMING:   STATE
 CTRY. UNITED STATES OF AMERICA:   COUNTRY
 SRVC.       Schlumberger:   SERVICE COMPANY
 DATE.        12-AUG-1967:   LOGDATE
 API .       490251023200:   API NUMBER
~CURVE INFORMATION
#MNEM.UNIT       API CODE    CURVE DESCRIPTION
#----------   ------------   ------------------------------
 DEPT.F                  :   
 SPR .MV     07 010 01 00:   SPONTANEOUS POTENTIAL
 ILD .OHMM   07 120 46 00:   INDUCTION LOG DEEP
 ASN .OHMM   05 041 16 00:   AMPLIFIED SHORT NORMAL 16"
 CILD.MMHO   07 110 46 00:   CONDUCTIVITY INDUCTION LOG DEEP
 LL8 .OHMM   07 220 08 00:   LATEROLOG-8 RES.
 ILM .OHMM   07 120 44 00:   INDUCTION LOG MEDIUM
 CALD.IN     45 280 60 00:   CALIPER
 GRD .GAPI   45 310 01 00:   GAMMA RAY FROM DENSITY LOG
 RHOB.G/C3   45 350 01 00:   BULK DENSITY
 DPHI.DEC    45 890 12 00:   DENSITY POROSITY SANDSTONE
 CORR.G/C3   45 356 01 00:   DENSITY CORRECTION
~PARAMETER INFORMATION
#MNEM.UNIT          VALUE    DESCRIPTION
#----------   ------------   ------------------------------
 PD  .                 GL:   PERMANENT DATUM
 EPD .F              5084:   ELEVATION PERMANENT DATUM
 LMF .                 KB:   LOG MEASURED FROM
 DAPD.F                12:   FEET ABOVE PERMANENT DATUM
 DMF .                 KB:   DRILLING MEASURED FROM
 EKB .F              5096:   KELLING BUSHING
 EGL .F              5084:   GROUND LEVEL
 DATE.            8-12-67:   RUN DATE
 RUN .                  2:   RUN NUMBER
 DD  .F              3380:   DEPTH DRILLER
 DL  .F              3371:   DEPTH LOGGER
 BLI .F              3368:   BOTTOM LOG INTERVAL
 TLI .F               630:   TOP LOG INTERVAL
 CS  .IN            10.75:   CASING SIZE
 CBD .F               643:   CASING BOTTOM DRILLER
 BS  .IN            9.875:   BIT SIZE
 BSD .F              3380:   BIT SIZE AT DEPTH
 DFT .               CHEM:   DRILLING FLUID TYPE
 DFD .                9.4:   DRILLING FLUID DENSITY
 DFV .                 48:   DRILLING FLUID VISCOSITY
 DFPH.                8.5:   DRILLING FLUID PH
 DFL .                3.6:   DRILLING FLUID LOSS
 MSS .          FLOW LINE:   MUD SAMPLE SOURCE
 RMS .OHMM           2.81:   RESISTIVITY MUD SAMPLE
 MST .F                88:   MUD SAMPLE TEMPERATURE
 RMF .OHMM            1.7:   RESISTIVITY MUD FILTRATE SAMPLE
 MFST.F                86:   MUD FILTRATE SAMPLE TEMPERATURE
 MFSS.                  M:   MUD FILTRATE SAMPLE SOURCE
 RMB .OHMM           2.03:   RESISTIVITY MUD AT BHT
 BHT .F               122:   BOTTOM HOLE TEMPERATURE
 TCS .HRS             2.5:   TIME CURCULATED STOPPED
 MRT .F               122:   MAXIMUM RECORDED TEMPERATURE
 LUN .               7030:   LOGGING UNIT NUMBER
 LUL .               CSPR:   LOGGING UNIT LOCATION
 ENGI.             SCHODE:   RECORDING ENGINEER
 WITN.                MAY:   WITNESSED BY
 CLNT.            A2DTECH:   CLIENT CODE
 ORIG.   1" 2.5" 5" PRINT:   ORIGIN OF DATA
 UWI .       490251023200:   UNIQUE WELL ID
 DICO. A2D Technologies, Inc.:   DIGITIZING COMPANY
~OTHER INFORMATION
~A   DEPT      SPR        ILD        ASN       CILD        LL8        ILM       CALD         GRD      RHOB       DPHI       CORR   
# ...
  975.5000   -38.6782     7.7864  -999.2500  -999.2500     8.4271     8.0684    12.1470    71.8389     2.5220     0.0758     0.0417
  976.0000   -38.6281     7.8479  -999.2500  -999.2500     8.4666     8.0607    12.1340    71.3762     2.5103     0.0830     0.0540
  976.5000   -38.5452     7.8869  -999.2500  -999.2500     8.5063     8.0528    12.1209    71.0436     2.5064     0.0902     0.0672
  977.0000   -38.4627     7.9289  -999.2500  -999.2500     8.5463     8.0448    12.1136    71.3466     2.5324     0.0813     0.0640
  977.5000   -38.3817     7.9107  -999.2500  -999.2500     8.5867     8.0368    12.1143    71.7340     2.5258     0.0740     0.0602
  978.0000   -38.2996     7.8777  -999.2500  -999.2500     8.6273     8.0289    12.1142    72.1182     2.5307     0.0665     0.0557
  978.5000   -38.2178     7.8450  -999.2500  -999.2500     8.6792     8.0210    12.1141    72.5351     2.5412     0.0649     0.0514
  979.0000   -38.1366     7.8122  -999.2500  -999.2500     8.6583     8.0130    12.1142    71.5290     2.5434     0.0665     0.0476
  979.5000   -38.0537     7.7795  -999.2500  -999.2500     8.5884     8.0050    12.1141    71.5723     2.5589     0.0550     0.0435
  980.0000   -37.9730     7.7470  -999.2500  -999.2500     8.5191     7.9971    12.1142    72.8077     2.5722     0.0429     0.0591
  980.5000   -37.9000     7.7146  -999.2500  -999.2500     8.4502     7.9892    12.1141    73.9055     2.5761     0.0445     0.0756
  981.0000   -37.8975     7.6824  -999.2500  -999.2500     8.3720     7.9811    12.1142    73.8564     2.5579     0.0514     0.0938
  981.5000   -37.8959     7.6505  -999.2500  -999.2500     8.3531     7.9731    12.1142    73.5319     2.5424     0.0609     0.0882
  982.0000   -37.8970     7.6187  -999.2500  -999.2500     8.3309     7.9654    12.1139    74.7970     2.5780     0.0543     0.0800
  982.5000   -37.8967     7.5868  -999.2500  -999.2500     8.3084     7.9576    12.1169    75.9488     2.5676     0.0429     0.0924
  983.0000   -37.8967     7.5546  -999.2500  -999.2500     8.2866     7.9498    12.1229    77.1581     2.5539     0.0551     0.1101
  983.5000   -37.8968     7.5221  -999.2500  -999.2500     8.2649     7.9424    12.1284    78.1193     2.5381     0.0658     0.1026
  984.0000   -37.8968     7.4420  -999.2500  -999.2500     8.2432     7.9349    12.1340    77.8302     2.5231     0.0813     0.0899
  984.5000   -37.8968     7.3307  -999.2500  -999.2500     8.2209     7.8863    12.1396    77.6011     2.5180     0.0766     0.0765
  985.0000   -37.8969     7.1176  -999.2500  -999.2500     8.0445     7.7710    12.1452    77.2859     2.5185     0.0785     0.0636
  985.5000   -37.8968     7.1465  -999.2500  -999.2500     7.7868     7.6436    12.1508    78.0077     2.5092     0.0860     0.0510
  986.0000   -37.8970     7.2546  -999.2500  -999.2500     7.8385     7.6495    12.1564    78.4054     2.5155     0.0839     0.0391
  986.5000   -37.8969     7.3672  -999.2500  -999.2500     7.9345     7.6481    12.1620    79.3173     2.5304     0.0755     0.0463
  987.0000   -37.8966     7.4777  -999.2500  -999.2500     8.0318     7.6478    12.1676    79.4550     2.5400     0.0663     0.0617
  987.5000   -37.8983     7.5899  -999.2500  -999.2500     8.1302     7.6475    12.1732    78.0728     2.5490     0.0664     0.0766
  988.0000   -37.8815     7.6473  -999.2500  -999.2500     8.2209     7.6473    12.1788    76.9535     2.5627     0.0523     0.0927
  988.5000   -37.8461     7.5917  -999.2500  -999.2500     8.1678     7.6472    12.1845    76.1110     2.5524     0.0595     0.0874
  989.0000   -37.8126     7.5410  -999.2500  -999.2500     8.1193     7.6472    12.1897    79.7561     2.5535     0.0571     0.0748
  989.5000   -37.7789     7.4907  -999.2500  -999.2500     8.0711     7.6473    12.1997    82.7864     2.5348     0.0658     0.0626
  990.0000   -37.7449     7.4406  -999.2500  -999.2500     8.0232     7.6473    12.2148    82.1703     2.5241     0.0807     0.0510
  990.5000   -37.7112     7.3913  -999.2500  -999.2500     7.9755     7.6472    12.2295    79.7816     2.5351     0.0742     0.0382
  991.0000   -37.6773     7.3421  -999.2500  -999.2500     7.9289     7.6471    12.2441    78.3533     2.5467     0.0626     0.0382
  991.5000   -37.6435     7.2931  -999.2500  -999.2500     7.9755     7.6510    12.2590    76.9822     2.5550     0.0575     0.0448
  992.0000   -37.6099     7.2441  -999.2500  -999.2500     8.0522     7.6681    12.2735    77.0845     2.5612     0.0547     0.0506
  992.5000   -37.5757     7.2819  -999.2500  -999.2500     8.1296     7.6849    12.2883    79.1277     2.5569     0.0547     0.0563
  993.0000   -37.5424     7.3201  -999.2500  -999.2500     8.2078     7.7023    12.3037    81.0477     2.5491     0.0563     0.0621
  993.5000   -37.5097     7.3584  -999.2500  -999.2500     8.2867     7.7196    12.3112    82.8844     2.5571     0.0612     0.0682
  994.0000   -37.4846     7.3968  -999.2500  -999.2500     8.3687     7.7367    12.3009    82.2011     2.5602     0.0563     0.0705
  994.5000   -37.4395     7.4353  -999.2500  -999.2500     8.3087     7.7540    12.2921    79.1693     2.5422     0.0617     0.0699
  995.0000   -37.3955     7.4740  -999.2500  -999.2500     8.2452     7.7714    12.2826    78.0882     2.5202     0.0739     0.0710
  995.5000   -37.3504     7.5085  -999.2500  -999.2500     8.2143     7.7868    12.2732    77.2355     2.5058     0.0807     0.0624
  996.0000   -37.3065     7.4403  -999.2500  -999.2500     8.2269     7.7441    12.2641    76.1068     2.5256     0.0774     0.0413
  996.5000   -37.2605     7.3791  -999.2500  -999.2500     8.3647     7.7057    12.2545    75.0601     2.5513     0.0579     0.0492
  997.0000   -37.2172     7.3186  -999.2500  -999.2500     8.2148     7.6473    12.2449    74.9985     2.5407     0.0606     0.0735
  997.5000   -37.1746     7.2467  -999.2500  -999.2500     8.0782     7.7706    12.2373    74.8832     2.5454     0.0650     0.0831
  998.0000   -37.1177     7.4086  -999.2500  -999.2500     7.9289     8.0422    12.2156    73.6931     2.5524     0.0595     0.0791
  998.5000   -37.1903     7.6677  -999.2500  -999.2500     8.6327     8.3233    12.1844    72.2597     2.5260     0.0720     0.0739
  999.0000   -37.4211     7.9359  -999.2500  -999.2500     9.5006     8.6143    12.1554    72.3046     2.5417     0.0650     0.0687
  999.5000   -37.6324     8.2134  -999.2500  -999.2500     9.5597     8.9154    12.1253    73.8036     2.5373     0.0677     0.0634
 1000.0000   -37.8503     8.5007  -999.2500  -999.2500    10.0302     9.2048    12.1131    76.7771     2.5254     0.0762     0.0582
 1000.5000   -37.8807     8.6792  -999.2500  -999.2500    10.0413     9.4134    12.1143    79.5811     2.5219     0.0743     0.0529
 1001.0000   -37.8250     8.8376  -999.2500  -999.2500    10.0695     9.5006    12.1142    79.8801     2.5299     0.0711     0.0476
 1001.5000   -37.7728     8.9068  -999.2500  -999.2500    10.0977     9.6739    12.1140    80.6927     2.5207     0.0791     0.0424
 1002.0000   -37.7227     8.9960  -999.2500  -999.2500    10.1261     9.6659    12.1142    80.4992     2.5110     0.0845     0.0371
 1002.5000   -37.6696     9.0861  -999.2500  -999.2500    10.1545     9.6519    12.1141    80.5298     2.5326     0.0698     0.0317
 1003.0000   -37.6187     9.1631  -999.2500  -999.2500    10.1830     9.6380    12.1140    79.6201     2.5536     0.0563     0.0291
 1003.5000   -37.5675     9.1631  -999.2500  -999.2500    10.2132     9.6240    12.1154    78.6287     2.5489     0.0588     0.0371
 1004.0000   -37.5118     9.1631  -999.2500  -999.2500    10.2044     9.6101    12.1193    77.6490     2.5390     0.0643     0.0548
 1004.5000   -37.5439     9.1631  -999.2500  -999.2500    10.1881     9.5962    12.1230    76.5963     2.5288     0.0697     0.0579
 1005.0000   -37.7019     9.1631  -999.2500  -999.2500    10.1717     9.5824    12.1267    75.1713     2.5308     0.0709     0.0418
 1005.5000   -37.8546     9.1631  -999.2500  -999.2500    10.1555     9.5685    12.1305    72.9566     2.5348     0.0689     0.0366
