~VERSION INFORMATION
 VERS.                2.0:   CWLS LOG ASCII STANDARD - VERSION 2.0
 WRAP.                 NO:   ONE LINE PER DEPTH STEP
~WELL INFORMATION
#MNEM.UNIT      DATA TYPE    INFORMATION
#----------   ------------   ------------------------------
 STRT.F           80.0000:   START DEPTH
 STOP.F          964.0000:   STOP DEPTH
 STEP.F            0.5000:   STEP LENGTH
 NULL.          -999.2500:   NO VALUE
 COMP. U S NAVY-INTEX OIL:   COMPANY
 WELL. N.P.R. #3` #57-S-2:   WELL
 FLD .        TEAPOT DOME:   FIELD
 LOC .       S2 T38N R78W:   LOCATION
 CNTY.            NATRONA:   COUNTY
 STAT.            WYOMING:   STATE
 CTRY. UNITED STATES OF AMERICA:   COUNTRY
 SRVC.       Schlumberger:   SERVICE COMPANY
 DATE.        04-AUG-1961:   LOGDATE
 API .       490250640500:   API NUMBER
~CURVE INFORMATION
#MNEM.UNIT       API CODE    CURVE DESCRIPTION
#----------   ------------   ------------------------------
 DEPT.F                  :   
 GR  .GAPI   30 310 01 00:   GAMMA RAY
 ASN .OHMM   05 041 16 00:   AMPLIFIED SHORT NORMAL 16"
 CILD.MMHO   05 110 46 00:   CONDUCTIVITY INDUCTION LOG DEEP
 ILD .OHMM   05 120 46 00:   INDUCTION LOG DEEP
 SPR .MV     05 010 01 00:   SPONTANEOUS POTENTIAL FROM RES.
~PARAMETER INFORMATION
#MNEM.UNIT          VALUE    DESCRIPTION
#----------   ------------   ------------------------------
 LMF .                 KB:   LOG MEASURED FROM
 DMF .                 KB:   DRILLING MEASURED FROM
 EKB .F              5205:   KELLING BUSHING
 EGL .F              5200:   GROUND LEVEL
 DATE.        04-AUG-1961:   RUN DATE
 RUN .                  1:   RUN NUMBER
 DD  .F               965:   DEPTH DRILLER
 DL  .F               965:   DEPTH LOGGER
 BLI .F               954:   BOTTOM LOG INTERVAL
 TLI .F               150:   TOP LOG INTERVAL
 BS  .IN             6.75:   BIT SIZE
 BSD .F               965:   BIT SIZE AT DEPTH
 DFT .       OIL EMULSION:   DRILLING FLUID TYPE
 DFD .                9.4:   DRILLING FLUID DENSITY
 DFV .                 65:   DRILLING FLUID VISCOSITY
 MSS .           FLOWLINE:   MUD SAMPLE SOURCE
 RMS .OHMM            1.0:   RESISTIVITY MUD SAMPLE
 MST .F                80:   MUD SAMPLE TEMPERATURE
 TCS .HRS               1:   TIME CURCULATED STOPPED
 LUN .               2544:   LOGGING UNIT NUMBER
 LUL .                 NC:   LOGGING UNIT LOCATION
 ENGI.            EARNEST:   RECORDING ENGINEER
 WITN.          JORGENSEN:   WITNESSED BY
 CLNT.            A2DTECH:   CLIENT CODE
 ORIG.        2" 5" PRINT:   ORIGIN OF DATA
 UWI .       490250640500:   UNIQUE WELL ID
 DICO. A2D Technologies, Inc.:   DIGITIZING COMPANY
~OTHER INFORMATION
~A   DEPT       GR        ASN       CILD        ILD        SPR   
# ...
  934.0000  -999.2500    11.4795    95.4071    11.3772   -54.6269
  934.5000  -999.2500    11.4796    95.3775    11.3772   -55.0990
  935.0000  -999.2500    11.4048    96.8545    11.3024   -54.9254
  935.5000  -999.2500    11.3300    96.8175    11.2275   -54.1791
  936.0000  -999.2500    11.4051    98.2946    11.0778   -53.5821
  936.5000  -999.2500    11.4053    99.7569    11.0030   -53.4328
  937.0000  -999.2500    11.3304   101.2339    11.0030   -53.7313
  937.5000  -999.2500    11.3306   101.1969    11.0030   -53.2836
  938.0000  -999.2500    11.3307   101.1673    10.9281   -52.8358
  938.5000  -999.2500    11.3309   101.1377    10.8533   -52.6866
  939.0000  -999.2500    11.2561    98.1097    10.8533   -52.5373
  939.5000  -999.2500    11.2562    98.0801    10.7784   -52.3881
  940.0000  -999.2500    11.2564    96.5512    10.7784   -52.2388
  940.5000  -999.2500    11.2565    95.0224    10.7784   -51.9403
  941.0000  -999.2500    11.2567    94.9324    10.8533   -51.6418
  941.5000  -999.2500    11.2569    93.4633    10.8533   -51.1726
  942.0000  -999.2500    11.3320    94.9336    10.9281   -50.4478
  942.5000  -999.2500    11.3321    96.3959    10.9281   -50.1493
  943.0000  -999.2500    11.3323    97.8655    10.9281   -50.2985
  943.5000  -999.2500    11.0326    97.8360    10.9281   -51.0448
  944.0000  -999.2500    10.8828    99.3130    10.8533   -51.6418
  944.5000  -999.2500    10.7330   100.7827    10.7784   -51.7910
  945.0000  -999.2500    10.7331   102.2523    10.7784   -51.7910
  945.5000  -999.2500    10.6583   102.2153    10.7784   -52.0896
  946.0000  -999.2500    10.6585   102.1857    10.7784   -52.2388
  946.5000  -999.2500    10.6586   102.1562    10.7784   -52.2388
  947.0000  -999.2500    10.6588   102.1266    10.7784   -51.9403
  947.5000  -999.2500    10.6589   100.5977    10.7784   -51.6418
  948.0000  -999.2500    10.7340   100.5681    10.7784   -51.6418
  948.5000  -999.2500    10.7342   100.5385    10.7784   -51.6418
  949.0000  -999.2500    10.7344   100.5090    10.8533   -51.7910
  949.5000  -999.2500    10.7345   100.4794    10.9281   -52.2388
  950.0000  -999.2500    10.8096   100.4498    11.0030   -52.6866
  950.5000  -999.2500    10.8098   100.4198    11.0778   -52.8358
  951.0000  -999.2500    10.8849   101.8898    10.9920   -52.8358
  951.5000  -999.2500    10.8100   103.3595    10.9281   -52.5373
  952.0000  -999.2500    10.7352   101.8233    10.7784   -52.2388
  952.5000  -999.2500    10.7354   101.7937    10.7784   -52.0896
  953.0000  -999.2500    10.7355   103.2707    10.7784   -52.3881
  953.5000  -999.2500    10.7357   103.2337    10.7036   -52.2388
  954.0000  -999.2500    10.6609   103.2042    10.6287   -52.2388
  954.5000  -999.2500    10.6610   103.1746    10.5539   -51.9403
  955.0000  -999.2500    10.5862   106.1435    10.4790   -51.9353
  955.5000  -999.2500    10.6613   106.1139    10.3293   -51.6418
  956.0000  -999.2500    10.5865   107.5909    10.3293   -51.3433
  956.5000  -999.2500    10.4367   107.5539    10.1796   -50.7463
  957.0000  -999.2500    10.3619   109.0310    10.1796   -50.1493
  957.5000  -999.2500    10.2871   108.9940    10.1722   -49.1045
  958.0000  -999.2500    10.2123   110.4648    10.1048   -48.9552
  958.5000  -999.2500    10.2125   110.4341    10.0299   -49.2537
  959.0000  -999.2500    10.0627   108.9053    10.0299   -48.9552
  959.5000  -999.2500     9.8379   108.8756     9.8802   -48.5075
  960.0000  -999.2500     9.8669   108.8456     9.9551   -49.5522
  960.5000  -999.2500     9.8982   108.6354    10.0299   -48.6567
  961.0000  -999.2500     9.2987   107.0267    10.0299   -47.4627
  961.5000  -999.2500     9.1039   105.7514    10.1048   -47.1642
  962.0000  -999.2500     9.2690   102.7233    10.1048   -49.4090
  962.5000  -999.2500     9.1042   101.1945    10.1048   -49.3906
  963.0000  -999.2500     8.8715   101.1649    10.0299   -49.2537
  963.5000  -999.2500     8.5398   101.1353     9.9551   -49.5522
  964.0000  -999.2500     8.1271   102.6123     9.8802   -49.8507
