~VERSION INFORMATION
 VERS.                2.0:   CWLS LOG ASCII STANDARD - VERSION 2.0
 WRAP.                 NO:   ONE LINE PER DEPTH STEP
~WELL INFORMATION
#MNEM.UNIT      DATA TYPE    INFORMATION
#----------   ------------   ------------------------------
 STRT.F           38.0000:   START DEPTH
 STOP.F          663.5000:   STOP DEPTH
 STEP.F            0.5000:   STEP LENGTH
 NULL.          -999.2500:   NO VALUE
 COMP. FENIX & SCISSON INC:   COMPANY
 WELL.   NPR SX #3 #35-34:   WELL
 FLD .             TEAPOT:   FIELD
 LOC .      S34 T39N R78W:   LOCATION
 CNTY.            NATRONA:   COUNTY
 STAT.            WYOMING:   STATE
 CTRY. UNITED STATES OF AMERICA:   COUNTRY
 SRVC.       Schlumberger:   SERVICE COMPANY
 DATE.        21-MAR-1977:   LOGDATE
 API .       490251031500:   API NUMBER
~CURVE INFORMATION
#MNEM.UNIT       API CODE    CURVE DESCRIPTION
#----------   ------------   ------------------------------
 DEPT.F                  :   
 SPR .MV     07 010 01 00:   SPONTANEOUS POTENTIAL
 LL8 .OHMM   07 220 08 00:   LATEROLOG-8 RES.
 ILD .OHMM   07 120 46 00:   INDUCTION LOG DEEP
 ILM .OHMM   07 120 44 00:   INDUCTION LOG MEDIUM
 CALD.IN     45 280 60 00:   CALIPER
 RHOB.G/C3   45 350 01 00:   BULK DENSITY
 DPHI.DEC    45 890 12 00:   DENSITY POROSITY SANDSTONE
 CORR.G/C3   45 356 01 00:   DENSITY CORRECTION
 GRD .GAPI   45 310 01 00:   GAMMA RAY FROM DENSITY LOG
~PARAMETER INFORMATION
#MNEM.UNIT          VALUE    DESCRIPTION
#----------   ------------   ------------------------------
 PD  .                 GL:   PERMANENT DATUM
 EPD .F              5081:   ELEVATION PERMANENT DATUM
 LMF .                 GL:   LOG MEASURED FROM
 DMF .                 KB:   DRILLING MEASURED FROM
 EKB .F              5086:   KELLING BUSHING
 EGL .F              5081:   GROUND LEVEL
 DATE.          3-21-1977:   RUN DATE
 RUN .                  1:   RUN NUMBER
 DD  .F               670:   DEPTH DRILLER
 DL  .F               665:   DEPTH LOGGER
 BLI .F               659:   BOTTOM LOG INTERVAL
 TLI .F                40:   TOP LOG INTERVAL
 CS  .IN            8.625:   CASING SIZE
 CBD .F                40:   CASING BOTTOM DRILLER
 CBL .F                40:   CASING BOTTOM LOGGER
 BS  .IN            7.875:   BIT SIZE
 BSD .F               670:   BIT SIZE AT DEPTH
 DFT .           CHEM GEL:   DRILLING FLUID TYPE
 DFV .                 33:   DRILLING FLUID VISCOSITY
 MSS .           MUD TANK:   MUD SAMPLE SOURCE
 RMS .OHMM           4.98:   RESISTIVITY MUD SAMPLE
 MST .F                53:   MUD SAMPLE TEMPERATURE
 RMF .OHMM           4.94:   RESISTIVITY MUD FILTRATE SAMPLE
 MFST.F                53:   MUD FILTRATE SAMPLE TEMPERATURE
 RMC .OHMM            2.5:   RESISTIVITY MUD CAKE
 MCST.F                53:   MUD CAKE SAMPLE TEMPERATURE
 MFSS.                  M:   MUD FILTRATE SAMPLE SOURCE
 MCSS.                  C:   MUD CAKE SAMPLE SOURCE
 RMB .OHMM              4:   RESISTIVITY MUD AT BHT
 BHT .F                65:   BOTTOM HOLE TEMPERATURE
 TCS .HRS            1000:   TIME CURCULATED STOPPED
 TLAB.HRS            1400:   TIME LOGGER AT BOTTOM
 MRT .F                65:   MAXIMUM RECORDED TEMPERATURE
 LUN .               7742:   LOGGING UNIT NUMBER
 LUL .                GLT:   LOGGING UNIT LOCATION
 ENGI.               LANE:   RECORDING ENGINEER
 WITN.              BURKE:   WITNESSED BY
 CLNT.            A2DTECH:   CLIENT CODE
 ORIG.       2", 5" PRINT:   ORIGIN OF DATA
 UWI .       490251031500:   UNIQUE WELL ID
 DICO. A2D Technologies, Inc.:   DIGITIZING COMPANY
~OTHER INFORMATION
~A   DEPT      SPR        LL8        ILD        ILM       CALD       RHOB       DPHI       CORR         GRD  
# ...
  476.0000   -27.4639    12.4241    16.7396    11.7266     8.1005     2.3142     0.2031     0.0173    60.1382
  476.5000   -28.0371    12.8986    17.0259    11.9272     8.1023     2.3582     0.1763     0.0281    64.2508
  477.0000   -28.6102    13.3064    17.3172    12.1309     8.1041     2.3813     0.1679     0.0196    68.3574
  477.5000   -29.1836    14.5123    17.6134    12.2523     8.1060     2.3748     0.1703     0.0094    72.6732
  478.0000   -29.7563    15.9681    17.9147    12.3306     8.1078     2.3749     0.1679     0.0100    72.8738
  478.5000   -30.3309    17.3253    18.2211    12.4093     8.1096     2.3676     0.1740     0.0104    69.0287
  479.0000   -30.7668    17.3623    18.5328    12.4886     8.1114     2.3622     0.1752     0.0182    67.8223
  479.5000   -31.1160    17.6236    18.8498    12.5685     8.1133     2.3727     0.1671     0.0254    71.4028
  480.0000   -31.4631    17.8888    19.1723    12.6488     8.1151     2.3744     0.1707     0.0136    73.8381
  480.5000   -31.8104    18.0107    19.5002    12.7297     8.1169     2.3795     0.1639     0.0227    71.6017
  481.0000   -32.1586    18.0615    19.7181    12.8111     8.1187     2.3822     0.1674     0.0293    66.9949
  481.5000   -32.5051    18.1123    19.7458    12.8930     8.1206     2.3689     0.1730     0.0200    62.1400
  482.0000   -32.7650    18.2568    19.7736    12.9754     8.1224     2.3583     0.1791     0.0179    57.3035
  482.5000   -32.7287    18.5492    19.8014    13.0584     8.1242     2.3477     0.1863     0.0172    53.3673
  483.0000   -32.6987    18.8476    19.8293    13.1357     8.1260     2.3379     0.1935     0.0270    51.6903
  483.5000   -32.6688    19.1503    19.8575    13.5928     8.1279     2.3298     0.1932     0.0311    49.9808
  484.0000   -32.6388    19.3540    19.8973    14.0329     8.1299     2.3215     0.1994     0.0262    49.7528
  484.5000   -32.6092    19.0847    19.8082    14.4873     8.1229     2.3222     0.2016     0.0220    54.6164
  485.0000   -32.5792    18.8855    19.6510    14.9564     8.1142     2.3366     0.1903     0.0251    59.8174
  485.5000   -32.6597    18.6883    19.4951    15.2256     8.1055     2.3521     0.1822     0.0286    61.8859
  486.0000   -32.8403    18.4933    19.3404    14.1421     8.0968     2.3615     0.1760     0.0230    62.1336
  486.5000   -33.0214    18.3002    19.1869    14.2732     8.0882     2.3510     0.1848     0.0160    58.6481
  487.0000   -33.2001    18.1092    19.0347    14.1302     8.0795     2.3696     0.1667     0.0132    57.3490
  487.5000   -33.3865    17.9202    18.8836    13.9385     8.0708     2.4010     0.1507     0.0158    56.7487
  488.0000   -33.8127    17.8116    18.8256    13.7560     8.0622     2.4440     0.1176     0.0234    55.0052
  488.5000   -34.2249    19.8167    20.7269    14.8209     8.0533     2.5166     0.0844     0.0420    58.3648
  489.0000   -34.6344    23.6448    22.1791    17.1061     8.0613     2.5424     0.0657     0.0521    63.2000
  489.5000   -35.0436    30.0283    23.7330    19.7437     8.0798     2.5079     0.0972     0.0286    65.9728
  490.0000   -35.4724    35.5853    25.3957    20.8368     8.0984     2.4387     0.1223     0.0182    67.6176
  490.5000   -35.4651    29.8608    25.9257    20.8368     8.1171     2.4061     0.1472     0.0224    69.2504
  491.0000   -35.3181    22.5809    26.0024    19.2359     8.1358     2.3786     0.1711     0.0206    70.8715
  491.5000   -35.1677    17.4732    26.0024    16.0154     8.1545     2.3539     0.1812     0.0119    71.7959
  492.0000   -35.0186    16.8154    25.3025    13.4233     8.1733     2.3509     0.1831     0.0041    69.6825
  492.5000   -34.8696    16.4800    23.5145    11.7588     8.1897     2.3536     0.1839     0.0076    70.5367
  493.0000   -34.7198    16.3275    21.5555    11.3686     8.1854     2.3620     0.1763     0.0131    71.8111
  493.5000   -34.5739    16.1686    19.7589    10.8185     8.1809     2.3663     0.1736     0.0106    73.1039
  494.0000   -34.5680    16.0114    18.1171    10.8219     8.1766     2.3677     0.1740     0.0092    72.7632
  494.5000   -34.5684    15.8556    17.0542    10.8217     8.1722     2.3691     0.1711     0.0121    71.1664
  495.0000   -34.5697    15.7014    16.5238    10.8217     8.1679     2.3636     0.1751     0.0148    69.6012
  495.5000   -34.7011    15.5486    16.3478    10.8217     8.1636     2.3585     0.1781     0.0121    69.4307
  496.0000   -34.8483    15.3973    16.2261    10.8217     8.1593     2.3547     0.1798     0.0106    70.5102
  496.5000   -34.9953    15.2475    16.1054    10.8217     8.1549     2.3578     0.1791     0.0140    71.1187
  497.0000   -35.1421    14.9417    15.9856    10.8217     8.1505     2.3634     0.1751     0.0165    71.4183
  497.5000   -35.2889    14.6133    15.8666    10.8217     8.1514     2.3642     0.1757     0.0053    71.7107
  498.0000   -35.4356    14.4027    15.7486    10.8217     8.1535     2.3452     0.1896     0.0027    71.1610
  498.5000   -35.5824    14.9646    15.6530    10.8217     8.1555     2.3440     0.1851     0.0076    69.8706
  499.0000   -35.7292    15.6530    15.6530    10.8217     8.1576     2.3549     0.1793     0.0125    69.3036
  499.5000   -35.8759    15.5507    15.6530    10.8217     8.1597     2.3657     0.1734     0.0175    71.9341
  500.0000   -36.0227    15.3925    15.6530    10.8214     8.1617     2.3670     0.1715     0.0208    73.4636
  500.5000   -36.1695    15.2358    15.6530    10.8204     8.1638     2.3643     0.1767     0.0210    74.5114
  501.0000   -36.3162    15.0808    15.6530    10.8217     8.1659     2.3617     0.1776     0.0204    74.7236
  501.5000   -36.4631    14.9273    15.6530    11.4394     8.1680     2.3613     0.1773     0.0199    75.1673
  502.0000   -36.6099    14.8099    15.6525    11.8714     8.1700     2.3642     0.1739     0.0193    76.6868
  502.5000   -36.7526    15.0674    15.6540    12.1427     8.1721     2.3705     0.1705     0.0188    78.1696
  503.0000   -36.9045    15.2803    15.6512    12.4203     8.1742     2.3773     0.1671     0.0182    78.9520
  503.5000   -37.0528    15.5092    15.8607    12.7041     8.1763     2.3841     0.1639     0.0223    75.4432
  504.0000   -37.2010    15.5198    16.0223    12.8238     8.1783     2.3910     0.1593     0.0273    71.8411
  504.5000   -37.3491    15.5310    16.1861    12.8868     8.1804     2.3979     0.1549     0.0389    68.8369
  505.0000   -37.5009    15.5422    16.3515    12.9500     8.1825     2.3987     0.1523     0.0461    70.3048
  505.5000   -37.7540    15.5535    16.5186    13.0135     8.1845     2.3897     0.1605     0.0179    73.2707
  506.0000   -38.1275    15.5647    16.6874    13.0773     8.1866     2.3836     0.1624     0.0095    76.2199
  506.5000   -38.4996    15.5760    16.8580    13.1415     8.1887     2.3806     0.1656     0.0110    77.1633
  507.0000   -38.8729    15.5872    17.0302    13.2056     8.1908     2.3933     0.1576     0.0200    75.9406
  507.5000   -39.2460    15.5985    17.2044    13.2570     8.1928     2.4178     0.1423     0.0288    73.8886
  508.0000   -39.6190    15.6098    17.3804    13.0751     8.1949     2.4172     0.1428     0.0329    71.8393
  508.5000   -39.9921    15.6211    17.5604    12.9254     8.1970     2.4011     0.1519     0.0187    72.6413
  509.0000   -40.3652    15.6322    17.6467    12.7774     8.1990     2.4055     0.1498     0.0341    75.6528
  509.5000   -40.7382    15.6448    17.2812    12.6311     8.2011     2.3938     0.1592     0.0226    74.4150
  510.0000   -41.1113    15.6530    17.0384    12.4282     8.2032     2.3849     0.1640     0.0181    72.5083
  510.5000   -41.4851    15.3510    16.7997    12.6771     8.2053     2.4041     0.1537     0.0303    72.1515
  511.0000   -41.8586    15.0984    16.5645    13.2575     8.2073     2.4117     0.1443     0.0294    74.0338
  511.5000   -42.2155    14.8499    16.3327    12.7371     8.2096     2.4077     0.1481     0.0279    74.9030
  512.0000   -42.3815    14.5391    16.1041    11.9867     8.2062     2.4149     0.1448     0.0296    75.7924
