~VERSION INFORMATION
 VERS.                2.0:   CWLS LOG ASCII STANDARD - VERSION 2.0
 WRAP.                 NO:   ONE LINE PER DEPTH STEP
~WELL INFORMATION
#MNEM.UNIT      DATA TYPE    INFORMATION
#----------   ------------   ------------------------------
 STRT.F            8.0000:   START DEPTH
 STOP.F          500.0000:   STOP DEPTH
 STEP.F            0.5000:   STEP LENGTH
 NULL.          -999.2500:   NO VALUE
 COMP. FENIX & SCISSON INC:   COMPANY
 WELL. 65 12 SX 3FI #65-3:   WELL
 FLD .             TEAPOT:   FIELD
 LOC .       S3 T38N R78W:   LOCATION
 CNTY.            NATRONA:   COUNTY
 STAT.            WYOMING:   STATE
 CTRY. UNITED STATES OF AMERICA:   COUNTRY
 SRVC.              Welex:   SERVICE COMPANY
 DATE.        01-JUN-1980:   LOGDATE
 API .       490251082400:   API NUMBER
~CURVE INFORMATION
#MNEM.UNIT       API CODE    CURVE DESCRIPTION
#----------   ------------   ------------------------------
 DEPT.F                  :   
 GRD .GAPI   45 310 01 00:   GAMMA RAY FROM DENSITY LOG
 CALD.IN     45 280 60 00:   CALIPER
 RHOB.G/C3   45 350 01 00:   BULK DENSITY
 CORR.G/C3   45 356 01 00:   DENSITY CORRECTION
 DPHI.DEC    45 890 12 00:   DENSITY POROSITY SANDSTONE
 NPHI.DEC    42 890 03 00:   NEUTRON POROSITY SANDSTONE
 SPR .MV     07 010 01 00:   SPONTANEOUS POTENTIAL
 SGRD.OHMM   07 220 05 00:   SHALLOW GUARD RESISTIVITY
 ILD .OHMM   07 120 46 00:   INDUCTION LOG DEEP
 ILM .OHMM   07 120 44 00:   INDUCTION LOG MEDIUM
~PARAMETER INFORMATION
#MNEM.UNIT          VALUE    DESCRIPTION
#----------   ------------   ------------------------------
 PD  .                 GL:   PERMANENT DATUM
 EPD .F              5155:   ELEVATION PERMANENT DATUM
 LMF .                 KB:   LOG MEASURED FROM
 DAPD.F                 4:   FEET ABOVE PERMANENT DATUM
 DMF .                 KB:   DRILLING MEASURED FROM
 EKB .F              5159:   KELLING BUSHING
 EGL .F              5155:   GROUND LEVEL
 DATE.             6-1-80:   RUN DATE
 RUN .                  1:   RUN NUMBER
 DD  .F               505:   DEPTH DRILLER
 DL  .F               502:   DEPTH LOGGER
 BLI .F               500:   BOTTOM LOG INTERVAL
 TLI .F                20:   TOP LOG INTERVAL
 BS  .IN            9.875:   BIT SIZE
 BSD .F               505:   BIT SIZE AT DEPTH
 DFT .      OIL BASED MUD:   DRILLING FLUID TYPE
 MSS .            MUD PIT:   MUD SAMPLE SOURCE
 RMS .OHMM             .9:   RESISTIVITY MUD SAMPLE
 MST .F                65:   MUD SAMPLE TEMPERATURE
 RMF .OHMM            .72:   RESISTIVITY MUD FILTRATE SAMPLE
 MFST.F                65:   MUD FILTRATE SAMPLE TEMPERATURE
 RMC .OHMM           1.08:   RESISTIVITY MUD CAKE
 MCST.F                65:   MUD CAKE SAMPLE TEMPERATURE
 MFSS.           MEASURED:   MUD FILTRATE SAMPLE SOURCE
 MCSS.           MEASURED:   MUD CAKE SAMPLE SOURCE
 RMB .OHMM            .71:   RESISTIVITY MUD AT BHT
 BHT .F                76:   BOTTOM HOLE TEMPERATURE
 TCS .HRS               2:   TIME CURCULATED STOPPED
 MRT .F                76:   MAXIMUM RECORDED TEMPERATURE
 LUN .               9685:   LOGGING UNIT NUMBER
 LUL .             CASPER:   LOGGING UNIT LOCATION
 ENGI.               REIN:   RECORDING ENGINEER
 WITN.            RHOADES:   WITNESSED BY
 CLNT.            A2DTECH:   CLIENT CODE
 ORIG.        2" 5" PRINT:   ORIGIN OF DATA
 UWI .       490251082400:   UNIQUE WELL ID
 DICO. A2D Technologies, Inc.:   DIGITIZING COMPANY
~OTHER INFORMATION
~A    DEPT     GRD       CALD       RHOB       CORR       DPHI       NPHI        SPR        SGRD         ILD        ILM 
# ...
  209.0000   109.0282    10.1337     2.3571     0.0021     0.1759     0.3444   -22.4046     5.8222     2.8631     3.9423
  209.5000   108.1904    10.1516     2.3769    -0.0033     0.1614     0.3505   -22.2213     6.7960     3.1067     4.3502
  210.0000   107.3484    10.1438     2.4024     0.0082     0.1437     0.3379   -22.0384     7.0606     3.4106     4.8472
  210.5000   106.5495    10.1285     2.4260     0.0010     0.1377     0.3293   -21.8518     7.1794     3.7893     5.3643
  211.0000   106.8259    10.1131     2.4423     0.0071     0.1391     0.3317   -21.8696     7.3239     4.2104     5.7256
  211.5000   109.3889    10.0977     2.4428     0.0096     0.1428     0.3315   -21.9761     7.2339     4.6756     5.8448
  212.0000   111.9283    10.0823     2.4378     0.0032     0.1420     0.3359   -22.0851     7.1348     5.1448     5.9078
  212.5000   113.4715    10.0670     2.4367     0.0074     0.1501     0.3411   -22.1940     6.9961     5.2733     5.9500
  213.0000   114.2991    10.0537     2.4272     0.0117     0.1591     0.3357   -22.3027     7.1026     5.4121     5.9926
  213.5000   113.3879    10.0448     2.4142    -0.0057     0.1528     0.3363   -22.4114     7.2988     5.6130     6.0355
  214.0000   112.0122    10.0357     2.4230    -0.0091     0.1460     0.3394   -22.5202     7.5004     5.5558     6.0786
  214.5000   111.0732    10.0266     2.4325     0.0017     0.1418     0.3386   -22.6289     7.6682     5.4521     6.1122
  215.0000   111.7129    10.0176     2.4403     0.0122     0.1381     0.3394   -22.7376     7.6082     5.3007     6.1394
  215.5000   112.5137    10.0085     2.4415     0.0176     0.1424     0.3361   -22.8463     7.2373     5.1197     6.1561
  216.0000   113.3401     9.9995     2.4351     0.0233     0.1493     0.3312   -22.9553     6.6774     4.9449     5.7726
  216.5000   114.1873     9.9904     2.4278     0.0246     0.1583     0.3263   -23.0653     6.1592     4.7760     5.4192
  217.0000   115.0343     9.9814     2.4106     0.0144     0.1673     0.3260   -23.1782     5.6791     4.6129     5.0874
  217.5000   115.8783     9.9723     2.3897     0.0044     0.1738     0.3343   -22.9046     5.2680     4.4554     4.6726
  218.0000   116.5629     9.9633     2.3841     0.0037     0.1747     0.3414   -22.5541     5.8569     4.3033     4.7799
  218.5000   115.9463     9.9542     2.3824     0.0067     0.1688     0.3450   -22.2025     6.4382     4.1094     4.9489
  219.0000   112.3138     9.9452     2.3911    -0.0005     0.1628     0.3450   -21.8515     6.0514     4.1585     5.1238
  219.5000   108.4800     9.9361     2.3997    -0.0078     0.1567     0.3449   -21.5004     5.8818     4.2326     5.3050
  220.0000   104.5649     9.9271     2.4179    -0.0023     0.1432     0.3469   -21.1490     7.3331     4.3079     5.4926
  220.5000   104.5600     9.9180     2.4399     0.0066     0.1294     0.3411   -20.8105     7.2779     4.3846     5.6868
  221.0000   105.7863     9.9089     2.4620     0.0269     0.1156     0.3339   -20.6372     7.1865     4.5140     5.8982
  221.5000   107.0439     9.9002     2.4840     0.0430     0.1097     0.3319   -20.4723     7.1256     4.6975     6.1406
  222.0000   108.3408     9.9023     2.5000     0.0573     0.1059     0.3379   -20.3094     8.2522     4.8884     6.3931
  222.5000   107.3772     9.9049     2.5054     0.0567     0.1021     0.3319   -20.3339     8.3282     5.0871     6.6555
  223.0000   105.8717     9.9075     2.5070     0.0521     0.0984     0.3268   -20.5952     8.4056     5.2938     6.9313
  223.5000   106.0486     9.9101     2.5166     0.0593     0.0992     0.3217   -20.8537     8.5470     5.5090     7.0991
  224.0000   106.4978     9.9127     2.5034     0.0529     0.1079     0.3157   -21.1133     8.6909     5.7329     7.2365
  224.5000   104.5788     9.9153     2.4884     0.0413     0.1119     0.3178   -21.3726     8.8377     5.9660     7.3765
  225.0000   104.7480     9.9179     2.4953     0.0387     0.1135     0.3222   -21.6319     9.0450     6.2084     7.5195
  225.5000   105.4684     9.9205     2.4920     0.0482     0.1094     0.3266   -21.8914     8.9156     6.5609     7.6655
  226.0000   102.7912     9.9231     2.4868     0.0533     0.1028     0.3319   -22.1509     8.7053     6.5117     7.8816
  226.5000   104.4864     9.9257     2.5019     0.0650     0.1200     0.3284   -22.4075     8.5000     6.4324     7.7523
  227.0000   106.6453     9.9283     2.4694     0.0420     0.1332     0.3225   -22.6126     8.2996     6.3540     7.5485
  227.5000   107.7993     9.9309     2.4542     0.0189     0.1304     0.3167   -22.6913     8.1038     6.2765     7.3501
  228.0000   107.3610     9.9334     2.4607     0.0075     0.1190     0.3125   -22.7729     7.9127     6.2000     7.1569
  228.5000   106.9350     9.9360     2.4716     0.0149     0.1217     0.3141   -22.8540     7.7389     6.1245     6.9688
  229.0000   107.5787     9.9386     2.4734     0.0224     0.1242     0.3216   -22.9352     7.5903     6.0498     6.7856
  229.5000   109.0140     9.9412     2.4699     0.0164     0.1182     0.3244   -23.0163     7.4540     5.8522     6.6072
  230.0000   110.4696     9.9438     2.4768     0.0276     0.1389     0.3174   -23.0975     7.3205     5.6451     6.4335
  230.5000   110.6517     9.9464     2.4726     0.0272     0.1384     0.3125   -23.1787     7.1901     5.4453     6.2506
  231.0000   110.5733     9.9490     2.4576     0.0248     0.1408     0.3225   -23.2598     6.8461     5.2382     6.0672
  231.5000   110.9545     9.9516     2.4429     0.0024     0.1371     0.3322   -23.3409     6.3338     5.0094     5.8770
  232.0000   112.0136     9.9541     2.4470     0.0083     0.1317     0.3363   -23.3309     5.8599     4.7905     5.4778
  232.5000   113.0862     9.9568     2.4538     0.0222     0.1358     0.3269   -23.2279     5.4215     4.5812     5.0790
  233.0000   112.8227     9.9634     2.4521     0.0359     0.1423     0.3270   -23.1252     5.0159     4.3811     4.7093
  233.5000   111.8486     9.9867     2.4418     0.0389     0.1511     0.3287   -23.0223     4.6299     4.1897     4.4223
  234.0000   110.8718    10.0098     2.4316     0.0344     0.1457     0.3303   -22.9195     6.0090     4.1473     5.1180
  234.5000   110.4250    10.0098     2.4263     0.0322     0.1371     0.3307   -22.8146     7.8822     4.3007     5.7013
  235.0000   112.0540     9.9981     2.4476     0.0423     0.1285     0.3311   -22.7295     8.0793     4.4962     5.9348
  235.5000   113.6680     9.9861     2.4653     0.0395     0.1225     0.3328   -22.6137     8.2834     4.7043     6.1779
  236.0000   112.0629     9.9740     2.4742     0.0215     0.1190     0.3323   -22.4992     8.4050     4.9217     6.4000
  236.5000   109.9584     9.9620     2.4756     0.0187     0.1218     0.3244   -22.3841     8.3404     5.1489     6.5851
  237.0000   108.6083     9.9500     2.4781     0.0104     0.1113     0.3231   -22.2705     8.2950     5.3867     6.7755
  237.5000   110.0513     9.9380     2.4878     0.0281     0.1012     0.3220   -22.2099     8.2522     5.6354     6.9714
  238.0000   111.4223     9.9262     2.5146     0.0492     0.0917     0.3170   -22.3030     8.4690     5.8956     7.1730
  238.5000   112.7899     9.9305     2.5194     0.0513     0.0969     0.3095   -22.3909     8.6808     6.1211     7.3920
  239.0000   112.4403     9.9553     2.5134     0.0434     0.0989     0.3069   -22.4786     8.8806     6.3313     7.5104
  239.5000   110.6328     9.9798     2.5094     0.0459     0.0970     0.3070   -22.5664     8.9210     6.4604     7.6211
  240.0000   108.8259    10.0042     2.5141     0.0507     0.0995     0.3073   -22.6538     8.9587     6.4975     7.7339
  240.5000   107.0647    10.0104     2.5188     0.0524     0.0911     0.3058   -22.7423     8.9965     6.5350     7.8815
  241.0000   107.5849     9.9943     2.5236     0.0480     0.0891     0.3034   -22.7410     9.0344     6.5730     7.8688
  241.5000   106.2440     9.9784     2.5275     0.0522     0.0970     0.3018   -22.6710     9.0726     6.6112     7.8512
  242.0000   106.5281     9.9624     2.5169     0.0546     0.1046     0.3042   -22.6000     9.1108     6.6496     7.8328
