~VERSION INFORMATION
 VERS.                2.0:   CWLS LOG ASCII STANDARD - VERSION 2.0
 WRAP.                 NO:   ONE LINE PER DEPTH STEP
~WELL INFORMATION
#MNEM.UNIT      DATA TYPE    INFORMATION
#----------   ------------   ------------------------------
 STRT.F           30.0000:   START DEPTH
 STOP.F          570.0000:   STOP DEPTH
 STEP.F            0.5000:   STEP LENGTH
 NULL.          -999.2500:   NO VALUE
 COMP.    FENIX & SCISSON:   COMPANY
 WELL.  NPR #3 #13SX11-11:   WELL
 FLD .             TEAPOT:   FIELD
 LOC .      S11 T38N R78W:   LOCATION
 CNTY.            NATRONA:   COUNTY
 STAT.            WYOMING:   STATE
 CTRY. UNITED STATES OF AMERICA:   COUNTRY
 SRVC.       Schlumberger:   SERVICE COMPANY
 DATE.        27-FEB-1977:   LOGDATE
 API .       490251029400:   API NUMBER
~CURVE INFORMATION
#MNEM.UNIT       API CODE    CURVE DESCRIPTION
#----------   ------------   ------------------------------
 DEPT.F                  :   
 GRD .GAPI   45 310 01 00:   GAMMA RAY FROM DENSITY LOG
 CALD.IN     45 280 60 00:   CALIPER FROM DENSITY LOG
 CORR.G/C3   45 356 01 00:   DENSITY CORRECTION
 DPHI.DEC    45 890 12 00:   DENSITY POROSITY STANDSTONE
 RHOB.G/C3   45 350 01 00:   BULK DENSITY
 SPR .MV     07 010 01 00:   SPONTANEOUS POTENTIAL
 ILD .OHMM   07 120 46 00:   INDUCTION LOG DEEP
 ILM .OHMM   07 120 44 00:   INDUCTION LOG MEDIUM
 LL8 .OHMM   07 220 08 00:   LATEROLOG-8 RES.
~PARAMETER INFORMATION
#MNEM.UNIT          VALUE    DESCRIPTION
#----------   ------------   ------------------------------
 PD  .                 GL:   PERMANENT DATUM
 EPD .F              5180:   ELEVATION PERMANENT DATUM
 LMF .                 GL:   LOG MEASURED FROM
 DAPD.F                 0:   FEET ABOVE PERMANENT DATUM
 DMF .                 GL:   DRILLING MEASURED FROM
 EKB .F              5183:   KELLING BUSHING
 EGL .F              5180:   GROUND LEVEL
 DATE.        27-FEB-1977:   RUN DATE
 RUN .                  1:   RUN NUMBER
 DD  .F               585:   DEPTH DRILLER
 DL  .F               571:   DEPTH LOGGER
 BLI .F               570:   BOTTOM LOG INTERVAL
 TLI .F                44:   TOP LOG INTERVAL
 CS  .IN            8.625:   CASING SIZE
 CBD .F                40:   CASING BOTTOM DRILLER
 CBL .F                44:   CASING BOTTOM LOGGER
 BS  .IN            7.875:   BIT SIZE
 BSD .F               585:   BIT SIZE AT DEPTH
 DFT .                KCL:   DRILLING FLUID TYPE
 DFD .                8.7:   DRILLING FLUID DENSITY
 DFV .                 42:   DRILLING FLUID VISCOSITY
 DFPH.                  8:   DRILLING FLUID PH
 DFL .                9.2:   DRILLING FLUID LOSS
 MSS .                PIT:   MUD SAMPLE SOURCE
 RMS .OHMM           .806:   RESISTIVITY MUD SAMPLE
 MST .F                70:   MUD SAMPLE TEMPERATURE
 RMF .OHMM           .720:   RESISTIVITY MUD FILTRATE SAMPLE
 MFST.F                70:   MUD FILTRATE SAMPLE TEMPERATURE
 MFSS.               MEAS:   MUD FILTRATE SAMPLE SOURCE
 RMB .OHMM           .973:   RESISTIVITY MUD AT BHT
 BHT .F                58:   BOTTOM HOLE TEMPERATURE
 TCS .HRS            0230:   TIME CURCULATED STOPPED
 MRT .F                58:   MAXIMUM RECORDED TEMPERATURE
 LUN .               5642:   LOGGING UNIT NUMBER
 LUL .             CASPER:   LOGGING UNIT LOCATION
 ENGI.         JIM MARTIN:   RECORDING ENGINEER
 WITN.         STUEBINGER:   WITNESSED BY
 CLNT.            A2DTECH:   CLIENT CODE
 ORIG.           5" PRINT:   ORIGIN OF DATA
 UWI .       490251029400:   UNIQUE WELL ID
 DICO. A2D Technologies, Inc.:   DIGITIZING COMPANY
~OTHER INFORMATION
~A   DEPT      GRD       CALD       CORR       DPHI       RHOB        SPR        ILD        ILM        LL8   
# ...
  395.0000    79.8033     8.0422     0.0037     0.1817     2.3512   -26.1181    27.9996    27.6099    25.3889
  395.5000    76.3238     8.0416     0.0126     0.1802     2.3534   -25.9681    28.3825    28.1807    27.0446
  396.0000    75.8699     8.0259     0.0201     0.1929     2.3443   -26.1210    28.7726    28.3696    29.1720
  396.5000    76.3238     8.0253     0.0171     0.1926     2.3322   -26.7268    28.9634    28.7561    29.9625
  397.0000    73.1467     7.9795     0.0320     0.1932     2.3322   -27.4835    29.1569    28.7438    30.5820
  397.5000    70.8775     7.9336     0.0373     0.2002     2.3246   -28.2403    29.1493    28.7340    31.4337
  398.0000    69.5159     7.9179     0.0356     0.2044     2.3080   -28.8460    28.7412    28.5257    29.3195
  398.5000    68.6082     7.9324     0.0204     0.1981     2.3140   -28.5454    28.3389    28.3189    28.7079
  399.0000    68.0030     7.9469     0.0057     0.1978     2.3245   -28.0937    28.3301    28.3093    29.5074
  399.5000    67.2466     7.9614     0.0034     0.2006     2.3229   -27.9441    28.3228    28.2996    30.9669
  400.0000    67.8645     7.9608     0.0204     0.2187     2.3118   -27.4924    28.3547    28.4869    31.3930
  400.5000    70.1467     7.9211     0.0265     0.2342     2.2700   -27.3396    28.6532    28.2786    30.3095
  401.0000    72.7262     7.8814     0.0325     0.2425     2.2543   -26.8850    28.6415    28.2689    29.2664
  401.5000    74.5447     7.8534     0.0378     0.2294     2.2815   -26.2792    28.2387    28.0638    30.4994
  402.0000    76.5416     7.8377     0.0374     0.2172     2.2897   -25.6735    27.8415    28.0541    32.2284
  402.5000    78.6309     7.8371     0.0250     0.2236     2.2799   -26.1255    27.8324    28.0445    33.3570
  403.0000    79.8487     7.8667     0.0173     0.2022     2.3024   -26.2751    27.8233    28.0348    30.2574
  403.5000    80.0954     7.9113     0.0330     0.1827     2.3459   -26.1222    27.8142    27.8315    28.8136
  404.0000    77.9755     7.9409     0.0540     0.1607     2.3925   -25.8186    27.8052    27.4386    27.2491
  404.5000    76.9150     7.9553     0.0262     0.1495     2.3984   -25.8170    27.0373    26.8644    26.4944
  405.0000    76.3084     7.9547     0.0037     0.1498     2.3999   -25.8155    25.9292    25.9398    26.3022
  405.5000    75.7017     7.9692     0.0141     0.1553     2.3984   -26.4183    24.8666    25.5737    26.2932
  406.0000    75.3980     7.9686     0.0216     0.1732     2.3436   -27.4742    24.3477    25.2127    25.7429
  406.5000    78.2706     7.9680     0.0185     0.1853     2.3293   -27.9258    23.5121    24.5144    24.5145
  407.0000    79.1768     7.9674     0.0050     0.1980     2.3278   -27.9243    22.5485    22.8640    23.3448
  407.5000    79.4779     7.9517     0.0004     0.1959     2.3277   -27.9228    21.9258    21.7730    22.0772
  408.0000    80.8379     7.9684     0.0094     0.1965     2.3277   -27.9213    21.1732    21.0236    21.1700
  408.5000    82.5006     7.9807     0.0146     0.1959     2.3284   -28.3730    20.8754    20.7269    20.7270
  409.0000    84.0119     7.9952     0.0168     0.1941     2.3299   -28.6740    20.5818    20.4343    20.5766
  409.5000    84.3134     7.9643     0.0190     0.1917     2.3337   -28.9746    20.4332    20.4273    20.5696
  410.0000    83.4042     7.9788     0.0137     0.1884     2.3464   -29.1242    20.4265    20.4203    20.5625
  410.5000    84.0078     8.0083     0.0182     0.1755     2.3644   -29.1223    20.4198    20.4132    20.5554
  411.0000    81.8879     8.0381     0.0204     0.1698     2.3689   -28.9697    20.4132    20.4062    20.5483
  411.5000    80.9787     8.0525     0.0181     0.1749     2.3658   -28.8172    20.4065    20.5412    20.5412
  412.0000    80.9772     8.0518     0.0045     0.1830     2.3531   -28.8157    20.3998    20.6770    20.5341
  412.5000    81.2783     8.0512    -0.0001     0.1837     2.3478   -28.8142    20.6892    21.1044    20.5270
  413.0000    82.1845     8.0506     0.0119     0.1773     2.3560   -28.9637    20.9587    21.5487    20.5038
  413.5000    83.0907     8.0500     0.0067     0.1831     2.3469   -29.1133    21.4124    22.3013    19.9318
  414.0000    82.4841     8.0646    -0.0031     0.1807     2.3479   -29.1118    22.1904    23.0974    19.3756
  414.5000    82.0287     8.0639     0.0111     0.1689     2.3696   -29.1103    23.7137    24.8130    18.8603
  415.0000    81.8759     8.0633     0.0223     0.1726     2.3624   -29.2598    25.4044    28.1827    20.7763
  415.5000    81.8744     8.0627     0.0162     0.1711     2.3643   -29.2583    27.9796    34.1472    28.5741
  416.0000    82.1755     8.0621     0.0245     0.1732     2.3686   -29.7100    30.1827    41.2567    36.6654
  416.5000    82.9304     8.0464     0.0106     0.1753     2.3664   -29.8596    30.8083    40.1106    45.1303
  417.0000    83.0802     8.0458     0.0126     0.1526     2.3686   -29.7069    30.1630    37.4102    52.1882
  417.5000    80.1589     8.0452     0.0359     0.1247     2.4180   -29.7054    29.5336    34.1730    48.6746
  418.0000    77.5825     8.0446     0.0415     0.1073     2.4665   -29.7039    28.5200    31.4332    34.3993
  418.5000    75.4448     8.0289     0.0189     0.0898     2.5080   -29.7021    27.5411    27.1635    27.3529
  419.0000    74.2995     8.0283     0.0107     0.0724     2.5445   -29.2474    25.5142    24.4713    23.4741
  419.5000    74.9546     8.0277     0.0099     0.0570     2.5532   -29.0949    23.6364    22.6660    22.1995
  420.0000    76.4142     8.0271    -0.0007     0.0600     2.5539   -28.6402    21.8969    21.4352    21.1402
  420.5000    77.9256     8.0416    -0.0075     0.0871     2.5501   -28.9408    20.4262    20.4124    20.4126
  421.0000    80.3447     8.0410    -0.0090     0.1121     2.4698   -29.3925    19.7251    19.4384    19.8473
  421.5000    83.3689     8.0404    -0.0001     0.1371     2.4052   -29.6935    19.1804    18.9000    19.1642
  422.0000    84.8802     8.0398     0.0074     0.1655     2.3676   -29.5405    18.7802    18.6333    18.7632
  422.5000    85.7864     8.0392     0.0104     0.1811     2.3496   -29.0859    18.6446    18.2433    18.6271
  423.0000    86.0879     8.0386     0.0080     0.1884     2.3421   -28.6312    18.3823    17.9858    18.6207
  423.5000    85.4809     8.0531     0.0020     0.1893     2.3353   -28.4786    18.2496    17.8553    18.6143
  424.0000    84.8742     8.0525    -0.0018     0.1878     2.3450   -28.3265    18.2437    17.8492    18.3515
  424.5000    84.2676     8.0670     0.0049     0.1857     2.3532   -29.0799    18.1115    17.9672    17.7199
  425.0000    83.9635     8.0664     0.0116     0.1809     2.3495   -29.5319    18.1060    17.9610    17.2292
  425.5000    83.9620     8.0656     0.0108     0.1791     2.3479   -29.6815    18.1001    18.2056    17.2233
  426.0000    87.4401     8.0650     0.0033     0.1812     2.3539   -29.6796    18.2200    18.3276    17.5793
  426.5000    90.3130     8.0797     0.0107     0.1725     2.3637   -29.6781    18.3405    18.8350    18.5759
  427.0000    88.7986     8.0789     0.0152     0.1686     2.3719   -29.8276    18.5899    18.9612    19.3585
  427.5000    85.4689     8.0783     0.0166     0.1680     2.3704   -29.9776    18.5839    19.0866    20.0347
  428.0000    83.3493     8.0777     0.0054     0.1704     2.3636   -30.2778    18.7068    18.8156    20.3075
  428.5000    81.8350     8.0771    -0.0014     0.1770     2.3591   -30.2763    18.5717    18.6791    20.1541
  429.0000    80.9258     8.0765     0.0090     0.1695     2.3696   -30.2748    18.5656    18.5436    19.7282
  429.5000    83.0423     8.0759     0.0105     0.1686     2.3703   -30.2733    18.4315    18.2819    19.1915
  430.0000    84.8562     8.0753     0.0059     0.1746     2.3507   -29.9697    18.0469    18.1493    18.6599
  430.5000    84.5521     8.0747     0.0089     0.1864     2.3440   -29.6661    17.6504    17.8931    18.1226
  431.0000    82.8865     8.0741     0.0141     0.1870     2.3387   -29.6646    17.5193    17.7633    17.4720
