~VERSION INFORMATION
 VERS.                2.0:   CWLS LOG ASCII STANDARD - VERSION 2.0
 WRAP.                 NO:   ONE LINE PER DEPTH STEP
~WELL INFORMATION
#MNEM.UNIT      DATA TYPE    INFORMATION
#----------   ------------   ------------------------------
 STRT.F          142.0000:   START DEPTH
 STOP.F          940.5000:   STOP DEPTH
 STEP.F            0.5000:   STEP LENGTH
 NULL.          -999.2500:   NO VALUE
 COMP. U S NAVY-INTEX OIL:   COMPANY
 WELL.     RESERVE #44S-2:   WELL
 FLD .             TEAPOT:   FIELD
 LOC .       S2 T38N R78W:   LOCATION
 CNTY.            NATRONA:   COUNTY
 STAT.            WYOMING:   STATE
 CTRY. UNITED STATES OF AMERICA:   COUNTRY
 SRVC. Schlumberger Well Surveying Corp:   SERVICE COMPANY
 DATE.        06-AUG-1959:   LOGDATE
 API .       490250644200:   API NUMBER
~CURVE INFORMATION
#MNEM.UNIT       API CODE    CURVE DESCRIPTION
#----------   ------------   ------------------------------
 DEPT.F                  :   
 ASN .OHMM   05 041 16 00:   AMPLIFIER SHORT NORMAL 16"
 CILD.MMHO   05 110 46 00:   CONDUCTIVITY INDUCTION LOG DEEP
 ILD .OHMM   05 110 46 00:   INDUCTION LOG DEEP
 SPR .MV     05 010 01 00:   SPONTANEOUS POTENTIAL FROM RES.
~PARAMETER INFORMATION
#MNEM.UNIT          VALUE    DESCRIPTION
#----------   ------------   ------------------------------
 LMF .                 KB:   LOG MEASURED FROM
 DMF .                 KB:   DRILLING MEASURED FROM
 EDF .F              5146:   DRILLING FLOOR
 EGL .F              5142:   GROUND LEVEL
 DATE.        06-AUG-1959:   RUN DATE
 RUN .                  1:   RUN NUMBER
 DD  .F               948:   DEPTH DRILLER
 DL  .F               946:   DEPTH LOGGER
 BLI .F               940:   BOTTOM LOG INTERVAL
 TLI .F               143:   TOP LOG INTERVAL
 CBD .F                17:   CASING BOTTOM DRILLER
 BS  .IN             6.75:   BIT SIZE
 BSD .F               948:   BIT SIZE AT DEPTH
 DFT .                GEL:   DRILLING FLUID TYPE
 RMS .OHMM             75:   RESISTIVITY MUD SAMPLE
 MST .F                75:   MUD SAMPLE TEMPERATURE
 TCS .HRS               1:   TIME CURCULATED STOPPED
 LUN .               2754:   LOGGING UNIT NUMBER
 LUL .                 NC:   LOGGING UNIT LOCATION
 ENGI.             QUINBY:   RECORDING ENGINEER
 WITN.             MARTIN:   WITNESSED BY
 CLNT.            A2DTECH:   CLIENT CODE
 ORIG.        2" 5" PRINT:   ORIGIN OF DATA
 UWI .       490250644200:   UNIQUE WELL ID
 DICO. A2D Technologies, Inc.:   DIGITIZING COMPANY
~OTHER INFORMATION
~A   DEPT      ASN       CILD        ILD        SPR   
# ...
  799.0000    14.8361    76.3910    13.4656   -61.4145
  799.5000    14.7690    76.4713    13.4648   -61.1648
  800.0000    14.7696    76.4307    13.5319   -61.4345
  800.5000    14.8381    75.7729    13.7341   -61.7038
  801.0000    14.8388    75.6718    13.8687   -61.7021
  801.5000    14.8396    74.4572    14.0034   -61.4302
  802.0000    14.7725    73.1267    13.8674   -61.0229
  802.5000    14.5699    73.8243    13.6604   -60.7509
  803.0000    14.2954    74.5219    13.4601   -60.7496
  803.5000    14.0921    75.8972    13.2563   -60.4776
  804.0000    13.9566    76.5948    13.0527   -60.0704
  804.5000    13.8889    77.9101    12.9167   -59.6518
  805.0000    13.8889    78.6011    12.7807   -59.2332
  805.5000    14.0244    79.2920    12.5771   -58.7129
  806.0000    14.1599    79.3053    12.5764   -58.1542
  806.5000    14.0894    79.9963    12.5757   -58.0162
  807.0000    13.8808    80.0096    12.6429   -57.4686
  807.5000    13.4824    80.0229    12.7774   -56.9283
  808.0000    13.2114    80.0361    12.8444   -57.6724
  808.5000    12.8726    79.3156    12.8437   -58.8168
  809.0000    12.6545    78.7073    12.4985   -59.0855
  809.5000    12.3984    81.4347    12.0898   -58.9468
  810.0000    12.1951    84.1588    11.8267   -58.6735
  810.5000    12.0596    86.8830    11.5554   -58.4002
  811.0000    12.0596    88.9294    11.2841   -58.1269
  811.5000    11.9919    90.2981    11.1481   -57.7183
  812.0000    11.9919    90.9891    11.0798   -57.3097
  812.5000    11.9241    91.6800    11.0792   -56.7658
  813.0000    11.9241    91.6933    11.0784   -56.0865
  813.5000    11.9241    91.7066    11.0778   -55.6779
  814.0000    11.9241    91.7199    11.1180   -55.9677
  814.5000    11.9241    91.7334    11.1592   -56.6198
  815.0000    11.9241    91.0687    11.2788   -56.7525
  815.5000    11.9241    91.0853    11.3472   -56.8852
  816.0000    11.9241    91.0986    11.4506   -56.8818
  816.5000    11.9919    91.1119    11.5474   -56.8792
  817.0000    12.1274    91.1252    11.6819   -56.8765
  817.5000    12.1951    91.1384    11.8165   -56.0620
  818.0000    12.2629    90.4707    11.9512   -55.3827
  818.5000    12.1951    89.8062    11.9505   -55.1094
  819.0000    12.0596    88.4669    11.8145   -55.1068
  819.5000    11.9241    87.8027    11.6109   -55.1041
  820.0000    11.7209    87.1385    11.3396   -55.1014
  820.5000    11.4499    88.5639    11.1360   -54.8281
  821.0000    11.2466    91.3451    10.8647   -54.6901
  821.5000    11.1789    93.9588    10.6610   -54.7082
  822.0000    11.1111    95.3275    10.4574   -55.6314
  822.5000    11.1111    96.6962    10.3890   -56.4407
  823.0000    11.0434    97.3872    10.3882   -56.7093
  823.5000    11.0434    96.7228    10.3876   -56.0294
  824.0000    11.1111    96.7360    10.3869   -55.6208
  824.5000    11.1111    96.7493    10.4541   -55.3475
  825.0000    11.1789    96.7626    10.4532   -55.0742
  825.5000    11.2466    96.0979    10.4526   -54.8009
  826.0000    11.3144    96.1114    10.5872   -54.5276
  826.5000    11.4499    95.4470    10.6542   -54.5250
  827.0000    11.5854    95.4608    10.7214   -54.3870
  827.5000    11.6531    94.7959    10.7882   -54.6594
  828.0000    11.7209    94.1314    10.8173   -54.7876
  828.5000    11.7209    94.1480    10.8473   -54.4899
  829.0000    11.6531    93.4803    10.9215   -54.1051
  829.5000    11.5176    92.8158    10.9885   -53.6964
  830.0000    11.4499    92.1514    10.6494   -53.5591
  830.5000    11.2846    92.1680    10.4458   -54.0971
  831.0000    11.1789    93.5367    10.3098   -54.5010
  831.5000    11.0406    95.5831    10.1738   -54.0918
  832.0000    10.9079    97.6295    10.1055   -53.6832
  832.5000    10.8401    99.6762    10.1726   -53.1392
  833.0000    10.8401   100.4804    10.2395   -52.8659
  833.5000    10.7724   101.7389    10.3066   -52.7280
  834.0000    10.7046   102.4299    10.3735   -52.7253
  834.5000    10.6883   103.1209    10.3051   -52.8580
  835.0000    10.7046   103.8119    10.1015   -53.1439
  835.5000    10.7877   104.5029     9.9655   -54.3405
  836.0000    10.8401   104.5162     9.8970   -55.4204
  836.5000    10.9494   104.5294     9.8964   -54.7411
  837.0000    10.9756   104.5427     9.8957   -53.6559
  837.5000    11.1111   103.8780     9.8950   -52.9767
  838.0000    11.1789   103.5527     9.8944   -52.7034
  838.5000    11.3252   103.2271     9.9615   -52.7007
  839.0000    11.5854   102.5627    10.0285   -52.8340
  839.5000    11.8564   101.2239    10.2307   -52.9667
  840.0000    12.1951    99.8817    10.5006   -53.0988
  840.5000    12.6694    97.1842    11.0413   -53.2314
  841.0000    13.4146    93.8089    11.8525   -53.2287
  841.5000    14.4986    90.4336    12.6699   -53.0907
  842.0000    15.4472    85.0252    13.6996   -53.5372
  842.5000    17.4797    78.2614    14.6741   -55.2498
  843.0000    18.6992    72.8530    16.7211   -58.2242
  843.5000    20.4607    67.4446    18.6826   -63.0930
  844.0000    24.2383    60.6807    20.9823   -64.9854
  844.5000    26.5826    54.4256    23.0114   -64.7115
  845.0000    27.7778    46.9279    24.1610   -64.0322
  845.5000    28.7263    43.1001    24.6339   -64.4355
  846.0000    29.6070    42.4356    24.7687   -64.9741
  846.5000    30.6233    41.7712    24.8357   -64.5655
  847.0000    31.3008    41.1068    24.8349   -62.5331
  847.5000    31.4363    41.1234    24.7666   -59.0122
  848.0000    30.2168    41.1367    24.6288   -56.8444
  848.5000    29.1328    41.1499    24.2030   -56.8417
  849.0000    27.7778    43.1963    23.4181   -56.9744
  849.5000    25.4743    45.9205    21.2455   -57.7830
  850.0000    23.4417    48.6446    19.2827   -59.4042
  850.5000    23.2385    51.4254    19.0791   -60.4840
  851.0000    23.2168    54.0934    18.8754   -60.8880
  851.5000    22.2900    55.4648    18.6718   -61.0207
  852.0000    21.4770    56.8335    18.4681   -60.6121
  852.5000    20.7317    57.5245    18.1292   -61.6913
  853.0000    19.9864    58.8932    17.8579   -61.9599
  853.5000    19.4444    60.2619    17.4513   -61.1447
  854.0000    18.9539    61.6306    16.8525   -60.0812
  854.5000    18.5454    62.3216    16.2135   -59.9459
  855.0000    18.4756    63.2674    15.6696   -60.6225
  855.5000    18.4736    64.6256    15.2610   -59.4046
  856.0000    18.4715    66.3464    15.1230   -58.5927
  856.5000    18.3336    67.7650    15.1203   -58.1867
  857.0000    18.2639    69.0708    15.1177   -58.0415
  857.5000    18.1941    68.4011    15.2503   -57.9161
  858.0000    18.3276    67.7284    15.4551   -58.5927
  858.5000    18.5966    66.3796    15.8043   -59.8106
  859.0000    18.5946    65.0308    16.3242   -59.5399
  859.5000    18.3894    64.3614    16.3899   -59.1340
  860.0000    18.1164    63.6887    16.1159   -59.2693
  860.5000    17.9789    64.3747    15.8426   -58.8633
  861.0000    17.8414    66.4144    15.5693   -58.1867
  861.5000    16.8909    67.0988    15.3637   -57.3748
  862.0000    16.2791    67.7831    15.2257   -56.2923
  862.5000    16.9603    67.7899    15.1554   -55.3451
  863.0000    17.1559    68.4744    14.9498   -55.0744
  863.5000    16.2726    69.1601    14.5411   -55.3639
  864.0000    15.6609    70.5222    14.0649   -56.0415
  864.5000    15.2524    71.8842    13.5886   -55.6157
  865.0000    14.9116    73.9240    13.1800   -55.3451
  865.5000    14.6386    75.9638    12.9021   -55.3451
  866.0000    14.2979    77.3259    12.6333   -55.2097
  866.5000    14.0249    79.3656    12.4271   -54.3978
  867.0000    13.8874    80.7277    12.2891   -54.2625
  867.5000    13.7499    82.0897    12.0835   -54.3978
  868.0000    13.6124    84.1295    11.9455   -54.2625
  868.5000    13.5426    85.4917    11.8075   -54.1272
  869.0000    13.4729    85.4985    11.7372   -53.7212
  869.5000    13.3354    85.5065    11.6669   -53.5859
  870.0000    13.2566    86.1909    11.5289   -53.3153
  870.5000    13.0599    86.1975    11.4586   -53.3153
  871.0000    12.9902    86.8819    11.4559   -53.4506
  871.5000    12.8526    86.8885    11.3856   -53.7212
