~VERSION INFORMATION
 VERS.                2.0:   CWLS LOG ASCII STANDARD - VERSION 2.0
 WRAP.                 NO:   ONE LINE PER DEPTH STEP
~WELL INFORMATION
#MNEM.UNIT      DATA TYPE    INFORMATION
#----------   ------------   ------------------------------
 STRT.F            2.0000:   START DEPTH
 STOP.F          500.0000:   STOP DEPTH
 STEP.F            0.5000:   STEP LENGTH
 NULL.          -999.2500:   NO VALUE
 COMP. BROWN JOHN E&C INC:   COMPANY
 WELL. NAVAL PETROLEUM RESERVE 3 SHX- #65-1-3:   WELL
 FLD .             TEAPOT:   FIELD
 LOC .       S3 T38N R78W:   LOCATION
 CNTY.            NATRONA:   COUNTY
 STAT.            WYOMING:   STATE
 CTRY. UNITED STATES OF AMERICA:   COUNTRY
 SRVC.     Atlas Wireline:   SERVICE COMPANY
 DATE.        13-DEC-1991:   LOGDATE
 API .       490252247400:   API NUMBER
~CURVE INFORMATION
#MNEM.UNIT       API CODE    CURVE DESCRIPTION
#----------   ------------   ------------------------------
 DEPT.F                  :   
 RILD.OHMM   07 120 46 00:   RESISTIVITY INDUCTION LOG DEEP
 RILM.OHMM   07 120 44 00:   RESISTIVITY INDUCTION LOG MEDIUM
 GRR .GAPI   07 310 01 00:   GAMMA RAY FROM RESISTIVITY
~PARAMETER INFORMATION
#MNEM.UNIT          VALUE    DESCRIPTION
#----------   ------------   ------------------------------
 PD  .                 GL:   PERMANENT DATUM
 EPD .F              5148:   ELEVATION PERMANENT DATUM
 LMF .                 KB:   LOG MEASURED FROM
 DAPD.F                10:   FEET ABOVE PERMANENT DATUM
 DMF .                 KB:   DRILLING MEASURED FROM
 EKB .F              5150:   KELLING BUSHING
 EDF .F              5149:   DRILLING FLOOR
 EGL .F              5148:   GROUND LEVEL
 DATE.        13-DEC-1991:   RUN DATE
 RUN .                  1:   RUN NUMBER
 DD  .F               510:   DEPTH DRILLER
 DL  .F               510:   DEPTH LOGGER
 BLI .F               508:   BOTTOM LOG INTERVAL
 CS  .IN            9.625:   CASING SIZE
 CBD .F                51:   CASING BOTTOM DRILLER
 CBL .F                50:   CASING BOTTOM LOGGER
 BS  .IN             8.75:   BIT SIZE
 BSD .F               510:   BIT SIZE AT DEPTH
 DFT .                AIR:   DRILLING FLUID TYPE
 MRT .F                95:   MAXIMUM RECORDED TEMPERATURE
 LUN .            HL-6274:   LOGGING UNIT NUMBER
 LUL .             CASPER:   LOGGING UNIT LOCATION
 ENGI.             RAUTIO:   RECORDING ENGINEER
 WITN.        GARY STRONG:   WITNESSED BY
 CLNT.            A2DTECH:   CLIENT CODE
 ORIG.           5" PRINT:   ORIGIN OF DATA
 UWI .       490252247400:   UNIQUE WELL ID
 DICO. A2D Technologies, Inc.:   DIGITIZING COMPANY
~OTHER INFORMATION
~A    DEPT    RILD       RILM         GRR  
    2.0000  -999.2500  -999.2500    20.7651
    2.5000  -999.2500  -999.2500    20.2803
    3.0000  -999.2500  -999.2500    17.3437
    3.5000  -999.2500  -999.2500    17.0322
    4.0000  -999.2500  -999.2500    16.1201
    4.5000  -999.2500  -999.2500    15.5056
    5.0000  -999.2500  -999.2500    14.5935
    5.5000  -999.2500  -999.2500    13.6814
    6.0000  -999.2500  -999.2500    12.4662
    6.5000  -999.2500  -999.2500    12.4550
    7.0000  -999.2500  -999.2500    13.9453
    7.5000  -999.2500  -999.2500    15.4555
    8.0000  -999.2500  -999.2500    17.5237
    8.5000  -999.2500  -999.2500    20.8158
    9.0000  -999.2500  -999.2500    25.3092
    9.5000  -999.2500  -999.2500    34.6045
   10.0000  -999.2500  -999.2500    55.6143
   10.5000  -999.2500  -999.2500    57.4049
   11.0000  -999.2500  -999.2500    57.6940
   11.5000  -999.2500  -999.2500    59.4818
   12.0000  -999.2500  -999.2500    61.8731
   12.5000  -999.2500  -999.2500    64.5646
   13.0000  -999.2500  -999.2500    67.8539
   13.5000  -999.2500  -999.2500    69.0467
   14.0000  -999.2500  -999.2500    69.0327
   14.5000  -999.2500  -999.2500    68.7184
   15.0000  -999.2500  -999.2500    69.3078
   15.5000  -999.2500  -999.2500    70.1975
   16.0000  -999.2500  -999.2500    71.4194
   16.5000  -999.2500  -999.2500    73.4756
   17.0000  -999.2500  -999.2500    75.5666
   17.5000  -999.2500  -999.2500    76.2362
   18.0000  -999.2500  -999.2500    74.3402
   18.5000  -999.2500  -999.2500    74.3290
   19.0000  -999.2500  -999.2500    75.5190
   19.5000  -999.2500  -999.2500    77.0093
   20.0000  -999.2500  -999.2500    76.9953
   20.5000  -999.2500  -999.2500    77.8850
   21.0000  -999.2500  -999.2500    79.0750
   21.5000  -999.2500  -999.2500    79.3642
   22.0000  -999.2500  -999.2500    77.5484
   22.5000  -999.2500  -999.2500    75.7354
   23.0000  -999.2500  -999.2500    74.8205
   23.5000  -999.2500  -999.2500    75.1096
   24.0000  -999.2500  -999.2500    75.6990
   24.5000  -999.2500  -999.2500    76.6006
   25.0000  -999.2500  -999.2500    78.0762
   25.5000  -999.2500  -999.2500    78.9659
   26.0000  -999.2500  -999.2500    79.2553
   26.5000  -999.2500  -999.2500    79.5441
   27.0000  -999.2500  -999.2500    79.2299
   27.5000  -999.2500  -999.2500    79.2187
   28.0000  -999.2500  -999.2500    79.2072
   28.5000  -999.2500  -999.2500    79.4966
   29.0000  -999.2500  -999.2500    80.3863
   29.5000  -999.2500  -999.2500    81.5735
   30.0000  -999.2500  -999.2500    82.1629
   30.5000  -999.2500  -999.2500    79.4462
   31.0000  -999.2500  -999.2500    75.8314
   31.5000  -999.2500  -999.2500    71.9135
   32.0000  -999.2500  -999.2500    70.7011
   32.5000  -999.2500  -999.2500    72.4917
   33.0000  -999.2500  -999.2500    75.4915
   33.5000  -999.2500  -999.2500    75.7727
   34.0000  -999.2500  -999.2500    73.6566
   34.5000  -999.2500  -999.2500    75.7475
   35.0000  -999.2500  -999.2500    83.8416
   35.5000  -999.2500  -999.2500    87.1337
   36.0000  -999.2500  -999.2500    88.9271
   36.5000  -999.2500  -999.2500    83.6156
   37.0000  -999.2500  -999.2500    77.7880
   37.5000  -999.2500  -999.2500    76.5756
   38.0000  -999.2500  -999.2500    76.2642
   38.5000  -999.2500  -999.2500    76.8508
   39.0000  -999.2500  -999.2500    78.0408
   39.5000  -999.2500  -999.2500    79.5311
   40.0000  -999.2500  -999.2500    80.1205
   40.5000  -999.2500  -999.2500    79.8062
   41.0000  -999.2500  -999.2500    77.3926
   41.5000  -999.2500  -999.2500    72.8649
   42.0000  -999.2500  -999.2500    70.7608
   42.5000  -999.2500  -999.2500    71.0499
   43.0000  -999.2500  -999.2500    71.9396
   43.5000  -999.2500  -999.2500    73.7275
   44.0000  -999.2500  -999.2500    74.0194
   44.5000  -999.2500  -999.2500    72.2036
   45.0000  -999.2500  -999.2500    70.6907
   45.5000  -999.2500  -999.2500    72.4787
   46.0000  -999.2500  -999.2500    76.6717
   46.5000  -999.2500  -999.2500    80.2641
   47.0000  -999.2500  -999.2500    80.5532
   47.5000  -999.2500  -999.2500    80.8423
   48.0000  -999.2500  -999.2500    82.6301
   48.5000  -999.2500  -999.2500    89.5495
   49.0000  -999.2500  -999.2500    99.7221
   49.5000  -999.2500  -999.2500   117.4286
   50.0000    37.7253     2.6212   137.2372
   50.5000     0.6345     2.6022   138.7309
   51.0000     0.9226     2.9267   135.4170
   51.5000     1.9241     4.2548   133.5986
   52.0000    53.3248     6.8164   132.3948
   52.5000  2266.7703     9.4394   132.9868
   53.0000 10159.9521    12.5400   134.1795
   53.5000  9347.0938    14.1046   135.3722
   54.0000    11.9959    13.1552   136.2646
   54.5000    10.4405    10.4319   137.1548
   55.0000    10.8147     9.2934   137.1463
   55.5000    10.9564     9.5517   135.9366
   56.0000     9.1467     9.9543   135.0271
   56.5000     9.4679    10.0203   137.1186
   57.0000    10.4312     9.5415   138.6137
   57.5000    10.5756     8.6558   138.0024
   58.0000     8.3524     7.9620   135.5915
   58.5000     7.7376     7.5822   136.7820
   59.0000     7.8444     7.3717   138.5775
   59.5000     7.8977     7.5242   140.3686
   60.0000     7.8961     7.9509   139.7595
   60.5000     7.8948     8.1155   137.8929
   61.0000     7.9485     8.1126   135.2358
   61.5000     7.8919     8.1094   134.6267
   62.0000     7.8361     8.1068   139.4229
   62.5000     7.7804     8.1041   142.7177
   63.0000     7.7254     8.0454   144.8092
   63.5000     7.7241     8.0422   140.8967
   64.0000     7.7766     8.0961   139.0885
   64.5000     7.8295     8.1498   143.2821
   65.0000     7.8827     8.2890   143.8742
   65.5000     7.9359     8.4305   140.8605
   66.0000     8.1011     8.5461   138.7499
   66.5000     8.1565     8.7222   140.5431
   67.0000     8.3263     8.7801   142.0361
   67.5000     8.3839     8.9610   142.6261
   68.0000     8.5578     9.0211   138.4133
   68.5000     8.7359     9.0174   131.1976
   69.0000     8.7956     9.0145   127.2852
   69.5000     8.8551     9.0115   125.4748
   70.0000     8.8533     9.0078   131.1699
   70.5000     8.9138     9.0049   135.3656
   71.0000     8.9120     9.0019   136.8586
   71.5000     8.9102     8.9990   138.3515
   72.0000     8.8472     8.9331   139.2439
   72.5000     8.7846     8.8072   138.6326
   73.0000     8.7188     8.7435   137.7232
   73.5000     8.5411     8.6802   138.6156
   74.0000     8.4221     8.5571   137.4037
   74.5000     8.3047     8.4365   133.4913
   75.0000     8.0759     8.2600   131.9813
   75.5000     8.0188     8.2003   135.8766
   76.0000     7.9070     8.0287   140.7087
   76.5000     7.8511     7.9700   140.9647
   77.0000     7.7414     7.8577   139.1522
   77.5000     7.6866     7.8551   138.2449
   78.0000     7.6854     7.8525   139.4355
   78.5000     7.6841     7.7950   138.8242
   79.0000     7.7364     7.7925   137.9148
   79.5000     7.7889     7.9537   137.6081
   80.0000     7.8416     8.0064   139.3993
   80.5000     8.0605     8.2290   140.5919
   81.0000     8.2859     8.3985   138.4792
   81.5000     8.5176     8.5723   138.1703
   82.0000     8.7558     8.6892   138.7646
   82.5000     9.0006     8.9300   134.1491
   83.0000     9.1245     8.9399   128.5330
   83.5000     9.2505     9.0488   124.9209
   84.0000     9.2486     9.1089   121.3088
   84.5000     9.2471     9.1691   118.5975
   85.0000     9.2456     9.1654   120.6890
   85.5000     9.2441     9.1624   129.0889
   86.0000     9.2422     9.0961   135.0863
   86.5000     9.1134     8.9678   136.8796
   87.0000     8.9864     8.9022   137.8038
   87.5000     8.9798     8.8378   138.6622
   88.0000     8.7982     8.7738   139.2565
   88.5000     8.7359     8.7103   139.5482
   89.0000     8.7345     8.6466   137.7237
   89.5000     8.7328     8.6438   134.1215
   90.0000     8.6111     8.6409   136.8157
   90.5000     8.6097     8.6381   138.9093
   91.0000     8.6083     8.5755   141.0028
   91.5000     8.6065     8.5128   142.1955
   92.0000     8.6051     8.5100   140.3831
   92.5000     8.6037     8.4485   138.2724
