~VERSION INFORMATION
 VERS.                2.0:   CWLS LOG ASCII STANDARD - VERSION 2.0
 WRAP.                 NO:   ONE LINE PER DEPTH STEP
~WELL INFORMATION
#MNEM.UNIT      DATA TYPE    INFORMATION
#----------   ------------   ------------------------------
 STRT.F           12.0000:   START DEPTH
 STOP.F          508.5000:   STOP DEPTH
 STEP.F            0.5000:   STEP LENGTH
 NULL.          -999.2500:   NO VALUE
 COMP. LAWRENCE-ALLISON INC:   COMPANY
 WELL.   NPR #71-16-SX-10:   WELL
 FLD .           NPR NO.3:   FIELD
 LOC .      S10 T38N R78W:   LOCATION
 CNTY.            NATRONA:   COUNTY
 STAT.            WYOMING:   STATE
 CTRY. UNITED STATES OF AMERICA:   COUNTRY
 SRVC.           Gearhart:   SERVICE COMPANY
 DATE.        09-JUL-1986:   LOGDATE
 API .       490251109600:   API NUMBER
~CURVE INFORMATION
#MNEM.UNIT       API CODE    CURVE DESCRIPTION
#----------   ------------   ------------------------------
 DEPT.F                  :   
 GRR .GAPI   07 310 01 00:   GAMMA RAY FROM RES. LOG.
 RILD.OHMM   07 120 46 00:   INDUCTION LOG DEEP RESISTIVITY
 RILM.OHMM   07 120 44 00:   INDUCTION LOG MEDIUM
~PARAMETER INFORMATION
#MNEM.UNIT          VALUE    DESCRIPTION
#----------   ------------   ------------------------------
 PD  .                 GL:   PERMANENT DATUM
 EPD .F              5152:   ELEVATION PERMANENT DATUM
 LMF .                 KB:   LOG MEASURED FROM
 DAPD.F                 5:   FEET ABOVE PERMANENT DATUM
 DMF .                 KB:   DRILLING MEASURED FROM
 EKB .F              5157:   KELLING BUSHING
 EGL .F              5152:   GROUND LEVEL
 DATE.           7-9-1986:   RUN DATE
 RUN .                  1:   RUN NUMBER
 DD  .F               520:   DEPTH DRILLER
 DL  .F               518:   DEPTH LOGGER
 BLI .F               509:   BOTTOM LOG INTERVAL
 TLI .F                47:   TOP LOG INTERVAL
 CS  .IN            8.625:   CASING SIZE
 CBD .F                47:   CASING BOTTOM DRILLER
 CBL .F                47:   CASING BOTTOM LOGGER
 BS  .IN            7.875:   BIT SIZE
 BSD .F               520:   BIT SIZE AT DEPTH
 DFT .                AIR:   DRILLING FLUID TYPE
 TCS .HRS            0830:   TIME CURCULATED STOPPED
 TLAB.HRS            1119:   TIME LOGGER AT BOTTOM
 MRT .F                65:   MAXIMUM RECORDED TEMPERATURE
 LUN .               7609:   LOGGING UNIT NUMBER
 LUL .           GILLETTE:   LOGGING UNIT LOCATION
 ENGI.         WEATHERMON:   RECORDING ENGINEER
 WITN.           JENNINGS:   WITNESSED BY
 CLNT.            A2DTECH:   CLIENT CODE
 ORIG.       2", 5" PRINT:   ORIGIN OF DATA
 UWI .       490251109600:   UNIQUE WELL ID
 DICO. A2D Technologies, Inc.:   DIGITIZING COMPANY
~OTHER INFORMATION
~A   DEPT       GRR      RILD       RILM   
# ...
  285.0000    79.4237    27.9099    25.7176
  285.5000    78.2596    27.7015    25.7176
  286.0000    77.1139    27.4946    25.6738
  286.5000    76.7648    27.2893    25.5412
  287.0000    76.9627    26.9598    25.3087
  287.5000    76.9603    26.5292    24.9960
  288.0000    75.7554    26.1054    24.6873
  288.5000    75.6698    25.6884    24.3824
  289.0000    76.7512    25.2781    24.0812
  289.5000    77.8373    24.8743    23.7838
  290.0000    78.9411    24.5476    23.4901
  290.5000    79.1556    24.2939    23.1999
  291.0000    79.1872    24.0354    22.9134
  291.5000    78.0414    23.7804    22.6304
  292.0000    76.8539    23.5297    22.3647
  292.5000    75.8975    23.4290    21.9520
  293.0000    76.5159    23.4306    21.9520
  293.5000    78.0060    23.4309    21.9736
  294.0000    79.1641    23.4306    22.0251
  294.5000    78.5213    23.4418    22.0768
  295.0000    77.1479    23.4952    22.1286
  295.5000    77.6591    23.5478    22.1574
  296.0000    80.7934    23.6007    22.2178
  296.5000    82.3785    23.6500    22.2757
  297.0000    83.2170    23.5002    22.3337
  297.5000    82.3717    23.3271    22.3647
  298.0000    81.1666    23.1552    22.0386
  298.5000    79.9115    22.9846    21.8179
  299.0000    79.2724    22.8153    21.5996
  299.5000    79.5113    22.6472    21.3825
  300.0000    79.8718    22.4804    21.1467
  300.5000    79.6333    22.3647    21.1479
  301.0000    76.9345    22.4405    21.1938
  301.5000    74.0610    22.4990    21.2438
  302.0000    72.2639    22.5584    21.2936
  302.5000    72.1704    22.5749    21.3476
  303.0000    72.0565    22.1560    21.1426
  303.5000    71.9534    21.7891    20.8621
  304.0000    71.8505    21.4643    20.5667
  304.5000    72.9509    20.8463    20.0435
  305.0000    74.8435    20.2460    19.4976
  305.5000    76.7533    19.6630    18.9652
  306.0000    77.6915    19.0923    18.4496
  306.5000    78.5612    18.7080    18.1178
  307.0000    82.0333    18.4863    17.9305
  307.5000    85.5005    18.2725    17.7651
  308.0000    84.8969    18.2215    17.6077
  308.5000    81.3067    18.0439    17.4515
  309.0000    77.9969    17.8614    17.2968
  309.5000    77.8779    17.6808    17.1435
  310.0000    79.4339    17.5020    16.9915
  310.5000    80.2585    17.3925    16.8409
  311.0000    77.9440    17.1417    16.6916
  311.5000    75.9014    16.8905    16.5041
  312.0000    78.1241    16.6429    16.2580
  312.5000    80.2434    16.4473    16.0155
  313.0000    80.9959    16.2227    15.7766
  313.5000    82.6339    16.0009    15.5413
  314.0000    84.5549    15.7829    15.3095
  314.5000    85.2796    15.6821    15.1905
  315.0000    85.2936    15.6069    15.0675
  315.5000    84.6831    15.5318    14.9455
  316.0000    84.7984    15.4568    14.8245
  316.5000    85.4989    15.3823    14.7083
  317.0000    85.1000    15.3080    14.7083
  317.5000    84.4134    15.2665    14.7940
  318.0000    85.0969    15.3471    14.8772
  318.5000    86.6467    15.4094    14.9609
  319.0000    86.4089    15.5472    15.0451
  319.5000    84.8456    15.6799    15.1250
  320.0000    83.1244    15.8138    15.1767
  320.5000    84.7295    15.9488    15.2558
  321.0000    87.8196    16.0849    15.3023
  321.5000    89.1407    16.2222    15.4377
  322.0000    86.2533    16.2949    15.5746
  322.5000    83.5819    16.1438    15.6976
  323.0000    82.2081    15.9873    15.4308
  323.5000    81.1874    15.8133    15.1864
  324.0000    81.6205    15.6430    14.9459
  324.5000    83.5881    15.3957    14.7092
  325.0000    85.5230    15.0892    14.4763
  325.5000    85.2314    14.7847    14.2470
  326.0000    84.8159    14.4872    14.0214
  326.5000    85.4387    14.1705    13.7800
  327.0000    86.1313    14.0501    13.6494
  327.5000    86.7918    13.9057    13.4004
  328.0000    85.7837    14.1471    13.3553
  328.5000    84.8368    14.6149    13.2762
  329.0000    85.1522    15.1442    13.4834
  329.5000    85.4401    15.7159    13.7730
  330.0000    85.6536    16.8834    14.4449
  330.5000    83.2218    18.6752    15.7131
  331.0000    79.1676    20.7591    17.0926
  331.5000    75.4633    23.0485    18.9470
  332.0000    73.2406    25.7370    21.7488
  332.5000    71.0090    28.7391    24.9649
  333.0000    68.9653    32.0915    28.6566
  333.5000    66.9306    35.9611    32.2778
  334.0000    65.3641    39.1707    35.1874
  334.5000    66.2617    42.1298    38.3593
  335.0000    68.3626    42.2430    39.8217
  335.5000    70.1534    42.3623    40.7635
  336.0000    68.8135    42.5279    40.9690
  336.5000    67.4053    42.2815    40.6384
  337.0000    67.6533    41.6689    40.4016
  337.5000    68.5657    41.0645    40.2130
  338.0000    68.7101    40.5893    39.4323
  338.5000    68.1077    39.6883    38.6668
  339.0000    67.4967    38.8107    37.9161
  339.5000    66.8828    37.9526    37.1800
  340.0000    66.2721    37.1134    36.4582
  340.5000    65.6552    36.2929    35.7504
  341.0000    65.6109    35.4904    34.8514
  341.5000    66.5019    34.7057    33.9327
  342.0000    67.8092    33.9383    33.0382
  342.5000    69.6716    33.1879    32.1673
  343.0000    71.5893    32.4754    31.3193
  343.5000    73.5308    31.7822    30.6956
  344.0000    74.2502    31.2727    30.4150
  344.5000    74.6945    31.1022    30.1493
  345.0000    74.8924    30.9054    29.8864
  345.5000    75.1130    30.7092    29.6256
  346.0000    73.5511    30.5140    29.3670
  346.5000    71.6928    30.3201    29.1107
  347.0000    70.6235    30.1274    28.8567
  347.5000    71.7512    29.9360    28.6048
  348.0000    73.3890    29.7457    28.3552
  348.5000    75.0467    29.5732    28.2277
  349.0000    75.9050    29.5770    28.2793
  349.5000    75.4164    29.5567    28.3141
  350.0000    74.3994    29.5967    28.3489
  350.5000    73.3866    29.2903    28.3838
  351.0000    72.3709    29.2972    28.4182
  351.5000    71.3423    29.2992    28.4520
  352.0000    71.0556    29.2987    28.4881
  352.5000    71.0502    29.0024    28.0297
  353.0000    71.7265    28.4317    27.5294
  353.5000    73.0779    27.8989    27.0381
  354.0000    74.4258    27.3762    26.5556
  354.5000    75.5062    26.8632    26.0816
  355.0000    75.5407    26.3599    25.6162
  355.5000    74.8117    25.8660    25.1590
  356.0000    74.5713    25.3813    24.7100
  356.5000    75.6057    24.9058    24.2689
  357.0000    76.7346    24.5108    23.8359
  357.5000    78.2046    24.1437    23.4105
  358.0000    81.3188    23.7843    22.9888
  358.5000    84.6834    23.4305    22.5712
  359.0000    85.6093    23.0818    22.1613
  359.5000    84.0940    22.7852    21.7588
  360.0000    82.3851    22.5372    21.3636
  360.5000    81.2151    22.2759    20.9533
  361.0000    81.4663    22.0176    20.7914
  361.5000    80.3888    21.7622    20.6209
  362.0000    78.0043    21.5099    20.4518
  362.5000    75.6157    21.2605    20.3760
  363.0000    73.2899    21.0136    20.3760
  363.5000    73.0689    20.7601    20.2015
  364.0000    73.7109    20.4530    19.8898
  364.5000    74.9738    20.1378    19.5828
  365.0000    74.9233    19.8269    19.2806
  365.5000    74.4965    19.5210    18.9831
  366.0000    74.5282    19.2294    18.6902
  366.5000    76.0015    18.9452    18.4017
  367.0000    77.8517    18.6652    18.1178
  367.5000    79.1594    18.3893    17.8382
  368.0000    77.1080    18.1175    17.5629
  368.5000    75.5029    17.8497    17.2919
  369.0000    76.5412    17.5859    17.0250
  369.5000    78.5339    17.3260    16.7623
  370.0000    80.5666    17.0699    16.5036
  370.5000    81.5817    16.8656    16.2489
  371.0000    81.4905    16.6048    16.0798
  371.5000    81.3664    16.3490    15.9140
  372.0000    81.2396    16.0967    15.7498
  372.5000    80.6015    15.8484    15.5874
  373.0000    78.9840    15.6694    15.4265
  373.5000    77.5218    15.5940    15.2673
  374.0000    78.4769    15.5189    15.1100
  374.5000    79.7862    15.4442    14.9848
  375.0000    80.1997    15.3698    14.9848
  375.5000    79.5769    15.2665    14.9847
