~VERSION INFORMATION
 VERS.                2.0:   CWLS LOG ASCII STANDARD - VERSION 2.0
 WRAP.                 NO:   ONE LINE PER DEPTH STEP
~WELL INFORMATION
#MNEM.UNIT      DATA TYPE    INFORMATION
#----------   ------------   ------------------------------
 STRT.F            2.0000:   START DEPTH
 STOP.F          482.5000:   STOP DEPTH
 STEP.F            0.5000:   STEP LENGTH
 NULL.          -999.2500:   NO VALUE
 COMP. LAWRENCE/ALLISON INC:   COMPANY
 WELL. NPR 3 #52-45-SX-10:   WELL
 FLD .             TEAPOT:   FIELD
 LOC .      S10 T38N R78W:   LOCATION
 CNTY.            NATRONA:   COUNTY
 STAT.            WYOMING:   STATE
 CTRY. UNITED STATES OF AMERICA:   COUNTRY
 SRVC.           Gearhart:   SERVICE COMPANY
 DATE.        30-MAY-1988:   LOGDATE
 API .       490251122800:   API NUMBER
~CURVE INFORMATION
#MNEM.UNIT       API CODE    CURVE DESCRIPTION
#----------   ------------   ------------------------------
 DEPT.F                  :   
 GRR .GAPI   07 310 01 00:   GAMMA RAY FROM RES. LOG.
 RILD.OHMM   07 120 46 00:   INDUCTION LOG DEEP RESISTIVITY
 RILM.OHMM   07 120 44 00:   INDUCTION LOG MEDIUM RESISTIVITY
~PARAMETER INFORMATION
#MNEM.UNIT          VALUE    DESCRIPTION
#----------   ------------   ------------------------------
 PD  .                 GL:   PERMANENT DATUM
 EPD .F              5176:   ELEVATION PERMANENT DATUM
 LMF .                 KB:   LOG MEASURED FROM
 DAPD.F                10:   FEET ABOVE PERMANENT DATUM
 DMF .                 KB:   DRILLING MEASURED FROM
 EKB .F              5186:   KELLING BUSHING
 EGL .F              5176:   GROUND LEVEL
 DATE.            5-30-88:   RUN DATE
 RUN .                  1:   RUN NUMBER
 DD  .F               490:   DEPTH DRILLER
 DL  .F               491:   DEPTH LOGGER
 BLI .F               483:   BOTTOM LOG INTERVAL
 TLI .F                49:   TOP LOG INTERVAL
 CS  .IN            8.625:   CASING SIZE
 CBD .F                49:   CASING BOTTOM DRILLER
 CBL .F                49:   CASING BOTTOM LOGGER
 BS  .IN            7.875:   BIT SIZE
 BSD .F               490:   BIT SIZE AT DEPTH
 DFT .                AIR:   DRILLING FLUID TYPE
 TCS .HRS            0148:   TIME CURCULATED STOPPED
 MRT .F                70:   MAXIMUM RECORDED TEMPERATURE
 LUN .               7597:   LOGGING UNIT NUMBER
 LUL .           GILLETTE:   LOGGING UNIT LOCATION
 ENGI.          HUCKFELDT:   RECORDING ENGINEER
 WITN.             STRONG:   WITNESSED BY
 CLNT.            A2DTECH:   CLIENT CODE
 ORIG. 1", 2.5", 5" PRINT:   ORIGIN OF DATA
 UWI .       490251122800:   UNIQUE WELL ID
 DICO. A2D Technologies, Inc.:   DIGITIZING COMPANY
~OTHER INFORMATION
~A    DEPT      GRR      RILD       RILM   
# ...
  275.0000    78.4792    32.9287    32.5231
  275.5000    76.3400    32.3830    32.1102
  276.0000    75.1454    31.8440    31.3673
  276.5000    75.7134    31.0698    30.3955
  277.0000    76.5645    30.1649    29.4539
  277.5000    77.4556    29.2865    28.5414
  278.0000    79.2454    28.4336    27.6572
  278.5000    81.1336    27.6056    26.8004
  279.0000    83.1070    26.8016    25.9701
  279.5000    84.8697    26.0211    25.1656
  280.0000    86.4250    25.2633    24.3859
  280.5000    86.8149    24.5276    23.6304
  281.0000    87.2352    24.4090    23.0468
  281.5000    87.6581    24.4315    22.8760
  282.0000    88.0696    24.5046    22.8760
  282.5000    87.9475    24.5779    22.8760
  283.0000    86.9538    24.6515    22.9624
  283.5000    85.9684    24.7253    23.1565
  284.0000    86.6124    24.7992    23.3534
  284.5000    87.4060    24.8734    23.5515
  285.0000    87.2682    24.9479    23.7513
  285.5000    86.4411    25.0225    23.9527
  286.0000    84.9935    25.0974    24.1558
  286.5000    84.7019    25.1725    24.3606
  287.0000    85.2599    25.2478    24.5672
  287.5000    86.1252    25.3325    24.8655
  288.0000    86.7228    25.3288    24.5848
  288.5000    86.2713    25.0841    24.3687
  289.0000    85.0600    24.8701    24.1545
  289.5000    83.8027    24.6579    23.9422
  290.0000    84.5880    24.4403    23.7318
  290.5000    86.7031    24.2237    23.5232
  291.0000    87.6103    24.0090    23.3165
  291.5000    87.7873    23.7962    23.1115
  292.0000    88.0275    23.5854    22.9084
  292.5000    88.7885    23.3763    22.7071
  293.0000    89.5583    23.1692    22.5075
  293.5000    90.3352    22.9639    22.3097
  294.0000    91.1027    22.7603    22.1136
  294.5000    90.3439    22.5586    21.9190
  295.0000    89.4410    22.3587    21.7262
  295.5000    89.6855    22.0436    21.5313
  296.0000    90.5164    21.8261    21.4393
  296.5000    91.3554    21.8309    22.0698
  297.0000    90.2453    21.8380    22.5026
  297.5000    87.8107    21.8485    22.7230
  298.0000    85.2844    21.8308    22.8558
  298.5000    85.0407    22.0507    22.9894
  299.0000    87.4237    22.1039    23.1237
  299.5000    89.8229    22.1670    23.2589
  300.0000    91.8967    22.2303    23.3039
  300.5000    90.9690    22.3928    23.5208
  301.0000    89.7838    22.5981    23.7343
  301.5000    88.0871    22.8052    23.9694
  302.0000    86.1200    23.0142    24.2061
  302.5000    82.8551    23.2251    24.4449
  303.0000    80.8399    23.3039    24.6860
  303.5000    79.9897    22.9963    24.8655
  304.0000    80.3743    22.8874    23.7037
  304.5000    82.3522    22.3163    22.4367
  305.0000    84.2678    21.6400    21.2374
  305.5000    85.8594    20.9842    20.1845
  306.0000    86.8036    20.3483    19.5988
  306.5000    87.7275    19.7316    19.0301
  307.0000    89.1641    19.1337    18.4779
  307.5000    88.7640    18.5539    17.9417
  308.0000    87.9407    18.1313    17.4211
  308.5000    87.1149    18.0793    17.1645
  309.0000    87.8103    18.0274    17.1645
  309.5000    89.8596    17.9756    17.1645
  310.0000    91.2623    17.9241    17.1645
  310.5000    89.1314    17.8724    17.1646
  311.0000    87.0562    17.8222    17.1650
  311.5000    85.7831    17.6918    17.1645
  312.0000    85.6971    17.5477    17.0003
  312.5000    85.9652    17.4048    16.8104
  313.0000    86.2408    17.2630    16.6225
  313.5000    86.9219    17.1223    16.4368
  314.0000    87.7681    17.0062    16.2532
  314.5000    87.9277    16.7863    16.0716
  315.0000    87.7067    16.5632    15.8920
  315.5000    86.4666    16.3430    15.7144
  316.0000    87.9603    16.1258    15.5388
  316.5000    90.5977    15.9115    15.3652
  317.0000    93.3073    15.7000    15.1935
  317.5000    93.4997    15.4913    15.0238
  318.0000    91.8894    15.3582    14.8559
  318.5000    92.1525    15.3582    14.6899
  319.0000    93.7790    15.5012    14.5277
  319.5000    95.4280    15.5945    14.5277
  320.0000    95.9150    15.6873    14.7450
  320.5000    94.1705    15.7806    14.8994
  321.0000    92.5034    15.8744    15.0554
  321.5000    90.8381    15.9688    15.2130
  322.0000    89.1946    16.0638    15.3723
  322.5000    89.3076    16.1594    15.5331
  323.0000    90.4715    16.2555    15.6957
  323.5000    91.1947    16.3522    15.7912
  324.0000    91.2915    16.3874    15.7275
  324.5000    91.3968    16.1108    15.4713
  325.0000    91.5117    15.8520    15.2193
  325.5000    92.2887    15.5972    14.9714
  326.0000    92.1000    15.3466    14.7276
  326.5000    91.0246    15.1000    14.4877
  327.0000    89.6822    14.8574    14.2517
  327.5000    88.4957    14.6189    14.0196
  328.0000    89.8416    14.3879    13.7912
  328.5000    92.1920    14.2610    13.5666
  329.0000    94.4313    14.3937    13.3653
  329.5000    95.5929    14.6579    13.1199
  330.0000    95.9267    14.7994    13.2020
  330.5000    96.3221    15.2096    13.3163
  331.0000    95.5932    16.0026    13.5265
  331.5000    93.9495    16.8398    13.9551
  332.0000    91.2007    18.0352    14.3988
  332.5000    87.1972    19.5453    15.8749
  333.0000    81.9364    21.1757    17.4597
  333.5000    76.2483    22.9422    19.4533
  334.0000    73.8496    24.8561    21.9680
  334.5000    72.1523    26.9296    24.8192
  335.0000    72.1296    29.1771    27.5127
  335.5000    73.0366    31.6092    29.6376
  336.0000    74.2071    34.2668    31.9060
  336.5000    75.8286    35.3458    34.7280
  337.0000    75.8644    35.8895    34.4075
  337.5000    75.8556    36.1949    34.7556
  338.0000    75.8485    36.5028    35.0081
  338.5000    75.8733    36.8134    35.2619
  339.0000    76.9998    37.1266    35.5174
  339.5000    78.2155    37.3818    35.7747
  340.0000    79.4398    37.4702    36.0340
  340.5000    79.8789    37.5592    36.2950
  341.0000    79.9293    37.6484    36.5580
  341.5000    78.3038    37.7298    36.6954
  342.0000    76.4846    40.6328    36.3569
  342.5000    74.6552    39.1509    35.9893
  343.0000    73.4789    36.5827    35.3023
  343.5000    73.1561    35.8499    34.6284
  344.0000    73.7648    35.1414    33.9674
  344.5000    75.5145    34.4445    33.3190
  345.0000    77.2277    33.7614    32.6830
  345.5000    77.8640    33.0919    32.0257
  346.0000    78.3202    32.4357    31.2671
  346.5000    78.7746    31.7932    30.5361
  347.0000    79.2345    31.1619    29.8202
  347.5000    79.6838    30.6339    29.1212
  348.0000    81.2173    29.8613    28.4385
  348.5000    83.4388    29.1081    27.7719
  349.0000    84.4764    28.3739    27.1209
  349.5000    83.9207    27.6583    26.4851
  350.0000    83.3808    27.0264    25.5664
  350.5000    82.8091    27.0261    25.6696
  351.0000    83.6305    27.1081    25.8701
  351.5000    85.0885    27.2173    26.0723
  352.0000    86.4285    27.3264    26.2760
  352.5000    87.0933    27.4360    26.4813
  353.0000    85.0320    27.5460    26.6882
  353.5000    82.6276    27.6564    26.8968
  354.0000    80.5359    27.7679    27.0280
  354.5000    80.4044    27.7915    26.7871
  355.0000    80.9821    27.6174    26.5852
  355.5000    81.5003    27.4111    26.3842
  356.0000    81.6408    27.2063    26.1850
  356.5000    81.8279    27.0030    25.9873
  357.0000    82.9566    26.8013    25.7911
  357.5000    84.2872    26.6010    25.5964
  358.0000    84.0584    26.1294    25.2962
  358.5000    82.7441    25.7896    24.9827
  359.0000    81.4171    25.4542    24.6717
  359.5000    80.0591    25.1232    24.3645
  360.0000    79.6330    24.7571    23.9497
  360.5000    83.3460    24.2531    23.3818
  361.0000    87.0885    23.6516    22.8760
  361.5000    88.6085    23.0482    22.2297
  362.0000    88.4682    22.4601    21.6522
  362.5000    88.3302    21.8871    21.0898
  363.0000    88.3315    21.3287    20.5419
  363.5000    88.3343    20.7845    20.0082
  364.0000    88.3180    20.2505    19.5150
  364.5000    87.4280    19.8293    19.3141
  365.0000    85.0424    19.5834    19.0874
  365.5000    82.6787    19.3456    18.8270
