~VERSION INFORMATION
 VERS.                2.0:   CWLS LOG ASCII STANDARD - VERSION 2.0
 WRAP.                 NO:   ONE LINE PER DEPTH STEP
~WELL INFORMATION
#MNEM.UNIT      DATA TYPE    INFORMATION
#----------   ------------   ------------------------------
 STRT.F           34.0000:   START DEPTH
 STOP.F          614.0000:   STOP DEPTH
 STEP.F            0.5000:   STEP LENGTH
 NULL.          -999.2500:   NO VALUE
 COMP. FENIX & SCISSON INC:   COMPANY
 WELL.      71-SX-3 #71-3:   WELL
 FLD .             TEAPOT:   FIELD
 LOC .       S3 T38N R78W:   LOCATION
 CNTY.            NATRONA:   COUNTY
 STAT.            WYOMING:   STATE
 CTRY. UNITED STATES OF AMERICA:   COUNTRY
 SRVC.              Welex:   SERVICE COMPANY
 DATE.        10-MAR-1977:   LOGDATE
 API .       490251028900:   API NUMBER
~CURVE INFORMATION
#MNEM.UNIT       API CODE    CURVE DESCRIPTION
#----------   ------------   ------------------------------
 DEPT.F                  :   
 CALD.IN     45 280 60 00:   CALIPER
 GRD .GAPI   45 310 01 00:   GAMMA RAY FROM DENSITY LOG
 RHOB.G/C3   45 350 01 00:   BULK DENSITY
 DPHI.DEC    45 890 12 00:   DENSITY POROSITY SANDSTONE
 CORR.G/C3   45 356 01 00:   DENSITY CORRECTION
 SGRD.OHMM   07 220 05 00:   SHALLOW RESISTIVITY
 ILD .OHMM   07 120 46 00:   INDUCTION LOG DEEP
 ILM .OHMM   07 120 44 00:   INDUCTION LOG MEDIUM
 SPR .MV     07 010 01 00:   SPONTANEOUS POTENTIAL
~PARAMETER INFORMATION
#MNEM.UNIT          VALUE    DESCRIPTION
#----------   ------------   ------------------------------
 PD  .                 GL:   PERMANENT DATUM
 EPD .F              5117:   ELEVATION PERMANENT DATUM
 LMF .                 GL:   LOG MEASURED FROM
 DMF .                 GL:   DRILLING MEASURED FROM
 EGL .F              5117:   GROUND LEVEL
 DATE.          3-10-1977:   RUN DATE
 RUN .                  1:   RUN NUMBER
 DD  .F               630:   DEPTH DRILLER
 DL  .F               619:   DEPTH LOGGER
 BLI .F               617:   BOTTOM LOG INTERVAL
 TLI .F                34:   TOP LOG INTERVAL
 CS  .IN            8.625:   CASING SIZE
 CBD .F                40:   CASING BOTTOM DRILLER
 CBL .F                41:   CASING BOTTOM LOGGER
 BS  .IN            7.875:   BIT SIZE
 BSD .F               630:   BIT SIZE AT DEPTH
 DFT .            KCL MUD:   DRILLING FLUID TYPE
 DFD .                  9:   DRILLING FLUID DENSITY
 DFV .                 33:   DRILLING FLUID VISCOSITY
 MSS .            MUD PIT:   MUD SAMPLE SOURCE
 RMS .OHMM           2.33:   RESISTIVITY MUD SAMPLE
 MST .F                57:   MUD SAMPLE TEMPERATURE
 RMF .OHMM           1.83:   RESISTIVITY MUD FILTRATE SAMPLE
 MFST.F                57:   MUD FILTRATE SAMPLE TEMPERATURE
 RMC .OHMM           2.53:   RESISTIVITY MUD CAKE
 MCST.F                57:   MUD CAKE SAMPLE TEMPERATURE
 MFSS.           FANN KIT:   MUD FILTRATE SAMPLE SOURCE
 MCSS.           FANN KIT:   MUD CAKE SAMPLE SOURCE
 RMB .OHMM            2.1:   RESISTIVITY MUD AT BHT
 BHT .F                63:   BOTTOM HOLE TEMPERATURE
 TCS .HRS             1.5:   TIME CURCULATED STOPPED
 MRT .F                63:   MAXIMUM RECORDED TEMPERATURE
 LUN .               8611:   LOGGING UNIT NUMBER
 LUL .           GILLETTE:   LOGGING UNIT LOCATION
 ENGI.               DOAK:   RECORDING ENGINEER
 WITN.              BURKE:   WITNESSED BY
 CLNT.            A2DTECH:   CLIENT CODE
 ORIG.       2", 5" PRINT:   ORIGIN OF DATA
 UWI .       490251028900:   UNIQUE WELL ID
 DICO. A2D Technologies, Inc.:   DIGITIZING COMPANY
~OTHER INFORMATION
~A   DEPT     CALD        GRD       RHOB       DPHI       CORR       SGRD        ILD        ILM        SPR   
# ...
  326.0000     7.8977    86.4836     2.3799     0.1602     0.0442     8.3233     5.9545     6.6071   -43.7540
  326.5000     7.9073    84.0968     2.3703     0.1665     0.0460     8.0011     5.6493     6.3829   -43.7522
  327.0000     7.9170    81.7042     2.3604     0.1737     0.0493     7.6553     5.3596     6.1650   -43.7236
  327.5000     7.9265    79.3133     2.3440     0.1823     0.0527     7.2079     4.9848     5.9557   -43.6155
  328.0000     7.9328    76.9494     2.3273     0.1954     0.0560     6.7866     4.4907     5.4913   -43.5118
  328.5000     7.9266    76.2262     2.3025     0.2086     0.0565     6.3900     4.0456     5.0081   -43.4078
  329.0000     7.9206    79.3576     2.2794     0.2207     0.0533     6.0166     3.6590     4.5674   -43.4345
  329.5000     7.9147    82.4040     2.2599     0.2313     0.0501     5.6007     3.3277     4.1656   -43.5752
  330.0000     7.9088    84.7090     2.2381     0.2418     0.0469     4.9397     3.0265     3.8262   -43.7161
  330.5000     7.9028    82.6573     2.2456     0.2478     0.0439     4.3687     2.7525     3.3970   -43.8578
  331.0000     7.8965    85.0706     2.2668     0.2296     0.0467     3.8694     2.5033     3.0160   -43.9650
  331.5000     7.8721    91.2380     2.3008     0.2080     0.0499     3.4361     2.2767     2.6777   -44.0064
  332.0000     7.8261    99.5585     2.3347     0.1861     0.0531     3.0513     2.0371     2.2747   -44.0478
  332.5000     7.7802   107.7100     2.3686     0.1643     0.0562     2.7829     2.0818     2.2957   -44.0887
  333.0000     7.7343   109.4770     2.4028     0.1478     0.0570     2.7572     2.1550     2.3895   -44.1300
  333.5000     7.6968   107.2419     2.4194     0.1405     0.0552     3.0573     2.2307     2.5670   -44.1040
  334.0000     7.7418   104.6354     2.4344     0.1377     0.0534     3.4437     2.3598     2.7075   -44.0285
  334.5000     7.7866   102.0462     2.4508     0.1222     0.0519     4.3667     2.5677     3.0378   -43.9525
  335.0000     7.8311   100.2485     2.4673     0.1159     0.0554     5.2504     2.7845     3.4085   -43.8762
  335.5000     7.8754   102.4190     2.4827     0.1122     0.0593     4.5323     3.1296     3.8244   -43.8002
  336.0000     7.9142   104.5424     2.4792     0.1129     0.0617     5.8144     3.5018     4.2911   -43.7525
  336.5000     7.9073   103.0997     2.4727     0.1145     0.0596     7.2535     3.9182     4.8147   -43.7532
  337.0000     7.9012   101.2374     2.4660     0.1165     0.0576     7.2647     4.3842     5.3106   -43.7530
  337.5000     7.8953    99.1905     2.4658     0.1185     0.0559     7.2870     4.8781     5.5609   -43.7521
  338.0000     7.8893    96.3379     2.4680     0.1181     0.0610     7.3092     5.1733     5.8229   -43.7816
  338.5000     7.8834    93.9165     2.4665     0.1166     0.0664     7.3305     5.4973     5.8956   -43.8167
  339.0000     7.8775    94.5188     2.4599     0.1195     0.0718     7.3523     5.5777     5.9345   -43.8522
  339.5000     7.8715    96.4802     2.4467     0.1249     0.0773     7.3742     5.6232     5.9737   -43.8876
  340.0000     7.8656    98.4250     2.4337     0.1332     0.0828     7.2226     5.6691     6.0132   -43.9233
  340.5000     7.8598   100.3572     2.4207     0.1405     0.0831     7.2236     5.7022     6.0529   -43.9666
  341.0000     7.8548   102.2893     2.4104     0.1425     0.0791     7.2022     5.6651     6.0928   -44.0368
  341.5000     7.8168   104.2242     2.4050     0.1480     0.0756     7.1869     5.5477     6.1328   -44.1060
  342.0000     7.7704   106.1699     2.3926     0.1544     0.0706     7.1771     5.3458     6.1951   -43.9860
  342.5000     7.7237   108.0519     2.3807     0.1609     0.0652     7.3176     5.1510     6.0890   -43.6058
  343.0000     7.6772   106.6212     2.3809     0.1610     0.0599     7.4308     4.9647     5.8687   -43.7356
  343.5000     7.6305   104.8242     2.3881     0.1593     0.0579     7.5835     4.7851     5.5848   -43.9476
  344.0000     7.6287   102.9877     2.3954     0.1577     0.0579     7.0068     4.6120     5.2399   -44.1380
  344.5000     7.6648   103.1280     2.4027     0.1450     0.0580     5.9322     4.4451     4.9160   -43.9555
  345.0000     7.7009   104.2594     2.4096     0.1433     0.0544     4.9687     4.2963     4.8428   -43.7664
  345.5000     7.7372   107.4403     2.4075     0.1451     0.0502     5.3508     4.1823     4.7916   -43.5807
  346.0000     7.7734   110.6442     2.4104     0.1452     0.0459     5.9661     4.0590     4.7455   -43.5553
  346.5000     7.8096   113.8521     2.4160     0.1415     0.0417     6.3683     4.1019     4.7642   -43.5551
  347.0000     7.8457   115.9822     2.4216     0.1379     0.0375     5.1547     4.1653     4.7893   -43.5555
  347.5000     7.8823   112.8632     2.4271     0.1342     0.0332     5.7053     4.2605     4.9395   -43.5556
  348.0000     7.8928   109.0953     2.4348     0.1306     0.0346     6.6112     4.4354     5.0977   -43.5556
  348.5000     7.8891   109.7456     2.4483     0.1252     0.0385     6.9176     4.6186     5.2608   -43.5562
  349.0000     7.8853   110.9954     2.4615     0.1174     0.0425     6.2153     4.8091     5.4292   -43.5270
  349.5000     7.8815   112.0399     2.4747     0.1095     0.0464     5.9168     5.0073     5.6862   -43.4861
  350.0000     7.8777   110.6037     2.4769     0.1010     0.0503     6.9472     5.2136     5.9654   -43.4448
  350.5000     7.8740   107.4714     2.4741     0.1010     0.0539     8.2376     5.4284     6.2584   -43.4034
  351.0000     7.8702   104.4380     2.4679     0.1088     0.0524     8.2931     5.6521     6.5657   -43.3628
  351.5000     7.8664   104.2741     2.4615     0.1133     0.0504     8.3440     5.8627     6.7915   -43.3815
  352.0000     7.8627   107.2075     2.4549     0.1162     0.0483     8.3952     6.0251     6.8994   -43.4082
  352.5000     7.8589   110.0432     2.4512     0.1171     0.0462     8.4467     6.2523     6.9972   -43.4349
  353.0000     7.8552   112.8244     2.4498     0.1174     0.0441     8.4985     6.2407     7.1127   -43.4615
  353.5000     7.8514   114.0777     2.4492     0.1178     0.0421     8.5461     6.2239     7.0311   -43.4880
  354.0000     7.8477   114.8903     2.4480     0.1214     0.0400     8.4054     6.2074     6.9555   -43.5147
  354.5000     7.8439   115.2774     2.4361     0.1278     0.0379     8.2778     6.0835     6.8542   -43.5414
  355.0000     7.8403   114.4918     2.4243     0.1338     0.0358     8.1522     6.1371     6.7140   -43.5861
  355.5000     7.8360   112.1150     2.4153     0.1398     0.0339     8.0285     6.0098     6.5869   -43.6511
  356.0000     7.8172   109.7302     2.4090     0.1447     0.0359     7.9067     5.7531     6.4437   -43.7155
  356.5000     7.7823   107.2901     2.4067     0.1461     0.0382     7.7956     5.5064     6.2913   -43.6548
  357.0000     7.7533   108.0634     2.4044     0.1473     0.0399     7.6665     5.2703     6.1425   -43.4330
  357.5000     7.7243   110.1694     2.4006     0.1497     0.0389     7.5214     5.0443     5.9973   -43.3826
  358.0000     7.6953   109.3681     2.3916     0.1538     0.0378     7.3971     4.8280     5.8555   -43.4177
  358.5000     7.6659   106.9892     2.3953     0.1568     0.0368     7.2122     4.6209     5.6321   -43.4542
  359.0000     7.6352   104.6282     2.4093     0.1455     0.0360     7.0430     4.4228     5.2710   -43.4911
  359.5000     7.6991   102.2061     2.4232     0.1366     0.0383     6.4408     4.2331     4.9331   -43.5268
  360.0000     7.7755   102.8296     2.4372     0.1276     0.0405     5.2724     4.1343     4.6164   -43.5341
  360.5000     7.8520   104.8292     2.4482     0.1232     0.0427     4.2889     4.2249     4.7666   -43.4223
  361.0000     7.8903   106.8678     2.4499     0.1222     0.0434     5.4783     4.2982     5.0038   -43.3127
  361.5000     7.8816   108.9086     2.4516     0.1209     0.0424     7.1766     4.3687     5.2526   -43.2037
  362.0000     7.8734   110.9485     2.4494     0.1221     0.0413     7.5835     4.6059     5.5142   -43.0939
