~VERSION INFORMATION
 VERS.                2.0:   CWLS LOG ASCII STANDARD - VERSION 2.0
 WRAP.                 NO:   ONE LINE PER DEPTH STEP
~WELL INFORMATION
#MNEM.UNIT      DATA TYPE    INFORMATION
#----------   ------------   ------------------------------
 STRT.F           84.0000:   START DEPTH
 STOP.F          860.0000:   STOP DEPTH
 STEP.F            0.5000:   STEP LENGTH
 NULL.          -999.2500:   NO VALUE
 COMP.               NAVY:   COMPANY
 WELL. 52-S-11  NPR #3 #52S-11:   WELL
 FLD .        TEAPOT DOME:   FIELD
 LOC .      S11 T38N R78W:   LOCATION
 CNTY.            NATRONA:   COUNTY
 STAT.            WYOMING:   STATE
 CTRY. UNITED STATES OF AMERICA:   COUNTRY
 SRVC.       Schlumberger:   SERVICE COMPANY
 DATE.        01-JUL-1962:   LOGDATE
 API .       490250637300:   API NUMBER
~CURVE INFORMATION
#MNEM.UNIT       API CODE    CURVE DESCRIPTION
#----------   ------------   ------------------------------
 DEPT.F                  :   
 ASN .OHMM   05 041 16 00:   AMPLIFIED SHORT NORMAL 16"
 CILD.MMHO   05 110 46 00:   CONDUCTIVITY INDUCTION LOG DEEP
 ILD .OHMM   05 120 46 00:   INDUCTION LOG DEEP
 SPR .MV     05 010 01 00:   SPONTANEOUS POTENTIAL FROM RES.
 GR  .GAPI   30 310 01 00:   GAMMA RAY
~PARAMETER INFORMATION
#MNEM.UNIT          VALUE    DESCRIPTION
#----------   ------------   ------------------------------
 LMF .                 KB:   LOG MEASURED FROM
 DMF .                 KB:   DRILLING MEASURED FROM
 EKB .F              5191:   KELLING BUSHING
 EGL .F              5186:   GROUND LEVEL
 DATE.           7-1-1962:   RUN DATE
 RUN .                  1:   RUN NUMBER
 DD  .F               860:   DEPTH DRILLER
 DL  .F               861:   DEPTH LOGGER
 BLI .F               860:   BOTTOM LOG INTERVAL
 TLI .F                91:   TOP LOG INTERVAL
 CBD .F                10:   CASING BOTTOM DRILLER
 BS  .IN             6.75:   BIT SIZE
 BSD .F               860:   BIT SIZE AT DEPTH
 DFT .            GEL-OIL:   DRILLING FLUID TYPE
 DFD .               10.2:   DRILLING FLUID DENSITY
 DFV .                 45:   DRILLING FLUID VISCOSITY
 DFL .                  4:   DRILLING FLUID LOSS
 MSS .           FLOWLINE:   MUD SAMPLE SOURCE
 RMS .OHMM           5.54:   RESISTIVITY MUD SAMPLE
 MST .F                75:   MUD SAMPLE TEMPERATURE
 RMB .OHMM           5.19:   RESISTIVITY MUD AT BHT
 BHT .F                80:   BOTTOM HOLE TEMPERATURE
 TCS .HRS               1:   TIME CURCULATED STOPPED
 MRT .F                80:   MAXIMUM RECORDED TEMPERATURE
 LUN .               2503:   LOGGING UNIT NUMBER
 LUL .              CSPR.:   LOGGING UNIT LOCATION
 ENGI.             KNOBEL:   RECORDING ENGINEER
 WITN.          JORGENSEN:   WITNESSED BY
 CLNT.            A2DTECH:   CLIENT CODE
 ORIG.      2" & 5" PRINT:   ORIGIN OF DATA
 UWI .       490250637300:   UNIQUE WELL ID
 DICO. A2D Technologies, Inc.:   DIGITIZING COMPANY
~OTHER INFORMATION
~A   DEPT      ASN       CILD        ILD        SPR         GR   
# ...
  755.0000    14.0919    69.7915    12.9358   -38.2932    45.5857
  755.5000    14.0867    69.8213    12.7803   -38.6011    39.2003
  756.0000    13.9302    69.8510    12.6248   -38.7566    46.9303
  756.5000    13.8494    70.6361    12.4693   -38.4547    46.9212
  757.0000    13.6929    71.4211    12.3138   -37.6955    44.4843
  757.5000    13.4606    72.2062    12.2342   -37.0887    43.7165
  758.0000    13.3040    72.9912    12.1545   -37.2442    32.7841
  758.5000    13.2221    73.7764    11.9990   -37.5521    36.8699
  759.0000    13.1425    73.8067    11.9953   -37.8599    34.2812
  759.5000    13.2130    73.8369    11.9157   -37.8629    32.4512
  760.0000    13.2299    73.8730    11.8361   -38.0184    34.5666
  760.5000    13.2782    73.9028    11.8323   -37.8689    42.6001
  761.0000    13.3487    73.9326    11.8286   -37.5671    43.8050
  761.5000    13.3422    73.9623    11.8247   -37.2652    48.9553
  762.0000    13.3370    73.9921    11.8210   -37.2845    51.2247
  762.5000    13.3317    73.2591    11.8298   -38.0335    51.5169
  763.0000    13.3265    73.2963    11.8894   -38.7994    45.8800
  763.5000    13.3213    72.5634    11.9606   -39.1072    37.9943
  764.0000    13.3161    72.6006    11.9569   -38.6529    39.7591
  764.5000    13.3866    72.6303    12.0299   -37.8937    42.5285
  765.0000    13.3813    71.8974    12.1770   -37.2870    37.3579
  765.5000    13.4518    71.1783    12.3259   -36.5278    28.2442
  766.0000    13.5222    69.6979    12.5498   -35.7686    28.8444
  766.5000    13.7427    68.2175    12.9245   -35.0094    28.8331
  767.0000    14.1157    66.7369    13.2242   -33.7929    28.9758
  767.5000    14.8669    65.2561    13.4481   -32.7288    36.5555
  768.0000    15.6181    64.4109    13.5211   -31.2074    36.2430
  768.5000    15.7655    63.0572    13.5932   -29.8385    36.7057
  769.0000    15.6077    63.0869    13.4368   -29.0793    45.1764
  769.5000    15.0730    63.8720    13.1296   -29.3895    43.0429
  770.0000    14.3114    65.4123    12.7465   -31.0873    37.4215
  770.5000    13.6254    68.4632    12.5151   -33.5479    41.0544
  771.0000    12.9394    72.2694    12.0561   -35.5790    36.7942
  771.5000    12.4032    76.0756    11.5207   -37.0219    43.3102
  772.0000    11.9394    79.1265    11.1340   -37.3290    41.7837
  772.5000    11.7020    81.4222    10.8308   -34.5889    40.1078
  773.0000    11.4801    83.7178    10.6753   -33.8297    42.2232
  773.5000    11.3236    85.2581    10.5190   -33.8327    31.8938
  774.0000    11.2427    86.0432    10.5152   -33.6833    31.4133
  774.5000    11.1619    86.8282    10.5115   -33.6863    30.0875
  775.0000    11.1567    86.8580    10.5077   -33.5361    28.5285
  775.5000    11.1515    86.8882    10.5040   -33.6923    32.6143
  776.0000    11.2232    86.9184    10.4243   -34.0002    35.4907
  776.5000    11.2167    86.1920    10.4206   -34.3080    33.8102
  777.0000    11.2115    86.2292    10.4937   -34.4635    32.4354
  777.5000    11.2063    86.2590    10.4890   -34.6189    33.9461
  778.0000    11.2011    87.0440    10.4852   -34.6260    29.8377
  778.5000    11.1959    87.0738    10.4815   -35.0955    25.4303
  779.0000    11.1105    87.8589    10.4018   -35.7175    33.6132
  779.5000    10.9584    87.8886    10.3981   -36.1561    43.0124
  780.0000    10.8764    88.6737    10.3944   -35.8542    49.0731
  780.5000    10.7956    88.7034    10.3906   -34.6377    49.8228
  781.0000    10.7904    89.4885    10.3869   -32.8114    55.8836
  781.5000    10.7095    89.5183    10.3072   -30.8327    56.7873
  782.0000    10.7043    89.5480    10.3035   -29.7687    49.6462
  782.5000    10.6991    90.3331    10.2972   -29.6185    49.0280
  783.0000    10.6939    90.3628    10.2200   -30.2320    42.1927
  783.5000    10.6887    90.3927    10.2163   -31.3021    50.8331
  784.0000    10.7591    90.4230    10.2124   -31.7624    50.9735
  784.5000    10.7539    90.3477    10.2847   -31.1556    54.6086
  785.0000    10.7487    89.7266    10.2800   -29.7867    49.8933
  785.5000    10.8192    89.7638    10.2763   -29.3324    50.1877
  786.0000    10.8140    89.7936    10.2725   -29.0305    50.3308
  786.5000    10.8844    89.0606    10.2688   -28.8811    47.0261
  787.0000    10.9548    89.0978    10.3419   -29.5101    44.0893
  787.5000    10.9483    89.1276    10.3372   -30.9199    44.2320
  788.0000    10.9431    89.1574    10.3334   -32.2445    44.3770
  788.5000    10.9379    89.1871    10.3297   -33.1621    41.4825
  789.0000    10.8571    89.2169    10.2500   -33.3176    39.1980
  789.5000    10.7762    89.2467    10.2463   -33.4723    39.1890
  790.0000    10.6954    89.2764    10.2425   -33.3228    43.7346
  790.5000    10.6902    89.3062    10.1629   -33.3266    43.1163
  791.0000    10.6093    89.3359    10.1592   -33.4820    49.8037
  791.5000    10.5285    90.1210    10.1554   -34.0948    49.3530
  792.0000    10.5233    90.1511    10.0758   -34.7075    46.7314
  792.5000    10.4424    91.6918    10.1479   -34.7105    49.1485
  793.0000    10.5129    93.2326    10.0683   -34.2562    46.7115
  793.5000    10.5076    94.7792    10.1404   -33.3446    52.4710
  794.0000    10.5023    95.5643    10.1366   -32.4330    47.4522
  794.5000    10.4960    96.3493    10.0569   -31.5203    46.6844
  795.0000    10.4908    96.3791     9.9765   -30.2947    46.3719
  795.5000    10.4856    97.1641     9.8969   -29.5263    46.3628
  796.0000    10.4804    97.1939     9.8172   -29.3962    49.6922
  796.5000    10.4752    97.2237     9.7376   -30.7719    56.6634
  797.0000    10.4700    97.2534     9.7339   -30.9273    57.8706
  797.5000    10.4647    97.2832     9.6542   -29.5584    52.8517
  798.0000    10.5352    97.3130     9.6505   -28.9509    47.9868
  798.5000    10.6056    97.3427     9.6467   -28.8015    44.4749
  799.0000    10.6763    97.3725     9.7189   -29.5674    46.6038
  799.5000    10.8221    96.6466     9.7151   -30.6375    46.2913
  800.0000    10.9682    95.9214     9.7882   -31.5545    43.2473
  800.5000    11.1195    95.9456     9.7859   -31.5585    30.3403
  801.0000    11.2708    94.4517    10.0121   -32.4837    32.4572
  801.5000    11.6321    89.1925    10.3899   -32.6220    32.6033
  802.0000    12.0808    84.6831    10.8437   -32.1646    24.0962
  802.5000    12.7296    80.1613    11.4491   -32.6755    23.7852
  803.0000    13.6491    74.7787    12.0546   -34.7988    28.4818
  803.5000    14.6105    68.6526    12.7420   -36.3304    34.3923
  804.0000    15.3666    62.1191    13.5073   -37.5284    41.5187
  804.5000    15.8196    56.0991    14.2838   -38.7195    40.4490
  805.0000    16.5000    52.3449    15.4625   -40.3963    43.4764
  805.5000    18.3924    49.3460    16.4474   -41.9207    39.9482
  806.0000    20.2878    47.1024    17.0529   -40.5488    36.1253
  806.5000    20.2780    45.6086    17.5066   -39.6341    35.2565
  807.0000    20.6040    45.6364    17.8086   -40.8537    26.1443
  807.5000    21.2033    44.8978    17.8830   -41.6159    22.7984
  808.0000    21.4910    44.1648    17.8815   -41.0061    29.7711
  808.5000    21.7168    44.9479    17.7282   -39.6341    32.6468
  809.0000    21.8668    45.7255    17.4232   -38.2622    35.6742
  809.5000    20.3498    45.7477    17.1182   -37.3476    38.5517
  810.0000    19.2123    48.0865    16.8133   -36.2805    42.4896
  810.5000    20.2710    50.4279    16.3565   -35.5183    38.3831
  811.0000    19.5120    53.3730    16.0515   -36.5854    40.0447
  811.5000    18.3741    54.9058    15.7465   -37.8049    37.7543
  812.0000    18.8272    54.9281    15.5174   -38.7195    30.1657
  812.5000    18.6742    54.9504    15.2883   -37.6524    30.3099
  813.0000    18.0666    54.9726    15.0592   -37.0427    33.9075
  813.5000    17.6863    55.7502    14.7542   -37.1951    35.7590
  814.0000    17.5333    57.2830    14.5129   -36.8902    35.1442
  814.5000    17.3803    58.8159    14.2956   -36.2805    45.1503
  815.0000    16.6136    60.3487    14.0665   -35.9756    45.9034
  815.5000    15.7795    61.8816    13.9891   -36.5854    45.1352
