~VERSION INFORMATION
 VERS.                2.0:   CWLS LOG ASCII STANDARD - VERSION 2.0
 WRAP.                 NO:   ONE LINE PER DEPTH STEP
~WELL INFORMATION
#MNEM.UNIT      DATA TYPE    INFORMATION
#----------   ------------   ------------------------------
 STRT.F           10.0000:   START DEPTH
 STOP.F          481.0000:   STOP DEPTH
 STEP.F            0.5000:   STEP LENGTH
 NULL.          -999.2500:   NO VALUE
 COMP. BROWN JOHN E&C INC:   COMPANY
 WELL.         SX 67 #1-3:   WELL
 FLD .        TEAPOT DOME:   FIELD
 LOC .       S3 T38N R78W:   LOCATION
 CNTY.            NATRONA:   COUNTY
 STAT.            WYOMING:   STATE
 CTRY. UNITED STATES OF AMERICA:   COUNTRY
 SRVC.       Schlumberger:   SERVICE COMPANY
 DATE.        12-OCT-1990:   LOGDATE
 API .       490251132900:   API NUMBER
~CURVE INFORMATION
#MNEM.UNIT       API CODE    CURVE DESCRIPTION
#----------   ------------   ------------------------------
 DEPT.F                  :   
 CALD.IN     45 280 60 00:   CALIPER FROM DENSITY LOG
 DRHO.G/C3   45 356 01 00:   DENSITY CORRECTION
 GRD .GAPI   45 310 01 00:   GAMMA RAY FROM DENSITY LOG
 RHOB.G/C3   45 350 01 00:   BULK DENSITY
 DPHI.DEC    45 890 12 00:   DENSITY POROSITY SANDSTONE
~PARAMETER INFORMATION
#MNEM.UNIT          VALUE    DESCRIPTION
#----------   ------------   ------------------------------
 PD  .                 GL:   PERMANENT DATUM
 EPD .F              5174:   ELEVATION PERMANENT DATUM
 LMF .                 KB:   LOG MEASURED FROM
 DAPD.F                10:   FEET ABOVE PERMANENT DATUM
 DMF .                 KB:   DRILLING MEASURED FROM
 EKB .F              5184:   KELLING BUSHING
 EGL .F              5174:   GROUND LEVEL
 DATE.           10-12-90:   RUN DATE
 RUN .                  1:   RUN NUMBER
 DD  .F               486:   DEPTH DRILLER
 DL  .F               486:   DEPTH LOGGER
 BLI .F               483:   BOTTOM LOG INTERVAL
 TLI .F                10:   TOP LOG INTERVAL
 CS  .IN            8.625:   CASING SIZE
 CBD .F                50:   CASING BOTTOM DRILLER
 CBL .F                50:   CASING BOTTOM LOGGER
 BS  .IN            7.875:   BIT SIZE
 BSD .F               486:   BIT SIZE AT DEPTH
 DFT .      DISPERSED GEL:   DRILLING FLUID TYPE
 DFD .                 15:   DRILLING FLUID DENSITY
 DFV .                 44:   DRILLING FLUID VISCOSITY
 DFPH.                  8:   DRILLING FLUID PH
 DFL .                7.2:   DRILLING FLUID LOSS
 MSS .           FLOWLINE:   MUD SAMPLE SOURCE
 RMS .OHMM              1:   RESISTIVITY MUD SAMPLE
 MST .F                60:   MUD SAMPLE TEMPERATURE
 RMF .OHMM             .7:   RESISTIVITY MUD FILTRATE SAMPLE
 MFST.F                60:   MUD FILTRATE SAMPLE TEMPERATURE
 RMC .OHMM            1.5:   RESISTIVITY MUD CAKE
 MCST.F                60:   MUD CAKE SAMPLE TEMPERATURE
 MFSS.               MEAS:   MUD FILTRATE SAMPLE SOURCE
 MCSS.               CALC:   MUD CAKE SAMPLE SOURCE
 RMB .OHMM           .753:   RESISTIVITY MUD AT BHT
 BHT .F                82:   BOTTOM HOLE TEMPERATURE
 TCS .HRS            1230:   TIME CURCULATED STOPPED
 MRT .F                82:   MAXIMUM RECORDED TEMPERATURE
 LUN .               8116:   LOGGING UNIT NUMBER
 LUL .             CASPER:   LOGGING UNIT LOCATION
 ENGI.            S. PEEL:   RECORDING ENGINEER
 WITN.        GARY STRONG:   WITNESSED BY
 CLNT.            A2DTECH:   CLIENT CODE
 ORIG.           5" PRINT:   ORIGIN OF DATA
 UWI .       490251132900:   UNIQUE WELL ID
 DICO. A2D Technologies, Inc.:   DIGITIZING COMPANY
~OTHER INFORMATION
~A   DEPT     CALD       DRHO         GRD      RHOB       DPHI   
# ...
   71.0000     7.9885  -999.2500    50.6922     2.0329     0.3709
   71.5000     7.9843  -999.2500    52.7945     2.0709     0.3448
   72.0000     7.9799  -999.2500    54.4118     2.1175     0.3192
   72.5000     7.9760  -999.2500    54.8667     2.1644     0.2963
   73.0000     7.9410  -999.2500    55.1512     2.2024     0.2747
   73.5000     7.8860  -999.2500    56.7335     2.2323     0.2543
   74.0000     7.8339  -999.2500    58.3585     2.2648     0.2339
   74.5000     7.8183  -999.2500    59.3616     2.2983     0.2133
   75.0000     7.8347  -999.2500    59.3758     2.3130     0.2015
   75.5000     7.8780  -999.2500    58.7848     2.3144     0.2044
   76.0000     7.9212  -999.2500    57.2921     2.2934     0.2149
   76.5000     7.9655  -999.2500    55.0402     2.2678     0.2318
   77.0000     7.9740  -999.2500    53.3599     2.2442     0.2448
   77.5000     7.9742  -999.2500    52.1117     2.2328     0.2536
   78.0000     7.9739  -999.2500    51.8868     2.2266     0.2568
   78.5000     7.9633  -999.2500    51.8523     2.2261     0.2570
   79.0000     7.9149  -999.2500    52.0418     2.2316     0.2542
   79.5000     7.8726  -999.2500    52.5715     2.2370     0.2507
   80.0000     7.8814  -999.2500    52.5685     2.2424     0.2473
   80.5000     7.9063  -999.2500    51.9497     2.2471     0.2454
   81.0000     7.9309  -999.2500    52.8305     2.2460     0.2454
   81.5000     7.9548  -999.2500    54.9551     2.2318     0.2523
   82.0000     7.9605  -999.2500    57.0835     2.2105     0.2653
   82.5000     7.9108  -999.2500    59.0672     2.1901     0.2782
   83.0000     7.8591  -999.2500    59.6204     2.1789     0.2912
   83.5000     7.8335  -999.2500    58.3548     2.1538     0.3034
   84.0000     7.8279  -999.2500    56.2953     2.1247     0.3186
   84.5000     7.8236  -999.2500    54.2349     2.1018     0.3325
   85.0000     7.8189  -999.2500    53.5997     2.0894     0.3429
   85.5000     7.8141  -999.2500    55.7380     2.0850     0.3153
   86.0000     7.8093  -999.2500    62.4383     2.1544     0.2831
   86.5000     7.8045  -999.2500    69.6903     2.2413     0.2466
   87.0000     7.7997  -999.2500    75.0430     2.3335     0.1679
   87.5000     7.7943    -0.0979    77.4919     2.4133     0.1439
   88.0000     7.8156    -0.0290    78.6428     2.4614     0.1149
   88.5000     7.8466    -0.0062    78.7652     2.4766     0.1052
   89.0000     7.8777     0.0027    78.8625     2.4807     0.1026
   89.5000     7.9089     0.0071    79.5525     2.4814     0.1025
   90.0000     7.9400     0.0086    80.5560     2.4805     0.1037
   90.5000     7.9710     0.0097    81.1949     2.4768     0.1050
   91.0000     7.9942     0.0099    81.9842     2.4747     0.1057
   91.5000     7.9878     0.0101    83.4093     2.4761     0.1053
   92.0000     7.9819     0.0103    82.4337     2.4783     0.1050
   92.5000     7.9760     0.0106    80.4500     2.4775     0.1050
   93.0000     7.9701     0.0108    78.5459     2.4773     0.1051
   93.5000     7.9644     0.0110    78.6403     2.4791     0.1030
   94.0000     7.9585     0.0113    78.8509     2.4868     0.0979
   94.5000     7.9531     0.0115    78.7164     2.4970     0.0928
   95.0000     7.9147     0.0125    78.5820     2.5007     0.0904
   95.5000     7.8262     0.0143    78.4458     2.4966     0.0927
   96.0000     7.7350     0.0162    78.3096     2.4945     0.0951
   96.5000     7.7206     0.0180    78.1712     2.4972     0.0926
   97.0000     7.7433     0.0199    78.0135     2.5023     0.0901
   97.5000     7.7664     0.0202    78.6291     2.5061     0.0880
   98.0000     7.7898     0.0189    80.5328     2.5074     0.0867
   98.5000     7.7881     0.0170    82.5230     2.5048     0.0882
   99.0000     7.7812     0.0151    82.0704     2.5013     0.0902
   99.5000     7.7736     0.0132    79.3589     2.4995     0.0921
  100.0000     7.8004     0.0113    76.5061     2.5005     0.0899
  100.5000     7.8312     0.0094    75.5200     2.5047     0.0878
  101.0000     7.8623     0.0080    75.4887     2.5065     0.0878
  101.5000     7.8925     0.0068    75.7357     2.5028     0.0885
  102.0000     7.8850     0.0056    75.7027     2.4984     0.0927
  102.5000     7.8755     0.0044    74.3399     2.4901     0.0971
  103.0000     7.8655     0.0035    73.0554     2.4816     0.1015
  103.5000     7.8524     0.0043    75.4920     2.4787     0.1041
  104.0000     7.8392     0.0050    78.5283     2.4760     0.1048
  104.5000     7.8259     0.0066    79.9386     2.4707     0.1081
  105.0000     7.8127     0.0100    77.7337     2.4656     0.1121
  105.5000     7.7994     0.0135    76.0514     2.4645     0.1124
  106.0000     7.8021     0.0170    75.6724     2.4714     0.1083
  106.5000     7.8171     0.0194    76.1631     2.4782     0.1042
  107.0000     7.8323     0.0203    76.9528     2.4794     0.1036
  107.5000     7.8475     0.0195    76.2952     2.4794     0.1039
  108.0000     7.8626     0.0184    73.1963     2.4793     0.1041
  108.5000     7.8722     0.0135    70.4319     2.4812     0.1035
  109.0000     7.8642     0.0087    72.4904     2.4814     0.1028
  109.5000     7.8566     0.0070    75.8894     2.4792     0.1042
  110.0000     7.8489     0.0077    79.4030     2.4758     0.1057
  110.5000     7.8413     0.0083    79.9863     2.4780     0.1029
  111.0000     7.8339     0.0122    78.8742     2.4879     0.0972
  111.5000     7.8336     0.0168    77.0954     2.5000     0.0915
  112.0000     7.8338     0.0214    75.6825     2.5066     0.0873
  112.5000     7.8348     0.0260    76.3212     2.5042     0.0886
  113.0000     7.7930     0.0307    76.9302     2.5006     0.0901
  113.5000     7.7448     0.0298    77.0465     2.4896     0.0967
  114.0000     7.6957     0.0237    75.8715     2.4777     0.1039
  114.5000     7.6940     0.0174    76.1634     2.4658     0.1111
  115.0000     7.6958     0.0133    75.6103     2.4608     0.1144
  115.5000     7.6973     0.0129    74.8259     2.4599     0.1151
  116.0000     7.6987     0.0150    75.4126     2.4590     0.1156
  116.5000     7.7001     0.0191    76.8467     2.4582     0.1160
  117.0000     7.7015     0.0222    78.2679     2.4574     0.1164
  117.5000     7.7030     0.0235    76.3342     2.4534     0.1184
  118.0000     7.7044     0.0221    72.4738     2.4467     0.1234
  118.5000     7.7058     0.0185    69.8594     2.4387     0.1285
  119.0000     7.7072     0.0149    71.3649     2.4311     0.1327
  119.5000     7.7086     0.0137    73.1446     2.4320     0.1326
  120.0000     7.7101     0.0154    74.1517     2.4383     0.1278
  120.5000     7.7115     0.0173    74.9918     2.4457     0.1230
  121.0000     7.7132     0.0203    75.3858     2.4534     0.1187
  121.5000     7.6951     0.0231    75.7864     2.4534     0.1196
  122.0000     7.6667     0.0259    74.8722     2.4510     0.1222
  122.5000     7.6380     0.0265    73.7582     2.4484     0.1220
  123.0000     7.6093     0.0253    73.5141     2.4521     0.1204
  123.5000     7.5796     0.0241    74.2980     2.4573     0.1183
  124.0000     7.5732     0.0227    76.5578     2.4632     0.1146
  124.5000     7.5731     0.0262    78.8696     2.4721     0.1099
  125.0000     7.5731     0.0304    79.7951     2.4785     0.1067
  125.5000     7.5731     0.0346    79.8107     2.4784     0.1073
  126.0000     7.5724     0.0389    79.9614     2.4735     0.1079
  126.5000     7.5991     0.0382    82.3046     2.4646     0.1131
  127.0000     7.6298     0.0353    83.8748     2.4556     0.1187
  127.5000     7.6608     0.0324    83.8235     2.4464     0.1242
  128.0000     7.6921     0.0294    82.2692     2.4463     0.1256
  128.5000     7.7026     0.0267    81.6289     2.4541     0.1201
  129.0000     7.7133     0.0251    82.9328     2.4602     0.1163
  129.5000     7.6725     0.0236    84.2735     2.4586     0.1164
  130.0000     7.6355     0.0220    84.0952     2.4512     0.1211
  130.5000     7.5986     0.0215    83.1694     2.4390     0.1287
  131.0000     7.5877     0.0202    83.5231     2.4284     0.1353
  131.5000     7.5813     0.0189    83.0396     2.4294     0.1345
