~VERSION INFORMATION
 VERS.                2.0:   CWLS LOG ASCII STANDARD - VERSION 2.0
 WRAP.                 NO:   ONE LINE PER DEPTH STEP
~WELL INFORMATION
#MNEM.UNIT      DATA TYPE    INFORMATION
#----------   ------------   ------------------------------
 STRT.F           30.5000:   START DEPTH
 STOP.F          692.0000:   STOP DEPTH
 STEP.F            0.5000:   STEP LENGTH
 NULL.          -999.2500:   NO VALUE
 COMP. FENIX & SCISSON INC:   COMPANY
 WELL.   27-S-11-WP #3-11:   WELL
 FLD .  TEAPOT DOME NPR-3:   FIELD
 LOC .      S11 T38N R78W:   LOCATION
 CNTY.            NATRONA:   COUNTY
 STAT.            WYOMING:   STATE
 CTRY. UNITED STATES OF AMERICA:   COUNTRY
 SRVC.       Schlumberger:   SERVICE COMPANY
 DATE.        18-FEB-1978:   LOGDATE
 API .       490251058100:   API NUMBER
~CURVE INFORMATION
#MNEM.UNIT       API CODE    CURVE DESCRIPTION
#----------   ------------   ------------------------------
 DEPT.F                  :   
 CALD.IN     45 280 60 00:   CALIPER FROM DENSITY LOG
 CORR.G/C3   45 356 01 00:   DENSITY CORRECTION
 DPHI.DEC    45 890 12 00:   DENSITY POROSITY SANDSTONE
 GRD .GAPI   45 310 01 00:   GAMMA RAY FROM DENSITY LOG
 RHOB.G/C3   45 350 01 00:   BULK DENSITY
 ILD .OHMM   05 110 46 00:   INDUCTION LOG DEEP
 SN  .OHMM   05 040 16 00:   SHORT NORMAL 16"
 SPR .MV     05 010 01 00:   SPONTANEOUS POTENSIAL FROM RES.
~PARAMETER INFORMATION
#MNEM.UNIT          VALUE    DESCRIPTION
#----------   ------------   ------------------------------
 PD  .                 GL:   PERMANENT DATUM
 EPD .F              5195:   ELEVATION PERMANENT DATUM
 LMF .                 KB:   LOG MEASURED FROM
 DAPD.F                 4:   FEET ABOVE PERMANENT DATUM
 DMF .                 KB:   DRILLING MEASURED FROM
 EKB .F              5199:   KELLING BUSHING
 EGL .F              5195:   GROUND LEVEL
 DATE.        18-FEB-1978:   RUN DATE
 RUN .                  1:   RUN NUMBER
 DD  .F               690:   DEPTH DRILLER
 DL  .F               695:   DEPTH LOGGER
 BLI .F               688:   BOTTOM LOG INTERVAL
 TLI .F                40:   TOP LOG INTERVAL
 CS  .IN            8.625:   CASING SIZE
 CBD .F                40:   CASING BOTTOM DRILLER
 CBL .F                40:   CASING BOTTOM LOGGER
 BS  .IN            7.875:   BIT SIZE
 BSD .F               690:   BIT SIZE AT DEPTH
 DFT .       LIGNO/ SULF.:   DRILLING FLUID TYPE
 DFD .                8.8:   DRILLING FLUID DENSITY
 DFV .                 33:   DRILLING FLUID VISCOSITY
 DFPH.               10.0:   DRILLING FLUID PH
 DFL .                5.0:   DRILLING FLUID LOSS
 MSS .           FLOWLINE:   MUD SAMPLE SOURCE
 RMS .OHMM            1.7:   RESISTIVITY MUD SAMPLE
 MST .F                66:   MUD SAMPLE TEMPERATURE
 RMF .OHMM            2.0:   RESISTIVITY MUD FILTRATE SAMPLE
 MFST.F                58:   MUD FILTRATE SAMPLE TEMPERATURE
 RMC .OHMM            3.0:   RESISTIVITY MUD CAKE
 MCST.F                60:   MUD CAKE SAMPLE TEMPERATURE
 MFSS.               MEAS:   MUD FILTRATE SAMPLE SOURCE
 RMB .OHMM           1.65:   RESISTIVITY MUD AT BHT
 BHT .F                68:   BOTTOM HOLE TEMPERATURE
 TCS .HRS               2:   TIME CURCULATED STOPPED
 MRT .F                68:   MAXIMUM RECORDED TEMPERATURE
 LUN .               2958:   LOGGING UNIT NUMBER
 LUL .             CASPER:   LOGGING UNIT LOCATION
 ENGI.            POINTER:   RECORDING ENGINEER
 WITN.           MCGINLEY:   WITNESSED BY
 CLNT.            A2DTECH:   CLIENT CODE
 ORIG.           5" PRINT:   ORIGIN OF DATA
 UWI .       490251058100:   UNIQUE WELL ID
~OTHER INFORMATION
~A   DEPT     CALD       CORR       DPHI         GRD      RHOB        ILD         SN        SPR   
# ...
  395.0000     8.0276     0.0258     0.1378   108.7290     2.4086     4.8238     5.8758   -34.9709
  395.5000     8.0259     0.0242     0.1290   109.7762     2.4237     4.7175     5.6698   -35.3257
  396.0000     8.0242     0.0240     0.1224   109.7530     2.4411     4.6139     5.4711   -33.4946
  396.5000     8.0379     0.0238     0.1218   108.8125     2.4478     4.5711     5.3913   -33.0610
  397.0000     8.0208     0.0268     0.1221   103.2848     2.4432     4.5372     5.3876   -33.3903
  397.5000     8.0191     0.0281     0.1195    98.9803     2.4446     4.5649     5.4981   -34.1845
  398.0000     8.0174     0.0325     0.1098    99.2630     2.4605     4.6545     5.6900   -34.3699
  398.5000     8.0157     0.0324     0.1004   101.2276     2.4665     4.7158     5.9300   -34.6829
  399.0000     8.0140     0.0322     0.0921   103.9568     2.4770     4.9104     6.0941   -34.7120
  399.5000     8.0123     0.0321     0.0895   105.1569     2.4929     5.1868     6.2628   -34.5836
  400.0000     7.9981     0.0319     0.0889   106.6652     2.4958     5.5559     6.5269   -34.1463
  400.5000     7.9472     0.0317     0.0911   105.7473     2.4954     5.8690     6.7965   -32.6503
  401.0000     7.9454     0.0316     0.0923   104.8295     2.4951     6.1565     7.2289   -33.6707
  401.5000     7.9437     0.0313     0.0927   103.9116     2.4948     6.2798     7.6352   -34.8483
  402.0000     7.9419     0.0297     0.0918   103.1452     2.4962     6.4056     7.8443   -35.4864
  402.5000     7.9401     0.0295     0.0912   106.0354     2.4976     6.4897     7.9977   -34.9050
  403.0000     7.9382     0.0279     0.0928   108.5800     2.4991     6.6647     8.0459   -34.0117
  403.5000     7.9361     0.0277     0.0989   109.6340     2.4921     6.8064     8.0328   -33.5828
  404.0000     7.9343     0.0275     0.1044   103.7140     2.4837     6.8379     8.0223   -34.2280
  404.5000     7.9325     0.0274     0.1087    98.5536     2.4781     6.8279     8.0119   -35.0185
  405.0000     7.9307     0.0287     0.1115    97.0707     2.4714     6.8199     8.0012   -35.9615
  405.5000     7.9290     0.0301     0.1139    97.9300     2.4667     6.8120     7.9349   -35.8369
  406.0000     7.9272     0.0299     0.1145    99.8990     2.4636     6.7566     7.8122   -35.7134
  406.5000     7.9254     0.0313     0.1124   101.7465     2.4627     6.7016     7.7476   -35.1320
  407.0000     7.9692     0.0311     0.1100   102.2976     2.4657     6.6007     7.6835   -35.1604
  407.5000     7.9833     0.0309     0.1046   103.0442     2.4687     6.3219     7.5140   -34.7315
  408.0000     8.0122     0.0308     0.1049   105.9142     2.4738     6.2268     7.3999   -34.7669
  408.5000     8.0100     0.0306     0.1081   105.2994     2.4692     6.0903     7.1863   -34.6358
  409.0000     8.0082     0.0304     0.1102   102.8663     2.4653     5.9152     7.0278   -34.0544
  409.5000     8.0064     0.0302     0.1066   100.8879     2.4690     5.6234     6.8248   -33.4801
  410.0000     8.0046     0.0301     0.1136    99.6667     2.4651     5.4208     6.6278   -33.1965
  410.5000     8.0024     0.0299     0.1163   100.7166     2.4513     5.2318     6.4816   -32.9200
  411.0000     8.0006     0.0267     0.1215   101.3139     2.4452     5.1530     6.2944   -32.9555
  411.5000     7.9835     0.0235     0.1237   101.9111     2.4398     5.1470     6.1979   -33.1363
  412.0000     7.9663     0.0218     0.1246   104.3266     2.4473     5.0696     6.1045   -34.6890
  412.5000     7.9646     0.0216     0.1172   108.8633     2.4662     5.0992     6.0964   -34.7174
  413.0000     7.9628     0.0215     0.1068   113.5515     2.4783     5.0932     6.0868   -34.4409
  413.5000     7.9610     0.0213     0.1001   113.2706     2.4782     5.3055     6.2078   -34.3168
  414.0000     7.9591     0.0211     0.0977   107.3196     2.4798     5.5265     6.6959   -34.5047
  414.5000     7.9570     0.0215     0.1029   100.0381     2.4848     5.7973     7.3241   -34.9904
  415.0000     7.9706     0.0223     0.1046    98.8194     2.4756     6.0388     7.5750   -35.3237
  415.5000     7.9688     0.0221     0.1027   101.6872     2.4755     6.3346     7.7256   -35.5045
  416.0000     7.9828     0.0205     0.1005   105.0117     2.4754     6.5992     7.7723   -35.5328
  416.5000     7.9806     0.0203     0.0925   108.3363     2.4749     6.6877     7.8167   -35.4088
  417.0000     7.9788     0.0217     0.0882   110.9455     2.4981     6.7229     7.9695   -34.8274
  417.5000     7.9770     0.0215     0.0867   110.1347     2.5002     6.8077     8.0713   -35.1607
  418.0000     7.9441     0.0213     0.0843   106.7926     2.5009     6.8475     8.1174   -35.7988
  418.5000     7.9423     0.0212     0.0816   104.3595     2.5046     6.8895     8.1637   -35.8272
  419.0000     7.9405     0.0210     0.0817   103.4417     2.5098     6.8795     8.1527   -35.2458
  419.5000     7.9387     0.0208     0.0830   102.5238     2.5097     6.8715     8.1398   -34.9693
  420.0000     7.9369     0.0207     0.0848   101.3029     2.5057     6.9137     8.1291   -35.0047
  420.5000     7.9351     0.0205     0.0860    99.9192     2.5035     6.9521     8.1185   -35.0331
  421.0000     7.9334     0.0203     0.0824   101.4346     2.5057     6.9439     8.1079   -35.0615
  421.5000     7.9469     0.0202     0.0755   104.6077     2.5124     6.9845     8.0974   -35.0898
  422.0000     7.9605     0.0191     0.0743   106.7223     2.5207     7.0256     8.0868   -35.1182
  422.5000     7.9583     0.0183     0.0692   103.9840     2.5297     7.0172     8.0762   -34.9871
  423.0000     7.9565     0.0181     0.0674   103.0662     2.5326     7.0089     8.0657   -34.2603
  423.5000     7.9547     0.0180     0.0583   102.9059     2.5310     7.0006     8.0552   -34.2887
  424.0000     7.9837     0.0239     0.0523   102.2747     2.5476     6.9906     8.0447   -34.3171
  424.5000     7.9819     0.0374     0.0593   100.4619     2.5589     6.9824     8.0342   -34.5112
  425.0000     7.9800     0.0312     0.0769    98.9379     2.5368     6.9743     8.0237   -34.9848
  425.5000     7.9779     0.0229     0.0973    99.5352     2.4927     6.9661     8.0130   -35.0190
  426.0000     7.9761     0.0171     0.1049   102.5567     2.4767     6.9580     8.0024   -35.0474
  426.5000     7.9743     0.0185     0.1037   104.9722     2.4720     6.9499     8.0484   -35.0758
  427.0000     7.9725     0.0214     0.1026   105.4182     2.4734     6.9417     7.9793   -35.4090
  427.5000     7.9707     0.0242     0.1014   105.4091     2.4749     6.9336     8.0274   -35.8947
  428.0000     7.9997     0.0241     0.1005   104.9436     2.4793     6.8772     8.0733   -36.0755
  428.5000     7.9978     0.0239     0.1002   104.6318     2.4830     6.8213     8.0065   -35.7919
  429.0000     7.9957     0.0237     0.1044   104.4715     2.4807     6.6252     7.9935   -35.5213
  429.5000     7.9939     0.0235     0.1091   105.8264     2.4735     6.3011     7.9273   -34.7887
  430.0000     7.9921     0.0219     0.1113   107.9388     2.4638     6.1629     7.6984   -34.6646
  430.5000     7.9903     0.0217     0.1077   109.7482     2.4591     6.1556     7.4761   -34.0833
  431.0000     7.9885     0.0200     0.1022   111.2565     2.4659     6.1468     7.3626   -34.1128
  431.5000     7.9868     0.0214     0.0959   112.0263     2.4787     6.1396     7.2002   -34.1471
  432.0000     7.9849     0.0227     0.0911   111.2348     2.4907     6.1325     7.1908   -34.1755
  432.5000     7.9828     0.0241     0.0871   110.1654     2.4975     6.0402     7.1812   -33.8990
  433.0000     7.9810     0.0239     0.0960   109.5506     2.4966     5.7850     7.1216   -33.3176
  433.5000     7.9792     0.0253     0.0963   109.0872     2.4844     5.5796     6.8659   -32.5837
  434.0000     7.9774     0.0312     0.0927   107.8663     2.4813     5.5342     6.5750   -32.4526
  434.5000     7.9756     0.0386     0.0894   105.1303     2.4941     5.4509     6.3406   -34.0124
  435.0000     7.9431     0.0460     0.0858   104.0202     2.5039     5.4445     6.4667   -34.3457
