~VERSION INFORMATION
 VERS.                2.0:   CWLS LOG ASCII STANDARD - VERSION 2.0
 WRAP.                 NO:   ONE LINE PER DEPTH STEP
~WELL INFORMATION
#MNEM.UNIT      DATA TYPE    INFORMATION
#----------   ------------   ------------------------------
 STRT.F           80.0000:   START DEPTH
 STOP.F         1011.0000:   STOP DEPTH
 STEP.F            0.5000:   STEP LENGTH
 NULL.          -999.2500:   NO VALUE
 COMP.          U.S. NAVY:   COMPANY
 WELL. RES 3 TEAPOT DOM #61S-11:   WELL
 FLD .             TEAPOT:   FIELD
 LOC .      S11 T38N R78W:   LOCATION
 CNTY.            NATRONA:   COUNTY
 STAT.            WYOMING:   STATE
 CTRY. UNITED STATES OF AMERICA:   COUNTRY
 SRVC.       Schlumberger:   SERVICE COMPANY
 DATE.        23-JUL-1964:   LOGDATE
 API .       490250637500:   API NUMBER
~CURVE INFORMATION
#MNEM.UNIT       API CODE    CURVE DESCRIPTION
#----------   ------------   ------------------------------
 DEPT.F                  :   
 CALS.IN     60 280 50 00:   CALIPER FROM SONIC LOG
 DT  .US/F   60 520 33 00:   INTERVAL TRANSIT TIME
 GR  .GAPI   30 310 01 00:   GAMMA RAY
 CILD.MMHO   05 110 46 00:   CONDUCTIVITY INDUCTION LOG DEEP
 ILD .OHMM   05 120 46 00:   INDUCTION LOG DEEP
 ASN .OHMM   05 041 16 00:   AMPLIFIED SHORT NORMAL 16"
 SPR .MV     05 010 01 00:   SPONTANEOUS POTENTIAL FROM RES.
~PARAMETER INFORMATION
#MNEM.UNIT          VALUE    DESCRIPTION
#----------   ------------   ------------------------------
 PD  .                 GL:   PERMANENT DATUM
 EPD .F              5199:   ELEVATION PERMANENT DATUM
 LMF .                 KB:   LOG MEASURED FROM
 DAPD.F                 5:   FEET ABOVE PERMANENT DATUM
 DMF .                 KB:   DRILLING MEASURED FROM
 EKB .F              5204:   KELLING BUSHING
 EGL .F              5199:   GROUND LEVEL
 DATE.          7-23-1964:   RUN DATE
 RUN .                  1:   RUN NUMBER
 DD  .F              1010:   DEPTH DRILLER
 DL  .F              1012:   DEPTH LOGGER
 BLI .F              1011:   BOTTOM LOG INTERVAL
 TLI .F                88:   TOP LOG INTERVAL
 CS  .IN            8.625:   CASING SIZE
 CBD .F                10:   CASING BOTTOM DRILLER
 BS  .IN             6.75:   BIT SIZE
 BSD .F              1010:   BIT SIZE AT DEPTH
 DFT .            GEL-OIL:   DRILLING FLUID TYPE
 DFD .                9.8:   DRILLING FLUID DENSITY
 DFV .                 54:   DRILLING FLUID VISCOSITY
 MSS .           FLOWLINE:   MUD SAMPLE SOURCE
 RMS .OHMM           1.47:   RESISTIVITY MUD SAMPLE
 MST .F                86:   MUD SAMPLE TEMPERATURE
 RMF .OHMM            .96:   RESISTIVITY MUD FILTRATE SAMPLE
 MFST.F                86:   MUD FILTRATE SAMPLE TEMPERATURE
 RMC .OHMM           2.10:   RESISTIVITY MUD CAKE
 MCST.F                86:   MUD CAKE SAMPLE TEMPERATURE
 MFSS.                 FP:   MUD FILTRATE SAMPLE SOURCE
 MCSS.                 FP:   MUD CAKE SAMPLE SOURCE
 TCS .HRS               2:   TIME CURCULATED STOPPED
 LUN .               4507:   LOGGING UNIT NUMBER
 LUL .              CSPR.:   LOGGING UNIT LOCATION
 ENGI.             DANNER:   RECORDING ENGINEER
 WITN.          JORGENSEN:   WITNESSED BY
 CLNT.            A2DTECH:   CLIENT CODE
 ORIG.      2" & 5" PRINT:   ORIGIN OF DATA
 UWI .       490250637500:   UNIQUE WELL ID
 DICO. A2D Technologies, Inc.:   DIGITIZING COMPANY
~OTHER INFORMATION
~A   DEPT     CALS         DT         GR        CILD         ILD        ASN      SPR   
# ...
  717.0000     6.7147   102.7605    83.8703   146.3249     7.1664     8.2180   -26.8114
  717.5000     6.7301   102.0068    81.9138   143.3048     7.2484     8.3544   -26.8131
  718.0000     6.7304   101.1024    76.9544   141.7762     7.3845     8.4536   -26.8145
  718.5000     6.7307    99.5956    74.6977   140.2477     7.4567     8.3947   -26.9598
  719.0000     6.7310    98.2356    73.7923   137.9762     7.4549     8.2621   -27.3928
  719.5000     6.7313    97.4798    75.4395   137.1905     7.4535     8.1591   -27.8442
  720.0000     6.7014    97.1837    78.1377   136.3546     7.4521     8.2769   -28.4031
  720.5000     6.6715    97.2583    76.7819   136.3622     7.5243     8.3656   -28.6923
  721.0000     6.6266    97.4172    76.3269   135.5659     7.5228     8.4560   -28.9815
  721.5000     6.5515    98.1402    75.7219   135.5232     7.5211     8.5567   -29.1267
  722.0000     6.4764   100.6083    69.8615   136.2341     7.4461     8.5862   -29.2720
  722.5000     6.4615   101.0957    70.4576   136.9242     7.4446     8.5420   -29.2734
  723.0000     6.4619   100.6429    71.3552   137.7161     7.3696     8.4536   -29.2748
  723.5000     6.4622   100.1151    71.6499   139.0565     7.3682     8.3652   -29.2765
  724.0000     6.4625   100.0392    73.4472   139.7567     7.2931     8.3505   -29.1337
  724.5000     6.4779   100.9419    76.4457   140.4676     7.2913     8.3652   -28.9915
  725.0000     6.4782   101.4684    77.7926   141.9108     7.2899     8.3947   -28.7048
  725.5000     6.4785   101.0157    76.4368   142.6004     7.2885     8.3652   -28.1310
  726.0000     6.4938   100.9396    72.5284   143.3006     7.2871     8.3063   -27.7007
  726.5000     6.4941   101.3907    70.7221   142.5043     7.2856     8.3358   -27.2705
  727.0000     6.4944   102.4442    71.0179   142.4617     7.3579     8.4094   -26.9841
  727.5000     6.5098   102.8952    73.5660   142.4190     7.3564     8.4389   -26.8416
  728.0000     6.5252   102.7439    73.4114   140.4791     7.4286     8.4242   -26.6991
  728.5000     6.5557   102.3666    75.3589   138.3982     7.5741     8.4536   -26.7008
  729.0000     6.5861   102.5165    75.1921   136.3174     7.7200     8.5272   -26.7022
  729.5000     6.6166   102.7418    71.1392   134.2365     7.8659     8.6451   -26.7036
  730.0000     6.6471   101.0843    74.9147   131.7901     8.0117     8.7923   -26.8586
  730.5000     6.6775   100.2552    75.1908   128.7756     8.0839     8.9249   -27.2823
  731.0000     6.6929    99.5767    72.8488   125.7612     8.2366     9.1057   -27.8592
  731.5000     6.6932    99.0489    69.9737   123.4897     8.3753     9.2489   -28.1484
  732.0000     6.6483    98.3704    66.8228   120.4752     8.5211     9.4109   -28.4375
  732.5000     6.5882    97.5414    63.9025   118.0910     8.5934     9.5729   -28.7267
  733.0000     6.5419    97.0135    60.6038   115.1785     8.6656     9.7054   -28.8720
  733.5000     6.5134    97.0881    65.7033   112.1641     8.7381     9.8085   -28.7295
  734.0000     6.5137    97.1626    61.7950   110.6355     8.8836     9.9909   -28.5873
  734.5000     6.4989    97.2372    57.8877   108.3640     9.0295    10.2657   -28.4445
  735.0000     6.4993    97.2364    60.8862   106.0671     9.3223    10.5405   -28.1585
  735.5000     6.4844    97.0098    53.5233   103.8103     9.4685    10.7511   -27.8717
  736.0000     6.4848    96.2560    52.6179   101.5388     9.7613    10.8984   -27.5854
  736.5000     6.5605    95.5023    53.2140   100.0102     9.9071    11.0486   -27.8749
  737.0000     6.6363    94.8238    55.4618    98.4816     9.9794    11.3402   -27.8763
  737.5000     6.6214    94.4465    56.5095    98.4389    10.0515    11.4875   -28.0216
  738.0000     6.5915    93.9920    55.7542    97.6523    10.1238    11.6348   -27.8790
  738.5000     6.5919    93.3033    61.7547    97.5999    10.1960    11.7820   -27.8808
  739.0000     6.5922    92.6311    63.1015    96.8143    10.1942    11.9293   -27.8822
  739.5000     6.6076    92.8029    62.6466    96.7716    10.1928    12.0029   -27.8835
  740.0000     6.6380    93.4739    60.9905    97.4825    10.1914    11.9980   -27.8849
  740.5000     6.6233    93.4510    60.6857    98.1723    10.1899    11.9293   -27.8863
  741.0000     6.5482    93.2083    58.8794    98.2417    10.0412    11.7820   -27.7438
  741.5000     6.4730    93.0096    60.6767   100.3049    10.0395    11.7084   -27.4578
  742.0000     6.4733    92.8583    56.9185   102.4910    10.0380    11.6348   -27.4592
  742.5000     6.4736    92.5563    57.9651   103.2019    10.0366    11.4875   -27.4606
  743.0000     6.4739    92.2544    59.4632   104.6360     9.9616    11.3402   -27.4620
  743.5000     6.4591    92.1783    55.8540   106.0777     9.9602    11.1929   -27.3194
  744.0000     6.4595    93.0059    51.9456   107.5102     9.8851    11.0457   -27.3209
  744.5000     6.4598    93.6831    50.5898   108.2211     9.8837    10.9720   -27.1784
  745.0000     6.4751    93.6068    49.5343   108.1677     9.8819    10.8984   -27.0359
  745.5000     6.4754    93.4555    51.4817   108.1250     9.8805    10.8247   -27.0376
  746.0000     6.5511    94.3583    55.0809   108.0824     9.7318    10.8247   -27.0390
  746.5000     6.6118    95.6379    57.4788   108.0387     9.6567    10.7511   -27.0404
  747.0000     6.5970    94.2815    61.2281   107.9863     9.6553    10.8984   -27.1857
  747.5000     6.5671    93.6784    63.0254   107.2007     9.7275    10.9720   -27.3309
  748.0000     6.5373    93.6776    63.6215   106.4150     9.7319    11.0457   -27.4762
  748.5000     6.4923    94.7311    62.8663   105.6294     9.8716    11.1207   -27.4780
  749.0000     6.4926    94.2785    58.8078   105.5867     9.8702    11.1202   -27.3351
  749.5000     6.5080    93.5248    64.2087   104.7994     9.7215    11.0460   -27.3369
  750.0000     6.5385    93.5240    68.7087   107.8138     9.6931    10.9719   -27.3144
  750.5000     6.5539    93.3727    69.9099   108.8606     9.5236    10.8979   -27.1687
  751.0000     6.5542    93.2213    69.6096   109.9075     9.4210    10.8238   -27.0231
  751.5000     6.4942    93.1453    66.9069   110.9543     9.3453    10.7498   -26.9065
  752.0000     6.4190    93.2951    64.9550   112.0011     9.1949    10.5356   -26.9065
  752.5000     6.4042    93.5203    64.2042   113.0480     9.1196    10.3126   -27.4820
  753.0000     6.4498    93.3690    65.1051   114.0948     9.1175    10.0895   -27.7698
  753.5000     6.4954    93.0670    66.3063   116.0047     8.9681     9.9085   -28.0576
  754.0000     6.5107    95.0241    62.8529   117.5048     8.8187     9.8786   -27.4820
  754.5000     6.4809    95.7815    63.3033   119.0049     8.7429     9.8930   -26.9065
  755.0000     6.2248    95.3991    64.8048   119.7622     8.6647     9.8630   -26.3309
  755.5000     6.1647    95.0945    65.1051   121.2658     8.5173     9.7742   -26.1870
  756.0000     6.1348    94.9458    63.0030   122.7660     8.5151     9.6412   -26.9065
  756.5000     6.2106    95.1031    62.1021   124.2661     8.4394     9.4198   -27.3381
  757.0000     6.3768    95.3208    60.3003   125.7663     8.3636     9.3605   -27.4820
  757.5000     6.4525    95.3954    59.3994   125.7805     8.2879     9.3306   -27.4820
  758.0000     6.3171    95.7709    61.5015   126.5379     8.2121     9.3007   -27.1942
  758.5000     6.2872    96.5232    58.9489   126.5555     8.2095     9.2561   -26.9065
  759.0000     6.3026    97.1249    57.1471   125.8233     8.2810     9.1820   -26.4748
  759.5000     6.3029    97.4253    59.2492   125.8411     8.3525     9.0931   -26.0432
  760.0000     6.3032    97.2740    56.9970   124.3659     8.4245     9.2842   -25.7554
  760.5000     6.3035    96.9720    55.3453   122.8975     8.5692     9.3574   -25.8993
  761.0000     6.3792    96.5948    55.3453   121.3713     8.7143     9.4159   -26.0432
  761.5000     6.5612    96.2928    55.9459   118.4687     8.7858     9.5185   -26.3309
  762.0000     6.6370    96.0662    59.0991   116.2577     8.8568     9.8127   -26.3309
