~VERSION INFORMATION
 VERS.                2.0:   CWLS LOG ASCII STANDARD - VERSION 2.0
 WRAP.                 NO:   ONE LINE PER DEPTH STEP
~WELL INFORMATION
#MNEM.UNIT      DATA TYPE    INFORMATION
#----------   ------------   ------------------------------
 STRT.F           20.0000:   START DEPTH
 STOP.F          488.0000:   STOP DEPTH
 STEP.F            0.5000:   STEP LENGTH
 NULL.          -999.2500:   NO VALUE
 COMP.    FENIX & SCISSON:   COMPANY
 WELL.  SX-3 NPR #3-3 #43:   WELL
 FLD .             TEAPOT:   FIELD
 LOC .       S3 T38N R78W:   LOCATION
 CNTY.            NATRONA:   COUNTY
 STAT.            WYOMING:   STATE
 CTRY. UNITED STATES OF AMERICA:   COUNTRY
 SRVC.           BIRDWELL:   SERVICE COMPANY
 DATE.        04-JAN-1978:   LOGDATE
 API .       490251044800:   API NUMBER
~CURVE INFORMATION
#MNEM.UNIT       API CODE    CURVE DESCRIPTION
#----------   ------------   ------------------------------
 DEPT.F                  :   
 ILD .OHMM   05 120 46 00:   INDUCTION LOG DEEP
 SN  .OHMM   05 040 16 00:   SHORT NORMAL 16"
 SPR .MV     05 010 01 00:   SPONTANEOUS POTENTIAL FROM RES.
 CALD.IN     45 280 60 00:   CALIPER FROM DENSITY LOG
 DPHI.DEC    45 890 12 00:   DENSITY POROSITY SANDSTONE
 DRHO.G/C3   45 356 01 00:   DENSITY CORRECTION
 GRD .GAPI   45 310 01 00:   GAMMA RAY FROM DENSITY LOG
 RHOB.G/C3   45 350 01 00:   BULK DENSITY
~PARAMETER INFORMATION
#MNEM.UNIT          VALUE    DESCRIPTION
#----------   ------------   ------------------------------
 PD  .                 GL:   PERMANENT DATUM
 LMF .                 KB:   LOG MEASURED FROM
 DAPD.F                 4:   FEET ABOVE PERMANENT DATUM
 DMF .                 KB:   DRILLING MEASURED FROM
 EKB .F              5163:   KELLING BUSHING
 EGL .F              5159:   GROUND LEVEL
 DATE.        04-JAN-1978:   RUN DATE
 RUN .                  1:   RUN NUMBER
 DD  .F               490:   DEPTH DRILLER
 DL  .F               490:   DEPTH LOGGER
 BLI .F               485:   BOTTOM LOG INTERVAL
 TLI .F                20:   TOP LOG INTERVAL
 CS  .IN            8.625:   CASING SIZE
 CBD .F                40:   CASING BOTTOM DRILLER
 CBL .F                44:   CASING BOTTOM LOGGER
 BS  .IN            7.875:   BIT SIZE
 BSD .F               490:   BIT SIZE AT DEPTH
 DFT .                KCL:   DRILLING FLUID TYPE
 DFD .                8.4:   DRILLING FLUID DENSITY
 DFV .                 32:   DRILLING FLUID VISCOSITY
 DFPH.                 11:   DRILLING FLUID PH
 DFL .                  8:   DRILLING FLUID LOSS
 MSS .                PIT:   MUD SAMPLE SOURCE
 RMS .OHMM           0.32:   RESISTIVITY MUD SAMPLE
 MST .F                62:   MUD SAMPLE TEMPERATURE
 RMF .OHMM           0.30:   RESISTIVITY MUD FILTRATE SAMPLE
 MFST.F                62:   MUD FILTRATE SAMPLE TEMPERATURE
 RMC .OHMM           0.35:   RESISTIVITY MUD CAKE
 MCST.F                62:   MUD CAKE SAMPLE TEMPERATURE
 MFSS.               MEAS:   MUD FILTRATE SAMPLE SOURCE
 MCSS.               MEAS:   MUD CAKE SAMPLE SOURCE
 RMB .OHMM           0.26:   RESISTIVITY MUD AT BHT
 BHT .F                75:   BOTTOM HOLE TEMPERATURE
 TCS .HRS               2:   TIME CURCULATED STOPPED
 MRT .F                75:   MAXIMUM RECORDED TEMPERATURE
 LUN .               2958:   LOGGING UNIT NUMBER
 LUL .             CASPER:   LOGGING UNIT LOCATION
 ENGI.             HUGHES:   RECORDING ENGINEER
 WITN.         HARRINGTON:   WITNESSED BY
 CLNT.            A2DTECH:   CLIENT CODE
 ORIG.           5" PRINT:   ORIGIN OF DATA
 UWI .       490251044800:   UNIQUE WELL ID
 DICO. A2D Technologies, Inc.:   DIGITIZING COMPANY
~OTHER INFORMATION
~A   DEPT      ILD         SN        SPR       CALD       DPHI       DRHO         GRD      RHOB   
# ...
  344.0000    21.1762    13.9827   -39.4526     8.2336     0.1515     0.0081    93.1004     2.3944
  344.5000    20.8811    13.8845   -39.5823     8.2336     0.1503     0.0253    86.8202     2.3946
  345.0000    20.8784    13.8822   -39.4284     8.2336     0.1478     0.0276    85.2116     2.4050
  345.5000    20.5882    13.7848   -39.2752     8.2336     0.1433     0.0246    84.0248     2.4118
  346.0000    20.3013    13.6880   -39.2718     8.2336     0.1442     0.0172    88.2711     2.4126
  346.5000    20.2987    13.5919   -39.2690     8.2336     0.1442     0.0157    92.7938     2.4119
  347.0000    20.1558    13.5897   -39.2009     8.2336     0.1418     0.0239    92.4991     2.4141
  347.5000    19.7382    13.4943   -39.0977     8.2336     0.1394     0.0337    89.2846     2.4134
  348.0000    19.7351    13.4926   -39.0977     8.2482     0.1358     0.0459    87.5293     2.4292
  348.5000    19.7327    13.4908   -38.7970     8.2628     0.1376     0.0412    88.5485     2.4397
  349.0000    19.7300    13.5826   -38.4962     8.2774     0.1417     0.0278    91.0274     2.4323
  349.5000    19.7268    13.5804   -37.2932     8.2774     0.1420     0.0203    93.5064     2.4248
  350.0000    19.4526    13.5787   -36.0902     8.2774     0.1393     0.0196    98.9051     2.4219
  350.5000    19.3156    13.5769   -39.0977     8.2772     0.1357     0.0166   101.3841     2.4264
  351.0000    19.3125    13.4811   -39.3985     8.2771     0.1320     0.0234   100.3587     2.4367
  351.5000    19.5798    13.5729   -39.3985     8.2769     0.1279     0.0358    98.8961     2.4490
  352.0000    19.5607    13.5693   -39.0977     8.2768     0.1246     0.0571    98.3101     2.4550
  352.5000    19.4799    13.5642   -39.0977     8.2766     0.1225     0.0362   100.9634     2.4573
  353.0000    19.4445    13.5591   -38.7970     8.2765     0.1207     0.0385   103.8506     2.4573
  353.5000    19.7148    13.5539   -37.5940     8.2763     0.1204     0.0512   107.2055     2.4536
  354.0000    19.9889    13.5487   -39.1698     8.2762     0.1260     0.0273   110.8530     2.4484
  354.5000    20.2665    13.5451   -39.6992     8.2761     0.1344     0.0101   101.3605     2.4365
  355.0000    20.5486    13.5407   -39.6992     8.2613     0.1487     0.0041    93.2263     2.4210
  355.5000    20.5469    13.6320   -39.6992     8.2611     0.1580     0.0043    90.9893     2.4006
  356.0000    20.6882    13.6276   -39.6992     8.2610     0.1601     0.0139    93.7603     2.3897
  356.5000    20.5439    13.5301   -39.6992     8.2609     0.1577     0.0229    98.2830     2.3883
  357.0000    20.5426    13.5257   -39.6992     8.2461     0.1493     0.0297   101.3459     2.3913
  357.5000    20.3990    13.6169   -39.3985     8.2460     0.1419     0.0342    99.7957     2.4005
  358.0000    19.9776    13.5187   -39.3985     8.2458     0.1325     0.0275    96.5222     2.4161
  358.5000    19.5650    13.5151   -39.2481     8.2311     0.1266     0.0216    92.7238     2.4296
  359.0000    19.4196    13.4176   -39.6992     8.2309     0.1281     0.0291    90.8232     2.4379
  359.5000    18.8954    13.4141   -39.6992     8.2308     0.1260     0.0336    89.5066     2.4245
  360.0000    18.7636    13.4106   -39.6992     8.2306     0.1226     0.0239    96.9483     2.4381
  360.5000    18.3761    13.4071   -39.6992     8.2451     0.1194     0.0179   100.1580     2.4478
  361.0000    18.3746    13.4027   -39.6992     8.2450     0.1191     0.0142    97.3808     2.4501
  361.5000    18.3734    13.4922   -39.6992     8.2448     0.1233     0.0142    97.9619     2.4425
  362.0000    18.3722    13.4887   -40.3008     8.2446     0.1247     0.0165   103.0979     2.4360
  362.5000    18.2438    13.4852   -40.4511     8.2445     0.1229     0.0188   101.4593     2.4428
  363.0000    18.2426    13.5752   -41.8045     8.2444     0.1196     0.0218    98.5369     2.4511
  363.5000    18.2414    13.5708   -41.5038     8.2476     0.1181     0.0264    96.1983     2.4565
  364.0000    18.3672    13.5672   -40.9023     8.2587     0.1178     0.0339    98.3853     2.4572
  364.5000    18.8826    13.5637   -40.6015     8.2439     0.1223     0.0436   100.0278     2.4319
  365.0000    19.4126    13.8444   -40.3008     8.2438     0.1256     0.0384   101.7367     2.4424
  365.5000    20.5184    14.2280   -39.0977     8.2436     0.1234     0.0325   102.4639     2.4492
  366.0000    21.8382    14.7246   -37.8947     8.2435     0.1263     0.0310   102.4611     2.4276
  366.5000    23.5680    15.6660   -37.2932     8.2434     0.1321     0.0348    99.2467     2.4097
  367.0000    25.6117    16.4493   -36.9644     8.2432     0.1639     0.0445    97.3460     2.3731
  367.5000    28.0259    17.6098   -35.9398     8.2431     0.1947     0.0369    98.6565     2.3556
  368.0000    30.2458    18.4783   -34.8872     8.2429     0.2228     0.0191   100.4055     2.3163
  368.5000    32.8686    19.3896   -33.8326     8.2574     0.2300     0.0087    98.7969     2.2895
  369.0000    36.5209    20.3459   -33.2331     8.2718     0.2219     0.0147    95.4365     2.2790
  369.5000    39.9076    21.4961   -32.3308     8.2717     0.2114     0.0193    86.2359     2.2693
  370.0000    40.7440    22.0932   -31.2782     8.2715     0.2052     0.0252    75.7222     2.2739
  370.5000    40.1802    22.3964   -30.6767     8.2711     0.2021     0.0298    77.9092     2.2934
  371.0000    39.8992    22.7009   -30.5263     8.2566     0.2009     0.0365    81.8480     2.3077
  371.5000    39.8967    22.6935   -30.0752     8.2565     0.1964     0.0448    85.0789     2.3110
  372.0000    39.3445    22.8465   -29.4737     8.2563     0.1961     0.0306    90.6009     2.3250
  372.5000    38.7994    22.6817   -29.3233     8.2562     0.2018     0.0224    92.2047     2.3288
  373.0000    38.7969    22.6757   -28.8722     8.2552     0.2035     0.0179    88.1136     2.3304
  373.5000    38.7944    22.6696   -28.8722     8.2413     0.2039     0.0296    78.0980     2.3213
  374.0000    38.7919    22.5063   -28.5714     8.2266     0.1910     0.0479    78.6833     2.3148
  374.5000    38.7888    22.5004   -28.5714     8.2264     0.1886     0.0450    79.9986     2.3171
  375.0000    38.5182    22.3395   -28.5714     8.2263     0.1957     0.0330    82.6280     2.3291
  375.5000    37.9852    22.3336   -28.5714     8.2261     0.1993     0.0269    84.9652     2.3344
  376.0000    37.7196    22.1725   -28.5714     8.2260     0.1861     0.0308    85.2582     2.3263
  376.5000    37.7172    22.0140   -28.5714     8.2404     0.1849     0.0399    84.3840     2.3308
  377.0000    37.7147    22.0082   -28.8722     8.2403     0.1807     0.0421    83.5098     2.3443
  377.5000    37.7122    21.8509   -28.8722     8.2401     0.1777     0.0414    89.7885     2.3534
  378.0000    37.7093    21.6932   -28.8722     8.2400     0.1831     0.0377    91.9793     2.3504
  378.5000    37.4462    21.6876   -28.8722     8.2545     0.1879     0.0332    89.4993     2.3415
  379.0000    37.1850    21.6819   -28.8722     8.2543     0.1900     0.0318    85.2674     2.3461
  379.5000    36.6698    21.5269   -28.8722     8.2542     0.1885     0.0325    82.2031     2.3544
  380.0000    36.4140    21.3716   -28.8722     8.2540     0.1819     0.0333    80.0147     2.3447
  380.5000    35.6619    21.3660   -28.8722     8.2685     0.1807     0.0334    79.4200     2.3373
  381.0000    34.6834    21.2132   -29.4737     8.2683     0.1798     0.0334    82.2076     2.3358
  381.5000    33.7322    21.0615   -29.9248     8.2682     0.1759     0.0326    82.5006     2.3436
  382.0000    33.7301    20.7457   -30.0752     8.2680     0.1776     0.0297    79.8746     2.3584
  382.5000    33.0328    20.4749   -30.3759     8.2679     0.1806     0.0260    84.8394     2.3600
  383.0000    32.8024    20.1885   -33.0827     8.2677     0.1806     0.0215    85.4248     2.3525
  383.5000    33.0286    19.9060   -33.6842     8.2676     0.1848     0.0154    83.8206     2.3441
  384.0000    33.0264    19.6274   -33.6842     8.2674     0.1854     0.0276    82.3622     2.3384
