~VERSION INFORMATION
 VERS.                2.0:   CWLS LOG ASCII STANDARD - VERSION 2.0
 WRAP.                 NO:   ONE LINE PER DEPTH STEP
~WELL INFORMATION
#MNEM.UNIT      DATA TYPE    INFORMATION
#----------   ------------   ------------------------------
 STRT.F            1.0000:   START DEPTH
 STOP.F          708.0000:   STOP DEPTH
 STEP.F            0.5000:   STEP LENGTH
 NULL.          -999.2500:   NO VALUE
 COMP. LAWRENCE/ALLISON INC:   COMPANY
 WELL. NPR 3 68-61 SX #34-34:   WELL
 FLD .             TEAPOT:   FIELD
 LOC .      S34 T39N R78W:   LOCATION
 CNTY.            NATRONA:   COUNTY
 STAT.            WYOMING:   STATE
 CTRY. UNITED STATES OF AMERICA:   COUNTRY
 SRVC.           Gearhart:   SERVICE COMPANY
 DATE.        22-SEP-1988:   LOGDATE
 API .       490251125200:   API NUMBER
~CURVE INFORMATION
#MNEM.UNIT       API CODE    CURVE DESCRIPTION
#----------   ------------   ------------------------------
 DEPT.F                  :   
 GRR .GAPI   07 310 01 00:   GAMMA RAY
 RILD.OHMM   07 120 46 00:   INDUCTION LOG DEEP RESISTIVITY
 RILM.OHMM   07 120 44 00:   INDUCTION LOG MEDIUM RESISTIVITY
~PARAMETER INFORMATION
#MNEM.UNIT          VALUE    DESCRIPTION
#----------   ------------   ------------------------------
 PD  .                 GL:   PERMANENT DATUM
 EPD .F              5067:   ELEVATION PERMANENT DATUM
 LMF .                 KB:   LOG MEASURED FROM
 DAPD.F                10:   FEET ABOVE PERMANENT DATUM
 DMF .                 KB:   DRILLING MEASURED FROM
 EKB .F              5077:   KELLING BUSHING
 EGL .F              5067:   GROUND LEVEL
 DATE.        22-SEP-1988:   RUN DATE
 RUN .                  1:   RUN NUMBER
 DD  .F               705:   DEPTH DRILLER
 DL  .F               716:   DEPTH LOGGER
 BLI .F             707.5:   BOTTOM LOG INTERVAL
 TLI .F                50:   TOP LOG INTERVAL
 CS  .IN            9.625:   CASING SIZE
 CBD .F                50:   CASING BOTTOM DRILLER
 CBL .F                50:   CASING BOTTOM LOGGER
 BS  .IN             8.75:   BIT SIZE
 BSD .F               705:   BIT SIZE AT DEPTH
 DFT .                AIR:   DRILLING FLUID TYPE
 TCS .HRS            2400:   TIME CURCULATED STOPPED
 TLAB.HRS            0251:   TIME LOGGER AT BOTTOM
 MRT .F                70:   MAXIMUM RECORDED TEMPERATURE
 LUN .               7597:   LOGGING UNIT NUMBER
 LUL .           GILLETTE:   LOGGING UNIT LOCATION
 ENGI.          HUCKFRIDT:   RECORDING ENGINEER
 WITN.             STRONG:   WITNESSED BY
 CLNT.            A2DTECH:   CLIENT CODE
 ORIG.           5" PRINT:   ORIGIN OF DATA
 UWI .       490251125200:   UNIQUE WELL ID
 DICO. A2D Technologies, Inc.:   DIGITIZING COMPANY
~OTHER INFORMATION
~A    DEPT      GRR      RILD       RILM   
# ...
  456.0000    55.3583    24.9976    35.0671
  456.5000    52.6318    25.3349    35.0525
  457.0000    54.1285    25.4993    34.3188
  457.5000    59.8484    25.4845    33.6004
  458.0000    62.5517    25.4726    32.8970
  458.5000    63.7949    25.2848    31.6910
  459.0000    67.0505    24.9248    29.8284
  459.5000    70.9605    24.7405    29.0020
  460.0000    74.2671    24.5557    28.3949
  460.5000    75.7667    24.0403    27.2277
  461.0000    74.5456    23.5320    25.9278
  461.5000    74.5340    23.3585    25.0934
  462.0000    78.1394    23.1862    24.2344
  462.5000    80.5411    22.6982    23.3754
  463.0000    83.8477    22.6876    22.3789
  463.5000    86.5510    23.1538    22.3714
  464.0000    86.2378    23.4636    22.5197
  464.5000    84.1146    23.9485    23.3072
  465.0000    78.1302    24.2689    24.2902
  465.5000    74.1366    24.4269    25.7581
  466.0000    75.3287    24.4150    27.1251
  466.5000    76.5238    24.5735    27.1138
  467.0000    77.7188    24.3894    26.3626
  467.5000    79.2155    23.8761    25.1040
  468.0000    80.4105    23.0515    23.4129
  468.5000    81.6056    22.4104    21.6594
  469.0000    80.9877    21.3384    20.5049
  469.5000    76.4513    20.1537    19.7989
  470.0000    75.5376    19.2100    18.8537
  470.5000    77.0314    18.4184    17.8294
  471.0000    79.1473    18.0307    16.8608
  471.5000    81.5302    17.7741    16.3746
  472.0000    84.2335    17.5210    15.9381
  472.5000    87.2385    17.5126    15.7132
  473.0000    88.7381    17.5027    15.4914
  473.5000    87.8186    17.4945    15.4863
  474.0000    86.6003    17.4864    15.5889
  474.5000    87.4908    17.5999    15.7103
  475.0000    88.0854    17.7141    15.9050
  475.5000    87.7693    17.8291    15.8997
  476.0000    86.2494    17.8187    16.2302
  476.5000    85.0311    17.9364    16.3366
  477.0000    85.0115    17.9260    16.5592
  477.5000    85.0479    18.0426    16.7851
  478.0000    85.9013    18.2858    16.7781
  478.5000    85.5890    18.4045    16.8908
  479.0000    86.4795    18.3938    17.0027
  479.5000    89.9463    18.2581    17.1143
  480.0000    91.2828    18.1235    17.1083
  480.5000    87.0451    18.1151    17.1024
  481.0000    84.3186    17.8572    17.0955
  481.5000    83.7036    17.7252    17.0898
  482.0000    83.6920    17.4712    16.7321
  482.5000    84.6053    17.3423    16.7265
  483.0000    87.2858    17.3342    16.6053
  483.5000    89.6875    17.2064    16.2387
  484.0000    90.5838    16.8442    15.8059
  484.5000    89.3626    16.7197    15.6914
  485.0000    88.4461    16.3662    15.3629
  485.5000    87.8310    16.0217    15.2516
  486.0000    88.1212    15.7937    14.9323
  486.5000    87.2017    15.4612    14.9099
  487.0000    85.6818    15.3472    14.5126
  487.5000    84.4636    15.0239    14.1105
  488.0000    84.7565    15.0155    14.0082
  488.5000    85.9487    15.0085    13.9067
  489.0000    87.4454    15.2110    13.9021
  489.5000    87.1292    15.3100    13.9942
  490.0000    84.7043    15.4091    14.0870
  490.5000    85.5977    15.4016    14.2792
  491.0000    86.7927    15.6079    14.4739
  491.5000    87.9878    15.6007    14.4679
  492.0000    89.1828    15.5934    14.5638
  492.5000    89.4729    15.5861    14.5588
  493.0000    89.7629    15.4712    14.4523
  493.5000    88.2401    15.3568    14.4474
  494.0000    87.0219    15.2421    14.2435
  494.5000    86.9825    14.9213    14.0425
  495.0000    88.2252    14.9143    13.8443
  495.5000    90.0008    14.7020    13.6487
  496.0000    91.1958    14.4927    13.5489
  496.5000    91.7904    14.4857    13.2652
  497.0000    92.0805    14.4775    13.0780
  497.5000    92.6693    14.4708    12.8934
  498.0000    91.4349    14.4641    12.9789
  498.5000    90.5316    14.4573    12.9744
  499.0000    90.5200    14.3507    12.9692
  499.5000    89.6034    14.2282    12.9649
  500.0000    88.0820    14.0298    12.8705
  500.5000    86.8606    13.8431    12.6888
  501.0000    86.8459    13.6477    12.5096
  501.5000    87.4345    13.3622    12.3330
  502.0000    88.3247    13.2653    12.1589
  502.5000    89.2150    13.1691    11.9043
  503.0000    89.5023    13.0726    11.7362
  503.5000    90.3921    12.8882    11.4904
  504.0000    89.7253    12.8838    11.3218
  504.5000    88.4997    12.7904    11.3243
  505.0000    87.9309    12.7861    11.3993
  505.5000    89.4245    12.7817    11.3945
  506.0000    90.6164    12.6891    11.3907
  506.5000    91.5066    12.5971    11.3868
  507.0000    91.4919    12.5058    11.3829
  507.5000    91.4771    12.5016    11.3791
  508.0000    90.8591    12.4972    11.2965
  508.5000    89.0344    12.4057    11.1370
  509.0000    88.6156    12.3158    10.9788
  509.5000    88.0517    12.1420    10.8246
  510.0000    88.6848    12.1379    10.7453
  510.5000    89.8767    11.8839    10.8165
  511.0000    90.7707    11.8799    10.8128
  511.5000    90.7522    11.7938    10.8091
  512.0000    91.0428    11.7083    10.7307
  512.5000    91.3298    11.7043    10.5061
  513.0000    91.6167    11.7004    10.4299
  513.5000    90.6933    11.7778    10.4263
  514.0000    90.0752    11.7728    10.3507
  514.5000    90.9655    11.7688    10.3472
  515.0000    91.2922    11.7648    10.4157
  515.5000    91.8410    11.7608    10.4113
  516.0000    91.2229    11.7568    10.4811
  516.5000    92.4111    11.9180    10.4767
  517.0000    92.6980    11.9969    10.6935
  517.5000    93.5919    12.0763    10.7653
  518.0000    92.3669    12.0712    10.9120
  518.5000    90.5422    12.0671    10.9843
  519.0000    89.0192    12.0629    11.0562
  519.5000    89.3062    12.0587    11.0524
  520.0000    89.2911    12.0538    11.0435
  520.5000    88.6727    11.9664    10.8804
  521.0000    87.4482    11.9624    10.6636
  521.5000    86.2305    11.7121    10.5131
  522.0000    88.0221    11.7081    10.4368
  522.5000    89.8173    11.6232    10.2894
  523.0000    91.9142    11.5390    10.1442
  523.5000    93.4077    11.3762    10.0009
  524.0000    94.9013    11.3723     9.7915
  524.5000    96.6965    11.3684     9.5865
  525.0000    99.0950    11.2859     9.4511
  525.5000   100.8902    11.2813     9.3765
  526.0000    97.8565    11.2774     9.3145
  526.5000    95.7301    11.2736     9.4407
  527.0000    94.5087    11.2698     9.4375
  527.5000    94.4940    11.1881     9.5008
  528.0000    94.7813    11.1070     9.4968
  528.5000    94.4645    11.2583     9.5605
  529.0000    92.5910    11.4911     9.5565
  529.5000    91.4184    11.9753     9.6868
  530.0000    92.0070    12.6543     9.8189
  530.5000    91.9886    13.1247    10.3835
  531.0000    91.6722    14.1286    11.4692
  531.5000    89.2442    15.4564    13.3110
  532.0000    81.0846    16.5608    14.4622
  532.5000    75.0367    17.8676    16.2679
  533.0000    72.9104    20.2365    19.0772
  533.5000    74.7056    22.6038    21.3106
  534.0000    75.2942    24.0515    22.9935
  534.5000    74.6436    25.2394    24.6378
  535.0000    73.4510    25.7614    26.9551
  535.5000    72.2297    25.7525    29.6957
  536.0000    71.3100    25.3632    30.7339
  536.5000    71.2952    25.0289    30.5106
  537.0000    72.4871    25.0204    29.6630
  537.5000    73.6827    24.1594    27.8573
  538.0000    74.5729    23.4905    25.8009
  538.5000    74.2529    22.5254    23.7310
  539.0000    73.6348    21.7502    21.3773
  539.5000    73.6201    20.7125    20.7849
  540.0000    76.4406    19.9998    20.0692
  540.5000    79.3184    19.4460    19.3781
  541.0000    80.5103    19.0390    18.8411
  541.5000    80.8009    18.7525    18.4465
  542.0000    81.3895    18.5040    18.2906
  542.5000    81.6764    18.3699    17.9278
  543.0000    81.6580    18.3637    17.9217
  543.5000    81.6433    18.3575    17.9157
  544.0000    81.6285    18.3512    17.9096
  544.5000    81.6138    18.3450    18.0297
  545.0000    81.5787    18.4680    18.0221
  545.5000    80.6787    18.4602    18.1418
  546.0000    80.3592    18.4539    18.1353
  546.5000    80.0428    18.4475    18.1292
