~VERSION INFORMATION
 VERS.                2.0:   CWLS LOG ASCII STANDARD - VERSION 2.0
 WRAP.                 NO:   ONE LINE PER DEPTH STEP
~WELL INFORMATION
#MNEM.UNIT      DATA TYPE    INFORMATION
#----------   ------------   ------------------------------
 STRT.F           42.0000:   START DEPTH
 STOP.F          612.0000:   STOP DEPTH
 STEP.F            0.5000:   STEP LENGTH
 NULL.          -999.2500:   NO VALUE
 COMP. FENIX AND SCISSON INCORPORATED:   COMPANY
 WELL. RES 3 TEAPOT DOM #25SX11-11:   WELL
 FLD .             TEAPOT:   FIELD
 LOC .      S11 T38N R78W:   LOCATION
 CNTY.            NATRONA:   COUNTY
 STAT.            WYOMING:   STATE
 CTRY. UNITED STATES OF AMERICA:   COUNTRY
 SRVC.            Unknown:   SERVICE COMPANY
 DATE.        16-FEB-1978:   LOGDATE
 API .       490251058000:   API NUMBER
~CURVE INFORMATION
#MNEM.UNIT       API CODE    CURVE DESCRIPTION
#----------   ------------   ------------------------------
 DEPT.F                  :   
 ILD .OHMM   05 120 46 00:   INDUCTION LOG DEEP
 SN  .OHMM   05 040 16 00:   SHORT NORMAL 16"
 SPR .MV     05 010 01 00:   SPONTANEOUS POTENTIAL FROM RES.
 CALD.IN     45 280 60 00:   CALIPER FROM DENSITY LOG
 CORR.G/C3   45 356 01 00:   DENSITY CORRECTION
 DPHI.DEC    45 890 12 00:   DENSITY POROSITY SANDSTONE
 GRD .GAPI   45 310 01 00:   GAMMA RAY FROM DENSITY LOG
 RHOB.G/C3   45 350 01 00:   BULK DENSITY
~PARAMETER INFORMATION
#MNEM.UNIT          VALUE    DESCRIPTION
#----------   ------------   ------------------------------
 PD  .                 GL:   PERMANENT DATUM
 EPD .F              5167:   ELEVATION PERMANENT DATUM
 LMF .                 KB:   LOG MEASURED FROM
 DAPD.F                 3:   FEET ABOVE PERMANENT DATUM
 DMF .                 KB:   DRILLING MEASURED FROM
 EKB .F              5170:   KELLING BUSHING
 EGL .F              5167:   GROUND LEVEL
 DATE.        16-FEB-1978:   RUN DATE
 RUN .                  1:   RUN NUMBER
 DD  .F               610:   DEPTH DRILLER
 DL  .F               615:   DEPTH LOGGER
 BLI .F               610:   BOTTOM LOG INTERVAL
 TLI .F                40:   TOP LOG INTERVAL
 CS  .IN            8.625:   CASING SIZE
 CBD .F                40:   CASING BOTTOM DRILLER
 CBL .F                40:   CASING BOTTOM LOGGER
 BS  .IN            7.875:   BIT SIZE
 BSD .F               610:   BIT SIZE AT DEPTH
 DFT .        LIGNO/ SULF:   DRILLING FLUID TYPE
 DFD .                8.7:   DRILLING FLUID DENSITY
 DFV .                 30:   DRILLING FLUID VISCOSITY
 DFPH.                 10:   DRILLING FLUID PH
 DFL .                4.6:   DRILLING FLUID LOSS
 MSS .           FLOWLINE:   MUD SAMPLE SOURCE
 RMS .OHMM            1.7:   RESISTIVITY MUD SAMPLE
 MST .F                69:   MUD SAMPLE TEMPERATURE
 RMF .OHMM            1.5:   RESISTIVITY MUD FILTRATE SAMPLE
 MFST.F                70:   MUD FILTRATE SAMPLE TEMPERATURE
 RMC .OHMM            2.5:   RESISTIVITY MUD CAKE
 MCST.F                70:   MUD CAKE SAMPLE TEMPERATURE
 MFSS.               MEAS:   MUD FILTRATE SAMPLE SOURCE
 RMB .OHMM            1.6:   RESISTIVITY MUD AT BHT
 BHT .F                70:   BOTTOM HOLE TEMPERATURE
 TCS .HRS               3:   TIME CURCULATED STOPPED
 MRT .F                70:   MAXIMUM RECORDED TEMPERATURE
 LUN .               2958:   LOGGING UNIT NUMBER
 LUL .             CASPER:   LOGGING UNIT LOCATION
 ENGI.            POINTER:   RECORDING ENGINEER
 WITN.           MCGINLEY:   WITNESSED BY
 CLNT.            A2DTECH:   CLIENT CODE
 ORIG.           5" PRINT:   ORIGIN OF DATA
 UWI .       490251058000:   UNIQUE WELL ID
 DICO. A2D Technologies, Inc.:   DIGITIZING COMPANY
~OTHER INFORMATION
~A   DEPT      ILD         SN         SPR      CALD       CORR       DPHI        GRD       RHOB   
# ...
  406.5000     6.8834     7.3908   -13.3796     7.8754     0.0335     0.1013   102.1941     2.4946
  407.0000     6.6793     7.4386   -12.4850     7.8746     0.0334     0.1146   106.4100     2.4751
  407.5000     6.4098     7.3298   -11.8763     7.8737     0.0348     0.1383   110.1735     2.4497
  408.0000     6.0584     7.2239   -11.7566     7.8730     0.0393     0.1417   110.7695     2.4284
  408.5000     5.6867     7.1194   -11.7748     7.8876     0.0421     0.1291   110.3079     2.4239
  409.0000     5.2277     6.8243   -11.7893     7.8715     0.0271     0.1216   110.1497     2.4448
  409.5000     5.1158     6.4435   -11.8039     7.8708     0.0150     0.1177   110.1424     2.4704
  410.0000     5.0763     5.9302   -11.8184     7.6586     0.0210     0.1081   110.5876     2.4876
  410.5000     5.0722     5.8040   -11.9995     7.6276     0.0299     0.1009   113.5969     2.4928
  411.0000     5.0329     5.8405   -12.4572     7.6118     0.0313     0.0937   112.3830     2.4966
  411.5000     5.0993     5.9183   -12.6233     7.5958     0.0327     0.0895   106.5836     2.5025
  412.0000     5.1664     6.0388   -12.9409     7.5799     0.0343     0.0877   103.0151     2.5077
  412.5000     5.3066     6.2916   -13.1070     7.5792     0.0340     0.0851   102.2537     2.5107
  413.0000     5.7632     6.9352   -13.2730     7.6238     0.0340     0.0833   102.3972     2.5137
  413.5000     6.2158     7.4217   -13.5909     7.6986     0.0339     0.0818   103.7474     2.5174
  414.0000     6.7506     7.7863   -13.6088     7.8338     0.0353     0.0821   102.9859     2.5196
  414.5000     7.0326     8.1687   -13.6234     7.8784     0.0338     0.0830   101.4703     2.5211
  415.0000     7.2311     8.4532   -13.6379     7.8152     0.0322     0.0843   100.4072     2.5225
  415.5000     7.3692     8.6840   -13.6525     7.7559     0.0306     0.0873    99.9472     2.5225
  416.0000     7.4161     8.8609   -13.6671     7.8307     0.0290     0.0835   100.2400     2.5164
  416.5000     7.4617     8.9789   -13.6818     7.8453     0.0334     0.0789   100.8360     2.5127
  417.0000     7.4542     9.0984   -13.6998     7.7990     0.0349     0.0804   101.5829     2.5254
  417.5000     7.5016     9.1541   -13.7144     7.7681     0.0288     0.0886   101.5756     2.5246
  418.0000     7.5464     9.0847   -13.7289     7.7522     0.0242     0.0931   102.7749     2.5191
  418.5000     7.5401     9.0786   -13.7435     7.7364     0.0242     0.0940   104.7284     2.5050
  419.0000     7.5339     9.0097   -13.7580     7.7356     0.0241     0.0919   105.9277     2.5019
  419.5000     7.5805     8.8794   -13.6211     7.7348     0.0240     0.0916   105.1645     2.5019
  420.0000     7.6271     8.8734   -13.6393     7.7340     0.0255     0.0908   104.5538     2.5041
  420.5000     7.6195     8.8047   -13.6538     7.7333     0.0254     0.0896   104.0940     2.5071
  421.0000     7.6679     8.7379   -13.6684     7.7477     0.0283     0.0884   103.7851     2.5072
  421.5000     7.6602     8.7929   -13.8345     7.7773     0.0312     0.0863   103.1745     2.5055
  422.0000     7.7075     8.7870   -14.0005     7.8217     0.0296     0.0830   102.2622     2.5095
  422.5000     7.7011     8.8423   -14.0152     7.8515     0.0281     0.0801   101.0483     2.5160
  423.0000     7.6946     8.8364   -14.0333     7.8958     0.0265     0.0801    97.9437     2.5234
  423.5000     7.7423     8.8303   -14.1994     7.9402     0.0249     0.0841    93.1887     2.5294
  424.0000     7.8442     8.8860   -14.0588     7.9848     0.0233     0.0921    92.4273     2.5204
  424.5000     7.9459     9.0043   -14.0770     8.0143     0.0233     0.0985    93.9283     2.5098
  425.0000     8.0522     9.1862   -14.0915     8.0135     0.0262     0.1078    94.2244     2.5030
  425.5000     8.1018     9.3749   -14.1061     8.0128     0.0276     0.1265    94.8186     2.4877
  426.0000     8.1502     9.5659   -13.9691     8.0121     0.0275     0.1430    96.0180     2.4225
  426.5000     8.0870     9.6246   -13.9873     7.9955     0.0305     0.1659   112.8732     2.3902
  427.0000     7.8494     9.4756   -14.0019     7.9653     0.0559     0.1710   116.8160     2.3774
  427.5000     7.0254     9.0276   -14.0164     7.9040     0.0677     0.1542   115.9038     2.3751
  428.0000     6.1092     8.2426   -14.0310     7.8428     0.0557     0.1233   111.0699     2.4044
  428.5000     5.8551     7.5259   -13.8939     8.7484     0.0331     0.0725   102.0128     2.4644
  429.0000     5.7697     7.1144   -13.7571     8.2039     0.0331     0.0776    95.0674     2.5236
  429.5000     5.7650     7.0115   -13.6237     8.0370     0.0330     0.0771    95.2112     2.5357
  430.0000     5.8005     7.0068   -13.6383     7.9909     0.0299     0.0747    95.9578     2.5289
  430.5000     5.9179     7.0020   -13.6529     7.9600     0.0299     0.0765    97.5189     2.5304
  431.0000     6.1208     7.1933   -13.8189     7.9591     0.0298     0.0780    99.1088     2.5319
  431.5000     6.7875     8.2598   -13.9850     7.9432     0.0297     0.0732   100.0064     2.5303
  432.0000     7.6852     9.5506   -14.4728     7.8972     0.0326     0.0745    99.8483     2.5302
  432.5000     8.6415    10.3020   -14.9269     7.8360     0.0325     0.0769    99.0869     2.5263
  433.0000     9.5827    10.5869   -15.2444     7.7749     0.0340     0.0853    98.1746     2.5242
  433.5000     9.7108    10.6519   -15.4105     7.7441     0.0369     0.0838    97.9965     2.5241
  434.0000     9.5672    10.7935   -15.2699     7.8791     0.0383     0.0842    99.7084     2.5234
  434.5000     9.3574    10.8615   -15.4396     7.9701     0.0412     0.0854   101.3201     2.5241
  435.0000     9.0966    10.8524   -15.6061     8.0287     0.0395     0.0882   101.3110     2.5188
  435.5000     8.9657    10.8451   -15.7754     8.0582     0.0471     0.0950   100.3987     2.5112
  436.0000     9.0819    10.9894   -15.7900     8.0573     0.0590     0.1014    96.9223     2.5004
  436.5000     9.3302    11.1375   -16.1076     8.0566     0.0724     0.1068    92.0885     2.4879
  437.0000     9.5853    11.2839   -16.4251     8.0558     0.0798     0.1131    81.9756     2.4796
  437.5000    10.1249    11.5270   -16.8942     8.0249     0.0842     0.1177    71.8627     2.4705
  438.0000    10.9961    12.0773   -17.8545     7.9939     0.0826     0.1276    70.1558     2.4592
  438.5000    12.2157    13.4879   -19.5028     7.9466     0.0646     0.1890    68.5281     2.4006
  439.0000    13.4255    15.0632   -19.6688     7.9017     0.0583     0.2086    67.9175     2.3585
  439.5000    14.3795    16.3616   -19.9864     7.8858     0.0569     0.2097    67.1560     2.3265
  440.0000    15.6168    17.4054   -20.4555     7.8851     0.0554     0.2016    66.0929     2.3141
  440.5000    17.1978    19.0374   -21.2276     7.8997     0.0463     0.1890    57.7900     2.3230
  441.0000    18.5471    20.4425   -21.8485     7.9592     0.0328     0.1956    58.2352     2.3350
  441.5000    19.0542    23.4126   -23.0786     7.9910     0.0297     0.2035    60.6812     2.3395
  442.0000    19.7117    24.7339   -23.5477     7.9577     0.0386     0.2089    63.7994     2.3327
  442.5000    20.3918    26.1296   -23.5622     7.6110     0.0415     0.2143    66.6579     2.3229
  443.0000    20.8048    27.2234   -23.5768     7.1857     0.0400     0.2126    67.8572     2.3085
  443.5000    21.3006    27.5903   -23.5914     7.3662     0.0399     0.2111    68.6041     2.3093
  444.0000    21.3560    27.5672   -23.6061     7.7280     0.0398     0.2114    69.0493     2.3100
  444.5000    21.3344    27.3576   -23.4726     7.9085     0.0367     0.2120    69.1931     2.3099
  445.0000    21.3172    26.9580   -22.8811     7.9231     0.0337     0.2156    69.0347     2.3077
  445.5000    21.3000    26.7535   -22.2896     7.8013     0.0306     0.2193    68.5344     2.3016
  446.0000    21.2828    26.5505   -21.9975     7.7704     0.0260     0.2013    66.9067     2.2932
  446.5000    21.1184    26.1666   -22.0157     7.8301     0.0230     0.1616    67.6535     2.3495
