~VERSION INFORMATION
 VERS.                2.0:   CWLS LOG ASCII STANDARD - VERSION 2.0
 WRAP.                 NO:   ONE LINE PER DEPTH STEP
~WELL INFORMATION
#MNEM.UNIT      DATA TYPE    INFORMATION
#----------   ------------   ------------------------------
 STRT.F            6.0000:   START DEPTH
 STOP.F          606.0000:   STOP DEPTH
 STEP.F            0.5000:   STEP LENGTH
 NULL.          -999.2500:   NO VALUE
 COMP. LAWRENCE/ALLISON INC:   COMPANY
 WELL.       61 STX #15-3:   WELL
 FLD .             TEAPOT:   FIELD
 LOC .       S3 T38N R78W:   LOCATION
 CNTY.            NATRONA:   COUNTY
 STAT.            WYOMING:   STATE
 CTRY. UNITED STATES OF AMERICA:   COUNTRY
 SRVC.      Dresser Atlas:   SERVICE COMPANY
 DATE.        23-SEP-1987:   LOGDATE
 API .       490251115900:   API NUMBER
~CURVE INFORMATION
#MNEM.UNIT       API CODE    CURVE DESCRIPTION
#----------   ------------   ------------------------------
 DEPT.F                  :   
 GRR .GAPI   07 310 01 00:   GAMMA RAY
 RILD.OHMM   07 120 46 00:   INDUCTION LOG DEEP RESISTIVITY
 RILM.OHMM   07 120 44 00:   INDUCTION LOG MEDIUM RESISTIVITY
~PARAMETER INFORMATION
#MNEM.UNIT          VALUE    DESCRIPTION
#----------   ------------   ------------------------------
 PD  .                 GL:   PERMANENT DATUM
 EPD .F              5230:   ELEVATION PERMANENT DATUM
 LMF .                 KB:   LOG MEASURED FROM
 DAPD.F                 8:   FEET ABOVE PERMANENT DATUM
 DMF .                 KB:   DRILLING MEASURED FROM
 EKB .F              5238:   KELLING BUSHING
 EGL .F              5230:   GROUND LEVEL
 DATE.        23-SEP-1987:   RUN DATE
 RUN .                  1:   RUN NUMBER
 DD  .F               618:   DEPTH DRILLER
 DL  .F               614:   DEPTH LOGGER
 BLI .F               612:   BOTTOM LOG INTERVAL
 TLI .F                 8:   TOP LOG INTERVAL
 CS  .IN            9.625:   CASING SIZE
 CBD .F                50:   CASING BOTTOM DRILLER
 CBL .F                49:   CASING BOTTOM LOGGER
 BS  .IN             8.75:   BIT SIZE
 BSD .F               618:   BIT SIZE AT DEPTH
 DFT .                AIR:   DRILLING FLUID TYPE
 TCS .HRS               1:   TIME CURCULATED STOPPED
 LUN .            HL-6274:   LOGGING UNIT NUMBER
 LUL .           GILLETTE:   LOGGING UNIT LOCATION
 ENGI.            PANASUK:   RECORDING ENGINEER
 WITN.             STRONG:   WITNESSED BY
 CLNT.            A2DTECH:   CLIENT CODE
 ORIG.       2", 5" PRINT:   ORIGIN OF DATA
 UWI .       490251115900:   UNIQUE WELL ID
 DICO. A2D Technologies, Inc.:   DIGITIZING COMPANY
~OTHER INFORMATION
~A    DEPT      GRR      RILD       RILM   
# ...
  188.0000   119.1017     8.0716     8.7309
  188.5000   120.2564     8.0770     8.6774
  189.0000   122.5225     8.0832     8.5650
  189.5000   127.9410     8.0904     8.5734
  190.0000   132.0101     8.1524     8.5801
  190.5000   132.7197     8.1582     8.5866
  191.0000   133.4069     8.1641     8.6548
  191.5000   135.0022     8.1713     8.6616
  192.0000   138.3967     8.1772     8.6678
  192.5000   140.0150     8.2399     8.6751
  193.0000   140.4629     8.3608     8.7424
  193.5000   138.4653     8.4263     8.8104
  194.0000   133.7637     8.5498     8.8794
  194.5000   129.8681     8.6752     9.0101
  195.0000   128.8585     8.7418     9.1445
  195.5000   129.3346     8.8102     9.2791
  196.0000   129.5806     8.8777     9.4157
  196.5000   128.4826     8.8841     9.4230
  197.0000   128.2735     8.8907     9.4977
  197.5000   129.8741     8.8984     9.5710
  198.0000   131.9193     8.9048     9.5779
  198.5000   132.8399     8.9111     9.5860
  199.0000   130.8423     8.8576     9.5938
  199.5000   129.2892     8.8013     9.5367
  200.0000   130.6597     8.6865     9.4765
  200.5000   133.1598     8.5748     9.2909
  201.0000   129.1330     8.4630     9.1092
  201.5000   124.4344     8.3541     8.9911
  202.0000   123.3260     8.3557     8.8604
  202.5000   127.6257     8.3004     8.6764
  203.0000   129.6712     8.1906     8.4924
  203.5000   131.7167     8.0255     8.2987
  204.0000   132.6377     7.8658     8.0782
  204.5000   130.6405     7.7548     7.9716
  205.0000   131.5616     7.6074     7.8691
  205.5000   132.2523     7.5058     7.8207
  206.0000   129.3556     7.4579     7.8822
  206.5000   128.7024     7.4628     7.8879
  207.0000   128.0546     7.4669     8.0036
  207.5000   126.2770     7.5236     8.1209
  208.0000   123.1500     7.5276     8.2400
  208.5000   121.5973     7.5315     8.4203
  209.0000   122.0885     7.6123     8.6031
  209.5000   123.6695     7.6447     8.6691
  210.0000   125.9399     7.7020     8.7356
  210.5000   127.9854     7.7603     8.8026
  211.0000   129.5810     7.8726     8.8091
  211.5000   130.5105     7.9865     8.8782
  212.0000   133.0027     8.1097     8.8846
  212.5000   135.0481     8.2775     8.9528
  213.0000   135.2891     8.3973     8.9593
  213.5000   131.9426     8.4600     8.9659
  214.0000   127.0135     8.5824     8.9739
  214.5000   127.2683     8.6467     8.9186
  215.0000   126.1653     8.6523     8.9251
  215.5000   125.5068     8.5960     8.8073
  216.0000   126.4331     8.4824     8.7545
  216.5000   128.9284     8.4293     8.7612
  217.0000   129.6245     8.2531     8.8297
  217.5000   128.5269     8.0962     8.7736
  218.0000   128.3181     8.0435     8.8426
  218.5000   128.5698     8.1047     8.8490
  219.0000   128.8162     8.1653     8.9228
  219.5000   128.6128     8.2019     8.9869
  220.0000   127.2903     8.2889     9.0558
  220.5000   126.1820     8.3509     9.1253
  221.0000   127.5581     8.4717     9.2591
  221.5000   126.9049     8.5351     9.3319
  222.0000   122.6238     8.6627     9.5343
  222.5000   118.6324     8.7850     9.6075
  223.0000   117.5294     8.9740     9.7483
  223.5000   118.0007     9.1039     9.8913
  224.0000   119.8212     9.2998    10.1059
  224.5000   121.1920     9.5748    10.4079
  225.0000   120.3193     9.9091    10.7724
  225.5000   118.7612    10.1926    11.1595
  226.0000   118.3329    10.4842    11.4808
  226.5000   118.3597    10.8590    11.8114
  227.0000   117.2568    11.2578    12.2427
  227.5000   114.9775    11.6508    12.9434
  228.0000   110.7833    11.9842    13.3161
  228.5000   107.2066    12.3270    13.5113
  229.0000   105.4290    12.5922    13.6150
  229.5000   106.1251    12.6866    13.6249
  230.0000   107.5262    12.7829    13.4500
  230.5000   109.5467    12.6997    13.2749
  231.0000   110.9175    12.7081    13.0997
  231.5000   112.0634    12.4536    12.9292
  232.0000   112.9844    12.2778    12.6752
  232.5000   113.6807    11.9613    12.5858
  233.0000   113.9323    11.7217    12.3496
  233.5000   112.6044    11.5667    12.1889
  234.0000   109.9273    11.4559    12.1115
  234.5000   110.3985    11.4094    11.9560
  235.0000   112.2191    11.2702    11.8822
  235.5000   113.5907    11.2762    11.8089
  236.0000   113.6167    11.2028    11.7361
  236.5000   112.5137    11.2102    11.6398
  237.0000   113.2099    11.1388    11.5610
  237.5000   112.1069    11.1461    11.5223
  238.0000   111.0039    11.1520    11.5328
  238.5000   112.1552    11.0795    11.4617
  239.0000   113.5260    11.0868    11.4700
  239.5000   114.2221    11.0161    11.4783
  240.0000   112.2196    10.9459    11.4867
  240.5000   109.5300    10.8762    11.4158
  241.0000   109.1141    10.8083    11.4262
  241.5000   111.3898    10.8140    11.4345
  242.0000   113.4353    10.7451    11.4428
  242.5000   115.0310    10.7522    11.4511
  243.0000   116.4033    10.6830    11.4596
  243.5000   117.0979    10.6156    11.4699
  244.0000   114.4261    10.6212    11.3970
  244.5000   110.8493    10.5440    11.3288
  245.0000   105.4735    10.4139    11.2569
  245.5000   102.3466    10.2776    11.1894
  246.0000   104.9745    10.2107    11.0438
  246.5000   110.0410    10.1469    10.8269
  247.0000   113.4358    10.0733    10.6840
  247.5000   115.4813     9.9490    10.5449
  248.0000   111.4548     9.8187    10.4816
  248.5000   110.3306     9.7549    10.4171
  249.0000   111.5031     9.6272    10.3529
  249.5000   114.2232     9.4998    10.2181
  250.0000   114.9140     9.4393    10.1551
  250.5000   113.1409     9.3792    10.0940
  251.0000   113.8486     9.3194    10.0320
  251.5000   114.3144     9.2611     9.9701
  252.0000   113.6613     9.2022     9.9086
  252.5000   113.2329     9.2083     9.8475
  253.0000   112.5797     9.2131     9.7867
  253.5000   111.7017     9.1004     9.7783
  254.0000   109.7045     9.0421     9.7491
  254.5000   109.0460     9.0496     9.7503
  255.0000   109.2977     9.0570     9.7580
  255.5000   110.6685     9.0629     9.7657
  256.0000   112.0393     9.0048     9.7059
  256.5000   111.3561     8.7662     9.5047
  257.0000   110.2885     8.5252     9.2638
  257.5000   109.8602     8.2490     9.0182
  258.0000   108.7572     8.1397     8.8400
  258.5000   106.5298     8.0330     8.7255
  259.0000   106.3264     7.9842     8.5547
  259.5000   107.4776     7.9343     8.5025
  260.0000   108.6236     7.8861     8.4505
  260.5000   110.4441     7.8912     8.4572
  261.0000   112.4896     7.8964     8.5227
  261.5000   115.9565     7.9018     8.5310
  262.0000   118.2203     7.9630     8.5377
  262.5000   119.5846     7.9682     8.5444
  263.0000   119.5995     8.0288     8.6105
  263.5000   119.1646     8.0899     8.7390
  264.0000   120.0829     8.2663     8.8676
  264.5000   121.6683     8.3870     9.0606
  265.0000   119.8878     8.5297     9.1940
  265.5000   119.2281     8.6337     9.3975
  266.0000   122.1703     8.6440     9.6671
  266.5000   117.9123     8.7065     9.8095
  267.0000   116.7991     8.7122     9.8853
  267.5000   118.6394     8.7179     9.8931
  268.0000   121.7839     8.6635     9.8326
  268.5000   122.9232     8.6695     9.5738
  269.0000   122.7096     8.6755     9.3200
  269.5000   121.8287     8.6819     9.1358
  270.0000   120.0445     8.6875     9.0800
  270.5000   120.0631     8.6959     9.0890
  271.0000   119.6245     8.7600     9.0961
  271.5000   119.1897     8.7666     9.1664
  272.0000   117.8531     8.7723     9.3014
  272.5000   115.6288     8.8391     9.3789
  273.0000   116.3184     8.8453     9.4477
  273.5000   117.6826     8.8521     9.5207
  274.0000   118.8220     8.8928     9.5282
  274.5000   118.8373     8.9253     9.5357
  275.0000   117.2813     8.9365     9.6097
  275.5000   117.0676     9.0005     9.6189
  276.0000   117.7610     9.0064     9.6265
  276.5000   119.5750     9.0123     9.6340
  277.0000   120.4932     9.0182     9.6417
  277.5000   120.5081     8.9619     9.5827
  278.0000   118.9488     8.9059     9.5242
  278.5000   117.6139     8.8503     9.4026
