~VERSION INFORMATION
 VERS.                2.0:   CWLS LOG ASCII STANDARD - VERSION 2.0
 WRAP.                 NO:   ONE LINE PER DEPTH STEP
~WELL INFORMATION
#MNEM.UNIT      DATA TYPE    INFORMATION
#----------   ------------   ------------------------------
 STRT.F           30.0000:   START DEPTH
 STOP.F          620.0000:   STOP DEPTH
 STEP.F            0.5000:   STEP LENGTH
 NULL.          -999.2500:   NO VALUE
 COMP. FENIX & SCISSON INC:   COMPANY
 WELL.       NPR-3 #62-15:   WELL
 FLD .             TEAPOT:   FIELD
 LOC .      S15 T38N R78W:   LOCATION
 CNTY.            NATRONA:   COUNTY
 STAT.            WYOMING:   STATE
 CTRY. UNITED STATES OF AMERICA:   COUNTRY
 SRVC.           BIRDWELL:   SERVICE COMPANY
 DATE.        08-JUN-1978:   LOGDATE
 API .       490251063700:   API NUMBER
~CURVE INFORMATION
#MNEM.UNIT       API CODE    CURVE DESCRIPTION
#----------   ------------   ------------------------------
 DEPT.F                  :   
 SPR .MV     05 010 01 00:   SPONTANEOUS POTENTIAL FROM RES.
 SN  .OHMM   05 040 16 00:   SHORT NORMAL 16"
 ILD .OHMM   05 120 46 00:   INDUCTION LOG DEEP
 CALD.IN     45 280 60 00:   CALIPER FROM DENSITY LOG
 GRD .GAPI   45 310 01 00:   GAMMA RAY FROM DENSITY LOG
 CORR.G/C3   45 356 01 00:   DENSITY CORRECTION
 DPHI.DEC    45 890 12 00:   DENSITY POROSITY SANDSTONE
 DEN .G/C3   45 350 01 00:   DENSITY
~PARAMETER INFORMATION
#MNEM.UNIT          VALUE    DESCRIPTION
#----------   ------------   ------------------------------
 PD  .                 GL:   PERMANENT DATUM
 EPD .F              5246:   ELEVATION PERMANENT DATUM
 LMF .                 KB:   LOG MEASURED FROM
 DAPD.F                 4:   FEET ABOVE PERMANENT DATUM
 DMF .                 KB:   DRILLING MEASURED FROM
 EKB .F              5250:   KELLING BUSHING
 EGL .F              5246:   GROUND LEVEL
 DATE.        08-JUN-1978:   RUN DATE
 RUN .                  1:   RUN NUMBER
 DD  .F               620:   DEPTH DRILLER
 DL  .F               627:   DEPTH LOGGER
 BLI .F               620:   BOTTOM LOG INTERVAL
 TLI .F                42:   TOP LOG INTERVAL
 CS  .IN            8.625:   CASING SIZE
 CBD .F                40:   CASING BOTTOM DRILLER
 CBL .F                42:   CASING BOTTOM LOGGER
 BS  .IN            7.875:   BIT SIZE
 BSD .F               620:   BIT SIZE AT DEPTH
 DFT .                KCL:   DRILLING FLUID TYPE
 DFD .                8.7:   DRILLING FLUID DENSITY
 DFV .                 31:   DRILLING FLUID VISCOSITY
 DFPH.               10.5:   DRILLING FLUID PH
 DFL .                 10:   DRILLING FLUID LOSS
 MSS .           FLOWLINE:   MUD SAMPLE SOURCE
 RMS .OHMM            .26:   RESISTIVITY MUD SAMPLE
 MST .F                76:   MUD SAMPLE TEMPERATURE
 RMF .OHMM            .28:   RESISTIVITY MUD FILTRATE SAMPLE
 MFST.F                76:   MUD FILTRATE SAMPLE TEMPERATURE
 RMC .OHMM            .40:   RESISTIVITY MUD CAKE
 MCST.F                77:   MUD CAKE SAMPLE TEMPERATURE
 MFSS.               MEAS:   MUD FILTRATE SAMPLE SOURCE
 MCSS.               MEAS:   MUD CAKE SAMPLE SOURCE
 RMB .OHMM            .28:   RESISTIVITY MUD AT BHT
 BHT .F                70:   BOTTOM HOLE TEMPERATURE
 TCS .HRS            0400:   TIME CURCULATED STOPPED
 MRT .F                70:   MAXIMUM RECORDED TEMPERATURE
 LUN .               2958:   LOGGING UNIT NUMBER
 LUL .               CASP:   LOGGING UNIT LOCATION
 ENGI.             MILLER:   RECORDING ENGINEER
 WITN.           MCGINLEY:   WITNESSED BY
 CLNT.            A2DTECH:   CLIENT CODE
 ORIG.           5" PRINT:   ORIGIN OF DATA
 UWI .       490251063700:   UNIQUE WELL ID
 DICO. A2D Technologies, Inc.:   DIGITIZING COMPANY
~OTHER INFORMATION
~A   DEPT      SPR         SN        ILD       CALD        GRD       CORR       DPHI        DEN   
   30.0000  -999.2500  -999.2500  -999.2500  -999.2500  -999.2500  -999.2500  -999.2500  -999.2500
   30.5000  -999.2500  -999.2500  -999.2500  -999.2500    56.9955  -999.2500  -999.2500  -999.2500
   31.0000  -999.2500  -999.2500  -999.2500  -999.2500    60.3107  -999.2500  -999.2500  -999.2500
   31.5000  -999.2500  -999.2500  -999.2500  -999.2500    59.3479  -999.2500  -999.2500  -999.2500
   32.0000  -999.2500  -999.2500  -999.2500  -999.2500    58.6104  -999.2500  -999.2500  -999.2500
   32.5000  -999.2500  -999.2500  -999.2500  -999.2500    58.3211  -999.2500  -999.2500  -999.2500
   33.0000  -999.2500  -999.2500  -999.2500  -999.2500    58.9488  -999.2500  -999.2500  -999.2500
   33.5000  -999.2500  -999.2500  -999.2500  -999.2500    60.2578  -999.2500  -999.2500  -999.2500
   34.0000  -999.2500  -999.2500  -999.2500  -999.2500    60.2470  -999.2500  -999.2500  -999.2500
   34.5000  -999.2500  -999.2500  -999.2500  -999.2500    60.2364  -999.2500  -999.2500  -999.2500
   35.0000  -999.2500  -999.2500  -999.2500  -999.2500    60.9388  -999.2500  -999.2500  -999.2500
   35.5000  -999.2500  -999.2500  -999.2500  -999.2500    64.4333  -999.2500  -999.2500  -999.2500
   36.0000  -999.2500  -999.2500  -999.2500  -999.2500    63.8176  -999.2500  -999.2500  -999.2500
   36.5000  -999.2500  -999.2500  -999.2500  -999.2500    62.3010  -999.2500  -999.2500  -999.2500
   37.0000  -999.2500  -999.2500  -999.2500  -999.2500    61.3868  -999.2500  -999.2500  -999.2500
   37.5000  -999.2500  -999.2500  -999.2500  -999.2500    60.7738  -999.2500  -999.2500  -999.2500
   38.0000  -999.2500  -999.2500  -999.2500  -999.2500    58.0241  -999.2500  -999.2500  -999.2500
   38.5000  -999.2500  -999.2500  -999.2500  -999.2500    51.2656  -999.2500  -999.2500  -999.2500
   39.0000  -999.2500  -999.2500  -999.2500  -999.2500    52.0080  -999.2500  -999.2500  -999.2500
   39.5000  -999.2500  -999.2500  -999.2500  -999.2500    53.2023  -999.2500  -999.2500  -999.2500
   40.0000  -999.2500  -999.2500  -999.2500  -999.2500    54.0980  -999.2500  -999.2500  -999.2500
   40.5000  -999.2500  -999.2500  -999.2500  -999.2500    54.5366  -999.2500  -999.2500  -999.2500
   41.0000  -999.2500  -999.2500  -999.2500  -999.2500    56.0320  -999.2500  -999.2500  -999.2500
   41.5000  -999.2500  -999.2500  -999.2500  -999.2500    59.6359  -999.2500  -999.2500  -999.2500
   42.0000  -999.2500  -999.2500  -999.2500  -999.2500    61.3339  -999.2500  -999.2500  -999.2500
   42.5000  -999.2500  -999.2500  -999.2500     8.2598    59.7365  -999.2500  -999.2500  -999.2500
   43.0000  -999.2500  -999.2500  -999.2500     8.3346    51.8404    -0.4581  -999.2500  -999.2500
   43.5000  -999.2500  -999.2500  -999.2500     8.4095    53.1632    -0.1334  -999.2500  -999.2500
   44.0000  -999.2500  -999.2500  -999.2500     8.4392    68.5061     0.1946  -999.2500  -999.2500
   44.5000  -999.2500  -999.2500  -999.2500     8.3935    73.7746     0.1213     0.1634     2.4055
   45.0000  -999.2500  -999.2500  -999.2500     8.3027    74.9448     0.1587     0.1532     2.3575
   45.5000  -999.2500  -999.2500  -999.2500     8.2119    74.7274     0.1302     0.1502     2.4197
   46.0000  -999.2500  -999.2500  -999.2500     8.0458    72.8333     0.0928     0.1655     2.4144
   46.5000   -14.9143    10.0977  -999.2500     8.1507    68.7706     0.0614     0.1667     2.3979
   47.0000   -14.9010    10.1018  -999.2500     8.2256    65.8223     0.0524     0.1636     2.3911
   47.5000   -14.7380    10.1759  -999.2500     8.2703    65.5348     0.0449     0.1646     2.3910
   48.0000   -14.7246    10.3933  -999.2500     8.2247    66.7610     0.0404     0.1730     2.3918
   48.5000   -14.7111    10.7630    12.2953     8.1339    69.0135     0.0374     0.1805     2.3782
   49.0000   -14.8480    11.6176     9.2624     8.0581    72.2802     0.0359     0.1824     2.3699
   49.5000   -17.2266    12.6271     9.0768     8.0878    70.6089     0.0359     0.1824     2.3624
   50.0000   -32.3331    13.2582     9.0191     8.1777    68.6446     0.0329     0.1836     2.3601
   50.5000   -28.2779    13.4483     9.1500     8.2375    66.8268     0.0344     0.1878     2.3585
   51.0000   -33.6572    13.4539     9.2187     8.2522    66.6656     0.0344     0.1890     2.3563
   51.5000   -39.4790    13.3678     9.3534     8.2215    67.7092     0.0359     0.1860     2.3532
   52.0000   -14.3160    13.3732     9.4235     8.1457    69.8071     0.0374     0.1905     2.3509
   52.5000   -15.5037    13.2852     9.4941     8.0248    71.4531     0.0359     0.1851     2.3524
   53.0000   -11.5982    13.1991     9.4993     7.9340    72.6474     0.0313     0.1809     2.3569
   53.5000   -16.2223    13.2973     9.5705     7.9186    72.9382     0.0328     0.1932     2.3591
   54.0000   -47.7959    13.7704     9.6422     8.0084    72.8732     0.0343     0.1911     2.3485
   54.5000   -13.9503    13.9662     9.6474     8.0983    72.6192     0.0373     0.1846     2.3597
   55.0000    -6.7465    12.9507     9.7197     8.0376    72.3653     0.0313     0.1765     2.3687
   55.5000    -7.1916    12.0910     9.7250     8.0222    72.1418     0.0253     0.1813     2.3754
   56.0000    -8.0858    11.3666     9.7303     8.1722    73.3360     0.0253     0.1858     2.3611
   56.5000    -8.8074    11.1379     9.8034     8.1417    75.5845     0.0282     0.1849     2.3581
   57.0000    -9.0902    11.0657     9.8780     8.1261    76.4775     0.0327     0.1876     2.3573
   57.5000    -9.2300    10.9940     9.8834     8.1257    74.3901     0.0402     0.1894     2.3513
   58.0000    -9.5128    10.9227     9.8887     8.2005    72.2229     0.0492     0.1765     2.3670
   58.5000    -9.6526    10.8519     9.8941     8.2303    72.0798     0.0521     0.1741     2.3737
   59.0000    -9.6360    10.8575     9.8995     8.2148    72.3707     0.0461     0.1759     2.3752
   59.5000    -9.4730    10.8619     9.8352     8.2895    72.5226     0.0371     0.1783     2.3736
   60.0000    -7.2142    10.8663     9.7739     8.3043    71.8374     0.0281     0.1775     2.3728
   60.5000    -5.7073    10.9461     9.7792     8.3037    67.7886     0.0236     0.1757     2.3743
   61.0000   -10.4811    10.9505     9.6498     8.2731    67.3585     0.0236     0.1667     2.3803
   61.5000   -11.0700    11.1074     9.5224     8.2275    69.0206     0.0236     0.1682     2.3877
   62.0000   -10.3049    11.1890     9.3914     8.2421    71.8655     0.0101     0.1889     2.3757
   62.5000   -10.5910    11.4280     9.2618     8.2568    74.8569     0.0071     0.1946     2.3546
   63.0000   -11.9251    11.5120     9.1497     8.1809    76.0512     0.0131     0.1892     2.3464
   63.5000   -11.9117    11.5168     9.0915     8.0148    75.7394     0.0191     0.1856     2.3508
   64.0000   -12.3952    11.5224     9.0336     7.9843    71.8131     0.0250     0.1847     2.3553
   64.5000   -13.8563    11.5271     9.0397     8.0592    69.6941     0.0280     0.1913     2.3537
   65.0000   -14.4136    11.5318     9.0447     8.1340    74.2016     0.0340     0.1745     2.3695
   65.5000   -14.4004    11.5365     9.0496     8.1486    76.2995     0.0385     0.1751     2.3754
   66.0000   -13.9380    11.4605     9.0545     8.1934    76.7410     0.0429     0.1707     2.3739
   66.5000   -13.7750    11.3862     9.0594     8.2834    75.5253     0.0489     0.1494     2.3956
   67.0000   -14.6600    11.2357     9.0643     8.1924    72.6533     0.0534     0.1419     2.4233
   67.5000   -15.8443    11.1617     8.9445     8.0715    68.8777     0.0519     0.1374     2.4390
   68.0000   -17.1784    10.8630     8.8118     7.9656    67.5117     0.0444     0.1446     2.4360
   68.5000   -17.9136    10.6444     8.1844     7.9953    70.8143     0.0444     0.1494     2.4270
   69.0000   -17.9003    10.4275     7.5358     8.0701    72.9122     0.0443     0.1452     2.4314
   69.5000   -17.8871    10.1419     6.9869     8.0849    74.9041     0.0458     0.1377     2.4374
   70.0000   -20.7181     9.6092     6.6139     8.0391    77.9317     0.0428     0.1332     2.4434
