~VERSION INFORMATION
 VERS.                2.0:   CWLS LOG ASCII STANDARD - VERSION 2.0
 WRAP.                 NO:   ONE LINE PER DEPTH STEP
~WELL INFORMATION
#MNEM.UNIT      DATA TYPE    INFORMATION
#----------   ------------   ------------------------------
 STRT.F         1000.5000:   START DEPTH
 STOP.F         2590.0000:   STOP DEPTH
 STEP.F            0.5000:   STEP LENGTH
 NULL.          -999.2500:   NO VALUE
 COMP. LAWRENCE/ALLISON INC:   COMPANY
 WELL.    LAWENCE #14x-10:   WELL
 FLD .               NONE:   FIELD
 LOC .      S10 T38N R78W:   LOCATION
 CNTY.            NATRONA:   COUNTY
 STAT.            WYOMING:   STATE
 CTRY. UNITED STATES OF AMERICA:   COUNTRY
 SRVC.            Unknown:   SERVICE COMPANY
 DATE.        13-SEP-1988:   LOGDATE
 API .       490251137000:   API NUMBER
~CURVE INFORMATION
#MNEM.UNIT       API CODE    CURVE DESCRIPTION
#----------   ------------   ------------------------------
 DEPT.F                  :   
 ROP .MIN/FT 91 810 01 00:   RATE OF DRILLING PENETRATION
 TGAS.UNITS  91 830 01 00:   TOTAL GAS FROM HOTWIRE
~PARAMETER INFORMATION
#MNEM.UNIT          VALUE    DESCRIPTION
#----------   ------------   ------------------------------
 EKB .F              5278:   KELLING BUSHING
 EGL .F              5268:   GROUND LEVEL
 DATE.         09-13-1988:   RUN DATE
 RUN .                  1:   RUN NUMBER
 DD  .F              2590:   DEPTH DRILLER
 BLI .F              2590:   BOTTOM LOG INTERVAL
 TLI .F              1000:   TOP LOG INTERVAL
 CS  .IN                7:   CASING SIZE
 CBD .F               991:   CASING BOTTOM DRILLER
 BSD .F              2590:   BIT SIZE AT DEPTH
 ENGI. R. HUSK D. PETERSON:   RECORDING ENGINEER
 CLNT.            A2DTECH:   CLIENT CODE
 ORIG.           5" PRINT:   ORIGIN OF DATA
 UWI .       490251137000:   UNIQUE WELL ID
 DICO. A2D Technologies, Inc.:   DIGITIZING COMPANY
~OTHER INFORMATION
~A  DEPT       ROP         TGAS 
# ...
 1608.0000     0.2909     1.9195
 1608.5000     0.2854     1.8924
 1609.0000     0.2854     1.8654
 1609.5000     0.2854     1.8384
 1610.0000     0.2731     1.8113
 1610.5000     0.2579     1.7843
 1611.0000     0.2136     1.7572
 1611.5000     0.1694     1.7302
 1612.0000     0.1803     1.7032
 1612.5000     0.2128     1.6761
 1613.0000     0.2607     1.6491
 1613.5000     0.3149     1.6221
 1614.0000     0.3442     1.5950
 1614.5000     0.3488     1.5680
 1615.0000     0.3488     1.5410
 1615.5000     0.3488     1.5139
 1616.0000     0.3805     1.4869
 1616.5000     0.3834     1.4598
 1617.0000     0.3867     1.4328
 1617.5000     0.3900     1.4058
 1618.0000     0.3933     1.3787
 1618.5000     0.3966     1.3517
 1619.0000     0.3999     1.3247
 1619.5000     0.3866     1.2976
 1620.0000     0.3647     1.2706
 1620.5000     0.3540     1.2076
 1621.0000     0.3432     1.1445
 1621.5000     0.3398     1.0815
 1622.0000     0.3404     1.0185
 1622.5000     0.3644     0.9555
 1623.0000     0.3976     0.8924
 1623.5000     0.4689     0.8294
 1624.0000     0.5223     0.7664
 1624.5000     0.5122     0.7034
 1625.0000     0.4705     0.6404
 1625.5000     0.4287     0.5773
 1626.0000     0.4081     0.5143
 1626.5000     0.3980     0.4513
 1627.0000     0.3985     0.3883
 1627.5000     0.3990     0.3252
 1628.0000     0.3995     0.2622
 1628.5000     0.4013     0.1992
 1629.0000     0.4112     0.1362
 1629.5000     0.4080     0.0731
 1630.0000     0.3823     0.0000
 1630.5000     0.3392     0.0000
 1631.0000     0.2990     0.0000
 1631.5000     0.2732     0.0000
 1632.0000     0.2664     0.0000
 1632.5000     0.2669     0.0000
 1633.0000     0.2674     0.0000
 1633.5000     0.2860     0.0000
 1634.0000     0.3350     0.0000
 1634.5000     0.3952     0.0000
 1635.0000     0.4612     0.0000
 1635.5000     0.4862     0.0000
 1636.0000     0.4635     0.0000
 1636.5000     0.4249     0.0000
 1637.0000     0.3818     0.0000
 1637.5000     0.3531     0.0000
 1638.0000     0.3617     0.0000
 1638.5000     0.3997     0.0000
 1639.0000     0.4438     0.0000
 1639.5000     0.4964     0.0000
 1640.0000     0.4861     0.0000
 1640.5000     0.4733     0.0000
 1641.0000     0.4606     0.0000
 1641.5000     0.4478     0.0000
 1642.0000     0.4693     0.0000
 1642.5000     0.4851     0.0000
 1643.0000     0.4878     0.0000
 1643.5000     0.4881     0.0000
 1644.0000     0.4884     0.0000
 1644.5000     0.4553     0.0000
 1645.0000     0.4132     0.0000
 1645.5000     0.3793     0.0000
 1646.0000     0.3626     0.0000
 1646.5000     0.3629     0.0000
 1647.0000     0.3632     0.0000
 1647.5000     0.3634     0.0000
 1648.0000     0.3637     0.0000
 1648.5000     0.3745     0.0000
 1649.0000     0.4065     0.0000
 1649.5000     0.4385     0.0000
 1650.0000     0.4810     0.0000
 1650.5000     0.4496     0.0000
 1651.0000     0.4181     0.0000
 1651.5000     0.4078     0.0000
 1652.0000     0.4081     0.0000
 1652.5000     0.4189     0.0000
 1653.0000     0.4615     0.0000
 1653.5000     0.4934     0.0000
 1654.0000     0.4937     0.0000
 1654.5000     0.4728     0.0000
 1655.0000     0.4202     0.0000
 1655.5000     0.4099     0.0000
 1656.0000     0.4313     0.0000
 1656.5000     0.4950     0.0000
 1657.0000     0.4530     0.0000
 1657.5000     0.4110     0.0000
 1658.0000     0.4112     0.0000
 1658.5000     0.4115     0.0000
 1659.0000     0.4223     0.0000
 1659.5000     0.4226     0.0000
 1660.0000     0.4229     0.0000
 1660.5000     0.4125     0.0000
 1661.0000     0.3917     0.0000
 1661.5000     0.3602     0.0000
 1662.0000     0.3182     0.0000
 1662.5000     0.3178     0.0000
 1663.0000     0.3174     0.0000
 1663.5000     0.3211     0.0000
 1664.0000     0.3193     0.0000
 1664.5000     0.2977     0.0000
 1665.0000     0.2669     0.0000
 1665.5000     0.2238     0.0000
 1666.0000     0.1958     0.0000
 1666.5000     0.1798     0.0000
 1667.0000     0.1800     0.0000
 1667.5000     0.1959     0.0000
 1668.0000     0.2183     0.0000
 1668.5000     0.2446     0.0000
 1669.0000     0.2723     0.0000
 1669.5000     0.3046     0.0000
 1670.0000     0.3369     0.0000
 1670.5000     0.3692     0.0000
 1671.0000     0.4016     0.0000
 1671.5000     0.4410     0.0000
 1672.0000     0.4841     0.0000
 1672.5000     0.4740     0.0000
 1673.0000     0.4262     0.0000
 1673.5000     0.3723     0.0000
 1674.0000     0.3512     0.0000
 1674.5000     0.3656     0.0000
 1675.0000     0.3805     0.0000
 1675.5000     0.4123     0.0000
 1676.0000     0.4123     0.0000
 1676.5000     0.4123     0.0000
 1677.0000     0.4123     0.0000
 1677.5000     0.4123     0.0000
 1678.0000     0.4017     0.0000
 1678.5000     0.3911     0.0000
 1679.0000     0.3911     0.0000
 1679.5000     0.4017     0.0000
 1680.0000     0.4123     0.0000
 1680.5000     0.4125     0.0000
 1681.0000     0.4228     0.0000
 1681.5000     0.4163     0.0000
 1682.0000     0.4100     0.0000
 1682.5000     0.4037     0.0000
 1683.0000     0.3974     0.0000
 1683.5000     0.3890     0.0000
 1684.0000     0.3848     0.0000
 1684.5000     0.3918     0.0000
 1685.0000     0.4101     0.0000
 1685.5000     0.4180     0.0000
 1686.0000     0.4261     0.0000
 1686.5000     0.4375     0.0000
 1687.0000     0.4490     0.0000
 1687.5000     0.4520     0.0000
 1688.0000     0.4208     0.0000
 1688.5000     0.3579     0.0000
 1689.0000     0.2950     0.0000
 1689.5000     0.2638     0.0000
 1690.0000     0.2537     0.0000
 1690.5000     0.2225     0.0000
 1691.0000     0.2230     0.0000
 1691.5000     0.2246     0.0000
 1692.0000     0.2461     0.0000
 1692.5000     0.2600     0.0000
 1693.0000     0.2947     0.0000
 1693.5000     0.3408     0.0000
 1694.0000     0.3870     0.0000
 1694.5000     0.3883     0.0000
 1695.0000     0.3590     0.0000
 1695.5000     0.3441     0.0000
 1696.0000     0.3446     0.0000
 1696.5000     0.3490     0.0000
 1697.0000     0.3688     0.0000
 1697.5000     0.3885     0.0000
 1698.0000     0.3745     0.0000
 1698.5000     0.3527     0.0000
 1699.0000     0.3313     0.0000
 1699.5000     0.3049     0.0000
 1700.0000     0.2801     0.0000
 1700.5000     0.2524     0.0000
 1701.0000     0.2248     0.0000
 1701.5000     0.2016     0.0000
 1702.0000     0.2377     0.0000
 1702.5000     0.2620     0.0000
 1703.0000     0.3000     0.0000
 1703.5000     0.3603     0.0000
 1704.0000     0.4175     0.0000
 1704.5000     0.4079     0.0000
 1705.0000     0.3464     0.0000
 1705.5000     0.2828     0.0000
 1706.0000     0.2569     0.0000
 1706.5000     0.2663     0.0000
 1707.0000     0.2883     0.0000
 1707.5000     0.3155     0.0000
 1708.0000     0.3319     0.0000
 1708.5000     0.3322     0.0000
 1709.0000     0.3385     0.0000
 1709.5000     0.3433     0.0000
 1710.0000     0.3634     0.0000
 1710.5000     0.3824     0.0000
 1711.0000     0.4007     0.0000
 1711.5000     0.4152     0.0000
 1712.0000     0.4186     0.0000
 1712.5000     0.3867     0.0000
 1713.0000     0.3435     0.0000
 1713.5000     0.3032     0.0000
 1714.0000     0.3246     0.0000
 1714.5000     0.3354     0.0000
 1715.0000     0.3462     0.0000
 1715.5000     0.3465     0.0000
 1716.0000     0.3467     0.0000
 1716.5000     0.3364     0.0000
 1717.0000     0.3367     0.0000
 1717.5000     0.3372     0.0000
 1718.0000     0.3484     0.0000
 1718.5000     0.3595     0.0000
 1719.0000     0.3694     0.0000
 1719.5000     0.3562     0.0000
 1720.0000     0.3291     0.0000
 1720.5000     0.2733     0.0530
 1721.0000     0.2175     0.1061
 1721.5000     0.1616     0.1591
 1722.0000     0.0995     0.2121
 1722.5000     0.1322     0.2651
 1723.0000     0.1967     0.3182
 1723.5000     0.2611     0.3712
 1724.0000     0.2727     0.4242
 1724.5000     0.2738     0.4772
 1725.0000     0.2749     0.5303
 1725.5000     0.2759     0.5833
 1726.0000     0.2768     0.6363
 1726.5000     0.2673     0.6893
 1727.0000     0.2685     0.7424
 1727.5000     0.2775     0.7954
 1728.0000     0.3083     0.8484
 1728.5000     0.3346     0.9015
 1729.0000     0.3647     0.9545
