~VERSION INFORMATION
 VERS.                2.0:   CWLS LOG ASCII STANDARD - VERSION 2.0
 WRAP.                 NO:   ONE LINE PER DEPTH STEP
~WELL INFORMATION
#MNEM.UNIT      DATA TYPE    INFORMATION
#----------   ------------   ------------------------------
 STRT.F            4.0000:   START DEPTH
 STOP.F          564.0000:   STOP DEPTH
 STEP.F            0.1000:   STEP LENGTH
 NULL.          -999.2500:   NO VALUE
 COMP.       F D SERV INC:   COMPANY
 WELL. NAVAL PETROLEUM RESERVE 3 SX-3 #88-4-3:   WELL
 FLD .             TEAPOT:   FIELD
 LOC .       S3 T38N R78W:   LOCATION
 CNTY.            NATRONA:   COUNTY
 STAT.            WYOMING:   STATE
 CTRY. UNITED STATES OF AMERICA:   COUNTRY
 SRVC.      Western Atlas:   SERVICE COMPANY
 DATE.        15-OCT-1992:   LOGDATE
 API .       490252255000:   API NUMBER
~CURVE INFORMATION
#MNEM.UNIT       API CODE    CURVE DESCRIPTION
#----------   ------------   ------------------------------
 DEPT.F                  :   
 GRR .GAPI   07 310 01 00:   GAMMA RAY
 RILD.OHMM   07 120 46 00:   INDUCTION LOG DEEP RESISTIVITY
 RILM.OHMM   07 120 44 00:   INDUCTION LOG MEDIUM RESISTIVITY
~PARAMETER INFORMATION
#MNEM.UNIT          VALUE    DESCRIPTION
#----------   ------------   ------------------------------
 PD  .                 GL:   PERMANENT DATUM
 EPD .F              5129:   ELEVATION PERMANENT DATUM
 LMF .                 KB:   LOG MEASURED FROM
 DAPD.F                10:   FEET ABOVE PERMANENT DATUM
 DMF .                 KB:   DRILLING MEASURED FROM
 EKB .F              5139:   KELLING BUSHING
 EGL .F              5129:   GROUND LEVEL
 DATE.        15-OCT-1992:   RUN DATE
 RUN .                  1:   RUN NUMBER
 DD  .F               570:   DEPTH DRILLER
 DL  .F               570:   DEPTH LOGGER
 BLI .F               564:   BOTTOM LOG INTERVAL
 TLI .F               564:   TOP LOG INTERVAL
 CS  .IN            8.625:   CASING SIZE
 CBL .F                94:   CASING BOTTOM LOGGER
 BS  .IN            7.875:   BIT SIZE
 BSD .F               570:   BIT SIZE AT DEPTH
 DFT .           AIR FOAM:   DRILLING FLUID TYPE
 TCS .HRS               4:   TIME CURCULATED STOPPED
 MRT .F                72:   MAXIMUM RECORDED TEMPERATURE
 LUN .            HL-6345:   LOGGING UNIT NUMBER
 LUL .          FT.MORGAN:   LOGGING UNIT LOCATION
 ENGI.             BURLEY:   RECORDING ENGINEER
 WITN.        DARY STRONG:   WITNESSED BY
 CLNT.            A2DTECH:   CLIENT CODE
 ORIG.           5" PRINT:   ORIGIN OF DATA
 UWI .       490252255000:   UNIQUE WELL ID
 DICO. A2D Technologies, Inc.:   DIGITIZING COMPANY
~OTHER INFORMATION
~A    DEPT      GRR      RILD       RILM   
# ...
  313.4000   111.2873    13.8952    14.2453
  313.5000   109.5365    14.1791    14.4966
  313.6000   107.7244    14.3905    14.7522
  313.7000   106.0355    14.8107    15.0330
  313.8000   102.3841    15.2591    15.3865
  313.9000    98.4139    15.6186    15.8150
  314.0000    95.1941    15.9846    16.1216
  314.1000    93.1303    16.3210    16.4423
  314.2000    92.0745    16.6334    16.7321
  314.3000    91.1282    16.9656    17.0068
  314.4000    89.5713    17.2648    17.2073
  314.5000    87.8204    17.5889    17.7139
  314.6000    86.2365    18.0103    18.0703
  314.7000    84.9857    18.4285    18.4520
  314.8000    83.6426    18.6085    18.8451
  314.9000    82.2525    18.8430    19.1960
  315.0000    81.1128    19.2165    19.6659
  315.1000    79.9822    19.6873    20.1119
  315.2000    78.7314    20.2984    20.4956
  315.3000    77.4805    20.6388    20.9922
  315.4000    76.1129    21.0034    21.5249
  315.5000    74.9788    21.3741    21.8867
  315.6000    73.4643    21.7090    22.1624
  315.7000    71.8383    21.9793    22.5249
  315.8000    70.2494    22.4002    22.8260
  315.9000    68.6572    22.6410    23.0938
  316.0000    65.8765    23.0023    23.3646
  316.1000    64.5443    23.3393    23.6385
  316.2000    64.0686    23.6131    23.9456
  316.3000    64.1866    23.9025    24.0710
  316.4000    64.4346    24.3747    24.3093
  316.5000    64.6648    24.5007    24.5945
  316.6000    64.6626    24.8399    24.9227
  316.7000    65.3120    25.2088    25.3420
  316.8000    66.3919    25.5438    25.5117
  316.9000    67.6391    25.9938    25.8985
  317.0000    68.9506    26.5232    26.1551
  317.1000    70.4344    26.7873    26.3771
  317.2000    71.8698    27.2040    26.6863
  317.3000    72.7168    27.6839    26.9990
  317.4000    73.5530    28.0968    27.3716
  317.5000    74.4109    28.2681    27.6367
  317.6000    75.3490    28.8611    28.0625
  317.7000    76.1050    28.9989    28.4883
  317.8000    77.2725    29.2727    28.8222
  317.9000    77.6857    29.6163    29.1607
  318.0000    78.4964    29.9298    29.3313
  318.1000    79.0719    30.1077    29.7775
  318.2000    79.1246    30.2820    30.0960
  318.3000    79.3690    30.4598    30.3394
  318.4000    79.3669    30.6385    30.6950
  318.5000    79.5679    30.8182    31.0678
  318.6000    79.5128    31.0280    31.4195
  318.7000    79.3618    31.4093    31.7883
  318.8000    79.3103    31.5849    31.9552
  318.9000    79.0574    31.6325    32.0203
  319.0000    78.8070    31.8333    32.2337
  319.1000    78.1599    32.2068    32.6382
  319.2000    77.5554    32.5606    32.8163
  319.3000    76.7984    32.7671    33.0087
  319.4000    75.6308    33.1210    33.3027
  319.5000    74.4632    33.3708    33.6321
  319.6000    73.2956    33.7663    33.8495
  319.7000    71.6780    34.2412    34.2879
  319.8000    68.3666    34.4607    34.4682
  319.9000    64.8687    34.9118    34.8103
  320.0000    63.2381    35.2750    35.2186
  320.1000    62.1936    35.5480    35.5739
  320.2000    61.2358    35.8554    35.8115
  320.3000    60.4227    36.2198    36.5303
  320.4000    59.8087    36.4199    36.7151
  320.5000    59.3073    36.4210    36.9304
  320.6000    58.8764    36.6030    37.1469
  320.7000    58.8745    36.9568    37.3646
  320.8000    59.5752    37.1998    37.5835
  320.9000    59.9565    37.2510    37.8417
  321.0000    60.3369    37.4641    37.8426
  321.1000    60.7533    37.4654    37.8437
  321.2000    60.9710    37.4663    37.8447
  321.3000    60.9689    37.4673    37.8458
  321.4000    60.9672    37.5568    37.8469
  321.5000    61.1439    37.7336    37.8479
  321.6000    61.3919    37.7346    37.8490
  321.7000    61.6399    37.7357    37.8501
  321.8000    61.8624    37.7368    37.7675
  321.9000    61.8603    37.6115    37.5872
  322.0000    62.0832    37.4747    37.5885
  322.1000    62.1576    37.4402    37.1691
  322.2000    62.2785    37.2145    36.9029
  322.3000    62.5265    37.0089    36.6899
  322.4000    62.7745    36.6356    36.4050
  322.5000    63.0524    36.3265    35.9846
  322.6000    63.2706    36.0465    35.5417
  322.7000    63.5186    35.6565    35.3502
  322.8000    64.0024    35.4346    34.9984
  322.9000    64.8170    35.0575    34.8039
  323.0000    65.8144    34.7969    34.7416
  323.1000    66.9513    34.5959    34.5409
  323.2000    67.8096    34.4565    34.3216
  323.3000    68.6430    34.4383    34.1434
  323.4000    69.3906    34.2173    33.9463
  323.5000    70.0762    34.2182    33.8459
  323.6000    70.5854    34.0837    33.8468
  323.7000    71.4517    33.9805    33.8334
  323.8000    71.6604    33.9815    33.6121
  323.9000    71.9084    33.9824    33.6129
  324.0000    72.2646    33.9835    33.6138
  324.1000    72.6478    33.8157    33.6148
  324.2000    72.6460    33.7474    33.6157
  324.3000    72.6439    33.7483    33.6244
  324.4000    72.6424    33.7493    33.8546
  324.5000    72.6406    33.7502    33.8554
  324.6000    72.6388    33.7513    33.8563
  324.7000    72.6370    33.7521    33.9401
  324.8000    72.6352    33.7530    34.1390
  324.9000    72.6330    33.7540    34.3379
  325.0000    72.6316    33.7946    34.3389
  325.1000    72.4802    33.9939    34.5000
  325.2000    72.1299    33.9948    34.5827
  325.3000    71.7239    34.1522    34.5837
  325.4000    71.7221    34.2364    34.6207
  325.5000    70.7338    34.3122    34.8293
  325.6000    70.1241    34.4797    34.8303
  325.7000    69.6227    34.4807    34.8312
  325.8000    69.3089    34.4817    34.9457
  325.9000    69.3071    34.6345    35.1506
  326.0000    69.3052    34.8377    35.3566
  326.1000    69.7871    35.0421    35.5766
  326.2000    70.8575    35.2476    35.5776
  326.3000    71.9650    35.4695    35.7304
  326.4000    72.9626    35.4704    35.8302
  326.5000    73.9219    35.6206    35.8977
  326.6000    74.7079    35.8296    36.1081
  326.7000    75.8911    36.0398    36.3400
  326.8000    76.9523    36.2511    36.5327
  326.9000    77.6795    36.4865    36.7470
  327.0000    78.2616    36.6778    36.8568
  327.1000    78.9097    37.0415    36.9190
  327.2000    78.9075    37.2667    37.1522
  327.3000    78.9059    37.3272    37.6446
  327.4000    78.7228    37.5316    37.6455
  327.5000    78.8622    37.5328    37.7924
  327.6000    79.1218    37.5337    37.9128
  327.7000    78.7847    37.5347    37.9693
  327.8000    77.6937    37.6335    38.2015
  327.9000    76.7826    37.8015    38.7232
  328.0000    75.7816    37.8026    38.9132
  328.1000    74.2786    37.8038    39.1414
  328.2000    72.5764    37.9870    39.3708
  328.3000    71.5751    38.0723    39.6016
  328.4000    70.4648    38.1650    39.8314
  328.5000    69.7954    38.2972    39.8327
  328.6000    69.3874    38.0755    39.8336
  328.7000    69.1358    38.0766    39.9733
  328.8000    68.8144    38.0776    40.1165
  328.9000    68.3318    38.0787    40.1176
  329.0000    68.0479    37.9963    40.1187
  329.1000    68.0463    37.8141    40.3484
  329.2000    68.0445    37.8153    40.4036
  329.3000    68.0427    37.8164    40.4048
  329.4000    67.9759    37.8174    40.4898
  329.5000    67.7384    37.8185    40.6917
  329.6000    68.0370    37.8196    40.6929
  329.7000    68.0355    37.8510    40.6940
  329.8000    68.1957    38.0884    40.6951
  329.9000    68.5548    38.0894    40.6963
  330.0000    69.1128    38.2516    40.6974
  330.1000    69.8788    38.3601    40.6985
  330.2000    71.3344    38.3612    40.6998
  330.3000    72.3733    38.3623    40.4865
  330.4000    73.4634    38.3634    40.4172
  330.5000    74.5672    38.3644    40.4184
  330.6000    75.8148    38.5202    40.4195
  330.7000    77.0623    38.6371    40.4206
  330.8000    78.5416    38.6381    40.4219
  330.9000    79.5568    38.6392    40.2179
  331.0000    80.6517    38.6405    40.1413
  331.1000    81.6491    38.6414    40.0351
  331.2000    82.4950    38.6425    39.8627
  331.3000    82.7435    38.6436    39.8528
  331.4000    82.9910    38.6447    39.5862
  331.5000    82.8422    38.6457    39.3942
