~VERSION INFORMATION
 VERS.                2.0:   CWLS LOG ASCII STANDARD - VERSION 2.0
 WRAP.                 NO:   ONE LINE PER DEPTH STEP
~WELL INFORMATION
#MNEM.UNIT      DATA TYPE    INFORMATION
#----------   ------------   ------------------------------
 STRT.F            3.0000:   START DEPTH
 STOP.F          604.0000:   STOP DEPTH
 STEP.F            0.5000:   STEP LENGTH
 NULL.          -999.2500:   NO VALUE
 COMP. BROWN JOHN E&C INC:   COMPANY
 WELL.    73-2 SX-3 #73-3:   WELL
 FLD .             TEAPOT:   FIELD
 LOC .       S3 T38N R78W:   LOCATION
 CNTY.            NATRONA:   COUNTY
 STAT.            WYOMING:   STATE
 CTRY. UNITED STATES OF AMERICA:   COUNTRY
 SRVC.     Atlas Wireline:   SERVICE COMPANY
 DATE.        13-APR-1992:   LOGDATE
 API .       490252251100:   API NUMBER
~CURVE INFORMATION
#MNEM.UNIT       API CODE    CURVE DESCRIPTION
#----------   ------------   ------------------------------
 DEPT.F                  :   
 GRR .GAPI   07 310 01 00:   GAMMA RAY
 RILD.OHMM   07 120 46 00:   INDUCTION LOG DEEP RESISTIVITY
 RILM.OHMM   07 120 44 00:   INDUCTION LOG MEDIUM RESISTIVITY
~PARAMETER INFORMATION
#MNEM.UNIT          VALUE    DESCRIPTION
#----------   ------------   ------------------------------
 PD  .                 GL:   PERMANENT DATUM
 EPD .F              5131:   ELEVATION PERMANENT DATUM
 LMF .                 KB:   LOG MEASURED FROM
 DAPD.F                 5:   FEET ABOVE PERMANENT DATUM
 DMF .                 KB:   DRILLING MEASURED FROM
 EKB .F              5136:   KELLING BUSHING
 EDF .F              5135:   DRILLING FLOOR
 EGL .F              5131:   GROUND LEVEL
 DATE.        13-APR-1992:   RUN DATE
 RUN .                  1:   RUN NUMBER
 DD  .F               610:   DEPTH DRILLER
 DL  .F               608:   DEPTH LOGGER
 BLI .F               605:   BOTTOM LOG INTERVAL
 TLI .F                 3:   TOP LOG INTERVAL
 CS  .IN            8.625:   CASING SIZE
 CBD .F                45:   CASING BOTTOM DRILLER
 CBL .F                50:   CASING BOTTOM LOGGER
 BS  .IN            7.875:   BIT SIZE
 BSD .F               610:   BIT SIZE AT DEPTH
 DFT .                AIR:   DRILLING FLUID TYPE
 LUN .           HL- 6272:   LOGGING UNIT NUMBER
 LUL .             CASPER:   LOGGING UNIT LOCATION
 ENGI.       P. RASHUSSEN:   RECORDING ENGINEER
 WITN.          G. STRONG:   WITNESSED BY
 CLNT.            A2DTECH:   CLIENT CODE
 ORIG.           5" PRINT:   ORIGIN OF DATA
 UWI .       490252251100:   UNIQUE WELL ID
 DICO. A2D Technologies, Inc.:   DIGITIZING COMPANY
~OTHER INFORMATION
~A    DEPT      GRR      RILD       RILM   
    3.0000    36.6212  -999.2500  -999.2500
    3.5000    35.6914  -999.2500  -999.2500
    4.0000    29.8925  -999.2500  -999.2500
    4.5000    23.4857  -999.2500  -999.2500
    5.0000    20.7323  -999.2500  -999.2500
    5.5000    23.4380  -999.2500  -999.2500
    6.0000    27.3656  -999.2500  -999.2500
    6.5000    28.5635  -999.2500  -999.2500
    7.0000    30.9653  -999.2500  -999.2500
    7.5000    38.2363  -999.2500  -999.2500
    8.0000    43.9875  -999.2500  -999.2500
    8.5000    54.6509  -999.2500  -999.2500
    9.0000    65.4431  -999.2500  -999.2500
    9.5000    70.6637  -999.2500  -999.2500
   10.0000    69.7280  -999.2500  -999.2500
   10.5000    72.1358  -999.2500  -999.2500
   11.0000    72.4100  -999.2500  -999.2500
   11.5000    73.3039  -999.2500  -999.2500
   12.0000    76.9215  -999.2500  -999.2500
   12.5000    76.5938  -999.2500  -999.2500
   13.0000    61.0684  -999.2500  -999.2500
   13.5000    44.0233  -999.2500  -999.2500
   14.0000    48.2548  -999.2500  -999.2500
   14.5000    59.7811  -999.2500  -999.2500
   15.0000    67.1127  -999.2500  -999.2500
   15.5000    70.4155  -999.2500  -999.2500
   16.0000    73.0775  -999.2500  -999.2500
   16.5000    71.8378  -999.2500  -999.2500
   17.0000    66.0389  -999.2500  -999.2500
   17.5000    63.2795  -999.2500  -999.2500
   18.0000    62.6537  -999.2500  -999.2500
   18.5000    65.6694  -999.2500  -999.2500
   19.0000    67.1653  -999.2500  -999.2500
   19.5000    64.3999  -999.2500  -999.2500
   20.0000    59.4732  -999.2500  -999.2500
   20.5000    60.0972  -999.2500  -999.2500
   21.0000    60.0729  -999.2500  -999.2500
   21.5000    62.0023  -999.2500  -999.2500
   22.0000    67.9222  -999.2500  -999.2500
   22.5000    71.5458  -999.2500  -999.2500
   23.0000    70.3061  -999.2500  -999.2500
   23.5000    65.7230  -999.2500  -999.2500
   24.0000    59.3162  -999.2500  -999.2500
   24.5000    61.4200  -999.2500  -999.2500
   25.0000    62.6120  -999.2500  -999.2500
   25.5000    61.0684  -999.2500  -999.2500
   26.0000    57.7011  -999.2500  -999.2500
   26.5000    56.7654  -999.2500  -999.2500
   27.0000    59.1732  -999.2500  -999.2500
   27.5000    60.3850  -999.2500  -999.2500
   28.0000    60.2958  -999.2500  -999.2500
   28.5000    59.7036  -999.2500  -999.2500
   29.0000    60.2936  -999.2500  -999.2500
   29.5000    65.1270  -999.2500  -999.2500
   30.0000    71.1822  -999.2500  -999.2500
   30.5000    64.7754  -999.2500  -999.2500
   31.0000    64.1437  -999.2500  -999.2500
   31.5000    64.1198  -999.2500  -999.2500
   32.0000    64.4059  -999.2500  -999.2500
   32.5000    62.8563  -999.2500  -999.2500
   33.0000    60.0969  -999.2500  -999.2500
   33.5000    60.9930  -999.2500  -999.2500
   34.0000    61.6008  -999.2500  -999.2500
   34.5000    62.4570  -999.2500  -999.2500
   35.0000    63.9470  -999.2500  -999.2500
   35.5000    65.1390  -999.2500  -999.2500
   36.0000    63.8993  -999.2500  -999.2500
   36.5000    60.5320  -999.2500  -999.2500
   37.0000    60.2042  -999.2500  -999.2500
   37.5000    60.4843  -999.2500  -999.2500
   38.0000    62.2842  -999.2500  -999.2500
   38.5000    64.6920  -999.2500  -999.2500
   39.0000    63.4523  -999.2500  -999.2500
   39.5000    59.7811  -999.2500  -999.2500
   40.0000    56.7177  -999.2500  -999.2500
   40.5000    58.2574  -999.2500  -999.2500
   41.0000    58.4938  -999.2500  -999.2500
   41.5000    58.4640  -999.2500  -999.2500
   42.0000    63.6073  -999.2500  -999.2500
   42.5000    64.5013  -999.2500  -999.2500
   43.0000    64.7814  -999.2500  -999.2500
   43.5000    65.6634  -999.2500  -999.2500
   44.0000    68.0712  -999.2500  -999.2500
   44.5000    68.6612  -999.2500  -999.2500
   45.0000    67.4156  -999.2500  -999.2500
   45.5000    66.7839  -999.2500  -999.2500
   46.0000    69.2406  -999.2500  -999.2500
   46.5000    74.4850  -999.2500  -999.2500
   47.0000    84.6395  -999.2500  -999.2500
   47.5000    89.7829  -999.2500  -999.2500
   48.0000    93.1025  -999.2500  -999.2500
   48.5000    93.3886  -999.2500  -999.2500
   49.0000    89.4074  -999.2500  -999.2500
   49.5000    88.4717  -999.2500  -999.2500
   50.0000    89.6637  9900.6875  9936.2373
   50.5000   113.6201  9755.0586  9936.2373
   51.0000   121.4839  9681.1396  9936.2373
   51.5000   127.2265     5.3578  2844.3137
   52.0000   129.3327     2.2437     5.0823
   52.5000   130.8328     2.0045     3.1239
   53.0000   132.9390     2.5246     4.6945
   53.5000   137.1665     3.5085     5.4011
   54.0000   134.1212     4.6749     7.5140
   54.5000   125.5970     7.0180     8.7052
   55.0000   124.6969     7.5242     8.6397
   55.5000   124.6818     6.3534     7.9360
   56.0000   124.6667     5.9611     7.1373
   56.5000   125.0110     5.8336     6.3288
   57.0000   127.9668     5.7489     6.1950
   57.5000   134.3154     5.6649     7.1255
   58.0000   132.4823     5.6220     7.2750
   58.5000   131.2551     6.4649     6.3596
   59.0000   129.4220     7.1278     6.1366
   59.5000   124.8615     7.2249     6.0903
   60.0000   125.1495     6.8252     6.0872
   60.5000   127.5588     6.5401     6.0834
   61.0000   132.0892     6.2668     6.0803
   61.5000   131.7712     6.0898     6.1211
   62.0000   129.0289     6.0008     6.1168
   62.5000   127.1957     6.0820     6.1130
   63.0000   125.6656     6.1221     6.2407
   63.5000   120.4990     6.2483     6.3264
   64.0000   119.5787     6.3761     6.4127
   64.5000   122.8933     6.4185     6.4546
   65.0000   126.5146     6.4592     6.4495
   65.5000   130.1360     6.5920     6.6302
   66.0000   133.4543     6.6352     6.8159
   66.5000   135.2575     6.7723     6.8616
   67.0000   134.9232     6.8159     6.8081
   67.5000   132.4196     6.9074     6.8046
   68.0000   127.3325     6.9027     6.8010
   68.5000   124.2872     6.8510     6.9419
   69.0000   119.7267     6.9912     7.0862
   69.5000   121.8329     7.1364     7.2847
   70.0000   128.4846     7.3344     7.4369
   70.5000   127.8635     7.3824     7.5390
   71.0000   124.8103     7.4300     7.5330
   71.5000   122.3303     7.4241     7.4763
   72.0000   119.6080     7.4197     7.4200
   72.5000   119.3187     7.3635     7.2097
   73.0000   120.9234     7.3591     7.0059
   73.5000   123.5274     7.3541     6.9044
   74.0000   126.2396     7.2983     6.8044
   74.5000   128.3458     7.1924     6.7525
   75.0000   128.9406     7.0880     6.7490
   75.5000   126.8007     7.0831     6.7455
   76.0000   128.6039     6.9803     6.7419
   76.5000   130.4108     6.9274     6.7872
   77.0000   129.1799     6.8749     6.7818
   77.5000   123.1043     6.8702     6.7783
   78.0000   114.6045     6.8181     6.7747
   78.5000   113.3773     6.7192     6.7231
   79.0000   116.3926     6.7152     6.8148
   79.5000   124.8625     6.7591     6.9096
   80.0000   133.6354     6.8027     6.9542
   80.5000   132.1052     6.8465     6.9490
   81.0000   127.8478     6.8411     6.9454
   81.5000   116.0146     6.9337     6.9411
   82.0000   119.9390     6.9790     6.8888
   82.5000   122.9543     6.9735     6.8370
   83.0000   125.9696     6.9694     6.7861
   83.5000   130.5039     6.9653     6.8310
   84.0000   129.8303     7.0109     6.8756
   84.5000   126.1421     7.0053     6.9682
   85.0000   123.7884     7.0512     7.0639
   85.5000   126.6053     7.0959     7.1100
   86.0000   129.5122     7.1926     7.1565
   86.5000   130.4063     7.2892     7.2033
   87.0000   129.7852     7.2332     7.1976
   87.5000   129.1642     7.0290     7.1932
   88.0000   129.7552     6.8304     7.0890
   88.5000   131.8614     6.7780     7.0356
   89.0000   133.6646     6.6329     6.8850
   89.5000   134.5625     6.4456     6.7847
   90.0000   134.5437     6.3520     6.6864
   90.5000   133.3166     6.2161     6.5895
   91.0000   132.0894     6.1252     6.4485
   91.5000   130.5593     6.0788     6.2657
   92.0000   124.4837     6.0752     6.1749
   92.5000   124.7717     6.0716     6.1284
   93.0000   128.0901     6.1114     6.0822
   93.5000   129.4010     6.1508     6.0359
