~VERSION INFORMATION
 VERS.                2.0:   CWLS LOG ASCII STANDARD - VERSION 2.0
 WRAP.                 NO:   ONE LINE PER DEPTH STEP
~WELL INFORMATION
#MNEM.UNIT      DATA TYPE    INFORMATION
#----------   ------------   ------------------------------
 STRT.F           32.0000:   START DEPTH
 STOP.F          557.0000:   STOP DEPTH
 STEP.F            0.5000:   STEP LENGTH
 NULL.          -999.2500:   NO VALUE
 COMP. FENIX & SCISSON U.S. NAVY:   COMPANY
 WELL.   S-3 NPR #3 #31-3:   WELL
 FLD .              NPR-3:   FIELD
 LOC .       S3 T38N R78W:   LOCATION
 CNTY.            NATRONA:   COUNTY
 STAT.            WYOMING:   STATE
 CTRY. UNITED STATES OF AMERICA:   COUNTRY
 SRVC.              Welex:   SERVICE COMPANY
 DATE.        05-MAR-1977:   LOGDATE
 API .       490251039500:   API NUMBER
~CURVE INFORMATION
#MNEM.UNIT       API CODE    CURVE DESCRIPTION
#----------   ------------   ------------------------------
 DEPT.F                  :   
 CALD.IN     45 280 60 00:   CALIPER FROM DENSITY LOG
 DPHI.DEC    45 890 12 00:   DENSITY POROSITY SANDSTONE
 DRHO.G/C3   45 356 01 00:   DENSITY CORRECTION
 GRD .GAPI   45 310 01 00:   GAMMA RAY FROM DENSITY LOG
 RHOB.G/C3   45 350 01 00:   BULK DENSITY
 ILD .OHMM   07 120 46 00:   INDUCTION LOG DEEP
 ILM .OHMM   07 120 44 00:   INDUCTION LOG MEDIUM
 SGRD.OHMM   07 220 05 00:   SHALLOW GUARD RESISTIVITY
 SPR .MV     07 010 01 00:   SPONTANEOUS POTENTIAL FROM RES.
~PARAMETER INFORMATION
#MNEM.UNIT          VALUE    DESCRIPTION
#----------   ------------   ------------------------------
 PD  .                 GL:   PERMANENT DATUM
 EPD .F              5178:   ELEVATION PERMANENT DATUM
 LMF .                 GL:   LOG MEASURED FROM
 DMF .                 GL:   DRILLING MEASURED FROM
 EGL .F              5178:   GROUND LEVEL
 DATE.        05-MAR-1977:   RUN DATE
 RUN .                  1:   RUN NUMBER
 DD  .F               560:   DEPTH DRILLER
 DL  .F               560:   DEPTH LOGGER
 BLI .F               558:   BOTTOM LOG INTERVAL
 TLI .F                40:   TOP LOG INTERVAL
 CS  .IN            8.625:   CASING SIZE
 CBD .F                43:   CASING BOTTOM DRILLER
 CBL .F                43:   CASING BOTTOM LOGGER
 BS  .IN            7.875:   BIT SIZE
 BSD .F               560:   BIT SIZE AT DEPTH
 DFT .                KCL:   DRILLING FLUID TYPE
 DFD .                8.8:   DRILLING FLUID DENSITY
 DFV .                 32:   DRILLING FLUID VISCOSITY
 MSS .           FLOWLINE:   MUD SAMPLE SOURCE
 RMS .OHMM           1.46:   RESISTIVITY MUD SAMPLE
 MST .F                48:   MUD SAMPLE TEMPERATURE
 RMF .OHMM          0.972:   RESISTIVITY MUD FILTRATE SAMPLE
 MFST.F                48:   MUD FILTRATE SAMPLE TEMPERATURE
 RMC .OHMM           2.32:   RESISTIVITY MUD CAKE
 MCST.F                48:   MUD CAKE SAMPLE TEMPERATURE
 MFSS.               MEAS:   MUD FILTRATE SAMPLE SOURCE
 MCSS.               MEAS:   MUD CAKE SAMPLE SOURCE
 RMB .OHMM           1.03:   RESISTIVITY MUD AT BHT
 BHT .F                68:   BOTTOM HOLE TEMPERATURE
 TCS .HRS               2:   TIME CURCULATED STOPPED
 MRT .F                68:   MAXIMUM RECORDED TEMPERATURE
 LUN .               8611:   LOGGING UNIT NUMBER
 LUL .           GILLETTE:   LOGGING UNIT LOCATION
 ENGI.          D. LAWSON:   RECORDING ENGINEER
 WITN.     MR. STUEBINGER:   WITNESSED BY
 CLNT.            A2DTECH:   CLIENT CODE
 ORIG.           5" PRINT:   ORIGIN OF DATA
 UWI .       490251039500:   UNIQUE WELL ID
 DICO. A2D Technologies, Inc.:   DIGITIZING COMPANY
~OTHER INFORMATION
~A   DEPT       CALD     DPHI        DRHO        GRD        RHOB      ILD        ILM       SGRD        SPR   
# ...
  360.5000     8.1677     0.1048     0.0327   116.7837     2.4708     9.7516    10.5637    11.5908   -17.7779
  361.0000     8.0947     0.1094     0.0358   113.5195     2.4649    10.2421    10.5694    11.5986   -17.7605
  361.5000     8.0510     0.1093     0.0389   108.7650     2.4650    10.7573    11.1765    11.6049   -17.7431
  362.0000     7.9929     0.1105     0.0420   103.7125     2.4605    11.3767    12.9301    14.0499   -17.5769
  362.5000     7.9643     0.1189     0.0451    94.7851     2.4521    12.0319    14.7794    18.8825   -17.7083
  363.0000     7.9654     0.1284     0.0422    85.8578     2.4255    12.9019    16.0406    23.3846   -17.6905
  363.5000     7.9368     0.1406     0.0423    71.1194     2.3948    13.6449    16.9620    20.8006   -17.9712
  364.0000     7.9082     0.1595     0.0364    70.3851     2.3574    14.3339    17.6900    17.9945   -18.2514
  364.5000     7.8502     0.1720     0.0347    74.5761     2.3530    15.0832    18.1959    20.1148   -18.2296
  365.0000     7.7620     0.1726     0.0335    76.3790     2.3591    15.7028    18.4592    22.0201   -18.5142
  365.5000     7.6442     0.1695     0.0351    76.8406     2.3651    15.9322    18.7263    21.2827   -18.7901
  366.0000     7.5709     0.1737     0.0367    76.0388     2.3562    15.9429    18.7363    20.1474   -19.0747
  366.5000     7.5423     0.1940     0.0338    72.8495     2.3248    15.7319    18.7466    19.6079   -19.3512
  367.0000     7.4988     0.2051     0.0309    74.9504     2.3045    15.7451    18.5013    19.0829   -19.6310
  367.5000     7.5000     0.2047     0.0280    76.7533     2.3040    15.5389    18.2570    18.8307   -19.9110
  368.0000     7.5012     0.1999     0.0281    76.7678     2.3116    15.3361    18.0135    19.1060   -19.8929
  368.5000     7.5026     0.1927     0.0312    76.1826     2.3371    15.2297    17.5339    19.6528   -19.8719
  369.0000     7.5037     0.1798     0.0312    77.3930     2.3477    14.9378    17.4224    19.9374   -19.8545
  369.5000     7.5049     0.1788     0.0297    79.4939     2.3493    14.7425    17.3093    20.0840   -19.8371
  370.0000     7.4465     0.1758     0.0254    80.7007     2.3523    14.4520    17.0829    19.6842   -19.8197
  370.5000     7.2989     0.1610     0.0225    81.9136     2.3794    14.1624    16.8575    19.1574   -19.6535
  371.0000     7.0620     0.1485     0.0256    82.8167     2.3990    13.8833    16.4086    18.1125   -19.4873
  371.5000     7.0173     0.1458     0.0287    81.7911     2.4035    13.6074    16.1898    17.1681   -19.1723
  372.0000     7.0956     0.1463     0.0348    80.4643     2.4036    13.6165    16.3130    18.1575   -19.1508
  372.5000     7.4296     0.1487     0.0379    78.8395     2.3991    13.6258    16.6639    17.9176   -18.8393
  373.0000     7.8109     0.1468     0.0410    76.7676     2.4008    13.6371    16.9050    17.4355   -18.8181
  373.5000     7.6930     0.1444     0.0411    76.3350     2.4053    13.6463    17.1496    17.9369   -18.8036
  374.0000     7.5603     0.1474     0.0427    74.8592     2.4024    13.4656    17.1588    22.5504   -18.7833
  374.5000     7.5165     0.1527     0.0413    73.9795     2.3920    13.2919    16.9273    21.7953   -19.2124
  375.0000     7.8007     0.1617     0.0411    73.3979     2.3741    13.1159    16.4792    20.6326   -19.6414
  375.5000     7.8313     0.1685     0.0369    73.8062     2.3591    12.7688    16.0383    19.7432   -19.9216
  376.0000     7.7584     0.1772     0.0355    77.7525     2.3502    12.5151    15.6091    15.4475   -20.2019
  376.5000     7.6702     0.1822     0.0326    79.1083     2.3413    12.2664    14.9848    15.6712   -20.4821
  377.0000     7.6416     0.1867     0.0297    80.0170     2.3329    12.0819    14.6851    14.2300   -20.7623
  377.5000     7.6431     0.1938     0.0298    80.6276     2.3215    11.7044    14.5897    15.4725   -21.0425
  378.0000     7.6740     0.1998     0.0299    81.5363     2.3138    11.6296    14.5995    17.4134   -21.0208
  378.5000     7.6752     0.1962     0.0315    81.8489     2.3236    11.5573    14.6074    16.3708   -21.0034
  379.0000     7.6168     0.1937     0.0300    80.9692     2.3155    11.6472    14.6155    13.6825   -20.9860
  379.5000     7.5584     0.2000     0.0271    79.4934     2.3118    11.9819    14.6250    14.4813   -20.6710
  380.0000     7.5444     0.1925     0.0289    83.1644     2.3433    12.1569    14.6329    16.6883   -20.3560
  380.5000     7.6203     0.1736     0.0363    88.0239     2.3644    12.3345    15.0513    18.4567   -20.0410
  381.0000     7.6512     0.1547     0.0394    90.8670     2.3915    12.5335    15.4817    18.0872   -19.7260
  381.5000     7.6524     0.1355     0.0425    92.9679     2.4133    12.8764    15.9244    18.0969   -19.4107
  382.0000     7.6536     0.1270     0.0486    94.0221     2.4343    13.0645    16.3798    19.1373   -19.3929
  382.5000     7.6550     0.1288     0.0472    90.4634     2.4280    13.3473    16.6169    21.2419   -19.3718
  383.0000     7.7008     0.1336     0.0458    89.4311     2.4143    13.6362    16.8576    19.9701   -19.3544
  383.5000     7.7466     0.1419     0.0429    91.2376     2.3948    13.8354    16.9856    17.3982   -19.3370
  384.0000     7.7775     0.1535     0.0370    90.9538     2.3874    13.9407    17.1127    17.4175   -19.3196
  384.5000     7.7787     0.1520     0.0371    90.9727     2.3950    14.0469    17.1219    18.4482   -19.3022
  385.0000     7.7798     0.1460     0.0402    91.8977     2.4086    14.0565    17.1311    20.0158   -19.2848
  385.5000     7.7959     0.1405     0.0418    92.7896     2.4146    14.0681    17.3789    19.6151   -19.2675
  386.0000     7.7821     0.1363     0.0403    92.3571     2.4192    13.9782    17.3883    18.4407   -19.2500
  386.5000     7.7833     0.1363     0.0374    90.1361     2.4208    13.9900    17.6399    17.9445   -19.2327
  387.0000     7.7699     0.1372     0.0375    88.6603     2.4132    14.0965    17.6496    17.9566   -19.5129
  387.5000     7.7559     0.1404     0.0376    87.6316     2.4054    14.1060    17.6612    18.2167   -19.4911
  388.0000     7.6978     0.1440     0.0347    87.1954     2.4030    14.1154    17.6707    18.6088   -19.4738
  388.5000     7.6989     0.1457     0.0333    87.5116     2.4038    14.2229    17.9263    18.8863   -19.6095
  389.0000     7.7299     0.1478     0.0318    87.8242     2.4009    14.3313    18.1857    19.1752   -19.7409
  389.5000     7.7905     0.1499     0.0304    87.8390     2.3972    14.5409    18.4489    19.2977   -19.7192
  390.0000     7.8512     0.1522     0.0290    86.3665     2.3928    14.5528    18.9764    19.5771   -19.7018
  390.5000     7.8822     0.1546     0.0291    85.1888     2.3884    14.7653    19.2510    19.8606   -19.6844
  391.0000     7.9131     0.1593     0.0247    84.0111     2.3765    14.7752    19.2617    20.1483   -19.6667
  391.5000     7.9443     0.1650     0.0233    83.4258     2.3675    14.8877    19.4080    20.2991   -19.7941
  392.0000     7.9752     0.1688     0.0219    85.5304     2.3646    15.0011    19.5532    20.4510   -19.9298
  392.5000     7.9764     0.1675     0.0204    85.5449     2.3649    15.0112    19.5637    20.6041   -19.9081
  393.0000     7.9775     0.1658     0.0205    86.3046     2.3693    15.2304    19.5742    20.6155   -19.8907
  393.5000     8.0084     0.1633     0.0206    88.2565     2.3753    15.4761    19.5847    20.6291   -19.8733
  394.0000     8.0096     0.1555     0.0207    87.9573     2.3889    16.0099    19.5952    20.7835   -19.8559
  394.5000     8.0108     0.1453     0.0208    86.4501     2.4040    16.3565    19.6057    20.7947   -19.8385
  395.0000     8.0119     0.1375     0.0209    85.0250     2.4130    16.8265    19.6301    20.8059   -19.8211
  395.5000     8.0131     0.1324     0.0210    85.9337     2.4289    17.3100    21.0347    21.1072   -19.8036
  396.0000     8.0143     0.1197     0.0241    88.0347     2.4567    17.9310    24.8452    23.2669   -19.7857
  396.5000     8.0157     0.1053     0.0302    87.7511     2.4912    18.4462    26.6382    29.8650   -19.7646
