~VERSION INFORMATION
 VERS.                2.0:   CWLS LOG ASCII STANDARD - VERSION 2.0
 WRAP.                 NO:   ONE LINE PER DEPTH STEP
~WELL INFORMATION
#MNEM.UNIT      DATA TYPE    INFORMATION
#----------   ------------   ------------------------------
 STRT.F           32.0000:   START DEPTH
 STOP.F          757.0000:   STOP DEPTH
 STEP.F            0.5000:   STEP LENGTH
 NULL.          -999.2500:   NO VALUE
 COMP. FENIX & SCISSON INC:   COMPANY
 WELL.     88 S 34 #88-34:   WELL
 FLD .             NPR #3:   FIELD
 LOC .      S34 T39N R78W:   LOCATION
 CNTY.            NATRONA:   COUNTY
 STAT.            WYOMING:   STATE
 CTRY. UNITED STATES OF AMERICA:   COUNTRY
 SRVC.              Welex:   SERVICE COMPANY
 DATE.        10-MAY-1977:   LOGDATE
 API .       490251035800:   API NUMBER
~CURVE INFORMATION
#MNEM.UNIT       API CODE    CURVE DESCRIPTION
#----------   ------------   ------------------------------
 DEPT.F                  :   
 GURD.OHMM   07 220 05 00:   SHALLOW GUARD RESISTIVITY
 ILD .OHMM   07 120 46 00:   INDUCTION LOG DEEP
 ILM .OHMM   07 120 44 00:   INDUCTION LOG MEDIUM
 SPR .MV     07 010 01 00:   SPONTANEOUS POTENTIAL FROM RES.
 CALD.IN     45 280 60 00:   CALIPER FROM DENSITY LOG
 CORR.G/C3   45 356 01 00:   DENSITY CORRECTION
 DPHI.DEC    45 890 12 00:   DENSITY POROSITY SANDSTONE
 GRD .GAPI   45 310 01 00:   GAMMA RAY FROM DENSITY LOG
 RHOB.G/C3   45 350 01 00:   BULK DENSITY
~PARAMETER INFORMATION
#MNEM.UNIT          VALUE    DESCRIPTION
#----------   ------------   ------------------------------
 PD  .                 GL:   PERMANENT DATUM
 EPD .F              5094:   ELEVATION PERMANENT DATUM
 LMF .                 GL:   LOG MEASURED FROM
 DMF .                 GL:   DRILLING MEASURED FROM
 EGL .F              5094:   GROUND LEVEL
 DATE.        10-MAY-1977:   RUN DATE
 RUN .                  1:   RUN NUMBER
 DD  .F               760:   DEPTH DRILLER
 DL  .F               759:   DEPTH LOGGER
 BLI .F               757:   BOTTOM LOG INTERVAL
 TLI .F                30:   TOP LOG INTERVAL
 CS  .IN            8.625:   CASING SIZE
 CBD .F                40:   CASING BOTTOM DRILLER
 CBL .F                45:   CASING BOTTOM LOGGER
 BS  .IN            7.875:   BIT SIZE
 BSD .F               760:   BIT SIZE AT DEPTH
 DFT .            KCL MUD:   DRILLING FLUID TYPE
 DFD .                9.0:   DRILLING FLUID DENSITY
 DFV .                 33:   DRILLING FLUID VISCOSITY
 DFPH.                7.5:   DRILLING FLUID PH
 DFL .                7.4:   DRILLING FLUID LOSS
 MSS .           FLOWLINE:   MUD SAMPLE SOURCE
 RMS .OHMM           0.33:   RESISTIVITY MUD SAMPLE
 MST .F                70:   MUD SAMPLE TEMPERATURE
 RMF .OHMM           0.28:   RESISTIVITY MUD FILTRATE SAMPLE
 MFST.F                70:   MUD FILTRATE SAMPLE TEMPERATURE
 RMC .OHMM           0.40:   RESISTIVITY MUD CAKE
 MCST.F                70:   MUD CAKE SAMPLE TEMPERATURE
 MFSS.           FANN KIT:   MUD FILTRATE SAMPLE SOURCE
 MCSS.           FANN KIT:   MUD CAKE SAMPLE SOURCE
 RMB .OHMM           0.26:   RESISTIVITY MUD AT BHT
 BHT .F                86:   BOTTOM HOLE TEMPERATURE
 TCS .HRS             1.5:   TIME CURCULATED STOPPED
 MRT .F                86:   MAXIMUM RECORDED TEMPERATURE
 LUN .               8611:   LOGGING UNIT NUMBER
 LUL .             CASPER:   LOGGING UNIT LOCATION
 ENGI.            C. DOAK:   RECORDING ENGINEER
 WITN.         D. RHOADES:   WITNESSED BY
 CLNT.            A2DTECH:   CLIENT CODE
 ORIG.           5" PRINT:   ORIGIN OF DATA
 UWI .       490251035800:   UNIQUE WELL ID
 DICO. A2D Technologies, Inc.:   DIGITIZING COMPANY
~OTHER INFORMATION
~A   DEPT     GURD        ILD        ILM        SPR         CALD      CORR      DPHI         GRD        RHOB 
# ...
  725.5000    14.5039    11.3158    12.6322   -39.5730     7.7538    -0.0367     0.1216   109.6071     2.4548
  726.0000    14.3076    11.2325    12.1192   -39.5774     7.7685    -0.0352     0.1219   108.4024     2.4690
  726.5000    14.2118    11.0092    12.9862   -39.4327     7.7832    -0.0337     0.1219   108.2487     2.4743
  727.0000    14.1167    10.9340    13.5359   -39.2880     7.7829    -0.0337     0.1204   109.2969     2.4750
  727.5000    14.3169    10.7848    13.9152   -38.9943     7.7976    -0.0337     0.1208   110.7955     2.4767
  728.0000    14.5192    10.6376    13.0763   -38.9986     7.8123    -0.0352     0.1267   112.2942     2.4689
  728.5000    14.6229    10.4926    12.5453   -39.1520     7.8270    -0.0367     0.1291   113.2017     2.4602
  729.0000    14.5250    10.3494    12.2879   -39.0073     7.8417    -0.0367     0.1330   113.7900     2.4550
  729.5000    14.2297    10.3501    12.1192   -39.0127     7.8414    -0.0397     0.1363   114.0875     2.4512
  730.0000    13.5600    10.3508    12.3731   -39.1661     7.8260    -0.0427     0.1369   114.2340     2.4498
  730.5000    12.7212    10.3516    12.4589   -39.3194     7.8108    -0.0472     0.1384   113.0300     2.4475
  731.0000    12.4853    10.3523    12.3731   -39.6218     7.8105    -0.0487     0.1411   111.6751     2.4394
  731.5000    13.8533    10.3530    12.2705   -39.9242     7.8177    -0.0532     0.1436   109.5701     2.4334
  732.0000    14.7450    10.2825    11.4675   -40.2266     7.8249    -0.0562     0.1454   108.6671     2.4319
  732.5000    12.8438    10.0724    11.0018   -40.5291     7.8246    -0.0607     0.1478   111.3663     2.4275
  733.0000    12.4960     9.8665    10.6282   -40.6826     7.8093    -0.0622     0.1538   114.0991     2.4208
  733.5000    11.1895     9.6649    10.1966   -40.8369     7.8090    -0.0637     0.1580   116.1647     2.4163
  734.0000    11.7522     9.5330     9.8504   -40.8412     7.7936    -0.0635     0.1604   115.4111     2.4126
  734.5000    11.7491     9.4029     9.6483   -40.8455     7.7934    -0.0592     0.1622   113.1560     2.4089
  735.0000    11.6705     9.2747     9.4504   -40.8967     7.7781    -0.0517     0.1628   112.6474     2.4067
  735.5000    11.6734     9.2618     9.4504   -41.0032     7.7778    -0.0397     0.1592   120.8072     2.4097
  736.0000    11.5953     9.1486     9.3853   -41.1566     7.7925    -0.0157     0.1517   123.0566     2.4360
  736.5000    11.5976     9.0863     9.5819   -41.1610     7.7922    -0.0174     0.1367   123.9547     2.4450
  737.0000    11.4406     9.0244     9.9187   -41.1843     7.7919    -0.0487     0.1289   124.5526     2.4630
  737.5000    11.1308     8.9014    10.1264   -41.3197     7.7916    -0.0217     0.1223   124.6060     2.4730
  738.0000    10.9701     8.9020     9.4504   -41.3234     7.7912     0.0007     0.1208   124.4240     2.4751
  738.5000    10.9066     8.8413     9.2565   -41.3284     7.8060     0.0052     0.1208  -999.2500     2.4752
  739.0000    11.1380     8.7811     9.2535   -41.4818     7.8207     0.0052     0.1208  -999.2500     2.4752
  739.5000    11.2176     8.7214     9.3903   -41.4861     7.8354     0.0035     0.1208  -999.2500     2.4760
  740.0000    11.4550     8.6460     9.5819   -41.3413     7.8371     0.0022     0.1202  -999.2500     2.4769
  740.5000    11.5368     8.4849     9.7152   -41.3458     7.8648     0.0052     0.1184  -999.2500     2.4783
  741.0000    11.5391     8.3116     9.8504   -41.3502     7.8945     0.0052     0.1166  -999.2500     2.4821
  741.5000    11.3777     8.1417     9.9874   -41.3555     7.9091     0.0082     0.1133  -999.2500     2.4889
  742.0000    11.1520     7.8645     9.9874   -41.3599     7.9238     0.0082     0.1097  -999.2500     2.4957
  742.5000    10.9253     7.6365     9.9874   -41.2141     7.9085     0.0112     0.1109  -999.2500     2.4927
  743.0000    10.7774     7.2416     9.7826   -41.2195     7.8932     0.0112     0.1094  -999.2500     2.4957
  743.5000    10.6315     6.9004     9.3731   -41.2238     7.8779     0.0112     0.1070  -999.2500     2.4995
  744.0000    10.4876     6.6667     8.6385   -40.9300     7.8627     0.0127     0.1058  -999.2500     2.5003
  744.5000    10.3456     6.5305     8.2306   -40.6364     7.8773     0.0142     0.1058  -999.2500     2.5011
  745.0000    10.1704     6.5309     8.1740   -40.3279     7.8921     0.0142     0.1064  -999.2500     2.5004
  745.5000    10.0652     6.5314     8.2306   -39.7509     7.9068     0.0172     0.1082  -999.2500     2.4989
  746.0000     9.9910     6.5324     8.2306   -38.7131     7.9214     0.0202     0.1106  -999.2500     2.4930
  746.5000     9.8513     6.6294     8.3452   -36.6310     7.9511     0.0262     0.1154  -999.2500     2.4892
  747.0000     9.7312     6.8563     8.4030   -33.9528     7.9659     0.0307     0.1148  -999.2500     2.4878
  747.5000     9.6661     7.2963     8.4613   -31.2745     7.8755     0.0352     0.1145  -999.2500     2.4856
  748.0000     9.6685     8.2055     8.4613   -22.4860     7.7999     0.0412     0.1157  -999.2500     2.4826
  748.5000     9.7375    10.9666     8.4613   -12.0582     7.7100     0.0457     0.1205  -999.2500     2.4811
  749.0000     9.8071    13.6790     8.3452    -3.6523     7.6347     0.0502     0.1178  -999.2500     2.4819
  749.5000     9.8771    15.8144     8.1740    -2.6779     7.5745     0.0534     0.1157  -999.2500     2.4843
  750.0000     9.6101     9.4231     8.1177    -2.6833     7.5292     0.0562     0.1161  -999.2500     2.4828
  750.5000     9.2214     7.9297  1945.4810    -2.5386     7.4389     0.0562     0.1191  -999.2500     2.4633
  751.0000     7.8671    11.9180  1945.4810    -2.5429     7.3487     0.0562     0.1299  -999.2500     2.4514
  751.5000     5.3374    42.3509  1932.0851    -2.2481     7.2435     0.0561     0.1386  -999.2500     2.4386
  752.0000     6.8065    63.8112  1932.0851    -2.5516     7.1232     0.0594     0.1491  -999.2500     2.4319
  752.5000     9.6197     8.9199  1945.4810    -2.5559     7.0029     0.0652     0.1407  -999.2500     2.4387
  753.0000     9.8915     8.6775  1945.4810    -2.5604     6.9127     0.0712     0.1425  -999.2500     2.4433
  753.5000     9.8940     8.6781  1945.4810    -2.5657     6.8225     0.0742     0.1401  -999.2500     2.4410
  754.0000    10.1034     8.6786  1958.9698    -2.5700     6.7622     0.0772     0.1365  -999.2500     2.4456
  754.5000    10.5335     8.6792  1958.9698    -2.7234     6.6869     0.0803     0.1386  -999.2500     2.4494
  755.0000    10.7564     8.7401  1958.9698    -2.7277     6.6266     0.0847     0.1455  -999.2500     2.4389
  755.5000    10.8332     8.6804  1945.4810    -2.7321     6.5664     0.0892     0.1662  -999.2500     2.3940
  756.0000    10.4672     8.7412  1932.0851    -2.7364     6.5492     0.0952     0.1707  -999.2500     2.3924
  756.5000    10.1837     8.8024  1905.5693    -2.8898     6.5445     0.0982     0.1719  -999.2500     2.3956
  757.0000    10.3993     8.9085  1865.7037    -3.1198     6.5399     0.0981     0.1718  -999.2500     2.3987
