~VERSION INFORMATION
 VERS.                2.0:   CWLS LOG ASCII STANDARD - VERSION 2.0
 WRAP.                 NO:   ONE LINE PER DEPTH STEP
~WELL INFORMATION
#MNEM.UNIT      DATA TYPE    INFORMATION
#----------   ------------   ------------------------------
 STRT.F           34.5000:   START DEPTH
 STOP.F          880.5000:   STOP DEPTH
 STEP.F            0.5000:   STEP LENGTH
 NULL.          -999.2500:   NO VALUE
 COMP. FENIX & SCISSON INC:   COMPANY
 WELL. NAVAL PETROLEUM RESERVE 3 S-14 #35-14:   WELL
 FLD .             TEAPOT:   FIELD
 LOC .      S14 T38N R78W:   LOCATION
 CNTY.            NATRONA:   COUNTY
 STAT.            WYOMING:   STATE
 CTRY. UNITED STATES OF AMERICA:   COUNTRY
 SRVC.            Unknown:   SERVICE COMPANY
 DATE.        24-APR-1978:   LOGDATE
 API .       490251062000:   API NUMBER
~CURVE INFORMATION
#MNEM.UNIT       API CODE    CURVE DESCRIPTION
#----------   ------------   ------------------------------
 DEPT.F                  :   
 RHOB.G/C3   45 350 01 00:   BULK DENSITY
 DPHI.DEC    45 890 12 00:   DENSITY POROSITY SANDSTONE
 CORR.G/C3   45 356 01 00:   DENSITY CORRECTION
 GRD .GAPI   45 310 01 00:   GAMMA RAY FROM DENSITY LOG
 CALD.IN     45 280 60 00:   CALIPER FROM DENSITY LOG
 SPR .MV     05 010 01 00:   SPONTANEOUS POTENTIAL FROM RES.
 SN  .OHMM   05 040 16 00:   SHORT NORMAL 16"
 ILD .OHMM   05 120 46 00:   INDUCTION LOG DEEP
~PARAMETER INFORMATION
#MNEM.UNIT          VALUE    DESCRIPTION
#----------   ------------   ------------------------------
 PD  .                 GL:   PERMANENT DATUM
 EPD .F              5246:   ELEVATION PERMANENT DATUM
 LMF .                 KB:   LOG MEASURED FROM
 DMF .                 KB:   DRILLING MEASURED FROM
 EKB .F              5250:   KELLING BUSHING
 EGL .F              5246:   GROUND LEVEL
 DATE.          4-24-1978:   RUN DATE
 RUN .                  1:   RUN NUMBER
 DD  .F               880:   DEPTH DRILLER
 DL  .F               880:   DEPTH LOGGER
 BLI .F               884:   BOTTOM LOG INTERVAL
 TLI .F                50:   TOP LOG INTERVAL
 CS  .IN            8.625:   CASING SIZE
 CBD .F                40:   CASING BOTTOM DRILLER
 CBL .F                50:   CASING BOTTOM LOGGER
 BS  .IN            7.875:   BIT SIZE
 BSD .F               880:   BIT SIZE AT DEPTH
 DFT .                KCL:   DRILLING FLUID TYPE
 DFD .                8.6:   DRILLING FLUID DENSITY
 DFV .                 32:   DRILLING FLUID VISCOSITY
 DFPH.                 10:   DRILLING FLUID PH
 DFL .               12.8:   DRILLING FLUID LOSS
 MSS .            MUD PIT:   MUD SAMPLE SOURCE
 RMS .OHMM            .34:   RESISTIVITY MUD SAMPLE
 MST .F                62:   MUD SAMPLE TEMPERATURE
 RMF .OHMM             .3:   RESISTIVITY MUD FILTRATE SAMPLE
 MFST.F                70:   MUD FILTRATE SAMPLE TEMPERATURE
 RMC .OHMM            .58:   RESISTIVITY MUD CAKE
 MCST.F                70:   MUD CAKE SAMPLE TEMPERATURE
 MFSS.           MEASURED:   MUD FILTRATE SAMPLE SOURCE
 RMB .OHMM            .28:   RESISTIVITY MUD AT BHT
 BHT .F                74:   BOTTOM HOLE TEMPERATURE
 TCS .HRS               4:   TIME CURCULATED STOPPED
 MRT .F                74:   MAXIMUM RECORDED TEMPERATURE
 LUN .               2958:   LOGGING UNIT NUMBER
 LUL .              CASP.:   LOGGING UNIT LOCATION
 ENGI.             MILLER:   RECORDING ENGINEER
 WITN.           MCGINLEY:   WITNESSED BY
 CLNT.            A2DTECH:   CLIENT CODE
 ORIG.       2", 5" PRINT:   ORIGIN OF DATA
 UWI .       490251062000:   UNIQUE WELL ID
 DICO. A2D Technologies, Inc.:   DIGITIZING COMPANY
~OTHER INFORMATION
~A   DEPT     RHOB       DPHI       CORR         GRD      CALD        SPR         SN        ILD   
# ...
  520.5000     2.4754     0.0952     0.0781    88.4362     8.3314   -32.2057     6.3229     5.9848
  521.0000     2.4803     0.0942     0.0761    89.5396     8.2901   -32.3017     6.3941     6.0982
  521.5000     2.4763     0.0958     0.0740    90.6134     8.2550   -32.3980     6.4736     6.1775
  522.0000     2.4724     0.1007     0.0720    91.7246     8.2491   -32.4942     6.5543     6.2574
  522.5000     2.4687     0.1051     0.0736    90.0078     8.2427   -32.5904     6.6300     6.3320
  523.0000     2.4682     0.1043     0.0808    87.1643     8.2362   -32.6866     6.6783     6.3781
  523.5000     2.4756     0.0962     0.0890    86.7230     8.2297   -32.7829     6.7268     6.4245
  524.0000     2.4829     0.0925     0.0971    86.3717     8.2232   -32.8791     6.7757     6.4712
  524.5000     2.4902     0.0885     0.1054    86.1671     8.2165   -32.9692     6.8251     6.5183
  525.0000     2.4963     0.0846     0.1095    86.4965     8.2004   -33.0159     6.8699     6.5611
  525.5000     2.4973     0.0830     0.1128    89.1594     8.1848   -33.0602     6.8726     6.5637
  526.0000     2.4976     0.0839     0.1160    92.2149     8.1535   -33.1045     6.8750     6.5660
  526.5000     2.4967     0.0859     0.1189    92.1009     8.1079   -33.1488     6.8775     6.5683
  527.0000     2.4940     0.0887     0.1192    90.8382     8.0624   -33.1931     6.8800     6.5707
  527.5000     2.4852     0.0923     0.1195    90.6370     8.0166   -33.2375     6.8825     6.5731
  528.0000     2.4768     0.0959     0.1197    90.6057     7.9965   -33.2818     6.8849     6.5755
  528.5000     2.4709     0.0998     0.1200    90.9042     7.9931   -33.3262     6.8874     6.5779
  529.0000     2.4719     0.0946     0.1202    91.1748     7.9900   -33.3705     6.8899     6.5803
  529.5000     2.4743     0.0976     0.1205    92.3650     7.9870   -33.4149     6.8924     6.5826
  530.0000     2.4733     0.1042     0.1207    91.6838     7.9839   -33.4593     6.8949     6.5850
  530.5000     2.4657     0.1007     0.1213    89.8893     7.9809   -33.5035     6.8974     6.5874
  531.0000     2.4759     0.0948     0.1311    90.8036     7.9778   -33.5485     6.8999     6.5898
  531.5000     2.4847     0.0907     0.1374    92.0719     7.9747   -33.5352     6.9024     6.5922
  532.0000     2.4839     0.0930     0.1382    93.4148     7.9717   -33.4857     6.9049     6.5946
  532.5000     2.4820     0.0931     0.1393    92.4490     7.9686   -33.4355     6.9074     6.5970
  533.0000     2.4820     0.0920     0.1453    90.7940     7.9655   -33.3853     6.9099     6.5993
  533.5000     2.4804     0.0945     0.1448    89.8592     7.9625   -33.3351     6.9124     6.6017
  534.0000     2.4660     0.1067     0.1417    91.4821     7.9593   -33.2850     6.9149     6.6041
  534.5000     2.4581     0.1033     0.1439    93.8799     7.9668   -33.2348     6.9174     6.6065
  535.0000     2.4660     0.0977     0.1493    93.9858     7.9810   -33.1846     6.9200     6.6089
  535.5000     2.4794     0.0942     0.1548    92.5511     7.9941   -33.1345     6.9225     6.6113
  536.0000     2.4768     0.0960     0.1558    92.2498     8.0578   -33.0840     6.9250     6.6137
  536.5000     2.4638     0.1056     0.1400    91.2229     8.1292   -33.0346     6.9275     6.6161
  537.0000     2.4491     0.1136     0.1212    90.8237     8.2009   -32.9781     6.9299     6.6185
  537.5000     2.4431     0.1158     0.1040    90.7055     8.2511   -33.2349     6.9329     6.6215
  538.0000     2.4445     0.1166     0.0916    89.2464     8.2896   -33.7000     6.9041     6.5934
  538.5000     2.4463     0.1109     0.0792    86.5857     8.3897   -34.5892     6.8630     6.5537
  539.0000     2.4557     0.1030     0.0716    88.7006     8.4785   -34.6075     6.8223     6.5143
  539.5000     2.4677     0.0951     0.0688    91.0037     8.4764   -34.6430     6.7817     6.4750
  540.0000     2.4757     0.0952     0.0626    91.3231     8.4761   -34.6805     6.7414     6.4361
  540.5000     2.4721     0.0987     0.0488    91.6743     8.4761   -34.7183     6.7013     6.3973
  541.0000     2.4687     0.1021     0.0354    91.7934     8.4761   -34.7561     6.6615     6.3588
  541.5000     2.4686     0.1033     0.0341    91.5313     8.4761   -34.7939     6.6219     6.3205
  542.0000     2.4705     0.0984     0.0333    91.7459     8.4761   -34.8316     6.5826     6.2825
  542.5000     2.4744     0.0968     0.0325    92.0637     8.4761   -34.8694     6.5434     6.2447
  543.0000     2.4737     0.0976     0.0316    91.4275     8.4761   -34.9072     6.5045     6.2071
  543.5000     2.4722     0.0981     0.0308    90.2548     8.4761   -34.9450     6.4659     6.1697
  544.0000     2.4707     0.0993     0.0299    89.1132     8.4761   -34.9827     6.4275     6.1326
  544.5000     2.4691     0.1030     0.0291    87.9686     8.4761   -35.0205     6.3893     6.0957
  545.0000     2.4700     0.0978     0.0306    88.3006     8.4761   -35.0583     6.3513     6.0590
  545.5000     2.4711     0.0986     0.0324    87.9570     8.4761   -35.0962     6.3240     6.0397
  546.0000     2.4719     0.0999     0.0342    87.9828     8.4761   -35.1333     6.1541     5.8504
  546.5000     2.4660     0.1031     0.0345    88.7681     8.4761   -35.1482     5.9679     5.6807
  547.0000     2.4620     0.1052     0.0336    89.5448     8.4761   -35.1100     5.7874     5.5160
  547.5000     2.4621     0.1058     0.0327    90.2780     8.4761   -35.0729     5.6124     5.3560
  548.0000     2.4578     0.1084     0.0318    90.2239     8.4761   -35.0356     5.5090     5.2602
  548.5000     2.4511     0.1138     0.0311    90.1470     8.4761   -34.9984     5.5090     5.2615
  549.0000     2.4463     0.1136     0.0328    90.2126     8.4761   -34.9612     5.5090     5.2606
  549.5000     2.4481     0.1124     0.0345    91.0892     8.4761   -34.9240     5.5480     5.2999
  550.0000     2.4497     0.1117     0.0345    91.8251     8.4761   -34.8867     5.6330     5.3838
  550.5000     2.4512     0.1145     0.0337    89.4081     8.4761   -34.8495     5.7192     5.4689
  551.0000     2.4479     0.1152     0.0320    87.6880     8.4761   -34.8123     5.8067     5.5555
  551.5000     2.4385     0.1141     0.0253    88.0066     8.4761   -34.7751     5.8956     5.6434
  552.0000     2.4510     0.1052     0.0255    88.8789     8.4761   -34.7378     5.9859     5.7326
  552.5000     2.4613     0.1037     0.0260    89.7536     8.4761   -34.7006     6.0404     5.7683
  553.0000     2.4615     0.1052     0.0266    90.1007     8.4761   -34.6634     6.0396     5.7683
  553.5000     2.4618     0.1066     0.0277    89.3315     8.4761   -34.6262     6.0398     5.7683
  554.0000     2.4645     0.1034     0.0314    88.0529     8.4740   -34.5889     6.0397     5.7683
  554.5000     2.4685     0.0996     0.0350    90.4501     8.4638   -34.5517     6.0402     5.7683
  555.0000     2.4725     0.0958     0.0386    94.2972     8.4539   -34.5145     6.0224     5.7603
  555.5000     2.4759     0.0966     0.0376    96.1605     8.4440   -34.4773     5.9700     5.7453
  556.0000     2.4745     0.0976     0.0361    96.7678     8.4342   -34.4401     5.9181     5.7305
  556.5000     2.4731     0.0970     0.0349    96.0170     8.4243   -34.4028     5.8667     5.7153
  557.0000     2.4747     0.0966     0.0347    94.6047     8.4146   -34.3656     5.8158     5.6498
  557.5000     2.4745     0.0973     0.0344    93.8546     8.4045   -34.3284     5.7653     5.5853
  558.0000     2.4721     0.0982     0.0342    94.4059     8.3809   -34.2912     5.7153     5.5216
  558.5000     2.4740     0.0972     0.0339    93.8014     8.2902   -34.2537     5.6656     5.4587
  559.0000     2.4759     0.0961     0.0337    93.4440     8.2436   -34.2169     5.6164     5.3966
  559.5000     2.4742     0.0994     0.0334    93.8101     8.2738   -34.1781     5.5677     5.3351
  560.0000     2.4724     0.0962     0.0332    93.6570     8.3539   -34.3166     5.5193     5.2743
  560.5000     2.4707     0.0995     0.0335    91.6415     8.3700   -34.5836     5.3692     5.0759
