~VERSION INFORMATION
 VERS.                2.0:   CWLS LOG ASCII STANDARD - VERSION 2.0
 WRAP.                 NO:   ONE LINE PER DEPTH STEP
~WELL INFORMATION
#MNEM.UNIT      DATA TYPE    INFORMATION
#----------   ------------   ------------------------------
 STRT.F           80.0000:   START DEPTH
 STOP.F          739.0000:   STOP DEPTH
 STEP.F            0.5000:   STEP LENGTH
 NULL.          -999.2500:   NO VALUE
 COMP. U S NAVY-INTEX OIL:   COMPANY
 WELL.        NPR #36-S-2:   WELL
 FLD .             TEAPOT:   FIELD
 LOC .       S2 T38N R78W:   LOCATION
 CNTY.            NATRONA:   COUNTY
 STAT.            WYOMING:   STATE
 CTRY. UNITED STATES OF AMERICA:   COUNTRY
 SRVC.       Schlumberger:   SERVICE COMPANY
 DATE.        23-JUN-1962:   LOGDATE
 API .       490250641800:   API NUMBER
~CURVE INFORMATION
#MNEM.UNIT       API CODE    CURVE DESCRIPTION
#----------   ------------   ------------------------------
 DEPT.F                  :   
 ASN .OHMM   05 041 16 00:   AMPLIFIED SHORT NORMAL 16"
 ILD .OHMM   05 120 46 00:   INDUCTION LOG DEEP
 CILD.MMHO   05 110 46 00:   CONDUCTIVITY INDUCTION LOG DEEP
 SPR .MV     05 010 01 00:   SPONTANEOUS POTENTIAL FROM RES.
 GR  .GAPI   30 310 01 00:   GAMMA RAY
~PARAMETER INFORMATION
#MNEM.UNIT          VALUE    DESCRIPTION
#----------   ------------   ------------------------------
 PD  .                 KB:   PERMANENT DATUM
 EPD .F              5143:   ELEVATION PERMANENT DATUM
 EKB .F              5143:   KELLING BUSHING
 EGL .F              5138:   GROUND LEVEL
 DATE.        23-JUN-1962:   RUN DATE
 RUN .                  1:   RUN NUMBER
 DD  .F               738:   DEPTH DRILLER
 DL  .F               740:   DEPTH LOGGER
 BLI .F               739:   BOTTOM LOG INTERVAL
 TLI .F                80:   TOP LOG INTERVAL
 BS  .IN             6.75:   BIT SIZE
 BSD .F               738:   BIT SIZE AT DEPTH
 DFT .       OIL EMULSION:   DRILLING FLUID TYPE
 DFD .               10.0:   DRILLING FLUID DENSITY
 DFV .                 53:   DRILLING FLUID VISCOSITY
 DFL .                3.8:   DRILLING FLUID LOSS
 RMS .OHMM            3.9:   RESISTIVITY MUD SAMPLE
 MST .F                66:   MUD SAMPLE TEMPERATURE
 RMF .OHMM            2.9:   RESISTIVITY MUD FILTRATE SAMPLE
 MFST.F                66:   MUD FILTRATE SAMPLE TEMPERATURE
 RMC .OHMM            4.4:   RESISTIVITY MUD CAKE
 MCST.F                66:   MUD CAKE SAMPLE TEMPERATURE
 TCS .HRS               1:   TIME CURCULATED STOPPED
 LUN .               2503:   LOGGING UNIT NUMBER
 LUL .               CSPR:   LOGGING UNIT LOCATION
 ENGI.             DANNER:   RECORDING ENGINEER
 WITN.          JORGENSON:   WITNESSED BY
 CLNT.            A2DTECH:   CLIENT CODE
 ORIG.           5" PRINT:   ORIGIN OF DATA
 UWI .       490250641800:   UNIQUE WELL ID
 DICO. A2D Technologies, Inc.:   DIGITIZING COMPANY
~OTHER INFORMATION
~A   DEPT        ASN        ILD      CILD       SPR         GR   
# ...
  324.0000     8.1904     8.4054   133.9604   -46.9433  -999.2500
  324.5000     8.2356     8.4820   132.4813   -47.3895  -999.2500
  325.0000     8.2658     8.4835   131.7530   -47.5373  -999.2500
  325.5000     8.3260     8.5601   129.5288   -47.9835  -999.2500
  326.0000     8.4312     8.7120   128.7949   -48.1314  -999.2500
  326.5000     8.5365     8.7886   127.3215   -48.2791  -999.2500
  327.0000     8.7018     8.9402   126.5875   -48.4269  -999.2500
  327.5000     8.7770     8.9417   125.8593   -48.5746  -999.2500
  328.0000     8.8072     9.0183   124.3858   -48.5731  -999.2500
  328.5000     8.8374     9.0198   123.6575   -48.7209  -999.2500
  329.0000     8.8676     8.9462   122.9292   -48.7193  -999.2500
  329.5000     8.8677     8.8722   122.9516   -48.1208  -999.2500
  330.0000     8.8829     8.7986   121.4670   -47.9502  -999.2500
  330.5000     8.8981     8.7251   119.9925   -49.3119  -999.2500
  331.0000     9.0183     8.9522   118.5145   -50.0567  -999.2500
  331.5000     9.2287     9.3290   115.5339   -50.5029  -999.2500
  332.0000     9.4090     9.6308   112.5534   -50.6507  -999.2500
  332.5000     9.6794     9.7825   110.3236   -50.7985  -999.2500
  333.0000     9.9499    10.0092   107.3430   -50.4985  -999.2500
  333.5000    10.2954    10.1608   103.6117   -49.9000  -999.2500
  334.0000    10.3706    10.2374   102.1322   -48.5552  -999.2500
  334.5000    10.4458    10.3140   102.1551   -49.1507  -999.2500
  335.0000    10.4460    10.3905   101.4264   -49.8955  -999.2500
  335.5000    10.4461    10.4671   101.4492   -50.7895  -999.2500
  336.0000    10.4463    10.4686   101.4717   -51.5343  -999.2500
  336.5000    10.4464    10.4701   102.2449   -51.5462  -999.2500
  337.0000    10.5216    10.5466   102.2673   -51.0835  -999.2500
  337.5000    10.6719    10.5481   103.0405   -50.4850  -999.2500
  338.0000    10.6721    10.6247   103.0631   -50.0358  -999.2500
  338.5000    10.6722    10.6262   103.8363   -49.5865  -999.2500
  339.0000    10.6724    10.6277   103.8588   -49.2865  -999.2500
  339.5000    10.6725    10.6292   103.8814   -49.2850  -999.2500
  340.0000    10.6727    10.6307   104.6547   -49.2836  -999.2500
  340.5000    10.5977    10.5571   104.6771   -49.7298  -999.2500
  341.0000    10.4478    10.4084   105.4504   -50.1761  -999.2500
  341.5000    10.3728    10.3349   105.5532   -50.4731  -999.2500
  342.0000    10.2979    10.1111   106.9970   -50.4796  -999.2500
  342.5000    10.1479     9.8874   107.7702   -50.3209  -999.2500
  343.0000    10.0729     9.7382   108.5435   -50.0209  -999.2500
  343.5000     9.9770     9.5879   108.5661   -49.8701  -999.2500
  344.0000     9.9267     9.4414   108.5886   -49.8686  -999.2500
  344.5000     9.8332     9.3678   109.3618   -49.8671  -999.2500
  345.0000     9.7733     9.2943   110.1396   -50.0149  -999.2500
  345.5000     9.7284     9.2957   110.1621   -50.0134  -999.2500
  346.0000     9.7586     9.3724   110.1845   -50.0119  -999.2500
  346.5000     9.8789     9.4490   110.9577   -49.8612  -999.2500
  347.0000     9.8940     9.6151   110.9802   -50.0089  -999.2500
  347.5000     9.8641     9.7525   111.7534   -50.0075  -999.2500
  348.0000     9.7592     9.9042   111.7758   -50.3045  -999.2500
  348.5000     9.5942     9.8302   111.7983   -50.4522  -999.2500
  349.0000     9.5192     9.8321   111.8207   -50.4507  -999.2500
  349.5000     9.4743     9.7585   113.3447   -50.0015  -999.2500
  350.0000     9.4594     9.7469   114.2901   -49.7015  -999.2500
  350.5000     9.5060     9.5938   116.4333   -49.4691  -999.2500
  351.0000     9.5210     9.4406   119.3694   -49.2368  -999.2500
  351.5000     9.4760     9.2406   123.1231   -49.0044  -999.2500
  352.0000     9.2665     8.9426   126.1261   -48.6391  -999.2500
  352.5000     8.8772     8.7202   129.8799   -49.6783  -999.2500
  353.0000     8.6826     8.6468   132.8829   -49.8242  -999.2500
  353.5000     8.4880     8.5739   134.3844   -49.9678  -999.2500
  354.0000     8.2186     8.5011   136.6366   -50.2629  -999.2500
  354.5000     8.0689     8.3538   138.8889   -49.2125  -999.2500
  355.0000     7.9641     8.1308   139.6396   -48.9105  -999.2500
  355.5000     7.9192     8.0574   138.8889   -49.3816  -999.2500
  356.0000     8.0240     8.0602   136.6366   -49.9465  -999.2500
  356.5000     8.3383     8.2126   132.8829   -49.7925  -999.2500
  357.0000     8.6826     8.3651   129.8799   -49.4676  -999.2500
  357.5000     8.9222     8.5925   127.6276   -49.4852  -999.2500
  358.0000     9.0419     8.9702   125.3754   -49.7792  -999.2500
  358.5000     9.0719     9.1976   122.3724   -49.7587  -999.2500
  359.0000     9.1168     9.4251   120.1201   -48.7115  -999.2500
  359.5000     9.2066     9.5775   119.3694   -48.1120  -999.2500
  360.0000     9.2814     9.5798   119.3694   -48.1294  -999.2500
  360.5000     9.2066     9.5820   119.3694   -49.3329  -999.2500
  361.0000     9.3413     9.5843   119.5097   -49.6030  -999.2500
  361.5000     9.3713     9.5109   120.8709   -49.5985  -999.2500
  362.0000     9.1617     9.2885   121.7517   -49.5940  -999.2500
  362.5000     9.1018     9.2151   123.1231   -49.2910  -999.2500
  363.0000     9.0569     9.0672   123.8739   -48.5403  -999.2500
  363.5000     9.0269     8.9944   125.3754   -48.0880  -999.2500
  364.0000     8.9970     8.9215   126.8769   -47.9343  -999.2500
  364.5000     8.9820     8.9244   127.6276   -47.6313  -999.2500
  365.0000     9.1168     9.0017   125.2753   -47.4775  -999.2500
  365.5000     9.2066     9.1541   121.5268   -47.4730  -999.2500
  366.0000     9.3563     9.4566   117.7779   -47.4686  -999.2500
  366.5000     9.6557     9.7592   114.6947   -48.0611  -999.2500
  367.0000    10.2571     9.9116   111.8619   -48.5044  -999.2500
  367.5000     9.7184    10.1391   110.3604   -48.6491  -999.2500
  368.0000     9.5838    10.2164   109.5395   -48.0476  -999.2500
  368.5000    10.5571    10.2937   108.8589   -47.5953  -999.2500
  369.0000    10.7818    10.2960   108.9189   -47.5908  -999.2500
  369.5000    10.4078    10.2226   111.1662   -47.5864  -999.2500
  370.0000     9.6993    10.0753   113.4137   -47.5819  -999.2500
  370.5000     9.4789     9.9268   115.6606   -47.5774  -999.2500
  371.0000     9.3445     9.7044   117.8679   -47.5729  -999.2500
  371.5000     9.2850     9.5559   119.3694   -47.8669  -999.2500
  372.0000     9.2410     9.3335   120.1201   -48.4605  -999.2500
  372.5000     9.2262     9.3358   120.1201   -47.8579  -999.2500
  373.0000     9.2264     9.1873   120.1201   -47.4057  -999.2500
  373.5000     9.3015     9.1145   119.3694   -47.8500  -999.2500
  374.0000     9.3615     9.1173   119.3694   -48.4414  -999.2500
  374.5000     9.2120     9.1946   119.3694   -47.8399  -999.2500
  375.0000     9.2122     9.2720   119.3694   -47.2384  -999.2500
  375.5000     9.2124     9.3493   119.3694   -47.2339  -999.2500
  376.0000     9.1078     9.5017   119.3694   -47.2294  -999.2500
  376.5000     9.0895     9.5039   120.1201   -47.2250  -999.2500
  377.0000     9.2279     9.5813   120.1201   -47.0712  -999.2500
  377.5000     9.2431     9.5835   120.8709   -46.6190  -999.2500
  378.0000     9.2266     9.6608   120.8709   -46.4652  -999.2500
  378.5000     9.3482     9.6631   122.3724   -46.7592  -999.2500
  379.0000     9.2856     9.6654   122.3724   -46.9051  -999.2500
  379.5000     9.1091     9.6676   123.1231   -47.1980  -999.2500
  380.0000     8.9895     9.6699   123.1231   -47.4920  -999.2500
  380.5000     8.9448     9.5965   123.8739   -47.7872  -999.2500
  381.0000     8.9450     9.5993   123.8739   -47.6323  -999.2500
  381.5000     8.9901     9.5259   123.8739   -47.3293  -999.2500
  382.0000     8.9903     9.5287   124.6246   -46.8770  -999.2500
  382.5000     9.0054     9.4559   125.3754   -46.7233  -999.2500
  383.0000     9.0056     9.3825   126.1261   -47.1677  -999.2500
  383.5000     9.0058     9.2346   126.8769   -47.1621  -999.2500
  384.0000     8.9611     9.0867   127.6276   -46.5606  -999.2500
  384.5000     8.8565     8.9394   127.6276   -46.7053  -999.2500
