~VERSION INFORMATION
 VERS.                2.0:   CWLS LOG ASCII STANDARD - VERSION 2.0
 WRAP.                 NO:   ONE LINE PER DEPTH STEP
~WELL INFORMATION
#MNEM.UNIT      DATA TYPE    INFORMATION
#----------   ------------   ------------------------------
 STRT.F           50.0000:   START DEPTH
 STOP.F         1561.5000:   STOP DEPTH
 STEP.F            0.5000:   STEP LENGTH
 NULL.          -999.2500:   NO VALUE
 COMP. FENIX & SCISSON INC:   COMPANY
 WELL.  72 SH 3 STX #72-3:   WELL
 FLD .             TEAPOT:   FIELD
 LOC .       S3 T38N R78W:   LOCATION
 CNTY.            NATRONA:   COUNTY
 STAT.            WYOMING:   STATE
 CTRY. UNITED STATES OF AMERICA:   COUNTRY
 SRVC.           BIRDWELL:   SERVICE COMPANY
 DATE.        31-JUL-1979:   LOGDATE
 API .       490251078600:   API NUMBER
~CURVE INFORMATION
#MNEM.UNIT       API CODE    CURVE DESCRIPTION
#----------   ------------   ------------------------------
 DEPT.F                  :   
 CALD.IN     45 280 60 00:   CALIPER FROM DENSITY LOG
 GRD .GAPI   45 310 01 00:   GAMMA RAY FROM DENSITY LOG
 RHOB.G/C3   45 350 01 00:   BULK DENSITY
 CORR.G/C3   45 356 01 00:   DENSITY CORRECTION
 DPHI.DEC    45 890 12 00:   DENSITY POROSITY SANDSTONE
 GR  .GAPI   81 310 01 00:   GAMMA RAY
~PARAMETER INFORMATION
#MNEM.UNIT          VALUE    DESCRIPTION
#----------   ------------   ------------------------------
 PD  .                 GL:   PERMANENT DATUM
 EPD .F              5165:   ELEVATION PERMANENT DATUM
 LMF .                 KB:   LOG MEASURED FROM
 DAPD.F                10:   FEET ABOVE PERMANENT DATUM
 DMF .                 KB:   DRILLING MEASURED FROM
 EKB .F              5175:   KELLING BUSHING
 EGL .F              5165:   GROUND LEVEL
 DATE.            7-31-79:   RUN DATE
 RUN .                  1:   RUN NUMBER
 DD  .F              1564:   DEPTH DRILLER
 DL  .F              1560:   DEPTH LOGGER
 BLI .F              1560:   BOTTOM LOG INTERVAL
 TLI .F               700:   TOP LOG INTERVAL
 CS  .IN            9.625:   CASING SIZE
 CBD .F               691:   CASING BOTTOM DRILLER
 CBL .F               680:   CASING BOTTOM LOGGER
 BS  .IN            7.875:   BIT SIZE
 BSD .F              1564:   BIT SIZE AT DEPTH
 DFT .                OIL:   DRILLING FLUID TYPE
 BHT .F                92:   BOTTOM HOLE TEMPERATURE
 TCS .HRS               2:   TIME CURCULATED STOPPED
 MRT .F                92:   MAXIMUM RECORDED TEMPERATURE
 LUN .               3029:   LOGGING UNIT NUMBER
 LUL .                CPR:   LOGGING UNIT LOCATION
 ENGI.             MILLER:   RECORDING ENGINEER
 WITN.           DINSMORE:   WITNESSED BY
 CLNT.            A2DTECH:   CLIENT CODE
 ORIG.       2", 5" PRINT:   ORIGIN OF DATA
 UWI .       490251078600:   UNIQUE WELL ID
 DICO. A2D Technologies, Inc.:   DIGITIZING COMPANY
~OTHER INFORMATION
~A   DEPT     CALD        GRD       RHOB       CORR       DPHI          GR  
# ...
 1038.0000     9.3729   100.7243     2.5124     0.0119     0.0208    89.6476
 1038.5000     9.3768    99.7640     2.5097     0.0150     0.0213    88.3654
 1039.0000     9.3875    98.5679     2.5033     0.0109     0.0228    89.0672
 1039.5000     9.4049    97.3918     2.4971     0.0063     0.0248    89.7626
 1040.0000     9.4223    94.9663     2.4990     0.0052     0.0250    88.8318
 1040.5000     9.4398    92.0660     2.5132     0.0115     0.0152    86.7546
 1041.0000     9.4572    91.0305     2.5408     0.0206     0.0052    86.4287
 1041.5000     9.4509    94.3008     2.5267     0.0265     0.0044    90.6986
 1042.0000     9.4395    95.5332     2.5271     0.0206     0.0090    92.4981
 1042.5000     9.4280    88.9670     2.5359     0.0147     0.0057    89.4132
 1043.0000     9.4165    90.8339     2.5446     0.0121     0.0026    87.9897
 1043.5000     9.4051    88.5851     2.5445     0.0107     0.0029    90.1136
 1044.0000     9.3936    85.8996     2.5424     0.0093     0.0034    92.6193
 1044.5000     9.3822    90.9604     2.5403     0.0139     0.0039    91.0532
 1045.0000     9.3707    92.3350     2.5384     0.0209     0.0022    88.8505
 1045.5000     9.3593    91.1522     2.5437     0.0279    -0.0039    86.6658
 1046.0000     9.3478    91.9839     2.5507     0.0350    -0.0025    83.9040
 1046.5000     9.3364    95.4176     2.5394     0.0369     0.0044    80.3178
 1047.0000     9.3249    97.8910     2.5258     0.0273     0.0112    76.7489
 1047.5000     9.3135    96.2765     2.5122     0.0164     0.0181    76.4124
 1048.0000     9.3021    94.0916     2.5041     0.0110     0.0222    78.9196
 1048.5000     9.2889    91.8948     2.5004     0.0110     0.0207    81.3992
 1049.0000     9.2751    89.6986     2.5011     0.0164     0.0173    82.2015
 1049.5000     9.2612    87.5038     2.5175     0.0225     0.0131    79.8695
 1050.0000     9.2473    85.3368     2.5334     0.0286     0.0063    80.3462
 1050.5000     9.2333    83.7402     2.5322     0.0208     0.0064    81.7743
 1051.0000     9.2192    83.9598     2.5314     0.0115     0.0071    82.9843
 1051.5000     9.2238    84.4157     2.5379     0.0164     0.0071    84.0164
 1052.0000     9.2299    90.2973     2.5439     0.0345     0.0063    85.7774
 1052.5000     9.2360    96.8098     2.5372     0.0372     0.0066    89.2524
 1053.0000     9.2420   100.0804     2.5307     0.0268     0.0092    87.3717
 1053.5000     9.2480   100.2568     2.5260     0.0161     0.0118    90.6445
 1054.0000     9.2540    97.4575     2.5212     0.0054     0.0144    95.6293
 1054.5000     9.2600    94.6301     2.5164     0.0074     0.0170   100.6492
 1055.0000     9.2661    93.3883     2.5115     0.0121     0.0196   102.9521
 1055.5000     9.2721    95.0875     2.5099     0.0167     0.0193    96.0642
 1056.0000     9.2781    97.2831     2.5283     0.0213     0.0115    90.5712
 1056.5000     9.2841    99.5098     2.5336     0.0253     0.0062    85.5137
 1057.0000     9.2901   100.9762     2.5234     0.0198     0.0123    84.2847
 1057.5000     9.2963   101.0434     2.5152     0.0142     0.0184    82.8095
 1058.0000     9.2907    99.5974     2.5092     0.0085     0.0222    79.8544
 1058.5000     9.2777    97.2443     2.5140     0.0032     0.0184    83.2523
 1059.0000     9.2645    95.7916     2.5188     0.0046     0.0150    88.4290
 1059.5000     9.2513    96.4375     2.5172     0.0079     0.0172    92.2738
 1060.0000     9.2390    97.4159     2.5119     0.0108     0.0194    89.8739
 1060.5000     9.2441    97.2565     2.5066     0.0123     0.0189    87.5638
 1061.0000     9.2498    95.4066     2.5045     0.0094     0.0181    86.3590
 1061.5000     9.2554    93.5973     2.5097     0.0167     0.0173    89.0522
 1062.0000     9.2610    92.1429     2.5147     0.0244     0.0165    91.0137
 1062.5000     9.2666    94.6264     2.5147     0.0238     0.0185    89.9090
 1063.0000     9.2722    97.7766     2.5083     0.0192     0.0221    88.7402
 1063.5000     9.2778    95.2398     2.5020     0.0144     0.0257    87.5844
 1064.0000     9.2834    92.4781     2.5022     0.0095     0.0237    86.4194
 1064.5000     9.2890    92.5501     2.5102     0.0126     0.0204    85.1993
 1065.0000     9.2946    96.2131     2.5173     0.0178     0.0163    87.7652
 1065.5000     9.3002    96.5707     2.5229     0.0232     0.0117    90.9772
 1066.0000     9.3058    94.2958     2.5287     0.0286     0.0062    91.8028
 1066.5000     9.3114    92.9592     2.5284     0.0223     0.0126    89.9380
 1067.0000     9.3170    94.0148     2.5271     0.0147     0.0112    87.8224
 1067.5000     9.3226    94.8605     2.5266     0.0102     0.0100    85.6987
 1068.0000     9.3282    93.3343     2.5319     0.0074     0.0086    84.5977
 1068.5000     9.3338    92.0016     2.5381     0.0065     0.0059    87.4430
 1069.0000     9.3386    93.1111     2.5395     0.0136     0.0054    88.5850
 1069.5000     9.3368    94.3161     2.5378     0.0206     0.0050    85.7526
 1070.0000     9.3352    91.4606     2.5325     0.0278     0.0088    83.4096
 1070.5000     9.3335    90.0300     2.5272     0.0296     0.0140    86.5064
 1071.0000     9.3319    89.9775     2.5219     0.0256     0.0174    90.4142
 1071.5000     9.3302    90.9584     2.5168     0.0216     0.0170    93.5854
 1072.0000     9.3286    92.2257     2.5196     0.0186     0.0144    93.0614
 1072.5000     9.3269    93.4870     2.5285     0.0345     0.0110    89.7807
 1073.0000     9.3252    94.8771     2.5372     0.0428     0.0061    87.4249
 1073.5000     9.3236    99.7539     2.5377     0.0432     0.0049    85.1961
 1074.0000     9.3219   101.8920     2.5290     0.0330     0.0063    83.7783
 1074.5000     9.3203   100.6465     2.5147     0.0203     0.0176    83.1979
 1075.0000     9.3186   101.9502     2.5000     0.0073     0.0231    82.6596
 1075.5000     9.3171   104.4025     2.4979     0.0050     0.0302    81.4631
 1076.0000     9.3155   101.3965     2.5101     0.0139     0.0213    81.3771
 1076.5000     9.3139    96.1551     2.5227     0.0283     0.0106    86.5779
 1077.0000     9.3124    94.2045     2.5333     0.0332     0.0083    91.6552
 1077.5000     9.3108    95.7903     2.5353     0.0348     0.0086    95.0537
 1078.0000     9.3093    97.5249     2.5297     0.0297     0.0137    94.9505
 1078.5000     9.3077    96.4791     2.5240     0.0245     0.0186    92.7674
 1079.0000     9.3061    95.3428     2.5183     0.0193     0.0190    90.6267
 1079.5000     9.3046    94.2099     2.5152     0.0141     0.0198    89.4428
 1080.0000     9.3030    93.5378     2.5118     0.0088     0.0228    93.1192
 1080.5000     9.3014    96.9455     2.5084     0.0036     0.0257    97.3442
 1081.0000     9.2999   100.3372     2.5049     0.0074     0.0262    96.9013
 1081.5000     9.2983   103.3796     2.5087     0.0124     0.0255    94.7713
 1082.0000     9.2968   102.6916     2.5148     0.0129     0.0214    92.5790
 1082.5000     9.2952   101.1002     2.5210     0.0105     0.0169    90.3874
 1083.0000     9.2936    99.5104     2.5272     0.0081     0.0124    88.1929
 1083.5000     9.2921    98.0687     2.5335     0.0058     0.0079    85.7186
 1084.0000     9.2905   100.2954     2.5363     0.0034     0.0064    89.6980
 1084.5000     9.2889   103.0841     2.5305     0.0010     0.0074    87.0681
 1085.0000     9.2874   105.8905     2.5231    -0.0010     0.0098    83.5802
 1085.5000     9.2858   108.7208     2.5236     0.0028     0.0118    82.8004
 1086.0000     9.2843   108.5402     2.5263     0.0069     0.0118    88.5836
 1086.5000     9.2827   107.5464     2.5225     0.0111     0.0119    94.9451
 1087.0000     9.2811   106.5633     2.5195     0.0124     0.0121    97.0392
 1087.5000     9.2796   105.5891     2.5236     0.0113     0.0121    98.0090
 1088.0000     9.2785   104.6150     2.5243     0.0102     0.0130   106.5838
 1088.5000     9.2786   103.6521     2.5211     0.0090     0.0143   103.6328
 1089.0000     9.2786   103.0122     2.5178     0.0094     0.0157    99.6986
 1089.5000     9.2786   103.5664     2.5149     0.0102     0.0157    96.5324
