~VERSION INFORMATION
 VERS.                2.0:   CWLS LOG ASCII STANDARD - VERSION 2.0
 WRAP.                 NO:   ONE LINE PER DEPTH STEP
~WELL INFORMATION
#MNEM.UNIT      DATA TYPE    INFORMATION
#----------   ------------   ------------------------------
 STRT.F           40.0000:   START DEPTH
 STOP.F          534.0000:   STOP DEPTH
 STEP.F            0.5000:   STEP LENGTH
 NULL.          -999.2500:   NO VALUE
 COMP. LAWRENCE/ALLISON INC:   COMPANY
 WELL.   55-41 SX FI #3-3:   WELL
 FLD .             TEAPOT:   FIELD
 LOC .       S3 T38N R78W:   LOCATION
 CNTY.            NATRONA:   COUNTY
 STAT.            WYOMING:   STATE
 CTRY. UNITED STATES OF AMERICA:   COUNTRY
 SRVC.      Dresser Atlas:   SERVICE COMPANY
 DATE.        12-DEC-1983:   LOGDATE
 API .       490251089400:   API NUMBER
~CURVE INFORMATION
#MNEM.UNIT       API CODE    CURVE DESCRIPTION
#----------   ------------   ------------------------------
 DEPT.F                  :   
 RILD.OHMM   07 120 46 00:   INDUCTION LOG DEEP RESISTIVITY
 RILM.OHMM   07 120 44 00:   INDUCTION LOG MEDIUM RESISTIVITY
 RFOC.OHMM   07 220 04 00:   RESISTIVITY FOCUSED LOG
 CALD.IN     45 280 60 00:   CALIPER FROM DENSITY LOG
 GRD .GAPI   45 310 01 00:   GAMMA RAY FROM DENSITY LOG
 CORR.G/C3   45 356 01 00:   DENSITY CORRECTION
 DPHI.DEC    45 890 12 00:   DENSITY POROSITY SANDSTONE
 RHOB.G/C3   45 350 01 00:   BULK DENSITY
~PARAMETER INFORMATION
#MNEM.UNIT          VALUE    DESCRIPTION
#----------   ------------   ------------------------------
 PD  .                 GL:   PERMANENT DATUM
 EPD .F              5161:   ELEVATION PERMANENT DATUM
 LMF .                 KB:   LOG MEASURED FROM
 DAPD.F                10:   FEET ABOVE PERMANENT DATUM
 DMF .                 KB:   DRILLING MEASURED FROM
 EKB .F              5171:   KELLING BUSHING
 EGL .F              5161:   GROUND LEVEL
 DATE.        12-DEC-1983:   RUN DATE
 RUN .                  1:   RUN NUMBER
 DD  .F               490:   DEPTH DRILLER
 DL  .F               489:   DEPTH LOGGER
 BLI .F               487:   BOTTOM LOG INTERVAL
 CS  .IN            10.75:   CASING SIZE
 CBD .F                52:   CASING BOTTOM DRILLER
 CBL .F                46:   CASING BOTTOM LOGGER
 BS  .IN             8.75:   BIT SIZE
 BSD .F               490:   BIT SIZE AT DEPTH
 DFT .           AIR FOAM:   DRILLING FLUID TYPE
 TCS .HRS               3:   TIME CURCULATED STOPPED
 MRT .F                72:   MAXIMUM RECORDED TEMPERATURE
 LUN .               6274:   LOGGING UNIT NUMBER
 LUL .               GLTE:   LOGGING UNIT LOCATION
 ENGI.             RAUTIO:   RECORDING ENGINEER
 WITN.             GROOMS:   WITNESSED BY
 CLNT.            A2DTECH:   CLIENT CODE
 ORIG.           5" PRINT:   ORIGIN OF DATA
 UWI .       490251089400:   UNIQUE WELL ID
 DICO. A2D Technologies, Inc.:   DIGITIZING COMPANY
~OTHER INFORMATION
~A   DEPT     RILD       RILM       RFOC       CALD         GRD      CORR       DPHI       RHOB   
# ...
  161.5000     8.2696     8.3584  -999.2500    12.3761    71.0455     0.0985     0.1487     2.4297
  162.0000     8.2753     8.3630  -999.2500    12.2294    72.3830     0.0948     0.1618     2.4117
  162.5000     8.2810     8.3676  -999.2500    12.0957    73.0529     0.0522     0.1720     2.3901
  163.0000     8.2867     8.3722  -999.2500    12.0063    73.7228     0.0306     0.1696     2.3976
  163.5000     8.2936     8.3768  -999.2500    11.9527    74.6152     0.0246     0.1580     2.4209
  164.0000     8.2992     8.3238  -999.2500    11.9675    75.5076     0.0322     0.1469     2.4374
  164.5000     8.3049     8.2144  -999.2500    11.9675    75.9549     0.0404     0.1410     2.4472
  165.0000     8.1969     8.1065  -999.2500    11.9822    76.1797     0.0435     0.1386     2.4480
  165.5000     8.1448     8.0541  -999.2500    11.9970    75.7368     0.0450     0.1349     2.4503
  166.0000     8.0945     7.9494  -999.2500    12.0118    76.1841     0.0458     0.1313     2.4586
  166.5000     8.0444     7.9537  -999.2500    11.9970    76.4089     0.0459     0.1273     2.4669
  167.0000     7.9946     7.9581  -999.2500    11.9822    75.7434     0.0459     0.1249     2.4714
  167.5000     7.8920     7.8535  -999.2500    11.9675    73.7427     0.0469     0.1222     2.4752
  168.0000     7.8432     7.7492  -999.2500    11.9527    72.4096     0.0616     0.1198     2.4783
  168.5000     7.6880     7.5438  -999.2500    11.9527    73.7471     0.0747     0.1183     2.4783
  169.0000     7.4842     7.3935  -999.2500    11.9527    76.8651     0.0784     0.1210     2.4702
  169.5000     7.2858     7.2463  -999.2500    11.9527    76.9074     0.0791     0.1374     2.4470
  170.0000     7.0926     7.1020  -999.2500    11.9527    72.8635     0.0755     0.1604     2.4096
  170.5000     6.8572     6.9127  -999.2500    11.9675    71.7336     0.0673     0.1664     2.3969
  171.0000     6.5841     6.5909  -999.2500    12.0118    74.4258     0.0568     0.1633     2.4007
  171.5000     6.4538     6.0713  -999.2500    12.0710    77.9910     0.0502     0.1556     2.4142
  172.0000     6.4139     6.2015  -999.2500    12.1598    79.9940     0.0412     0.1454     2.4270
  172.5000     6.4183     6.4223  -999.2500    12.2485    79.7626     0.0286     0.1445     2.4451
  173.0000     6.3775     6.5150  -999.2500    12.2633    78.1856     0.0159     0.1495     2.4384
  173.5000     6.4271     6.4737  -999.2500    12.2337    75.9304     0.0047     0.1528     2.4264
  174.0000     6.5658     6.5221  -999.2500    12.2041    72.9972     0.0018     0.1525     2.4190
  174.5000     6.7539     6.7544  -999.2500    12.1450    69.1952     0.0071     0.1480     2.4243
  175.0000     6.9473     6.9950  -999.2500    12.0858    66.6172     0.0161     0.1435     2.4341
  175.5000     7.0973     7.2451  -999.2500    12.0266    65.7662     0.0296     0.1408     2.4424
  176.0000     7.2007     7.4015  -999.2500    11.9675    69.9975     0.0484     0.1399     2.4424
  176.5000     7.3056     7.5062  -999.2500    11.9527    74.4507     0.0627     0.1420     2.4395
  177.0000     7.3611     7.5623  -999.2500    11.9083    72.2274     0.0702     0.1437     2.4365
  177.5000     7.4171     7.5664  -999.2500    11.8491    70.2267     0.0712     0.1443     2.4343
  178.0000     7.4735     7.5706  -999.2500    11.8047    69.1161     0.0583     0.1434     2.4352
  178.5000     7.4786     7.5226  -999.2500    11.7751    70.8987     0.0471     0.1410     2.4405
  179.0000     7.4837     7.4238  -999.2500    11.7604    72.9039     0.0412     0.1332     2.4515
  179.5000     7.3862     7.3768  -999.2500    11.7751    74.6865     0.0390     0.1311     2.4585
  180.0000     7.1905     7.2309  -999.2500    11.7899    76.9143     0.0400     0.1317     2.4520
  180.5000     7.0483     7.1359  -999.2500    11.8491    78.6969     0.0483     0.1406     2.4373
  181.0000     6.9089     7.0411  -999.2500    11.8935    80.0344     0.0534     0.1502     2.4309
  181.5000     6.7257     6.8545  -999.2500    11.9231    80.9268     0.0509     0.1511     2.4255
  182.0000     6.4578     6.6718  -999.2500    11.9083    80.2614     0.0453     0.1542     2.4181
  182.5000     6.1580     6.2742  -999.2500    11.8639    78.0381     0.0408     0.1647     2.3952
  183.0000     5.7918     5.7795  -999.2500    11.8787    74.9246     0.0357     0.1828     2.3766
  183.5000     5.4843     5.3607  -999.2500    11.9083    72.7013     0.0260     0.1866     2.3662
  184.0000     5.1216     5.1111  -999.2500    11.9383    70.2554     0.0185     0.1855     2.3857
  184.5000     4.8840     4.9401  -999.2500    11.9682    68.9218     0.0208     0.1709     2.4066
  185.0000     4.8220     4.8417  -999.2500    12.0128    71.1501     0.0254     0.1546     2.4201
  185.5000     4.9662     5.0495  -999.2500    12.0266    72.9327     0.0277     0.1480     2.4276
  186.0000     5.2165     5.2293  -999.2500    12.0266    74.4928     0.0270     0.1450     2.4403
  186.5000     5.4747     5.4155  -999.2500    12.0099    75.8303     0.0405     0.1378     2.4553
  187.0000     5.7896     5.6862  -999.2500    11.9527    76.9453     0.0720     0.1285     2.4670
  187.5000     6.1227     6.0117  -999.2500    11.9206    77.8377     0.0930     0.1213     2.4765
  188.0000     6.3946     6.3558  -999.2500    11.9083    78.7301     0.1170     0.1198     2.4763
  188.5000     6.7451     6.5369  -999.2500    11.8935    79.8451     0.1185     0.1344     2.4569
  189.0000     7.0345     6.7697  -999.2500    11.8343    80.5149     0.1029     0.1389     2.4428
  189.5000     7.1864     7.0108  -999.2500    11.8935    81.1848     0.0820     0.1380     2.4458
  190.0000     7.2910     7.1611  -999.2500    11.9379    81.6321     0.0678     0.1344     2.4548
  190.5000     7.3973     7.3147  -999.2500    11.9527    81.8569     0.0596     0.1308     2.4646
  191.0000     7.4535     7.3693  -999.2500    11.9083    82.0816     0.0672     0.1248     2.4706
  191.5000     7.5102     7.4756  -999.2500    11.8639    82.5290     0.0785     0.1260     2.4684
  192.0000     7.6196     7.6359  -999.2500    11.8343    82.9763     0.0847     0.1268     2.4609
  192.5000     7.7306     7.7996  -999.2500    11.8047    83.6461     0.1073     0.1223     2.4744
  193.0000     7.7894     7.9121  -999.2500    11.8343    84.3160     0.1206     0.1158     2.4804
  193.5000     7.9575     7.9165  -999.2500    11.8343    84.5408     0.1144     0.1307     2.4758
  194.0000     8.0180     7.9208  -999.2500    11.8491    82.2583     0.0874     0.1402     2.4506
  194.5000     8.0860     7.9252  -999.2500    11.9231    78.0231     0.1057     0.1310     2.4096
  195.0000     8.1653     7.9843  -999.2500    11.9675    78.1379     0.1185     0.1190     2.4754
  195.5000     8.2446     8.0439  -999.2500    12.0266    80.0987     0.1163     0.1127     2.4881
  196.0000     8.3239     8.2164  -999.2500    12.0858    80.1009     0.0991     0.1193     2.4747
  196.5000     8.4032     8.2777  -999.2500    12.1302    79.1373     0.0528     0.1405     2.4575
  197.0000     8.4483     8.3395  -999.2500    12.1598    77.0832     0.0296     0.1366     2.4546
  197.5000     8.5714     8.4018  -999.2500    12.1746    74.7668     0.0252     0.1297     2.4576
  198.0000     8.6365     8.4645  -999.2500    12.1450    74.1008     0.0357     0.1270     2.4621
  198.5000     8.6424     8.4691  -999.2500    12.0858    76.1065     0.0507     0.1261     2.4682
  199.0000     8.6484     8.4738  -999.2500    12.0266    79.2244     0.0613     0.1245     2.4713
  199.5000     8.6543     8.4784  -999.2500    11.9822    81.8973     0.0643     0.1188     2.4749
  200.0000     8.6602     8.4831  -999.2500    11.9675    83.0445     0.0491     0.1266     2.4720
  200.5000     8.6071     8.2030  -999.2500    12.0443    84.8011     0.0381     0.1287     2.4653
  201.0000     8.5538     8.1513  -999.2500    12.1450    82.7476     0.0368     0.1287     2.4616
  201.5000     8.5597     8.0458  -999.2500    12.2337    78.9658     0.0468     0.1287     2.4609
