~VERSION INFORMATION
 VERS.                2.0:   CWLS LOG ASCII STANDARD - VERSION 2.0
 WRAP.                 NO:   ONE LINE PER DEPTH STEP
~WELL INFORMATION
#MNEM.UNIT      DATA TYPE    INFORMATION
#----------   ------------   ------------------------------
 STRT.F           89.0000:   START DEPTH
 STOP.F         1360.0000:   STOP DEPTH
 STEP.F            0.5000:   STEP LENGTH
 NULL.          -999.2500:   NO VALUE
 COMP.           U S NAVY:   COMPANY
 WELL.     NPR 3 #85 S-11:   WELL
 FLD .             TEAPOT:   FIELD
 LOC .      S11 T38N R78W:   LOCATION
 CNTY.            NATRONA:   COUNTY
 STAT.            WYOMING:   STATE
 CTRY. UNITED STATES OF AMERICA:   COUNTRY
 SRVC.       Schlumberger:   SERVICE COMPANY
 DATE.        15-AUG-1966:   LOGDATE
 API .       490250959000:   API NUMBER
~CURVE INFORMATION
#MNEM.UNIT       API CODE    CURVE DESCRIPTION
#----------   ------------   ------------------------------
 DEPT.F                  :   
 SPR .MV     05 010 01 00:   SPONTANEOUS POTENTIAL FROM RES.
 CILD.MMHO   05 110 46 00:   CONDUCTIVITY INDUCTION LOG DEEP
 ASN .OHMM   05 041 16 00:   AMPLIFIED SHORT NORMAL 16"
 ILD .OHMM   05 120 46 00:   INDUCTION LOG DEEP
 GR  .GAPI   30 310 01 00:   GAMMA RAY
~PARAMETER INFORMATION
#MNEM.UNIT          VALUE    DESCRIPTION
#----------   ------------   ------------------------------
 PD  .                 GL:   PERMANENT DATUM
 EPD .F              5288:   ELEVATION PERMANENT DATUM
 LMF .                 KB:   LOG MEASURED FROM
 DAPD.F                 5:   FEET ABOVE PERMANENT DATUM
 DMF .                 KB:   DRILLING MEASURED FROM
 EKB .F            5286.9:   KELLING BUSHING
 EGL .F            5281.9:   GROUND LEVEL
 DATE.        15-AUG-1966:   RUN DATE
 RUN .                  1:   RUN NUMBER
 DD  .F              1360:   DEPTH DRILLER
 DL  .F              1361:   DEPTH LOGGER
 BLI .F              1360:   BOTTOM LOG INTERVAL
 TLI .F                88:   TOP LOG INTERVAL
 CS  .IN            8.625:   CASING SIZE
 CBD .F                12:   CASING BOTTOM DRILLER
 BS  .IN            7.875:   BIT SIZE
 BSD .F              1360:   BIT SIZE AT DEPTH
 DFT .          CHEM- GEL:   DRILLING FLUID TYPE
 DFD .                9.6:   DRILLING FLUID DENSITY
 DFV .                 60:   DRILLING FLUID VISCOSITY
 DFPH.                7.2:   DRILLING FLUID PH
 DFL .                6.4:   DRILLING FLUID LOSS
 MSS .         CIRCULATED:   MUD SAMPLE SOURCE
 RMS .OHMM           1.41:   RESISTIVITY MUD SAMPLE
 MST .F                72:   MUD SAMPLE TEMPERATURE
 RMF .OHMM           0.75:   RESISTIVITY MUD FILTRATE SAMPLE
 MFST.F                73:   MUD FILTRATE SAMPLE TEMPERATURE
 MFSS.               MEAS:   MUD FILTRATE SAMPLE SOURCE
 TCS .HRS             2.5:   TIME CURCULATED STOPPED
 LUN .               3527:   LOGGING UNIT NUMBER
 LUL .              CSPR.:   LOGGING UNIT LOCATION
 ENGI.               HAUG:   RECORDING ENGINEER
 WITN.             TUTTLE:   WITNESSED BY
 CLNT.            A2DTECH:   CLIENT CODE
 ORIG.       2", 5" PRINT:   ORIGIN OF DATA
 UWI .       490250959000:   UNIQUE WELL ID
 DICO. A2D Technologies, Inc.:   DIGITIZING COMPANY
~OTHER INFORMATION
~A   DEPT      SPR       CILD          ASN        ILD       GR   
# ...
  638.0000   -45.2053   217.3699     6.1439     4.5159    85.3310
  638.5000   -45.2127   214.4068     6.2186     4.7300    78.7088
  639.0000   -45.2202   210.7028     6.3385     4.7274    77.7508
  639.5000   -45.0744   206.9934     6.4433     4.8007    75.0656
  640.0000   -45.0837   206.2687     6.5180     4.4962    84.4883
  640.5000   -44.9380   208.5298     6.5326     4.3429    91.8691
  641.0000   -44.9473   213.3485     6.4566     4.1897    92.1698
  641.5000   -45.1059   227.2358     6.3656     3.9612    91.5265
  642.0000   -45.1135   235.4666     6.2446     3.7326    88.9985
  642.5000   -44.9496   247.4288     6.0632     3.5794    93.5438
  643.0000   -44.8256   266.8538     5.6711     3.3508    89.5964
  643.5000   -44.6818   285.5324     5.1693     3.1223    90.6837
  644.0000   -44.5379   311.6737     4.7554     2.8098    88.4670
  644.5000   -44.5472   337.0687     4.4342     2.5043    83.8902
  645.0000   -44.4014   358.7325     4.0872     2.4360    83.4042
  645.5000   -44.4107   372.9334     3.6951     2.4334    82.8916
  646.0000   -44.2650   375.9798     3.5891     2.5067    84.9495
  646.5000   -44.2742   364.5436     3.5736     2.6540    85.7222
  647.0000   -44.1304   353.0499     3.8439     2.6514    83.3023
  647.5000   -43.9864   338.6982     4.1445     2.8000    80.1504
  648.0000   -43.8426   327.5261     4.2945     2.9480    82.3692
  648.5000   -43.8644   304.4137     4.4897     3.2465    79.0545
  649.0000   -44.9168   278.3162     4.8355     3.5445    82.3446
  649.5000   -44.9257   256.6963     5.1813     3.8430    80.9145
  650.0000   -44.7819   236.5690     5.4066     4.1088    78.2293
  650.5000   -44.5952   223.0071     5.6666     4.2906    78.8471
  651.0000   -44.4822   215.6071     5.8431     4.4401    76.3172
  651.5000   -44.3693   209.0030     6.0086     4.5135    81.8084
  652.0000   -44.5034   203.0475     6.0687     4.6626    85.5720
  652.5000   -44.8120   197.8383     6.1890     4.7365    83.5141
  653.0000   -44.9692   194.1217     6.2190     4.8856    73.1173
  653.5000   -44.8224   191.1513     6.2993     5.0347    73.0470
  654.0000   -44.9812   188.1772     6.5867     5.1835    71.9910
  654.5000   -45.2897   185.2069     6.7456     5.1067    69.7758
  655.0000   -45.1429   182.2365     6.8509     5.0299    73.7021
  655.5000   -44.9976   179.2661     6.9260     4.8778    70.8522
  656.0000   -45.0050   182.2695     6.9711     4.7257    73.3821
  656.5000   -45.0110   189.7469     6.9257     4.5737    75.5827
  657.0000   -45.0170   195.7318     6.7298     4.4216    74.5634
  657.5000   -45.0229   201.7166     6.5791     4.4201    74.2636
  658.0000   -45.0289   208.4766     6.3982     4.2680    81.5198
  658.5000   -45.0349   214.4902     6.0968     4.1912    87.5757
  659.0000   -44.8895   219.8811     5.9160     4.1145    94.6769
  659.5000   -44.5929   230.8835     5.7953     4.0332    88.8450
  660.0000   -44.5991   242.0923     5.5843     3.8755    82.6755
  660.5000   -44.4536   255.5398     5.3583     3.5072    85.5159
  661.0000   -44.3097   277.9425     5.0569     3.1293    82.3567
  661.5000   -44.1629   323.4796     4.8137     2.7513    75.8709
  662.0000   -44.1704   340.6585     4.4984     2.4486    73.6781
  662.5000   -44.0236   369.7776     3.9722     2.3722    76.4316
  663.0000   -43.8783   364.5648     3.7310     2.4460    81.4517
  663.5000   -43.8857   363.0869     3.7760     2.5198    82.4515
  664.0000   -43.7389   362.3554     3.8362     2.5936    81.6523
  664.5000   -43.8977   360.1349     3.6854     2.8177    84.1541
  665.0000   -43.9036   346.7168     4.0165     3.1174    87.9209
  665.5000   -44.0609   318.3733     4.5435     3.4924    81.7691
  666.0000   -44.0668   286.8650     4.7693     3.7932    81.1272
  666.5000   -44.3754   257.6201     4.9047     4.0984    79.8560
  667.0000   -44.5326   239.4878     5.0099     4.2410    78.4275
  667.5000   -44.5386   228.1372     5.1303     4.2392    72.9082
  668.0000   -44.5446   227.4020     5.2355     4.2377    68.1756
  668.5000   -44.3848   231.1517     5.2956     4.1609    69.4218
  669.0000   -44.2310   234.8977     5.3256     4.0841    71.2974
  669.5000   -43.9588   236.4049     5.3103     4.0827    73.1729
  670.0000   -43.9648   236.4196     5.2189     4.0059    76.1498
  670.5000   -43.8195   236.4343     5.1124     3.9291    78.1827
  671.0000   -43.8254   240.1804     5.0361     3.7770    79.7436
  671.5000   -43.9827   258.8518     4.9031     3.4743    81.9370
  672.0000   -43.9887   285.7321     4.7072     3.0963    74.6838
  672.5000   -43.9946   315.5976     4.4058     2.4925    76.8740
  673.0000   -43.8493   361.1346     4.1196     2.1868    81.5817
  673.5000   -43.7025   396.9702     3.6375     2.0291    79.3696
  674.0000   -43.5572   427.7302     3.2307     2.1111    83.4479
  674.5000   -43.4118   430.5821     3.1703     2.2606    79.2621
  675.0000   -43.4193   427.3632     3.2455     2.2588    80.1688
  675.5000   -43.4253   421.6595     3.2152     2.3326    82.9363
  676.0000   -43.4312   412.7190     3.1849     2.4068    78.9872
  676.5000   -43.4372   388.8531     3.4408     2.4806    82.9082
  677.0000   -43.4523   359.0171     4.1184     2.7047    83.5282
  677.5000   -43.7696   298.5840     4.5098     3.4562    77.6911
  678.0000   -43.9092   264.2703     4.6151     3.7559    77.2097
  678.5000   -43.9164   252.3447     4.6450     3.7545    82.2289
  679.0000   -43.9224   243.4042     4.6449     3.5271    85.5204
  679.5000   -43.9284   242.6689     4.6748     3.4503    83.7772
  680.0000   -44.0856   248.6575     4.6747     3.4488    80.4607
  680.5000   -44.0916   257.6274     4.6745     3.4473    76.9867
  681.0000   -44.0975   262.1197     4.7346     3.4455    76.8169
  681.5000   -43.7995   264.3732     4.7797     3.5197    76.6502
  682.0000   -43.6541   267.4131     4.5837     3.4425    80.8827
  682.5000   -43.6616   271.9527     4.4631     3.4411    87.9504
  683.0000   -43.5148   278.2538     4.3274     3.4396    86.2072
  683.5000   -43.5222   305.4804     4.1766     3.2875    85.0933
  684.0000   -43.3767   321.9130     4.0711     2.8342    81.1474
  684.5000   -43.3829   344.3157     3.8601     2.2303    76.1001
  685.0000   -43.3889   402.5394     3.6340     1.9276    71.6822
  685.5000   -43.2435   446.5840     3.2875     1.7756    72.7710
  686.0000   -43.2496   472.7180     3.0464     1.8494    78.4227
  686.5000   -42.9529   505.5685     2.8634     1.9232    76.9942
  687.0000   -42.9604   512.2960     2.7583     2.0040    73.0482
  687.5000   -42.9663   480.9711     2.7447     2.1586    74.7665
  688.0000   -42.8195   459.3440     3.0006     2.5208    73.9591
  688.5000   -42.9783   439.9557     3.0155     2.8205    76.3148
  689.0000   -42.9842   419.0749     3.2412     3.2709    77.8861
  689.5000   -43.1415   372.7742     3.7230     3.5706    80.0660
  690.0000   -43.6013   314.2300     4.4909     3.8703    76.1200
  690.5000   -43.6073   285.8068     4.7318     4.2453    77.9956
  691.0000   -43.6132   234.0627     4.8672     4.4698    77.8258
  691.5000   -43.6192   221.3908     4.9724     4.4683    85.9258
  692.0000   -43.4724   216.9279     5.0325     4.3915    89.4437
  692.5000   -43.6311   219.1814     5.1077     4.3147    85.9698
  693.0000   -43.4856   226.6588     5.1376     4.1626    88.6289
  693.5000   -43.1892   236.3749     5.1827     3.9318    90.0356
  694.0000   -43.0439   250.5687     5.2126     3.6235    85.4572
  694.5000   -43.0499   267.7476     5.1219     3.3295    76.1618
  695.0000   -43.0560   287.1653     4.9031     3.0268    67.8104
  695.5000   -43.0620   337.9262     4.3686     2.7242    73.7768
  696.0000   -42.9180   378.9857     3.9481     2.2709    79.1137
  696.5000   -42.9239   403.6273     3.6155     2.1941    80.3631
  697.0000   -42.7771   415.5823     3.2389     2.1926    75.1553
  697.5000   -42.6318   419.3284     3.1483     2.1911    74.3561
  698.0000   -42.6393   420.8358     3.2414     2.3403    78.2771
  698.5000   -42.6452   415.1992     3.2233     2.4894    84.4039
