~VERSION INFORMATION
 VERS.                2.0:   CWLS LOG ASCII STANDARD - VERSION 2.0
 WRAP.                 NO:   ONE LINE PER DEPTH STEP
~WELL INFORMATION
#MNEM.UNIT      DATA TYPE    INFORMATION
#----------   ------------   ------------------------------
 STRT.F           30.0000:   START DEPTH
 STOP.F          691.0000:   STOP DEPTH
 STEP.F            0.5000:   STEP LENGTH
 NULL.          -999.2500:   NO VALUE
 COMP. U.S. DEPARTMENT OF ENERGY:   COMPANY
 WELL. NAVAL PETROLEUM RESERVE #3 #77-S-34:   WELL
 FLD .        TEAPOT DOME:   FIELD
 LOC .      S34 T39N R78W:   LOCATION
 CNTY.            NATRONA:   COUNTY
 STAT.            WYOMING:   STATE
 CTRY. UNITED STATES OF AMERICA:   COUNTRY
 SRVC.              Welex:   SERVICE COMPANY
 DATE.        26-APR-1977:   LOGDATE
 API .       490251034700:   API NUMBER
~CURVE INFORMATION
#MNEM.UNIT       API CODE    CURVE DESCRIPTION
#----------   ------------   ------------------------------
 DEPT.F                  :   
 CALD.IN     45 280 60 00:   CALIPER FROM DENSITY LOG
 CORR.G/C3   45 356 01 00:   DENSITY CORRECTION
 DPHI.DEC    45 890 12 00:   DENSITY POROSITY SANDSTONE
 RHOB.G/C3   45 350 01 00:   BULK DENSITY
 GRD .GAPI   45 310 01 00:   GAMMA RAY FROM DENSITY LOG
 ILD .OHMM   07 120 46 00:   INDUCTION LOG DEEP
 ILM .OHMM   07 120 44 00:   INDUCTION LOG MEDIUM
 SGRD.OHMM   07 220 05 00:   SHALLOW GUARD RESISTIVITY
 SPR .MV     07 010 01 00:   SPONTANEOUS POTENTIAL FROM RES.
~PARAMETER INFORMATION
#MNEM.UNIT          VALUE    DESCRIPTION
#----------   ------------   ------------------------------
 PD  .                 GL:   PERMANENT DATUM
 EPD .F              5075:   ELEVATION PERMANENT DATUM
 LMF .                 GL:   LOG MEASURED FROM
 DMF .                 GL:   DRILLING MEASURED FROM
 EGL .F              5075:   GROUND LEVEL
 DATE.          4-26-1977:   RUN DATE
 RUN .                  1:   RUN NUMBER
 DD  .F               700:   DEPTH DRILLER
 DL  .F               693:   DEPTH LOGGER
 BLI .F               691:   BOTTOM LOG INTERVAL
 TLI .F                35:   TOP LOG INTERVAL
 CS  .IN            8.625:   CASING SIZE
 CBD .F                40:   CASING BOTTOM DRILLER
 CBL .F                39:   CASING BOTTOM LOGGER
 BS  .IN            7.875:   BIT SIZE
 BSD .F               700:   BIT SIZE AT DEPTH
 DFT .            KCL MUD:   DRILLING FLUID TYPE
 DFD .                9.5:   DRILLING FLUID DENSITY
 DFV .                 35:   DRILLING FLUID VISCOSITY
 DFPH.               10.5:   DRILLING FLUID PH
 DFL .                 12:   DRILLING FLUID LOSS
 MSS .           FLOWLINE:   MUD SAMPLE SOURCE
 RMS .OHMM            .32:   RESISTIVITY MUD SAMPLE
 MST .F                66:   MUD SAMPLE TEMPERATURE
 RMF .OHMM            .28:   RESISTIVITY MUD FILTRATE SAMPLE
 MFST.F                66:   MUD FILTRATE SAMPLE TEMPERATURE
 RMC .OHMM            .49:   RESISTIVITY MUD CAKE
 MCST.F                66:   MUD CAKE SAMPLE TEMPERATURE
 RMB .OHMM            .28:   RESISTIVITY MUD AT BHT
 BHT .F                74:   BOTTOM HOLE TEMPERATURE
 TCS .HRS             1.5:   TIME CURCULATED STOPPED
 MRT .F                74:   MAXIMUM RECORDED TEMPERATURE
 LUN .               8611:   LOGGING UNIT NUMBER
 LUL .           GILLETTE:   LOGGING UNIT LOCATION
 ENGI.            C. DOAK:   RECORDING ENGINEER
 WITN.       MR. ROB LYON:   WITNESSED BY
 CLNT.            A2DTECH:   CLIENT CODE
 ORIG.           5" PRINT:   ORIGIN OF DATA
 UWI .       490251034700:   UNIQUE WELL ID
 DICO. A2D Technologies, Inc.:   DIGITIZING COMPANY
~OTHER INFORMATION
~A   DEPT       CALD      CORR      DPHI         RHOB       GRD       ILD        ILM       SGRD        SPR   
# ...
  395.0000     7.9716     0.0168     0.1349     2.4488   122.3320     6.9175     7.6503     9.2651   -44.2451
  395.5000     7.9717     0.0153     0.1396     2.4428   121.2871     6.8700     7.6503     9.2664   -44.0957
  396.0000     7.9719     0.0198     0.1414     2.4443   122.0359     6.9175     7.6503     9.2678   -44.0957
  396.5000     7.9721     0.0197     0.1408     2.4473   124.7282     6.9175     7.6503     9.2690   -44.2451
  397.0000     7.9722     0.0182     0.1378     2.4510   126.6728     6.8700     7.5978     9.2702   -44.5441
  397.5000     7.9574     0.0167     0.1341     2.4525   127.4216     6.8228     7.5978     9.2004   -44.6936
  398.0000     7.9576     0.0121     0.1357     2.4435   124.4335     6.7759     7.4938     9.0209   -44.9925
  398.5000     7.9577     0.0076     0.1417     2.4368   121.5952     6.7294     7.4938     8.9601   -45.1420
  399.0000     7.9579     0.0061     0.1455     2.4308   122.0450     6.6832     7.4938     8.9613   -45.1420
  399.5000     7.9580     0.0075     0.1493     2.4203   124.4381     6.6832     7.4424     8.9009   -45.2915
  400.0000     7.9582     0.0075     0.1599     2.4149   122.3468     6.6372     7.3913     8.9639   -45.5906
  400.5000     7.9584     0.0075     0.1602     2.4159   120.9038     6.5022     7.3923     8.8421   -45.7415
  401.0000     7.9588     0.0074     0.1571     2.4181   118.3109     6.4140     7.3425     8.7826   -45.7429
  401.5000     7.9641     0.0089     0.1539     2.4203   118.7593     6.3708     7.2931     8.8447   -45.8941
  402.0000     7.9743     0.0104     0.1502     2.4241   120.8520     6.3279     7.1942     8.7251   -45.8956
  402.5000     7.9746     0.0134     0.1426     2.4311   122.9447     6.2408     7.0482     8.5478   -46.0465
  403.0000     7.9749     0.0133     0.1399     2.4398   124.2900     6.1576     7.0492     8.4899   -46.1974
  403.5000     7.9752     0.0133     0.1432     2.4428   125.3363     6.0741     7.0501     8.4330   -46.3483
  404.0000     7.9755     0.0133     0.1447     2.4331   121.4499     5.9505     7.0026     8.4318   -46.6490
  404.5000     7.9608     0.0132     0.1465     2.4292   119.0583     5.7896     6.9077     8.3201   -46.9494
  405.0000     7.9611     0.0132     0.1513     2.4293   118.1614     5.5916     6.8141     8.2073   -46.9508
  405.5000     7.9546     0.0132     0.1564     2.4246   119.2078     5.4427     6.3615     7.8220   -47.2512
  406.0000     7.9467     0.0116     0.1591     2.4121   121.7489     5.3320     5.9328     7.1529   -47.2526
  406.5000     7.9321     0.0116     0.1603     2.4114   124.0279     5.2599     5.7781     6.3448   -46.9554
  407.0000     7.9325     0.0113     0.1597     2.4136   122.4963     5.2244     5.7791     5.4693   -46.6579
  407.5000     7.9327     0.0101     0.1561     2.4151   121.0015     5.1892     5.8600     7.6136   -46.3604
  408.0000     7.9330     0.0100     0.1528     2.4188   122.1973     5.1542     5.9832     8.2140   -46.2123
  408.5000     7.9184     0.0100     0.1501     2.4242   122.9447     5.1907     6.1091     8.0471   -45.9048
  409.0000     7.9187     0.0100     0.1471     2.4278   119.5067     5.2635     6.2806     7.8294   -45.6172
  409.5000     7.9339     0.0099     0.1444     2.4323   117.0687     5.4114     6.4126     7.8307   -45.6190
  410.0000     7.9342     0.0099     0.1465     2.4353   119.5067     5.6071     6.5474     7.9403   -45.6204
  410.5000     7.9345     0.0099     0.1459     2.4323   119.0583     5.7993     6.5935     8.0515   -45.7713
  411.0000     7.9348     0.0098     0.1435     2.4361   117.1151     5.8806     6.6402     8.2223   -45.7728
  411.5000     7.9352     0.0113     0.1411     2.4435   116.0688     5.8813     6.6410     8.5691   -45.9240
  412.0000     7.9354     0.0114     0.1408     2.4420   118.6099     5.9228     6.5961     8.3372   -45.9255
  412.5000     7.9357     0.0128     0.1414     2.4390   119.5067     6.0060     6.5972     8.1675   -45.7770
  413.0000     7.9360     0.0142     0.1387     2.4413   117.1151     6.0484     6.5527     8.1689   -45.7788
  413.5000     7.9363     0.0157     0.1349     2.4488   114.8729     6.0910     6.5086     8.2833   -45.7902
  414.0000     7.9366     0.0172     0.1328     2.4540   112.9297     6.0918     6.4648     8.2846   -46.0810
  414.5000     7.9369     0.0186     0.1313     2.4547   111.5845     6.0926     6.4212     8.0605   -46.2319
  415.0000     7.9372     0.0216     0.1322     2.4450   114.8729     6.0515     6.3782     7.7351   -46.3828
  415.5000     7.9375     0.0231     0.1358     2.4413   116.9941     5.9286     6.2917     7.6275   -46.5337
  416.0000     7.9378     0.0231     0.1408     2.4413   118.0120     5.8080     6.2065     7.7374   -46.6846
  416.5000     7.9381     0.0230     0.1444     2.4368   114.8729     5.6508     6.0388     7.5801   -46.8358
  417.0000     7.9384     0.0230     0.1477     2.4308   112.9297     5.4958     5.8754     7.3245   -46.9867
  417.5000     7.9388     0.0230     0.1507     2.4246   116.5172     5.1679     5.6772     7.2249   -47.2871
  418.0000     7.9390     0.0229     0.1525     2.4211   118.4604     4.9251     5.4401     7.1266   -47.5875
  418.5000     7.9393     0.0214     0.1537     2.4203   119.0583     4.6937     5.1568     6.8871   -47.5889
  419.0000     7.9396     0.0199     0.1534     2.4218   116.8161     4.5666     4.9828     6.4739   -47.4412
  419.5000     7.9399     0.0183     0.1486     2.4271   115.3214     4.4737     4.8148     5.4881   -47.1437
  420.0000     7.9552     0.0158     0.1438     2.4353   118.3109     4.4090     4.7823     4.2246   -46.8462
  420.5000     7.9555     0.0138     0.1402     2.4420   119.8057     4.3532     4.9602     4.6585   -46.6981
  421.0000     7.9558     0.0108     0.1381     2.4405   121.0015     4.3840     5.3045     6.8445   -46.6996
  421.5000     7.9571     0.0077     0.1381     2.4413   120.3966     4.5072     5.6445     7.3843   -46.5515
  422.0000     7.9713     0.0062     0.1393     2.4443   118.0120     4.7012     5.9242     7.4363   -46.4034
  422.5000     7.9866     0.0031     0.1426     2.4405   116.9656     4.9654     6.2176     7.6979   -46.2554
  423.0000     8.0019     0.0016     0.1465     2.4331   119.9552     5.2115     6.4811     8.1997   -46.1076
  423.5000     8.0021     0.0001     0.1498     2.4278   122.7952     5.4323     6.6173     8.4213   -45.8101
  424.0000     8.0174     0.0001     0.1513     2.4248   124.1405     5.6625     6.6182     8.0816   -45.8119
  424.5000     8.0177     0.0000     0.1516     2.4233   123.3921     5.8216     6.6190     7.8090   -45.6635
  425.0000     8.0180     0.0015     0.1495     2.4286   121.4998     5.9442     6.6656     8.0837   -45.5155
  425.5000     8.0032     0.0030     0.1411     2.4346   122.0478     5.9861     6.8059     8.6617   -45.6667
  426.0000     8.0036     0.0029     0.1358     2.4428   123.0942     6.1120     6.9013     8.7830   -45.6682
  426.5000     8.0039     0.0059     0.1316     2.4490   121.5994     6.2405     7.0463     8.7841   -45.6699
  427.0000     8.0042     0.0074     0.1255     2.4592   118.4604     6.3720     7.1450     8.7853   -45.6713
  427.5000     8.0045     0.0119     0.1076     2.4705   115.7698     6.4613     7.1476     8.8512   -45.8222
  428.0000     8.0048     0.0148     0.1010     2.4832   116.4335     6.5519     7.2463     9.1587   -45.8237
  428.5000     8.0051     0.0193     0.0975     2.5004   118.3109     6.6437     7.3477     9.4158   -45.6756
  429.0000     8.0054     0.0238     0.0969     2.5086   119.8057     6.7368     7.4507     9.4821   -45.6774
  429.5000     8.0057     0.0268     0.0969     2.5132   121.3004     6.8787     7.5550     9.4834   -45.6788
  430.0000     8.0060     0.0312     0.0969     2.5176   122.6457     6.9751     7.6644     9.4195   -45.6802
  430.5000     8.0063     0.0342     0.0969     2.5236   121.0015     6.9761     7.7684     9.4210   -45.8311
  431.0000     8.0066     0.0387     0.0969     2.5280   119.8057     7.0252     7.7694     9.4223   -45.8326
