~VERSION INFORMATION
 VERS.                2.0:   CWLS LOG ASCII STANDARD - VERSION 2.0
 WRAP.                 NO:   ONE LINE PER DEPTH STEP
~WELL INFORMATION
#MNEM.UNIT      DATA TYPE    INFORMATION
#----------   ------------   ------------------------------
 STRT.F           36.5000:   START DEPTH
 STOP.F          476.0000:   STOP DEPTH
 STEP.F            0.5000:   STEP LENGTH
 NULL.          -999.2500:   NO VALUE
 COMP. LAWRENCE/ALLISON INC:   COMPANY
 WELL.    54-36 SXFO #3-3:   WELL
 FLD .            WILDCAT:   FIELD
 LOC .       S3 T38N R78W:   LOCATION
 CNTY.            NATRONA:   COUNTY
 STAT.            WYOMING:   STATE
 CTRY. UNITED STATES OF AMERICA:   COUNTRY
 SRVC.      Dresser Atlas:   SERVICE COMPANY
 DATE.        09-DEC-1983:   LOGDATE
 API .       490251095500:   API NUMBER
~CURVE INFORMATION
#MNEM.UNIT       API CODE    CURVE DESCRIPTION
#----------   ------------   ------------------------------
 DEPT.F                  :   
 GRD .GAPI   45 310 01 00:   GAMMA RAY FROM DENSITY LOG
 PORD.DEC    45 890 12 00:   POROSITY DENSITY SANDSTONE
 DEN .G/C3   45 350 01 00:   COMPENSATED BULK DENSTIY
 CORR.G/C3   45 356 01 00:   DENSITY CORRECTION
 CALD.IN     45 280 60 00:   CALIPER
 RFOC.OHMM   07 220 04 00:   RESISTIVITY FOCUSED LOG
 RILD.OHMM   07 120 46 00:   INDUCTION LOG DEEP RESISTIVITY
 RILM.OHMM   07 120 44 00:   INDUCTION LOG MEDIUM RESISTIVITY
~PARAMETER INFORMATION
#MNEM.UNIT          VALUE    DESCRIPTION
#----------   ------------   ------------------------------
 PD  .                 GL:   PERMANENT DATUM
 EPD .F              5166:   ELEVATION PERMANENT DATUM
 LMF .                 KB:   LOG MEASURED FROM
 DAPD.F                10:   FEET ABOVE PERMANENT DATUM
 DMF .                 KB:   DRILLING MEASURED FROM
 EKB .F              5176:   KELLING BUSHING
 EGL .F              5166:   GROUND LEVEL
 DATE.            12-9-83:   RUN DATE
 RUN .                  1:   RUN NUMBER
 DD  .F               478:   DEPTH DRILLER
 DL  .F               475:   DEPTH LOGGER
 BLI .F               473:   BOTTOM LOG INTERVAL
 TLI .F                44:   TOP LOG INTERVAL
 CBD .F                40:   CASING BOTTOM DRILLER
 CBL .F                44:   CASING BOTTOM LOGGER
 BS  .IN             8.75:   BIT SIZE
 BSD .F               478:   BIT SIZE AT DEPTH
 DFT .           AIR FOAM:   DRILLING FLUID TYPE
 MRT .F               100:   MAXIMUM RECORDED TEMPERATURE
 LUN .               6307:   LOGGING UNIT NUMBER
 LUL .               GLTE:   LOGGING UNIT LOCATION
 ENGI.            DEYOUNG:   RECORDING ENGINEER
 WITN.             GROOMS:   WITNESSED BY
 CLNT.            A2DTECH:   CLIENT CODE
 ORIG.       2", 5" PRINT:   ORIGIN OF DATA
 UWI .       490251095500:   UNIQUE WELL ID
 DICO. A2D Technologies, Inc.:   DIGITIZING COMPANY
~OTHER INFORMATION
~A   DEPT       GRD      PORD        DEN       CORR       CALD       RFOC       RILD       RILM   
   36.5000    86.8226  -999.2500  -999.2500  -999.2500  -999.2500  -999.2500  -999.2500  -999.2500
   37.0000    88.3332  -999.2500  -999.2500  -999.2500  -999.2500  -999.2500  -999.2500  -999.2500
   37.5000    89.0501  -999.2500  -999.2500  -999.2500  -999.2500  -999.2500  -999.2500  -999.2500
   38.0000    86.6401  -999.2500  -999.2500  -999.2500  -999.2500  -999.2500  -999.2500  -999.2500
   38.5000    83.6444  -999.2500  -999.2500  -999.2500  -999.2500  -999.2500  -999.2500  -999.2500
   39.0000    84.3418  -999.2500  -999.2500  -999.2500  -999.2500  -999.2500  -999.2500  -999.2500
   39.5000    85.3655  -999.2500  -999.2500  -999.2500  -999.2500  -999.2500  -999.2500  -999.2500
   40.0000    85.9842     0.4012     2.0035    -0.6821  -999.2500  -999.2500  -999.2500  -999.2500
   40.5000    84.7795     0.4012     2.0053    -0.6700    11.1046  -999.2500  -999.2500  -999.2500
   41.0000    83.6126     0.3922     2.0184    -0.6767    11.1290  -999.2500  -999.2500  -999.2500
   41.5000    83.6442     0.3807     2.0288    -0.6860    11.1589  -999.2500  -999.2500  -999.2500
   42.0000    87.6218     0.3841     2.0351    -0.6974    11.1729  -999.2500  -999.2500  -999.2500
   42.5000    91.9672     0.3916     2.0230    -0.6917    11.1974  -999.2500  -999.2500  -999.2500
   43.0000    92.9322     0.3799     2.0189    -0.6629    11.2217  -999.2500  -999.2500  -999.2500
   43.5000    93.8754     0.3679     2.0574    -0.6302    11.2450  -999.2500  -999.2500  -999.2500
   44.0000    92.8280     0.4123     1.9998    -0.7393    11.2693  -999.2500  -999.2500    19.5447
   44.5000    90.1927     0.5155     2.0015    -0.9042    11.3104  -999.2500  -999.2500    19.5447
   45.0000    93.0366     0.4596     1.9994    -0.7514    11.3507  -999.2500  -999.2500    19.5447
   45.5000    97.6255     0.2989     2.0987    -0.4266    11.3911  -999.2500     6.6124    12.6423
   46.0000   102.2885     0.2986     2.2659     0.0950    11.4313  -999.2500    23.5625     5.1754
   46.5000   106.9501     0.2464     2.2450     0.0898    11.4600  -999.2500    66.1161    11.9218
   47.0000   110.3234     0.2659     2.2289     0.0620    11.4522  -999.2500   231.2837    28.7230
   47.5000   112.2384     0.2572     2.2503     0.0339    11.4452  -999.2500   883.5568    69.5072
   48.0000   114.1610     0.2429     2.2810     0.0521    11.4383  -999.2500  1831.0254    88.1110
   48.5000   116.0703     0.2285     2.3121     0.0815    11.4314  -999.2500   110.9896    88.5177
   49.0000   117.2881     0.2142     2.3220     0.0885    11.4238  -999.2500    35.9775    24.1983
   49.5000   114.2150     0.2101     2.3276     0.0910    11.3912  -999.2500    14.4621    10.0717
   50.0000   110.5568     0.2071     2.3317     0.0751    11.3313  -999.2500     7.6261    10.0869
   50.5000   107.9180     0.2117     2.3238     0.0577    11.2716  -999.2500     7.7586    10.6560
   51.0000   110.4285     0.2193     2.3131     0.0532    11.2118  -999.2500     7.1099    11.0415
   51.5000   114.9593     0.2269     2.3023     0.0852    11.1510  -999.2500     6.6919     8.3608
   52.0000   117.3659     0.2298     2.2914     0.1324    11.0702  -999.2500     6.3366     6.7147
   52.5000   117.9184     0.2276     2.2954     0.1472    10.9504  -999.2500     6.2267     6.6319
   53.0000   118.4768     0.2284     2.2965     0.1251    10.8343  -999.2500     6.1186     6.5465
   53.5000   120.2498     0.2300     2.2930     0.0972    10.7177  -999.2500     6.0124     6.4621
   54.0000   121.5303     0.2265     2.3077     0.0864    10.6228  -999.2500     5.9080     6.4125
   54.5000   122.8196     0.2142     2.3428     0.1012    10.5376  -999.2500     5.8483     6.6266
   55.0000   122.4010     0.1912     2.3778     0.1160    10.4762  -999.2500     6.0913     6.7831
   55.5000   114.7995     0.1682     2.4125     0.1295    10.4197  -999.2500     6.3379     6.9231
   56.0000   109.6943     0.1452     2.4473     0.0905    10.3613  -999.2500     6.5946     7.0044
   56.5000   107.3601     0.1265     2.4676     0.0697    10.3295  -999.2500     6.8396     7.0312
   57.0000   106.7300     0.1279     2.4690     0.0625    10.2998  -999.2500     6.7999     7.0093
   57.5000   107.5903     0.1309     2.4637     0.0640    10.3096  -999.2500     6.7636     6.9774
   58.0000   108.4231     0.1338     2.4581     0.0461    10.3211  -999.2500     6.7270     6.9457
   58.5000   108.1490     0.1332     2.4617     0.0410    10.3324  -999.2500     6.6910     6.9141
   59.0000   106.8809     0.1286     2.4674     0.0678    10.3437  -999.2500     6.6533     6.8827
   59.5000   107.0351     0.1234     2.4732     0.0843    10.3551  -999.2500     6.5482     6.8514
   60.0000   107.9955     0.1236     2.4793     0.0744    10.3587  -999.2500     6.4403     6.8203
   60.5000   109.0061     0.1245     2.4730     0.0631    10.3587  -999.2500     6.3542     6.7769
   61.0000   109.6023     0.1308     2.4632     0.0563    10.3587  -999.2500     6.4385     6.8049
   61.5000   111.9901     0.1369     2.4532     0.0683    10.3587  -999.2500     6.5103     6.8531
   62.0000   116.2937     0.1370     2.4513     0.0799    10.3587  -999.2500     6.5836     6.9008
   62.5000   114.9974     0.1331     2.4617     0.0914    10.3587  -999.2500     6.6510     6.9499
   63.0000   112.9842     0.1265     2.4723     0.1013    10.3587  -999.2500     6.8460     7.1066
   63.5000   113.1225     0.1200     2.4822     0.1071    10.3587  -999.2500     7.0770     7.3256
   64.0000   114.4687     0.1183     2.4822     0.1051    10.3587  -999.2500     7.3172     7.5514
   64.5000   114.7026     0.1193     2.4784     0.0688    10.3587  -999.2500     7.6389     7.7841
   65.0000   112.3700     0.1203     2.4780     0.0539    10.3587  -999.2500     7.6044     7.9004
   65.5000   110.0748     0.1213     2.4776     0.0551    10.3587  -999.2500     7.5566     7.9678
   66.0000   108.0713     0.1229     2.4752     0.0591    10.3587  -999.2500     7.5083     7.9989
   66.5000   109.1253     0.1246     2.4699     0.0594    10.3587  -999.2500     7.4601     7.9638
   67.0000   110.8864     0.1262     2.4678     0.0581    10.3588  -999.2500     7.4307     7.9377
   67.5000   112.6665     0.1267     2.4691     0.0567    10.3585  -999.2500     7.4572     7.9117
   68.0000   112.7783     0.1252     2.4701     0.0554    10.3749  -999.2500     7.4766     7.8859
   68.5000   112.0350     0.1293     2.4628     0.0533    10.3985  -999.2500     7.4995     7.8601
   69.0000   110.7244     0.1346     2.4553     0.0474    10.4224  -999.2500     7.4774     7.8343
   69.5000   109.4028     0.1399     2.4477     0.0269    10.4467  -999.2500     7.4417     7.8087
   70.0000   108.1030     0.1425     2.4405     0.0197    10.4801  -999.2500     7.4063     7.7832
   70.5000   107.2226     0.1401     2.4452     0.0235    10.5244  -999.2500     7.3711     7.7577
   71.0000   107.3876     0.1377     2.4505     0.0274    10.5686  -999.2500     7.3361     7.7324
   71.5000   107.5329     0.1374     2.4515     0.0278    10.6129  -999.2500     7.3012     7.7097
   72.0000   107.6829     0.1393     2.4478     0.0176    10.6572  -999.2500     7.2665     7.6496
   72.5000   108.0011     0.1381     2.4444     0.0074    10.7016  -999.2500     7.2319     7.5837
   73.0000   109.3423     0.1369     2.4493     0.0200    10.7455  -999.2500     7.1974     7.5184
   73.5000   110.6880     0.1357     2.4548     0.0373    10.7821  -999.2500     7.1621     7.4537
   74.0000   112.0565     0.1396     2.4488     0.0437    10.8279  -999.2500     7.1589     7.3895
   74.5000   113.3094     0.1433     2.4413     0.0384    10.8746  -999.2500     7.1553     7.3626
   75.0000   109.4428     0.1482     2.4340     0.0332    10.9210  -999.2500     7.1517     7.3935
   75.5000   105.1804     0.1540     2.4220     0.0280    10.9675  -999.2500     7.1480     7.4161
   76.0000   101.8036     0.1619     2.4074     0.0247    11.0138  -999.2500     7.1443     7.4388
   76.5000   105.2424     0.1699     2.3920     0.0313    11.0604  -999.2500     7.1406     7.4615
