~VERSION INFORMATION
 VERS.                2.0:   CWLS LOG ASCII STANDARD - VERSION 2.0
 WRAP.                 NO:   ONE LINE PER DEPTH STEP
~WELL INFORMATION
#MNEM.UNIT      DATA TYPE    INFORMATION
#----------   ------------   ------------------------------
 STRT.F           34.5000:   START DEPTH
 STOP.F          665.5000:   STOP DEPTH
 STEP.F            0.5000:   STEP LENGTH
 NULL.          -999.2500:   NO VALUE
 COMP. FENIX & SCISSON INC:   COMPANY
 WELL.    NPR-3 SX #14-14:   WELL
 FLD .        TEAPOT DOME:   FIELD
 LOC .      S14 T38N R78W:   LOCATION
 CNTY.            NATRONA:   COUNTY
 STAT.            WYOMING:   STATE
 CTRY. UNITED STATES OF AMERICA:   COUNTRY
 SRVC.            Unknown:   SERVICE COMPANY
 DATE.        01-JUN-1978:   LOGDATE
 API .       490251063100:   API NUMBER
~CURVE INFORMATION
#MNEM.UNIT       API CODE    CURVE DESCRIPTION
#----------   ------------   ------------------------------
 DEPT.F                  :   
 SPR .MV     05 010 01 00:   SPONTANEOUS POTENTIAL FROM RES.
 SN  .OHMM   05 040 16 00:   SHORT NORMAL 16"
 IL  .OHMM   05 120 00 00:   INDUCTION LOG
 GRD .GAPI   45 310 01 00:   GAMMA RAY FROM DENSITY LOG
 RHOB.G/C3   45 350 01 00:   BULK DENSITY
 DPHI.DEC    45 890 12 00:   DENSITY POROSITY SANDSTONE
 CORR.G/C3   45 356 01 00:   DENSITY CORRECTION
 CALD.IN     45 280 60 00:   CALIPER FROM DENSITY LOG
~PARAMETER INFORMATION
#MNEM.UNIT          VALUE    DESCRIPTION
#----------   ------------   ------------------------------
 PD  .                 GL:   PERMANENT DATUM
 EPD .F              5212:   ELEVATION PERMANENT DATUM
 LMF .                 KB:   LOG MEASURED FROM
 DAPD.F                 4:   FEET ABOVE PERMANENT DATUM
 DMF .                 KB:   DRILLING MEASURED FROM
 EKB .F              5216:   KELLING BUSHING
 EGL .F              5212:   GROUND LEVEL
 DATE.           6-1-1978:   RUN DATE
 RUN .                  1:   RUN NUMBER
 DD  .F               670:   DEPTH DRILLER
 DL  .F               670:   DEPTH LOGGER
 BLI .F               664:   BOTTOM LOG INTERVAL
 TLI .F                40:   TOP LOG INTERVAL
 CS  .IN            8.625:   CASING SIZE
 CBD .F                40:   CASING BOTTOM DRILLER
 BS  .IN            7.875:   BIT SIZE
 BSD .F               670:   BIT SIZE AT DEPTH
 DFT .                KCL:   DRILLING FLUID TYPE
 DFD .                8.7:   DRILLING FLUID DENSITY
 DFV .                 32:   DRILLING FLUID VISCOSITY
 DFPH.                 10:   DRILLING FLUID PH
 RMS .OHMM            .30:   RESISTIVITY MUD SAMPLE
 MST .F                66:   MUD SAMPLE TEMPERATURE
 BHT .F                75:   BOTTOM HOLE TEMPERATURE
 TCS .HRS               2:   TIME CURCULATED STOPPED
 MRT .F                75:   MAXIMUM RECORDED TEMPERATURE
 LUN .               2958:   LOGGING UNIT NUMBER
 LUL .              CSPR.:   LOGGING UNIT LOCATION
 ENGI.             MILLER:   RECORDING ENGINEER
 WITN.           MCGINLEY:   WITNESSED BY
 CLNT.            A2DTECH:   CLIENT CODE
 ORIG.      2" , 5" PRINT:   ORIGIN OF DATA
 UWI .       490251063100:   UNIQUE WELL ID
 DICO. A2D Technologies, Inc.:   DIGITIZING COMPANY
~OTHER INFORMATION
~A   DEPT      SPR         SN         IL         GRD      RHOB       DPHI       CORR       CALD   
# ...
  480.0000   -28.7249     6.8153     5.3564    90.8285     2.4655     0.1309     0.0226     7.6388
  480.5000   -28.7317     6.6209     5.3638    87.9103     2.4581     0.1363     0.0237     7.6442
  481.0000   -28.7385     6.4944     5.3712    86.6832     2.4485     0.1417     0.0267     7.6495
  481.5000   -28.7452     6.4944     5.3786    90.0244     2.4389     0.1453     0.0315     7.6549
  482.0000   -28.7520     6.4348     5.3861    92.9256     2.4350     0.1416     0.0362     7.6602
  482.5000   -28.7588     6.6153     5.3934    95.2072     2.4500     0.1277     0.0364     7.6655
  483.0000   -28.7655     6.8095     5.4001    94.5057     2.4664     0.1198     0.0326     7.6708
  483.5000   -28.7723     7.0094     5.5574    93.8166     2.4827     0.1138     0.0287     7.6762
  484.0000   -28.7791     7.1385     6.0341    92.0979     2.4956     0.1094     0.0277     7.6815
  484.5000   -28.7858     7.1759     6.5516    90.3694     2.4913     0.1101     0.0269     7.6868
  485.0000   -28.7926     7.2134     7.0563    89.1915     2.4900     0.1078     0.0261     7.6922
  485.5000   -28.7993     7.2542     7.1876    89.3530     2.4955     0.1124     0.0253     7.6975
  486.0000   -28.8061     7.1876     7.1784    89.6415     2.4881     0.1170     0.0245     7.7028
  486.5000   -28.8129     7.1217     7.1117    89.7215     2.4796     0.1185     0.0236     7.7081
  487.0000   -28.8196     6.9274     7.0446    88.7313     2.4768     0.1209     0.0228     7.7084
  487.5000   -28.8268     6.6934     6.9302    87.3575     2.4733     0.1285     0.0235     7.7083
  488.0000   -28.8360     6.4822     6.6075    87.8381     2.4602     0.1367     0.0247     7.7083
  488.5000   -28.8395     6.2777     6.1449    89.1476     2.4466     0.1448     0.0258     7.7083
  489.0000   -28.6382     6.0796     5.6197    90.4470     2.4331     0.1530     0.0273     7.7083
  489.5000   -27.6954     5.9773     5.1427    91.7026     2.4199     0.1596     0.0319     7.7083
  490.0000   -27.0370     6.0327     4.7469    90.1544     2.4134     0.1459     0.0482     7.7040
  490.5000   -27.0658     6.2064     4.9322    86.5953     2.4477     0.1296     0.0433     7.6952
  491.0000   -27.0822     6.4443     5.2071    82.9302     2.4622     0.1203     0.0314     7.6864
  491.5000   -27.0987     6.6914     5.4974    82.6549     2.4730     0.1159     0.0291     7.6775
  492.0000   -27.1147     6.9479     5.8039    84.5543     2.4780     0.1129     0.0297     7.6690
  492.5000   -27.1308     7.1744     6.1275    86.4826     2.4851     0.1100     0.0303     7.6713
  493.0000   -27.1468     7.3797     6.3908    88.3999     2.4924     0.1070     0.0310     7.6742
  493.5000   -27.1628     7.5908     6.6131    89.3136     2.4996     0.1054     0.0317     7.6770
  494.0000   -27.1789     7.8080     6.8008    89.3119     2.5040     0.1037     0.0323     7.6798
  494.5000   -27.1949     8.0315     6.9274    88.6939     2.5039     0.1021     0.0320     7.6826
  495.0000   -27.2109     8.2612     7.0563    87.7390     2.5039     0.1004     0.0311     7.6854
  495.5000   -27.2270     8.3326     7.1225    88.1682     2.5041     0.0998     0.0302     7.6882
  496.0000   -27.2430     8.3363     7.1192    89.4267     2.5062     0.0998     0.0293     7.6910
  496.5000   -27.2590     8.3398     7.1907    90.5829     2.5084     0.1012     0.0284     7.6938
  497.0000   -27.2751     8.3435     7.2267    90.8992     2.5083     0.1024     0.0275     7.6966
  497.5000   -27.2911     8.3471     7.2684    91.1269     2.5050     0.1034     0.0266     7.6994
  498.0000   -27.3071     8.3507     7.3099    90.4561     2.5064     0.1008     0.0281     7.7022
  498.5000   -27.3232     8.3543     7.3517    88.0952     2.5084     0.1001     0.0301     7.7050
  499.0000   -27.3392     8.3579     7.3938    85.6837     2.5094     0.1010     0.0320     7.7078
  499.5000   -27.3552     8.3616     7.4360    85.0645     2.5071     0.1005     0.0340     7.7106
  500.0000   -27.3713     8.3652     7.4576    87.3403     2.5096     0.1001     0.0330     7.7134
  500.5000   -27.3873     8.3688     7.4576    89.3278     2.5135     0.0998     0.0308     7.7162
  501.0000   -27.4033     8.3724     7.4576    85.6134     2.5169     0.1006     0.0285     7.7190
  501.5000   -27.4194     8.3761     7.4576    81.5549     2.5144     0.1022     0.0261     7.7218
  502.0000   -27.4354     8.3797     7.4578    81.4953     2.5069     0.1057     0.0232     7.7246
  502.5000   -27.4514     8.3833     7.4562    84.2602     2.4995     0.1085     0.0240     7.7274
  503.0000   -27.4674     8.3870     7.5555    86.2070     2.4950     0.1053     0.0257     7.7302
  503.5000   -27.4835     8.3906     7.7118    84.5379     2.4990     0.1022     0.0275     7.7330
  504.0000   -27.4995     8.3942     7.8704    82.1645     2.5030     0.1021     0.0273     7.7358
  504.5000   -27.5156     8.3979     8.0310    82.1281     2.5069     0.1068     0.0242     7.7386
  505.0000   -27.5316     8.4017     8.1028    84.0085     2.4987     0.1114     0.0203     7.7414
  505.5000   -27.5476     8.4047     8.1028    85.6938     2.4863     0.1176     0.0153     7.7442
  506.0000   -27.5636     8.4093     7.8301    84.1581     2.4739     0.1235     0.0136     7.7470
  506.5000   -27.5797     8.3274     7.2228    81.1460     2.4641     0.1267     0.0155     7.7498
  507.0000   -27.5957     8.1668     6.6625    79.9461     2.4614     0.1327     0.0175     7.7526
  507.5000   -27.6121     7.6515     6.1458    79.0235     2.4514     0.1446     0.0194     7.7554
  508.0000   -27.6299     7.1293     5.6691    78.3690     2.4352     0.1587     0.0214     7.7583
  508.5000   -27.6388     6.6464     5.2535    79.0176     2.4190     0.1746     0.0234     7.7611
  509.0000   -27.3009     6.2025     5.3644    82.0620     2.3888     0.1938     0.0261     7.7639
  509.5000   -26.9343     6.2628     5.5523    86.5917     2.3538     0.1873     0.0455     7.7666
  510.0000   -26.6273     6.3200     5.5354    90.1860     2.3885     0.1475     0.0825     7.7725
  510.5000   -26.5686     6.9174     5.5153    87.6645     2.4406     0.1099     0.1012     7.7807
  511.0000   -26.5065     7.5368     5.5013    81.7225     2.4722     0.1045     0.0153     7.7888
  511.5000   -26.4457     8.2116     6.3909    75.8074     2.4830     0.0990     0.0148     7.7970
  512.0000   -26.0648     8.9677     7.3123    73.9553     2.4972     0.0954     0.0189     7.8052
  512.5000   -25.6363     9.2985     8.3666    73.8145     2.5050     0.0919     0.0226     7.8133
  513.0000   -25.3207     9.6512     9.1346    74.1506     2.5124     0.0932     0.0229     7.8215
  513.5000   -25.0856     9.9509     9.1040    75.7373     2.5191     0.0948     0.0231     7.8296
  514.0000   -24.8547    10.0563     9.0562    77.6752     2.5187     0.0966     0.0233     7.8378
  514.5000   -24.6202    10.1096     9.0086    79.6820     2.5153     0.0983     0.0236     7.8459
  515.0000   -24.2710    10.1528     8.9677    79.7994     2.5119     0.1000     0.0238     7.8541
  515.5000   -23.4940    10.2131     8.9677    79.7833     2.5084     0.1017     0.0241     7.8622
  516.0000   -22.7512    10.2738     8.9677    79.6150     2.5050     0.1035     0.0243     7.8704
  516.5000   -22.2502    10.3348     8.9677    79.1052     2.5015     0.1052     0.0245     7.8784
  517.0000   -22.2503    10.3931     9.1346    78.4630     2.4988     0.1045     0.0270     7.8875
  517.5000   -22.1110    10.5865     9.9626    77.7622     2.5019     0.1025     0.0299     7.9256
  518.0000   -21.5060    11.0724    10.8204    76.5498     2.5060     0.1022     0.0325     7.9656
  518.5000   -20.6467    11.5285    11.7520    72.9258     2.5015     0.1038     0.0326     8.0054
  519.0000   -19.7759    12.0035    12.7640    69.4002     2.5001     0.1034     0.0326     8.0452
  519.5000   -18.8733    12.4979    13.8634    63.3876     2.5022     0.1145     0.0318     8.0851
  520.0000   -18.5395    13.0128    15.0564    56.1495     2.4973     0.1362     0.0260     8.1249
