~VERSION INFORMATION
 VERS.                2.0:   CWLS LOG ASCII STANDARD - VERSION 2.0
 WRAP.                 NO:   ONE LINE PER DEPTH STEP
~WELL INFORMATION
#MNEM.UNIT      DATA TYPE    INFORMATION
#----------   ------------   ------------------------------
 STRT.F           14.0000:   START DEPTH
 STOP.F          500.0000:   STOP DEPTH
 STEP.F            0.1000:   STEP LENGTH
 NULL.          -999.2500:   NO VALUE
 COMP. LAWRENCE/ALLISON INC:   COMPANY
 WELL.    72-46 SX #10-10:   WELL
 FLD .             TEAPOT:   FIELD
 LOC .      S10 T38N R78W:   LOCATION
 CNTY.            NATRONA:   COUNTY
 STAT.            WYOMING:   STATE
 CTRY. UNITED STATES OF AMERICA:   COUNTRY
 SRVC.           Gearhart:   SERVICE COMPANY
 DATE.        22-MAY-1988:   LOGDATE
 API .       490251122600:   API NUMBER
~CURVE INFORMATION
#MNEM.UNIT       API CODE    CURVE DESCRIPTION
#----------   ------------   ------------------------------
 DEPT.F                  :   
 GRR .GAPI   07 310 01 00:   GAMMA RAY
 RILD.OHMM   07 120 46 00:   INDUCTION LOG DEEP RESISTIVITY
 RILM.OHMM   07 120 44 00:   INDUCTION LOG MEDIUM RESISTIVITY
~PARAMETER INFORMATION
#MNEM.UNIT          VALUE    DESCRIPTION
#----------   ------------   ------------------------------
 PD  .                 GL:   PERMANENT DATUM
 EPD .F              5173:   ELEVATION PERMANENT DATUM
 LMF .                 KB:   LOG MEASURED FROM
 DAPD.F              10.2:   FEET ABOVE PERMANENT DATUM
 DMF .                 KB:   DRILLING MEASURED FROM
 EKB .F            5183.2:   KELLING BUSHING
 EGL .F              5173:   GROUND LEVEL
 DATE.        22-MAY-1988:   RUN DATE
 RUN .                  1:   RUN NUMBER
 DD  .F               505:   DEPTH DRILLER
 DL  .F               504:   DEPTH LOGGER
 BLI .F               500:   BOTTOM LOG INTERVAL
 TLI .F                50:   TOP LOG INTERVAL
 CS  .IN            9.625:   CASING SIZE
 CBD .F                52:   CASING BOTTOM DRILLER
 CBL .F                50:   CASING BOTTOM LOGGER
 BS  .IN             8.75:   BIT SIZE
 BSD .F               505:   BIT SIZE AT DEPTH
 DFT .                AIR:   DRILLING FLUID TYPE
 TLAB.HRS            1339:   TIME LOGGER AT BOTTOM
 LUN .               7597:   LOGGING UNIT NUMBER
 LUL .           GILLETTE:   LOGGING UNIT LOCATION
 ENGI.          HUCKFELDT:   RECORDING ENGINEER
 WITN.             STRONG:   WITNESSED BY
 CLNT.            A2DTECH:   CLIENT CODE
 ORIG.           5" PRINT:   ORIGIN OF DATA
 UWI .       490251122600:   UNIQUE WELL ID
 DICO. A2D Technologies, Inc.:   DIGITIZING COMPANY
~OTHER INFORMATION
~A   DEPT       GRR      RILD       RILM   
# ...
   50.4000   109.2945     2.2208     5.3254
   50.5000   109.2968     2.2208     4.9337
   50.6000   109.4827     2.2304     4.5718
   50.7000   109.8649     2.2433     4.1934
   50.8000   110.2928     2.2605     3.8402
   50.9000   110.5457     2.2896     3.6095
   51.0000   110.8314     2.3485     3.4300
   51.1000   111.2695     2.4608     3.3603
   51.2000   111.6087     2.6237     3.2839
   51.3000   111.9715     2.8192     3.2176
   51.4000   112.4750     3.0519     3.1625
   51.5000   112.9761     3.3542     3.1098
   51.6000   113.2291     4.0194     3.0889
   51.7000   113.6805     4.8067     3.1489
   51.8000   114.0391     6.0169     3.2341
   51.9000   114.3824     7.6984     3.3858
   52.0000   114.8859    10.2806     3.6312
   52.1000   115.4242    14.8202     3.9167
   52.2000   115.6595    15.7774     4.0988
   52.3000   116.0913    16.0740     4.2540
   52.4000   116.4696    16.1670     4.4182
   52.5000   116.7225    16.2605     4.6187
   52.6000   116.9923    16.3421     4.8594
   52.7000   117.5699    16.2287     5.1069
   52.8000   117.5720    15.9743     5.3578
   52.9000   117.5744    15.5137     5.6670
   53.0000   117.5768    14.9461     5.9853
   53.1000   117.5793    14.3327     6.3030
   53.2000   117.5818    13.6856     6.6393
   53.3000   117.3361    12.9823     7.0907
   53.4000   117.2822    12.4250     7.4525
   53.5000   117.1446    11.5501     7.8054
   53.6000   116.8965    10.4504     8.0850
   53.7000   116.5846     9.2632     8.2994
   53.8000   115.7701     8.2456     8.4441
   53.9000   115.5438     7.5273     8.6413
   54.0000   115.1214     7.0218     8.7220
   54.1000   114.7434     6.6128     8.6851
   54.2000   114.4954     6.2935     8.5857
   54.3000   114.2349     6.0953     8.4799
   54.4000   113.6540     5.9849     8.3260
   54.5000   113.6560     5.9850     8.2364
   54.6000   113.6584     5.9851     8.0745
   54.7000   113.7620     5.9851     7.9139
   54.8000   113.9678     5.9852     7.7517
   54.9000   113.9702     5.9853     7.5350
   55.0000   113.9726     5.9854     7.3426
   55.1000   113.9751     5.9855     7.1243
   55.2000   113.9775     6.0086     6.8827
   55.3000   113.9799     6.0433     6.6489
   55.4000   113.9548     6.0698     6.4313
   55.5000   113.6806     6.0709     6.2482
   55.6000   113.4588     6.1125     6.0386
   55.7000   113.3808     6.1414     5.9267
   55.8000   113.2671     6.1769     5.7919
   55.9000   113.0192     6.2126     5.6725
   56.0000   112.7713     6.2485     5.5752
   56.1000   112.4778     6.2859     5.4762
   56.2000   112.2752     6.3211     5.3858
   56.3000   112.1778     6.3853     5.3165
   56.4000   112.1802     6.4191     5.2557
   56.5000   112.1826     6.4314     5.1955
   56.6000   112.1852     6.4686     5.1393
   56.7000   112.1876     6.5097     5.1069
   56.8000   112.3750     6.5098     5.0805
   56.9000   112.4968     6.5099     5.0513
   57.0000   112.5764     6.5099     5.0361
   57.1000   112.8061     6.5100     5.0361
   57.2000   112.8088     6.5101     5.0376
   57.3000   112.8110     6.5102     5.0714
   57.4000   112.8134     6.5103     5.0960
   57.5000   112.7041     6.4870     5.1069
   57.6000   112.5139     6.4347     5.1191
   57.7000   112.5163     6.3611     5.1547
   57.8000   112.2646     6.2874     5.2150
   57.9000   112.2168     6.2165     5.2448
   58.0000   112.0731     6.1183     5.2750
   58.1000   111.9172     6.0137     5.3055
   58.2000   111.9197     5.9108     5.3362
   58.3000   111.9222     5.8141     5.3627
   58.4000   111.9245     5.7427     5.3627
   58.5000   111.9269     5.6519     5.3914
   58.6000   112.0560     5.5329     5.4003
   58.7000   112.2362     5.4379     5.4003
   58.8000   112.2575     5.3757     5.4003
   58.9000   112.5459     5.3142     5.4003
   59.0000   112.7630     5.2452     5.4003
   59.1000   113.0159     5.1935     5.4003
   59.2000   113.2688     5.1342     5.4003
   59.3000   113.5216     5.0882     5.4003
   59.4000   113.7754     5.0591     5.4003
   59.5000   114.0274     5.0301     5.4003
   59.6000   114.2803     4.9955     5.4003
   59.7000   114.3915     4.9727     5.4003
   59.8000   114.3939     4.9777     5.4003
   59.9000   114.4299     5.0174     5.4003
   60.0000   114.7034     5.0708     5.4003
   60.1000   114.7057     5.1016     5.4003
   60.2000   114.8842     5.1577     5.4299
   60.3000   115.0149     5.2175     5.4381
   60.4000   115.0855     5.2620     5.4546
   60.5000   115.3385     5.3021     5.4762
   60.6000   115.6314     5.3635     5.4793
   60.7000   115.6335     5.4327     5.5146
   60.8000   115.9494     5.4605     5.5429
   60.9000   116.4525     5.4921     5.5749
   61.0000   117.0043     5.5239     5.5922
   61.1000   117.7742     5.5559     5.6002
   61.2000   118.5118     5.5868     5.6326
   61.3000   119.4569     5.5869     5.6708
   61.4000   120.4611     5.6135     5.6978
   61.5000   121.3820     5.6262     5.7106
   61.6000   122.1360     5.6262     5.7106
   61.7000   122.9640     5.6263     5.7167
   61.8000   123.6434     5.6264     5.7506
   61.9000   124.2253     5.6581     5.7506
   62.0000   124.7285     5.6660     5.7758
   62.1000   125.1681     5.6840     5.7909
   62.2000   125.4211     5.7058     5.8021
   62.3000   125.7185     5.7098     5.8314
   62.4000   125.9267     5.7459     5.8314
   62.5000   126.1796     5.7460     5.8621
   62.6000   126.4325     5.7461     5.8723
   62.7000   126.6411     5.7622     5.8723
   62.8000   126.6436     5.7864     5.8815
   62.9000   126.8867     5.7885     5.9135
   63.0000   126.9528     5.8271     5.9135
   63.1000   126.9553     5.8843     5.9424
   63.2000   127.0363     5.9308     5.9767
   63.3000   127.2645     5.9651     6.0112
   63.4000   127.2673     5.9996     6.0386
   63.5000   127.2694     6.0344     6.0386
   63.6000   127.2719     6.0692     6.0734
   63.7000   127.1610     6.0769     6.1085
   63.8000   126.9723     6.0970     6.1236
   63.9000   126.9748     6.1195     6.1236
   64.0000   126.9776     6.1196     6.1236
   64.1000   126.9796     6.1197     6.1236
   64.2000   126.9821     6.1198     6.1236
   64.3000   126.9845     6.1199     6.1236
   64.4000   126.9869     6.1022     6.1058
   64.5000   126.9895     6.0775     6.0810
   64.6000   126.9918     6.0776     6.0810
   64.7000   126.8120     6.0777     6.0810
   64.8000   126.6922     6.0778     6.0810
   64.9000   126.6946     6.0550     6.0810
   65.0000   126.6971     6.0357     6.0810
   65.1000   126.6999     6.0358     6.0810
   65.2000   126.7020     6.0359     6.0803
   65.3000   126.7044     6.0360     6.0386
   65.4000   126.7068     6.0081     6.0386
   65.5000   126.7092     5.9941     6.0386
   65.6000   126.7125     5.9942     6.0386
   65.7000   126.9655     5.9943     6.0386
   65.8000   127.0210     5.9944     6.0386
   65.9000   127.1667     5.9945     6.0386
   66.0000   127.4196     5.9946     6.0386
   66.1000   127.6724     5.9946     6.0386
   66.2000   127.9442     5.9947     6.0386
   66.3000   128.1781     5.9948     6.0423
   66.4000   128.2533     5.9949     6.0810
   66.5000   128.2557     5.9950     6.0810
   66.6000   128.1883     5.9951     6.0810
   66.7000   127.9246     5.9951     6.0810
   66.8000   127.3501     5.9952     6.0810
   66.9000   126.9276     5.9953     6.0825
   67.0000   126.4291     5.9954     6.1236
   67.1000   125.9306     6.0242     6.1236
   67.2000   125.3821     6.0376     6.1455
   67.3000   124.6223     6.0518     6.1665
   67.4000   124.1311     6.0800     6.1733
   67.5000   123.6327     6.0801     6.2097
   67.6000   123.1342     6.0802     6.2097
   67.7000   122.6357     6.1072     6.2372
   67.8000   122.1683     6.1425     6.2532
   67.9000   121.8973     6.1780     6.2655
   68.0000   121.8995     6.2137     6.2970
   68.1000   121.7287     6.2527     6.2970
   68.2000   121.6000     6.2528     6.3303
   68.3000   121.6024     6.2783     6.3669
   68.4000   121.6049     6.3146     6.3856
   68.5000   121.6077     6.3511     6.3959
