~VERSION INFORMATION
 VERS.                2.0:   CWLS LOG ASCII STANDARD - VERSION 2.0
 WRAP.                 NO:   ONE LINE PER DEPTH STEP
~WELL INFORMATION
#MNEM.UNIT      DATA TYPE    INFORMATION
#----------   ------------   ------------------------------
 STRT.F            7.0000:   START DEPTH
 STOP.F          587.0000:   STOP DEPTH
 STEP.F            0.5000:   STEP LENGTH
 NULL.          -999.2500:   NO VALUE
 COMP. FENIX & SCISSON INC:   COMPANY
 WELL.        NPR-3 #63-3:   WELL
 FLD .             TEAPOT:   FIELD
 LOC .       S3 T38N R78W:   LOCATION
 CNTY.            NATRONA:   COUNTY
 STAT.            WYOMING:   STATE
 CTRY. UNITED STATES OF AMERICA:   COUNTRY
 SRVC.     Wedge Wireline:   SERVICE COMPANY
 DATE.        06-JAN-1978:   LOGDATE
 API .       490251044700:   API NUMBER
~CURVE INFORMATION
#MNEM.UNIT       API CODE    CURVE DESCRIPTION
#----------   ------------   ------------------------------
 DEPT.F                  :   
 ILD .OHMM   05 120 46 00:   INDUCTION LOG DEEP
 SN  .OHMM   05 040 16 00:   SHORT NORMAL
 SPR .MV     05 010 01 00:   SPONTANEOUS POTENTIAL FROM RES.
 CALD.IN     45 280 60 00:   CALIPER FROM DENSITY LOG
 CORR.G/C3   45 356 01 00:   DENSITY CORRECTION
 DPHI.DEC    45 890 12 00:   DENSITY POROSITY SANDSTONE
 GRD .GAPI   45 310 01 00:   GAMMA RAY FROM DENSITY LOG
 RHOB.G/C3   45 350 01 00:   BULK DENSITY
~PARAMETER INFORMATION
#MNEM.UNIT          VALUE    DESCRIPTION
#----------   ------------   ------------------------------
 PD  .                 GL:   PERMANENT DATUM
 EPD .F              5177:   ELEVATION PERMANENT DATUM
 LMF .                 KB:   LOG MEASURED FROM
 DMF .                 KB:   DRILLING MEASURED FROM
 EKB .F              5181:   KELLING BUSHING
 EGL .F              5177:   GROUND LEVEL
 DATE.        06-JAN-1978:   RUN DATE
 RUN .                  1:   RUN NUMBER
 DD  .F               590:   DEPTH DRILLER
 DL  .F               581:   DEPTH LOGGER
 BLI .F               576:   BOTTOM LOG INTERVAL
 TLI .F                20:   TOP LOG INTERVAL
 CS  .IN            9.625:   CASING SIZE
 CBD .F                19:   CASING BOTTOM DRILLER
 CBL .F                19:   CASING BOTTOM LOGGER
 BS  .IN            7.875:   BIT SIZE
 BSD .F               590:   BIT SIZE AT DEPTH
 DFT .                KCL:   DRILLING FLUID TYPE
 DFD .                8.5:   DRILLING FLUID DENSITY
 DFV .                 34:   DRILLING FLUID VISCOSITY
 DFPH.                9.0:   DRILLING FLUID PH
 DFL .                7.8:   DRILLING FLUID LOSS
 MSS .           FLOWLINE:   MUD SAMPLE SOURCE
 RMS .OHMM           0.22:   RESISTIVITY MUD SAMPLE
 MST .F                63:   MUD SAMPLE TEMPERATURE
 RMF .OHMM           0.24:   RESISTIVITY MUD FILTRATE SAMPLE
 MFST.F                63:   MUD FILTRATE SAMPLE TEMPERATURE
 RMC .OHMM           0.48:   RESISTIVITY MUD CAKE
 MCST.F                64:   MUD CAKE SAMPLE TEMPERATURE
 MFSS.               MEAS:   MUD FILTRATE SAMPLE SOURCE
 MCSS.               MEAS:   MUD CAKE SAMPLE SOURCE
 RMB .OHMM           0.19:   RESISTIVITY MUD AT BHT
 BHT .F                71:   BOTTOM HOLE TEMPERATURE
 TCS .HRS               3:   TIME CURCULATED STOPPED
 MRT .F                71:   MAXIMUM RECORDED TEMPERATURE
 LUN .               2958:   LOGGING UNIT NUMBER
 LUL .             CASPER:   LOGGING UNIT LOCATION
 ENGI.             MILLER:   RECORDING ENGINEER
 WITN.         HARRINGTON:   WITNESSED BY
 CLNT.            A2DTECH:   CLIENT CODE
 ORIG.           5" PRINT:   ORIGIN OF DATA
 UWI .       490251044700:   UNIQUE WELL ID
 DICO. A2D Technologies, Inc.:   DIGITIZING COMPANY
~OTHER INFORMATION
~A    DEPT     ILD         SN        SPR       CALD       CORR       DPHI         GRD      RHOB   
# ...
  493.0000    20.6223    13.1707   -39.2648     8.3525    -0.3698     0.1390    80.5002     2.4121
  493.5000    19.9288    12.9023   -39.5537     8.3384    -0.3590     0.1408    81.1129     2.4212
  494.0000    19.3917    12.6393   -39.6996     8.3390    -0.3498     0.1432    82.0206     2.4280
  494.5000    18.8570    12.5531   -39.9866     8.3397    -0.3466     0.1426    86.7631     2.4282
  495.0000    18.4880    12.3824   -40.2760     8.3402    -0.3570     0.1414    89.4407     2.4236
  495.5000    18.3658    12.2137   -40.4203     8.3408    -0.3675     0.1402    89.7584     2.4261
  496.0000    18.1191    12.1307   -40.7096     8.3266    -0.3733     0.1395    91.9408     2.4459
  496.5000    17.8768    11.9655   -40.8532     8.3273    -0.3459     0.1404    96.5942     2.4396
  497.0000    17.8677    11.8841   -40.9972     8.3279    -0.3609     0.1413   100.7467     2.4276
  497.5000    17.5212    11.8035   -41.2865     8.3286    -0.3925     0.1395    96.9346     2.4246
  498.0000    17.4043    11.6429   -41.5758     8.3291    -0.3999     0.1370    90.1727     2.4368
  498.5000    17.4100    11.6437   -41.7194     8.3297    -0.3649     0.1364    86.6556     2.4519
  499.0000    17.2948    11.6444   -41.8634     8.3154    -0.3390     0.1388    86.0883     2.4399
  499.5000    17.2996    11.6452   -42.0073     8.3015    -0.3313     0.1394    84.6418     2.4324
  500.0000    17.3051    11.7088   -42.1647     8.3021    -0.3448     0.1388    82.2990     2.4574
  500.5000    17.4341    11.6350   -42.3331     8.3032    -0.3159     0.1128    82.5823     2.4702
  501.0000    17.4420    11.5613   -42.4102     8.3046    -0.2930     0.1104    82.8445     2.4763
  501.5000    17.3301    11.5079   -42.5404     8.3062    -0.2667     0.1095    83.2578     2.4778
  502.0000    17.2187    11.5163   -42.6706     8.3074    -0.2563     0.1110    85.3448     2.4665
  502.5000    17.2270    11.5230   -42.6516     8.3087    -0.2547     0.1200    91.8566     2.4560
  503.0000    17.2367    11.5297   -42.6364     8.3100    -0.2545     0.1284    99.7387     2.4667
  503.5000    17.2446    11.5366   -42.6175     8.3115    -0.2786     0.1350    98.6911     2.4696
  504.0000    17.2525    11.5449   -42.6023     8.3128    -0.3056     0.1320    91.9286     2.4500
  504.5000    17.1417    11.5517   -42.5871     8.3141    -0.3050     0.1247    86.6410     2.4500
  505.0000    17.0318    11.5584   -42.5719     8.3153    -0.2932     0.1284    88.1380     2.4523
  505.5000    16.8063    11.5652   -42.8474     8.3166    -0.2870     0.1310    94.8131     2.4561
  506.0000    16.6985    11.4941   -42.9738     8.3179    -0.2823     0.1235   102.6421     2.4622
  506.5000    16.5913    11.4219   -43.1040     8.3194    -0.2776     0.1162   106.7941     2.4682
  507.0000    16.6009    11.4286   -43.0888     8.3207    -0.2713     0.1111   108.5861     2.4765
  507.5000    16.3829    11.4353   -43.0736     8.3220    -0.2601     0.1065   108.0183     2.4841
  508.0000    16.3904    11.3634   -43.2151     8.3232    -0.2422     0.1016   105.6750     2.4909
  508.5000    16.2852    11.3717   -43.6209     8.3245    -0.2224     0.0986   102.4633     2.4978
  509.0000    16.2927    11.2986   -43.9002     8.3258    -0.2041     0.1028   100.4206     2.4985
  509.5000    16.1882    11.3068   -44.1757     8.3273    -0.2100     0.1092    99.2573     2.4902
  510.0000    16.1974    11.3151   -44.5928     8.3286    -0.2461     0.1131    99.5799     2.4820
  510.5000    16.2049    11.2423   -44.5770     8.3299    -0.2922     0.1167   100.1920     2.4767
  511.0000    16.2123    11.1716   -44.5586     8.3311    -0.3456     0.1206   100.8456     2.4744
  511.5000    16.2197    11.1798   -44.6926     8.3471    -0.3682     0.1227   101.1268     2.4692
  512.0000    16.2290    11.1880   -44.6736     8.3484    -0.3696     0.1202   100.8539     2.4602
  512.5000    16.2364    11.1945   -44.6584     8.3499    -0.3678     0.1178   100.2861     2.4557
  513.0000    16.2439    11.1225   -44.9302     8.3362    -0.3662     0.1148    99.4227     2.4617
  513.5000    16.1394    11.1306   -44.9150     8.3378    -0.3644     0.1117    98.2428     2.4693
  514.0000    16.0361    11.0623   -44.8998     8.3390    -0.3552     0.1178    96.8182     2.4602
  514.5000    16.0453    11.0688   -44.8846     8.3257    -0.3445     0.1162    95.9499     2.4648
  515.0000    16.0526    10.9992   -44.8692     8.3272    -0.3352     0.1114    94.7976     2.4739
  515.5000    15.9478    10.9300   -44.8505     8.3135    -0.3487     0.1074    94.5192     2.4807
  516.0000    15.8472    10.8614   -44.8353     8.3151    -0.3652     0.1186    96.3168     2.4709
  516.5000    15.7297    10.7939   -44.8201     8.3164    -0.3665     0.1213    93.3946     2.4588
  517.0000    15.5389    10.8010   -44.8049     8.3176    -0.3679     0.1180    92.5263     2.4619
  517.5000    15.4375    10.6784   -44.7892     8.3189    -0.3707     0.1107    92.2534     2.4740
  518.0000    15.3402    10.5940   -44.7708     8.3205    -0.3660     0.1064    91.3961     2.4853
  518.5000    15.2400    10.5259   -44.9047     8.3069    -0.3432     0.1037    90.2383     2.4959
  519.0000    15.0399    10.5335   -44.8858     8.3083    -0.3248     0.1028    88.1528     2.5027
  519.5000    14.8408    10.3955   -44.8706     8.3095    -0.3216     0.1025    85.8633     2.4984
  520.0000    14.7456    10.3316   -45.0008     8.3255    -0.3275     0.1027    83.8206     2.4900
  520.5000    14.6525    10.3377   -45.4178     8.3268    -0.3364     0.1030    82.0728     2.4983
  521.0000    14.3593    10.2712   -45.5518     8.3284    -0.3423     0.1036    80.3250     2.5028
  521.5000    14.0718    10.2787   -46.1142     8.3296    -0.3346     0.1042    78.8722     2.5074
  522.0000    13.5093    10.1440   -46.3973     8.3309    -0.3178     0.1057    80.2828     2.4870
  522.5000    13.2374    10.0125   -46.9560     8.3321    -0.3025     0.1078    82.0743     2.4931
  523.0000    13.1539     9.8813   -47.3730     8.3188    -0.3265     0.1106    83.9589     2.4999
  523.5000    12.9797     9.8191   -47.7977     8.3206    -0.3505     0.1123    85.1610     2.4901
  524.0000    12.9872     9.6253   -48.2148     8.3361    -0.3519     0.1132    86.3717     2.4773
  524.5000    13.0830     9.4992   -48.6526     8.3374    -0.3502     0.1125    87.5707     2.4758
  525.0000    12.9976     9.3103   -49.1981     8.3388    -0.3470     0.1113    88.4778     2.4759
  525.5000    12.5601     9.1251   -49.3320     8.3401    -0.3272     0.1122    89.6799     2.4744
  526.0000    11.6535     8.8824   -49.6037     8.3413    -0.3087     0.1155    91.1769     2.4683
  526.5000    10.1572     8.6473   -49.7340     8.3429    -0.3117     0.1179    92.6740     2.4601
  527.0000     8.8531     8.5339   -50.0094     8.3292    -0.3192     0.1209    94.8548     2.4510
  527.5000     8.0422     8.4220   -49.9905     8.3308    -0.3038     0.1239    98.0335     2.4410
  528.0000     7.3937     8.3117   -49.9753     8.3174    -0.2855     0.1281    97.1707     2.4269
  528.5000     7.0621     8.2027   -49.9601     8.3187    -0.2884     0.1342    91.2932     2.4081
  529.0000     7.1143     8.2087   -49.6482     8.3199    -0.3137     0.1610    84.5306     2.3689
  529.5000     7.3165     8.1570   -49.0539     8.3215    -0.4908     0.1673    81.6029     2.3266
  530.0000     7.8965     8.1621   -48.4573     8.3228    -0.5179     0.1625    85.4654     2.3478
  530.5000     8.8835     8.2243   -47.7154     8.3240    -0.4572     0.1449    87.2519     2.4233
  531.0000     9.8558     8.4010   -47.2641     8.3253    -0.4056     0.1183    86.3946     2.4724
  531.5000    11.5546     8.5814   -46.9578     8.3266    -0.3419     0.1162    85.5318     2.5109
  532.0000    12.9079     8.7731   -46.9393     8.3279    -0.3262     0.1008    85.1061     2.4943
  532.5000    13.6541     9.0795   -46.7788     8.3144    -0.3188     0.0996    84.6924     2.4981
  533.0000    13.6523     9.2109   -46.9127     8.3160    -0.3171     0.0962    84.4183     2.5281
