~VERSION INFORMATION
 VERS.                2.0:   CWLS LOG ASCII STANDARD - VERSION 2.0
 WRAP.                 NO:   ONE LINE PER DEPTH STEP
~WELL INFORMATION
#MNEM.UNIT      DATA TYPE    INFORMATION
#----------   ------------   ------------------------------
 STRT.F          690.5000:   START DEPTH
 STOP.F         2366.0000:   STOP DEPTH
 STEP.F            0.5000:   STEP LENGTH
 NULL.          -999.2500:   NO VALUE
 COMP. LAWRENCE/ALLISON INC:   COMPANY
 WELL.  NPR 3 #26SHX10-10:   WELL
 FLD .             TEAPOT:   FIELD
 LOC .      S10 T38N R78W:   LOCATION
 CNTY.            NATRONA:   COUNTY
 STAT.            WYOMING:   STATE
 CTRY. UNITED STATES OF AMERICA:   COUNTRY
 SRVC.            Unknown:   SERVICE COMPANY
 DATE.        30-DEC-1992:   LOGDATE
 API .       490251113600:   API NUMBER
~CURVE INFORMATION
#MNEM.UNIT       API CODE    CURVE DESCRIPTION
#----------   ------------   ------------------------------
 DEPT.F                  :   
 ROP .MIN/FT 91 810 01 00:   RATE OF DRILLING PENETRATION
 TGAS.UNITS  91 830 01 00:   TOTAL GAS FROM HOTWIRE
~PARAMETER INFORMATION
#MNEM.UNIT          VALUE    DESCRIPTION
#----------   ------------   ------------------------------
 EKB .F              5235:   KELLING BUSHING
 EGL .F              5225:   GROUND LEVEL
 DATE.           12-30-92:   RUN DATE
 DD  .F              2365:   DEPTH DRILLER
 BLI .F              2360:   BOTTOM LOG INTERVAL
 TLI .F              2160:   TOP LOG INTERVAL
 CS  .IN            8.625:   CASING SIZE
 CBD .F               675:   CASING BOTTOM DRILLER
 TCS .HRS            0200:   TIME CURCULATED STOPPED
 TLAB.HRS            1700:   TIME LOGGER AT BOTTOM
 ENGI.               HUSK:   RECORDING ENGINEER
 WITN.              TOWER:   WITNESSED BY
 CLNT.            A2DTECH:   CLIENT CODE
 ORIG.           5" PRINT:   ORIGIN OF DATA
 UWI .       490251113600:   UNIQUE WELL ID
 DICO. A2D Technologies, Inc.:   DIGITIZING COMPANY
~OTHER INFORMATION
~A   DEPT      ROP         TGAS 
# ...
  933.5000     0.7315     8.0703
  934.0000     0.7321     8.0830
  934.5000     0.7327     8.0979
  935.0000     0.7332     8.1102
  935.5000     0.7337     8.1226
  936.0000     0.7342     8.1349
  936.5000     0.7348     8.5718
  937.0000     0.7353     8.5841
  937.5000     0.7358     8.5967
  938.0000     0.7363     8.6119
  938.5000     0.7368     8.6242
  939.0000     0.7373     8.6365
  939.5000     0.7485     8.6489
  940.0000     0.7490     9.0857
  940.5000     0.7495     6.5509
  941.0000     0.7712     4.8651
  941.5000     0.7717     4.8778
  942.0000     0.7722     4.8929
  942.5000     0.7832     4.9052
  943.0000     0.7838     4.9175
  943.5000     0.7843     4.9299
  944.0000     0.7848     4.9422
  944.5000     0.7538     4.9545
  945.0000     0.6488     5.3915
  945.5000     0.5438     5.4042
  946.0000     0.5233     5.8437
  946.5000     0.5449     5.8560
  947.0000     0.7564     5.8684
  947.5000     1.1577     6.3052
  948.0000     1.7068     6.3176
  948.5000     1.9713     6.3299
  949.0000     2.0243     6.3425
  949.5000     2.0460     6.3576
  950.0000     2.0313     6.3690
  950.5000     1.9940     6.3224
  951.0000     1.9880     6.2718
  951.5000     1.9841     6.2212
  952.0000     1.9844     6.1706
  952.5000     2.0000     6.1200
  953.0000     2.1960     6.0694
  953.5000     2.4073     6.0187
  954.0000     2.5975     5.9681
  954.5000     2.7877     5.9175
  955.0000     3.0834     5.8669
  955.5000     3.4740     5.8163
  956.0000     3.5605     5.7657
  956.5000     3.5906     5.7151
  957.0000     3.6120     5.6645
  957.5000     3.5900     5.6138
  958.0000     3.4967     5.5632
  958.5000     3.3599     5.5126
  959.0000     3.2019     5.4764
  959.5000     3.0862     5.0731
  960.0000     3.0443     5.0943
  960.5000     3.0340     5.1198
  961.0000     3.0450     4.7107
  961.5000     3.0453     4.7364
  962.0000     2.9295     4.3274
  962.5000     2.5220     4.7777
  963.0000     2.1890     4.8000
  963.5000     2.0444     4.8189
  964.0000     1.9920     4.4150
  964.5000     2.0029     4.4363
  965.0000     2.0348     4.4613
  965.5000     2.0352     4.0523
  966.0000     1.9933     4.0780
  966.5000     1.8670     4.0986
  967.0000     1.7407     4.5438
  967.5000     1.6951     4.1398
  968.0000     1.6148     4.1622
  968.5000     1.5308     4.1816
  969.0000     1.5099     4.2068
  969.5000     1.5208     4.2274
  970.0000     1.5000     4.2480
  970.5000     1.5109     4.2686
  971.0000     1.5112     4.2892
  971.5000     1.5115     4.3099
  972.0000     1.5118     4.3305
  972.5000     1.5227     4.3514
  973.0000     1.5230     4.3768
  973.5000     1.5234     4.3974
  974.0000     1.4920     4.4180
  974.5000     1.2919     4.4369
  975.0000     1.1446     4.4610
  975.5000     1.0183     4.4816
  976.0000     1.0186     4.5005
  976.5000     1.0294     4.0966
  977.0000     1.0403     4.1179
  977.5000     1.0828     4.1429
  978.0000     1.1586     4.1635
  978.5000     1.2491     4.1841
  979.0000     1.4108     4.2048
  979.5000     1.4955     4.6499
  980.0000     1.5380     4.6705
  980.5000     1.5383     4.6911
  981.0000     1.5386     4.7123
  981.5000     1.5283     4.7375
  982.0000     1.5393     4.7581
  982.5000     1.5396     4.7787
  983.0000     1.5399     4.7993
  983.5000     1.5507     5.2444
  984.0000     1.5722     5.2650
  984.5000     1.4776     5.7102
  985.0000     1.3724     5.7311
  985.5000     1.2567     5.7566
  986.0000     1.1199     5.7772
  986.5000     1.0463     5.7948
  987.0000     1.0361     5.8184
  987.5000     1.0153     5.8390
  988.0000     1.0158     5.8596
  988.5000     1.0510     5.8802
  989.0000     1.1640     5.9009
  989.5000     1.2698     5.9222
  990.0000     1.4072     5.9472
  990.5000     1.5025     5.9678
  991.0000     1.5344     5.9884
  991.5000     1.5453     6.0107
  992.0000     1.5350     5.6051
  992.5000     1.4721     5.6257
  993.0000     1.3563     5.6463
  993.5000     1.2171     5.2424
  994.0000     1.0492     5.2681
  994.5000     1.0303     5.2887
  995.0000     1.2100     4.8797
  995.5000     1.4951     4.9054
  996.0000     1.5798     4.9260
  996.5000     1.6012     4.5212
  997.0000     1.6542     4.5427
  997.5000     1.6756     4.5637
  998.0000     1.7498     5.0136
  998.5000     1.8565     5.0342
  999.0000     1.9312     5.0548
  999.5000     2.0040     5.5000
 1000.0000     1.9475     5.5172
 1000.5000     1.8140     5.5174
 1001.0000     1.6344     5.5176
 1001.5000     1.5180     5.5177
 1002.0000     1.5388     5.5179
 1002.5000     1.5491     5.5181
 1003.0000     1.5487     5.5183
 1003.5000     1.5379     5.5185
 1004.0000     1.5269     5.5187
 1004.5000     1.6005     5.5189
 1005.0000     1.9799     5.5189
 1005.5000     2.5281     5.5189
 1006.0000     2.5701     5.5189
 1006.5000     2.5697     5.4868
 1007.0000     2.5694     5.4393
 1007.5000     2.5691     5.3917
 1008.0000     2.5672     5.3441
 1008.5000     2.5579     5.2966
 1009.0000     2.5470     5.2490
 1009.5000     2.5467     5.2014
 1010.0000     2.5464     5.1539
 1010.5000     2.5567     5.1063
 1011.0000     2.5669     5.0587
 1011.5000     2.5666     5.0112
 1012.0000     2.5335     4.9636
 1012.5000     2.4218     4.9161
 1013.0000     2.1542     4.8685
 1013.5000     2.0167     4.8209
 1014.0000     1.9637     4.7734
 1014.5000     2.0056     4.7258
 1015.0000     2.1846     4.6782
 1015.5000     2.3741     4.6307
 1016.0000     2.5004     4.5831
 1016.5000     2.6192     4.5355
 1017.0000     2.8162     4.4880
 1017.5000     2.9319     4.4404
 1018.0000     2.9844     4.3928
 1018.5000     2.6254     4.3453
 1019.0000     2.1609     4.2977
 1019.5000     2.0130     4.2453
 1020.0000     2.0021     7.1492
 1020.5000     2.0018     8.0365
 1021.0000     2.0120     7.8867
 1021.5000     1.9062     7.5992
 1022.0000     1.8320     7.3118
 1022.5000     1.7895     7.0243
 1023.0000     1.7154     6.7368
 1023.5000     1.5990     6.4494
 1024.0000     1.4194     6.1619
 1024.5000     1.2503     5.8326
 1025.0000     1.1234   216.0000
 1025.5000     0.9284   426.1674
 1026.0000     0.7746   390.1537
 1026.5000     0.6583   359.4374
 1027.0000     0.6052   328.7212
 1027.5000     0.5416   304.3579
 1028.0000     0.5202   286.3476
 1028.5000     0.5199   256.6902
 1029.0000     0.5091   229.1504
 1029.5000     0.5193   209.9245
 1030.0000     0.5190   196.1651
 1030.5000     0.5503   190.9992
 1031.0000     0.6132   189.9300
 1031.5000     0.7290   189.9197
 1032.0000     0.8552   189.9093
 1032.5000     1.0976   190.9578
 1033.0000     1.4242   190.9475
 1033.5000     1.6560   191.9960
 1034.0000     1.6662   194.1035
 1034.5000     1.5207   197.2726
 1035.0000     1.2964   199.4823
 1035.5000     1.1062   202.5429
 1036.0000     0.8949   203.5913
 1036.5000     0.8208   206.7549
 1037.0000     0.8204   206.7446
 1037.5000     0.8201   207.7956
 1038.0000     0.8198   207.7827
 1038.5000     0.8195   207.7724
 1039.0000     0.8210   206.7032
 1039.5000     0.8295   203.5164
 1040.0000     0.8502   197.9989
 1040.5000     0.9026   178.4736
 1041.0000     0.9656   121.9534
 1041.5000     1.0075    79.5901
 1042.0000     1.0087    71.1092
 1042.5000     0.9330    71.0988
 1043.0000     0.8458    70.0297
 1043.5000     0.7741    71.0807
 1044.0000     0.7528    72.1271
 1044.5000     0.7840    76.3516
 1045.0000     0.8154    79.5177
 1045.5000     0.8257    80.5662
 1046.0000     0.7937    76.3180
 1046.5000     0.6457    72.0724
 1047.0000     0.5821    72.0620
 1047.5000     0.5501    74.1693
 1048.0000     0.5497    76.2766
 1048.5000     0.5916    79.4428
 1049.0000     0.6651    81.5501
 1049.5000     0.7176    83.6576
 1050.0000     0.7305    84.7059
 1050.5000     0.7916    86.9146
 1051.0000     0.7690    87.8617
 1051.5000     0.7502    87.8488
 1052.0000     0.7612    87.8384
 1052.5000     0.8039    87.8281
 1053.0000     0.8570    87.8177
 1053.5000     0.9102    87.8074
 1054.0000     0.9422    87.7971
 1054.5000     0.9743    87.7867
