~VERSION INFORMATION
 VERS.                2.0:   CWLS LOG ASCII STANDARD - VERSION 2.0
 WRAP.                 NO:   ONE LINE PER DEPTH STEP
~WELL INFORMATION
#MNEM.UNIT      DATA TYPE    INFORMATION
#----------   ------------   ------------------------------
 STRT.F           80.0000:   START DEPTH
 STOP.F          930.0000:   STOP DEPTH
 STEP.F            0.5000:   STEP LENGTH
 NULL.          -999.2500:   NO VALUE
 COMP. U S NAVY-INTEX OIL:   COMPANY
 WELL. RES 3 TEAPOT DOM #56-S-2:   WELL
 FLD .             TEAPOT:   FIELD
 LOC .       S2 T38N R78W:   LOCATION
 CNTY.            NATRONA:   COUNTY
 STAT.            WYOMING:   STATE
 CTRY. UNITED STATES OF AMERICA:   COUNTRY
 SRVC.       Schlumberger:   SERVICE COMPANY
 DATE.        24-JUN-1962:   LOGDATE
 API .       490250641900:   API NUMBER
~CURVE INFORMATION
#MNEM.UNIT       API CODE    CURVE DESCRIPTION
#----------   ------------   ------------------------------
 DEPT.F                  :   
 ASN .OHMM   05 041 16 00:   AMPLIFIED SHORT NORMAL 16"
 ILD .OHMM   05 120 46 00:   INDUCTION LOG DEEP
 CILD.MMHO   05 110 46 00:   CONDUCTIVITY INDUCTION LOG DEEP
 SPR .MV     05 010 01 00:   SPONTANEOUS POTENTIAL FROM RES.
 GR  .GAPI   30 310 01 00:   GAMMA RAY
~PARAMETER INFORMATION
#MNEM.UNIT          VALUE    DESCRIPTION
#----------   ------------   ------------------------------
 PD  .                 KB:   PERMANENT DATUM
 LMF .                 KB:   LOG MEASURED FROM
 DMF .                 KB:   DRILLING MEASURED FROM
 EKB .F              5179:   KELLING BUSHING
 EGL .F              5174:   GROUND LEVEL
 DATE.        24-JUN-1962:   RUN DATE
 RUN .                  1:   RUN NUMBER
 DD  .F               942:   DEPTH DRILLER
 DL  .F               931:   DEPTH LOGGER
 BLI .F               930:   BOTTOM LOG INTERVAL
 TLI .F                80:   TOP LOG INTERVAL
 BS  .IN             6.75:   BIT SIZE
 BSD .F               942:   BIT SIZE AT DEPTH
 DFT .       OIL EMULSION:   DRILLING FLUID TYPE
 DFD .                9.9:   DRILLING FLUID DENSITY
 DFV .                 55:   DRILLING FLUID VISCOSITY
 DFL .                3.7:   DRILLING FLUID LOSS
 RMS .OHMM            4.2:   RESISTIVITY MUD SAMPLE
 MST .F                79:   MUD SAMPLE TEMPERATURE
 RMF .OHMM            3.7:   RESISTIVITY MUD FILTRATE SAMPLE
 MFST.F                79:   MUD FILTRATE SAMPLE TEMPERATURE
 RMC .OHMM            4.0:   RESISTIVITY MUD CAKE
 MCST.F                79:   MUD CAKE SAMPLE TEMPERATURE
 TCS .HRS               1:   TIME CURCULATED STOPPED
 LUN .               2503:   LOGGING UNIT NUMBER
 LUL .               CSPR:   LOGGING UNIT LOCATION
 ENGI.             DANNER:   RECORDING ENGINEER
 WITN.          JORGENSEN:   WITNESSED BY
 CLNT.            A2DTECH:   CLIENT CODE
 ORIG.           5" PRINT:   ORIGIN OF DATA
 UWI .       490250641900:   UNIQUE WELL ID
 DICO. A2D Technologies, Inc.:   DIGITIZING COMPANY
~OTHER INFORMATION
~A   DEPT        ASN        ILD      CILD       SPR         GR   
# ...
  751.0000     6.9520     7.3633   147.6296   -56.3372    77.8036
  751.5000     6.9378     7.2913   147.6072   -56.1802    72.5753
  752.0000     6.9836     7.3693   146.8353   -55.7243    77.5482
  752.5000     6.9844     7.4474   146.8129   -55.6047    74.9850
  753.0000     6.9851     7.5255   148.2898   -55.6531    80.6499
  753.5000     6.9859     7.4482   148.1409   -55.7024    84.6175
  754.0000     6.9567     7.2253   149.7443   -55.6949    85.3395
  754.5000     6.8977     6.9272   158.4399   -55.5379    90.3832
  755.0000     6.7340     6.5540   169.1861   -55.5305    94.6084
  755.5000     6.5554     6.4143   172.9175   -55.5230    97.4330
  756.0000     6.1974     6.4174   175.1440   -55.5155   102.5963
  756.5000     6.0634     6.3452   176.6209   -55.5080    93.0150
  757.0000     6.0195     6.2732   178.0978   -55.2015    83.9940
  757.5000     5.6764     6.2011   180.3187   -55.0446    84.1410
  758.0000     5.6621     6.1290   183.2948   -55.3360    91.6681
  758.5000     6.0217     6.1194   187.7702   -55.3285    98.5928
  759.0000     6.0523     5.8829   193.7449   -54.8726    92.2645
  759.5000     5.9783     5.0585   203.4677   -55.0146    74.6410
  760.0000     5.7250     4.8647   222.9355   -55.4555    74.3375
  760.5000     5.2205     4.9435   222.1636   -55.2986    76.4422
  761.0000     4.9042     4.9465   219.1427   -55.1416    83.9694
  761.5000     4.9948     5.0246   219.8756   -54.9846    83.9664
  762.0000     5.2497     5.0276   219.0980   -54.6782    84.8670
  762.5000     4.9814     5.1057   218.3260   -54.6707    89.9844
  763.0000     4.9520     5.1837   215.3052   -54.8145    87.8730
  763.5000     5.4463     5.7123   202.5392   -54.8052    78.5327
  764.0000     5.9552     6.4660   184.5258   -54.7977    72.5056
  764.5000     6.1652     6.8444   169.5109   -54.7902    84.8520
  765.0000     6.2108     6.8474   156.7449   -54.6332    87.8610
  765.5000     6.3462     6.8504   154.4737   -54.6257    74.3038
  766.0000     6.3918     6.8534   159.6987   -54.7696    71.8919
  766.5000     6.3925     6.7813   167.9223   -54.7602    79.8701
  767.0000     6.3781     6.1837   177.6450   -55.0517    90.2586
  767.5000     6.2894     5.6472   191.8655   -55.1955    91.7617
  768.0000     6.0360     4.9882   206.0861   -54.8872   102.3016
  768.5000     5.7677     4.9912   215.0600   -54.8797    87.5388
  769.0000     5.2752     4.9942   215.0368   -54.7228    80.4575
  769.5000     5.2010     4.9972   214.2649   -54.5658    76.9906
  770.0000     5.2615     5.0002   214.2425   -54.5583    84.6683
  770.5000     5.1277     5.1533   212.7209   -54.5508    81.9545
  771.0000     5.2184     5.3816   205.2023   -54.5433    77.8852
  771.5000     5.7124     5.8350   193.9329   -54.5358    77.7324
  772.0000     6.2811     6.5888   182.4896   -54.5283    81.3438
  772.5000     6.6705     7.1173   162.4028   -54.5208    74.7136
  773.0000     7.0001     7.5707   150.7313   -54.5133    83.5961
  773.5000     7.1205     7.9491   141.1542   -54.6553    84.3469
  774.0000     7.3006     8.1773   136.8515   -54.7973    95.4877
  774.5000     7.4657     8.2554   135.2223   -55.0888    82.6835
  775.0000     7.6907     8.1832   133.8081   -55.5297    82.9817
  775.5000     7.7363     8.1863   133.7856   -56.2696    86.5931
  776.0000     7.7370     8.2644   134.5139   -57.1590    81.3190
  776.5000     7.7378     8.3424   129.9882   -57.9007    79.6594
  777.0000     7.7684     8.3454   129.2162   -58.1922    65.8010
  777.5000     7.7991     8.3484   129.1939   -57.7344    69.7137
  778.0000     7.8297     8.2763   129.9212   -57.2785    64.1384
  778.5000     7.9052     8.2042   129.8988   -57.2710    57.5089
  779.0000     7.9508     8.1321   132.1309   -57.2635    55.6994
  779.5000     7.9515     8.1352   133.6078   -57.4073    65.0330
  780.0000     7.8776     8.1382   133.5799   -58.2948    67.5902
  780.5000     7.7737     8.1412   132.8079   -58.5882    65.7800
  781.0000     7.6696     8.1442   132.0359   -58.4293    57.0420
  781.5000     7.6554     8.4475   129.0150   -58.2724    58.5451
  782.0000     7.7311     8.6757   123.7453   -58.2649    57.3372
  782.5000     7.8663     8.6799   120.7244   -58.2574    52.6656
  783.0000     8.1959     8.6817   121.4517   -58.1004    56.2770
  783.5000     8.4209     8.3839   126.6767   -56.5981    67.7193
  784.0000     8.4364     7.7079   149.8927   -56.1422    69.3729
  784.5000     8.2879     6.2062   166.3603   -55.9853    67.1109
  785.0000     7.9299     5.3879   192.5767   -55.8283    76.2954
  785.5000     7.1412     5.0899   206.7953   -55.5218    61.6832
  786.0000     6.0777     5.0210   206.0233   -55.3649    58.5175
  786.5000     5.5852     5.0991   206.0010   -55.5087    49.4784
  787.0000     5.8251     5.1772   205.9786   -56.0973    57.7585
  787.5000     5.8259     5.1802   204.4570   -56.6896    76.2796
  788.0000     5.7369     5.2653   202.1858   -56.3812    73.9712
  788.5000     6.4852     6.2605   183.4228   -55.3274    63.3218
  789.0000     7.6219     7.3168   159.4124   -55.4713    58.1983
  789.5000     8.5793     8.0636   131.6539   -55.6133    74.1592
  790.0000     9.0584     9.2242   109.1428   -55.6054    77.0184
  790.5000     9.2834     9.9279   103.8731   -55.5979    62.4062
  791.0000     9.5681     9.8557   102.3571   -55.5905    65.2646
  791.5000     9.7333     9.7837   106.8269   -55.5830    68.7255
  792.0000     9.7938     9.6365   109.0590   -55.7253    68.7225
  792.5000     9.7946     9.5644   109.7862   -55.7399    63.2978
  793.0000     9.7802     9.5676   109.7583   -56.0299    56.0659
  793.5000     9.7961     9.5712   108.2367   -56.9612    45.6713
  794.0000     9.8566     9.7243   106.7151   -58.9832    30.3069
  794.5000    10.2739    10.3279    99.1965   -59.7230    13.1352
  795.0000    11.0116    11.1567    96.1756   -59.8669     5.9033
  795.5000    11.6120    11.8354    91.6555   -60.4554     0.3280
  796.0000    12.8103    12.6642    84.8865   -61.4943    -6.3015
  796.5000    14.4571    13.8684    74.3694   -62.2342    -7.3588
  797.0000    15.5806    15.7483    64.6019   -64.6183    -6.3075
  797.5000    17.3021    16.8023    55.5841   -67.8993    -3.5989
  798.0000    19.9952    18.7573    50.3143   -70.7319    -1.4943
  798.5000    23.1367    20.4870    47.2935   -72.8189     7.8401
  799.0000    23.8866    21.3909    41.2741   -73.7064     9.4945
  799.5000    24.5618    21.4690    42.7510   -74.5958     6.6293
  800.0000    26.5075    21.3496    43.4783   -75.9340     8.8451
  800.5000    25.8373    20.7915    46.4452   -77.7128    11.4413
  801.0000    23.6724    20.0466    48.6468   -79.5127     9.6295
  801.5000    23.5248    19.5969    50.1177   -80.8534     6.9141
  802.0000    24.0511    19.1472    50.8295   -80.9985     9.0180
  802.5000    23.9789    17.9467    53.0311   -80.5455    13.8328
  803.0000    22.1877    17.2718    55.9918   -79.0462    21.3591
  803.5000    20.1722    16.6720    58.2028   -76.9490    16.2330
  804.0000    19.6509    16.4475    58.9241   -74.5528    20.7465
  804.5000    20.4014    16.2981    59.6359   -74.0999    15.4709
  805.0000    21.7492    16.2989    58.8390   -72.3017    12.6049
  805.5000    21.3033    16.5248    58.8011   -69.4571    14.8594
  806.0000    20.4837    16.7508    57.2640   -68.8558    10.1862
  806.5000    20.4862    17.0519    55.7346   -69.2997     2.9528
  807.0000    21.1614    17.8034    54.0832   -70.6394     2.9483
  807.5000    22.6586    18.4047    51.8239   -72.4286    11.5281
  808.0000    23.8569    19.1562    49.5055   -74.2178    15.7404
  808.5000    23.9342    20.0579    45.8070   -75.4091    16.3383
  809.0000    24.0862    21.0346    42.7982   -76.7499    16.6361
  809.5000    25.8076    22.2366    41.2666   -80.0339    16.7810
  810.0000    29.2479    22.9881    38.9799   -81.8231    26.5657
  810.5000    29.9224    23.5895    35.9436   -81.9692    20.5370
  811.0000    29.1034    24.1908    34.4065   -82.1130    16.1650
  811.5000    28.8811    24.4919    33.6190   -82.7064    16.7629
