~VERSION INFORMATION
 VERS.                2.0:   CWLS LOG ASCII STANDARD - VERSION 2.0
 WRAP.                 NO:   ONE LINE PER DEPTH STEP
~WELL INFORMATION
#MNEM.UNIT      DATA TYPE    INFORMATION
#----------   ------------   ------------------------------
 STRT.F           12.0000:   START DEPTH
 STOP.F          510.0000:   STOP DEPTH
 STEP.F            0.5000:   STEP LENGTH
 NULL.          -999.2500:   NO VALUE
 COMP. LAWRENCE-ALLISON &AS:   COMPANY
 WELL. NPR 3 #51-41SX10UP4:   WELL
 FLD .            NATRONA:   FIELD
 LOC .      S10 T38N R78W:   LOCATION
 CNTY.            NATRONA:   COUNTY
 STAT.            WYOMING:   STATE
 CTRY. UNITED STATES OF AMERICA:   COUNTRY
 SRVC.      Dresser Atlas:   SERVICE COMPANY
 DATE.        15-DEC-1984:   LOGDATE
 API .       490251100000:   API NUMBER
~CURVE INFORMATION
#MNEM.UNIT       API CODE    CURVE DESCRIPTION
#----------   ------------   ------------------------------
 DEPT.F                  :   
 RD  .OHMM   11 220 10 00:   RESISTIVITY DEEP
 RS  .OHMM   11 220 09 00:   RESISTIVITY SHALLOW
 SPR .MV     11 010 01 00:   SPONTANEOUS POTENTIAL FROM RES.
 DT  .US/F   60 520 00 00:   INTERVAL TRANSIT TIME
 CALD.IN     45 280 60 00:   CALIPER FROM DENSITY LOG
 CNC .DEC    42 890 00 00:   NEUTRON POROSITY
 CORR.G/C3   45 356 01 00:   DENSITY CORRECTION
 GRD .GAPI   45 310 01 00:   GAMMA RAY FROM DENSITY LOG
 PORD.DEC    45 890 00 00:   POROSITY DENSITY
 RHOB.G/C3   45 350 01 00:   BULK DENSITY
~PARAMETER INFORMATION
#MNEM.UNIT          VALUE    DESCRIPTION
#----------   ------------   ------------------------------
 PD  .                 GL:   PERMANENT DATUM
 EPD .F              5207:   ELEVATION PERMANENT DATUM
 LMF .                 GL:   LOG MEASURED FROM
 DMF .                 GL:   DRILLING MEASURED FROM
 EGL .F              5207:   GROUND LEVEL
 DATE.        15-DEC-1984:   RUN DATE
 RUN .                  1:   RUN NUMBER
 DD  .F               515:   DEPTH DRILLER
 DL  .F               511:   DEPTH LOGGER
 BLI .F               510:   BOTTOM LOG INTERVAL
 TLI .F                20:   TOP LOG INTERVAL
 CS  .IN            8.625:   CASING SIZE
 CBD .F                20:   CASING BOTTOM DRILLER
 CBL .F                20:   CASING BOTTOM LOGGER
 BS  .IN            7.875:   BIT SIZE
 BSD .F               515:   BIT SIZE AT DEPTH
 DFT .          KCL/WATER:   DRILLING FLUID TYPE
 MSS .           FLOWLINE:   MUD SAMPLE SOURCE
 RMS .OHMM           .129:   RESISTIVITY MUD SAMPLE
 MST .F                94:   MUD SAMPLE TEMPERATURE
 RMF .OHMM            .10:   RESISTIVITY MUD FILTRATE SAMPLE
 MFST.F                94:   MUD FILTRATE SAMPLE TEMPERATURE
 RMC .OHMM            .16:   RESISTIVITY MUD CAKE
 MCST.F                94:   MUD CAKE SAMPLE TEMPERATURE
 MFSS.               CALC:   MUD FILTRATE SAMPLE SOURCE
 MCSS.               CALC:   MUD CAKE SAMPLE SOURCE
 TCS .HRS               2:   TIME CURCULATED STOPPED
 MRT .F               100:   MAXIMUM RECORDED TEMPERATURE
 LUN .               6270:   LOGGING UNIT NUMBER
 LUL .                 FM:   LOGGING UNIT LOCATION
 ENGI.            LEBSOCK:   RECORDING ENGINEER
 WITN.          DAN LUERS:   WITNESSED BY
 CLNT.            A2DTECH:   CLIENT CODE
 ORIG.           5" PRINT:   ORIGIN OF DATA
 UWI .       490251100000:   UNIQUE WELL ID
 DICO. A2D Technologies, Inc.:   DIGITIZING COMPANY
~OTHER INFORMATION
~A   DEPT       RD         RS        SPR         DT       CALD          CNC     CORR         GRD      PORD       RHOB   
# ...
  213.0000    13.5504     8.9221   -69.5133   107.5935     7.8486     0.2704     0.0107   114.2738     0.1283     2.4619
  213.5000    13.9391     9.3688   -69.5019   106.3178     7.8491     0.2740     0.0123   114.4348     0.1234     2.4695
  214.0000    14.6391     9.4388   -69.4905   105.9477     7.8495     0.2794     0.0094   112.6699     0.1246     2.4718
  214.5000    15.0590     9.5752   -69.1832   105.8038     7.8500     0.2786     0.0035   106.0161     0.1255     2.4719
  215.0000    15.0762     9.6479   -69.3294   105.5094     7.8504     0.2727     0.0006   107.0692     0.1245     2.4727
  215.5000    15.0816     9.6530   -70.1930   105.5185     7.8508     0.2715     0.0037   110.9340     0.1221     2.4727
  216.0000    14.8847     9.6581   -71.2200   105.6767     7.8513     0.2798     0.0219   112.1288     0.1197     2.4751
  216.5000    14.7897     9.6633   -71.8003   106.1368     7.8518     0.2894     0.0160   110.9597     0.1235     2.4750
  217.0000    14.3988     9.6684   -71.7860   106.5214     7.8522     0.2909     0.0101   111.1208     0.1281     2.4694
  217.5000    14.2108     9.4037   -71.7746   107.0569     7.8526     0.2908     0.0072   113.2077     0.1319     2.4638
  218.0000    14.0251     8.9708   -71.3194   107.5925     7.8382     0.2860     0.0028   113.9614     0.1339     2.4595
  218.5000    13.6523     8.9139   -70.9842   107.8460     7.8387     0.2857     0.0014   110.2738     0.1345     2.4574
  219.0000    13.2893     8.8572   -70.4061   108.1371     7.8243     0.2881     0.0046   108.0644     0.1339     2.4576
  219.5000    12.9359     8.7404   -69.9509   108.3708     7.8248     0.2934     0.0126   109.2625     0.1314     2.4598
  220.0000    12.5074     8.6263   -69.9395   108.9064     7.8252     0.2976     0.0410   110.4605     0.1254     2.4658
  220.5000    12.0910     8.5125   -69.9281   109.3665     7.8256     0.3003     0.0426   110.4734     0.1254     2.4681
  221.0000    11.6081     8.4002   -69.4729   109.8266     7.8261     0.3098     0.0412   110.3382     0.1316     2.4675
  221.5000    11.2994     8.2895   -69.3135   110.4430     7.8265     0.3206     0.0383   111.4179     0.1382     2.4548
  222.0000    10.5998     7.8492   -69.3018   112.5599     7.8121     0.3362     0.0294   115.9407     0.1457     2.4436
  222.5000     9.0731     7.0321   -69.2878   115.5860     7.7978     0.3389     0.0175   116.7472     0.1517     2.4354
  223.0000     7.3298     5.7195   -68.9806   119.6688     7.8131     0.3301     0.0069   117.0596     0.1624     2.4257
  223.5000     6.7515     5.1953   -68.8212   120.8836     7.8283     0.3118     0.0026   120.0354     0.1891     2.3995
  224.0000     6.7084     4.8495   -68.6619   120.4380     7.8288     0.2926     0.0600   121.2335     0.2020     2.3666
  224.5000     6.7139     4.9220   -68.6505   116.9661     7.8144     0.2751     0.0571   121.2464     0.1996     2.3487
  225.0000     7.7132     5.6538   -68.6391   112.8176     7.8296     0.2727     0.0256   120.0741     0.1794     2.3704
  225.5000    10.0964     7.2031   -68.6272   107.8578     7.8152     0.2799    -0.0029   117.3378     0.1599     2.4069
  226.0000    11.9342     8.5648   -68.4654   106.9576     7.8306     0.2852    -0.0088   111.2142     0.1400     2.4441
  226.5000    12.3616     8.9936   -68.3061   107.1931     7.8458     0.2804    -0.0055   109.4461     0.1358     2.4517
  227.0000    12.4555     9.0608   -68.1467   107.6532     7.8611     0.2756     0.0065   110.6473     0.1358     2.4525
  227.5000    12.4638     9.1285   -68.1353   107.9624     7.8615     0.2809     0.0247   113.9195     0.1357     2.4503
  228.0000    12.3861     9.1345   -67.9760   108.1208     7.8619     0.2794     0.0188   118.9694     0.1357     2.4504
  228.5000    12.4828     9.0752   -67.9645   107.9787     7.8772     0.2767     0.0069   120.7601     0.1381     2.4496
  229.0000    12.7523     9.0813   -67.9503   107.6841     7.8777     0.2803     0.0065   118.2964     0.1392     2.4505
  229.5000    13.1181     9.1491   -67.9389   107.0121     7.8632     0.2898     0.0131   113.6779     0.1380     2.4505
  230.0000    13.4016     9.4755   -67.9275   106.6402     7.8637     0.2946     0.0193   110.7246     0.1380     2.4529
  230.5000    13.5034     9.8815   -67.9161   106.4983     7.8642     0.2927     0.0209   113.4074     0.1391     2.4507
  231.0000    13.5124     9.8881   -67.9046   106.4267     7.8498     0.2849     0.0195   116.0870     0.1391     2.4500
  231.5000    13.5214     9.9619   -67.8932   106.3619     7.8194     0.2837     0.0091   119.0628     0.1391     2.4509
  232.0000    13.5305    10.0362   -67.8817   106.3710     7.8062     0.3017    -0.0043   120.4148     0.1354     2.4555
  232.5000    13.5417    10.0416   -67.8675   106.3782     7.8067     0.3092     0.0003   116.2001     0.1315     2.4592
  233.0000    13.3649    10.1165   -67.8561   106.5364     7.8220     0.3091     0.0080   114.9533     0.1324     2.4600
  233.5000    13.1882    10.1920   -67.8447   106.6946     7.8372     0.3043     0.0141   113.7842     0.1341     2.4585
  234.0000    12.9286    10.1976   -67.8333   107.0038     7.8376     0.3000     0.0097   112.6087     0.1329     2.4586
  234.5000    12.8460     9.6559   -67.6740   107.3348     7.8381     0.2931     0.0083   112.6248     0.1307     2.4602
  235.0000    12.5932     9.3966   -67.3667   107.9258     7.8386     0.2919     0.0084   116.6377     0.1304     2.4602
  235.5000    12.5149     9.1455   -67.3550   108.2349     7.8538     0.2883     0.0206   116.9644     0.1313     2.4573
  236.0000    12.6121     9.1516   -67.4889   108.8460     7.8394     0.2810     0.0268   116.2190     0.1340     2.4544
  236.5000    12.5315     9.2199   -67.4775   109.0042     7.8399     0.2792     0.0207   118.1610     0.1351     2.4552
  237.0000    12.5420     9.4179   -67.6140   108.8604     7.8255     0.2798     0.0089   119.2077     0.1357     2.4560
  237.5000    12.5503     9.4884   -67.7534   108.6352     7.8111     0.2809     0.0030   117.4461     0.1339     2.4576
  238.0000    12.5587     9.5603   -67.7391   108.4240     7.8116     0.2749     0.0062   119.2367     0.1290     2.4666
  238.5000    12.5671     9.5653   -68.1715   108.5822     7.8121     0.2773     0.0138   122.2126     0.1248     2.4682
  239.0000    12.5757     9.5704   -68.8997   108.8914     7.8125     0.2812     0.0154   122.8180     0.1250     2.4682
  239.5000    12.4972     9.5096   -69.4800   109.5024     7.8129     0.2832     0.0035   120.1467     0.1265     2.4653
  240.0000    12.4195     9.4492   -69.4657   110.1135     7.8134     0.2874     0.0070   122.2544     0.1298     2.4609
  240.5000    12.2574     9.3136   -69.4543   110.4244     7.8138     0.3159     0.0339   122.8599     0.1313     2.4609
  241.0000    11.9314     8.7083   -69.4429   111.3373     7.8142     0.3335     0.0340   123.4654     0.1288     2.4610
  241.5000    10.9919     8.0202   -69.1356   113.4578     7.8147     0.3410     0.0341   124.0708     0.1300     2.4573
  242.0000    10.1246     7.7521   -68.8284   116.1821     7.8152     0.3401     0.0342   124.0837     0.1384     2.4381
  242.5000     9.8466     7.5963   -68.4812   117.6987     7.8156     0.3302     0.0178   122.3188     0.1539     2.4170
  243.0000     9.8636     7.6013   -68.2110   118.3098     7.8160     0.3151    -0.0137   118.0178     0.1575     2.4163
  243.5000    10.2169     7.8183   -67.9037   118.2416     7.8165     0.3124    -0.0257   117.6039     0.1574     2.4231
  244.0000    10.9545     8.2669   -67.5964   115.7041     7.8169     0.3229     0.0031   121.1755     0.1502     2.4336
  244.5000    11.0377     8.5038   -67.8837   114.7089     7.8174     0.3300     0.0047   121.7810     0.1442     2.4375
  245.0000    10.7442     8.1631   -68.1657   114.7180     7.8178     0.3336    -0.0012   121.7939     0.1430     2.4368
  245.5000    10.0981     7.6226   -68.1539   116.5366     7.8331     0.3363    -0.0071   122.1031     0.1444     2.4256
  246.0000     7.0377     6.1148   -68.7342   121.3740     7.8335     0.3380    -0.0070   122.4122     0.1525     2.3925
