~VERSION INFORMATION
 VERS.                2.0:   CWLS LOG ASCII STANDARD - VERSION 2.0
 WRAP.                 NO:   ONE LINE PER DEPTH STEP
~WELL INFORMATION
#MNEM.UNIT      DATA TYPE    INFORMATION
#----------   ------------   ------------------------------
 STRT.F           13.0000:   START DEPTH
 STOP.F          508.0000:   STOP DEPTH
 STEP.F            0.5000:   STEP LENGTH
 NULL.          -999.2500:   NO VALUE
 COMP. LAWRENCE/ALLISON INC:   COMPANY
 WELL.    51-35 SX #10-10:   WELL
 FLD .             TEAPOT:   FIELD
 LOC .      S10 T38N R78W:   LOCATION
 CNTY.            NATRONA:   COUNTY
 STAT.            WYOMING:   STATE
 CTRY. UNITED STATES OF AMERICA:   COUNTRY
 SRVC.       Schlumberger:   SERVICE COMPANY
 DATE.        26-FEB-1988:   LOGDATE
 API .       490251115500:   API NUMBER
~CURVE INFORMATION
#MNEM.UNIT       API CODE    CURVE DESCRIPTION
#----------   ------------   ------------------------------
 DEPT.F                  :   
 GRR .GAPI   07 310 01 00:   GAMMA RAY
 RILD.OHMM   07 120 46 00:   INDUCTION LOG DEEP RESISTIVITY
 RILM.OHMM   07 120 44 00:   RESITIVITY LONG MEDIUM
~PARAMETER INFORMATION
#MNEM.UNIT          VALUE    DESCRIPTION
#----------   ------------   ------------------------------
 PD  .                 GL:   PERMANENT DATUM
 EPD .F              5181:   ELEVATION PERMANENT DATUM
 LMF .                 KB:   LOG MEASURED FROM
 DAPD.F                 8:   FEET ABOVE PERMANENT DATUM
 DMF .                 KB:   DRILLING MEASURED FROM
 EKB .F              5189:   KELLING BUSHING
 EDF .F              5188:   DRILLING FLOOR
 EGL .F              5181:   GROUND LEVEL
 DATE.        26-FEB-1988:   RUN DATE
 RUN .                  1:   RUN NUMBER
 DD  .F               458:   DEPTH DRILLER
 DL  .F               440:   DEPTH LOGGER
 BLI .F               430:   BOTTOM LOG INTERVAL
 TLI .F               140:   TOP LOG INTERVAL
 CS  .IN            8.625:   CASING SIZE
 CBD .F                46:   CASING BOTTOM DRILLER
 CBL .F                46:   CASING BOTTOM LOGGER
 BSD .F               458:   BIT SIZE AT DEPTH
 DFT .          WATER/AIR:   DRILLING FLUID TYPE
 BHT .F               172:   BOTTOM HOLE TEMPERATURE
 TLAB.HRS            0830:   TIME LOGGER AT BOTTOM
 MRT .F               172:   MAXIMUM RECORDED TEMPERATURE
 LUN .               8256:   LOGGING UNIT NUMBER
 LUL .             CASPER:   LOGGING UNIT LOCATION
 ENGI.      PREISLER/FINK:   RECORDING ENGINEER
 WITN.               LOWE:   WITNESSED BY
 CLNT.            A2DTECH:   CLIENT CODE
 ORIG.           5" PRINT:   ORIGIN OF DATA
 UWI .       490251115500:   UNIQUE WELL ID
 DICO. A2D Technologies, Inc.:   DIGITIZING COMPANY
~OTHER INFORMATION
~A   DEPT       GRR      RILD       RILM   
   13.0000    84.3960  -999.2500  -999.2500
   13.5000    85.0980  -999.2500  -999.2500
   14.0000    86.8486  -999.2500  -999.2500
   14.5000    87.7738  -999.2500  -999.2500
   15.0000    88.3942  -999.2500  -999.2500
   15.5000    89.0145  -999.2500  -999.2500
   16.0000    89.9397  -999.2500  -999.2500
   16.5000    91.4747  -999.2500  -999.2500
   17.0000    93.6194  -999.2500  -999.2500
   17.5000    94.8497  -999.2500  -999.2500
   18.0000    92.4237  -999.2500  -999.2500
   18.5000    88.1660  -999.2500  -999.2500
   19.0000    87.2593  -999.2500  -999.2500
   19.5000    86.9677  -999.2500  -999.2500
   20.0000    85.4538  -999.2500  -999.2500
   20.5000    83.9374  -999.2500  -999.2500
   21.0000    83.9199  -999.2500  -999.2500
   21.5000    86.4104  -999.2500  -999.2500
   22.0000    88.5860  -999.2500  -999.2500
   22.5000    89.4728  -999.2500  -999.2500
   23.0000    89.7883  -999.2500  -999.2500
   23.5000    89.7988  -999.2500  -999.2500
   24.0000    87.0655  -999.2500  -999.2500
   24.5000    83.1127  -999.2500  -999.2500
   25.0000    84.0379  -999.2500  -999.2500
   25.5000    87.7070  -999.2500  -999.2500
   26.0000    91.7422  -999.2500  -999.2500
   26.5000    93.8284  -999.2500  -999.2500
   27.0000    93.8390  -999.2500  -999.2500
   27.5000    92.6300  -999.2500  -999.2500
   28.0000    89.5918  -999.2500  -999.2500
   28.5000    85.6390  -999.2500  -999.2500
   29.0000    84.1225  -999.2500  -999.2500
   29.5000    85.0504  -999.2500  -999.2500
   30.0000    86.2805  -999.2500  -999.2500
   30.5000    87.2416  -999.2500  -999.2500
   31.0000    88.1336  -999.2500  -999.2500
   31.5000    89.3637  -999.2500  -999.2500
   32.0000    91.2035  -999.2500  -999.2500
   32.5000    92.4336  -999.2500  -999.2500
   33.0000    93.6637  -999.2500  -999.2500
   33.5000    94.8938  -999.2500  -999.2500
   34.0000    95.8190  -999.2500  -999.2500
   34.5000    95.5096  -999.2500  -999.2500
   35.0000    92.3345  -999.2500  -999.2500
   35.5000    88.2288  -999.2500  -999.2500
   36.0000    91.2908  -999.2500  -999.2500
   36.5000    94.6550  -999.2500  -999.2500
   37.0000    95.2727  -999.2500  -999.2500
   37.5000    91.9323  -999.2500  -999.2500
   38.0000    87.6746  -999.2500  -999.2500
   38.5000    84.6364  -999.2500  -999.2500
   39.0000    85.9887  -999.2500  -999.2500
   39.5000    91.6724  -999.2500  -999.2500
   40.0000    93.2073  -999.2500  -999.2500
   40.5000    92.6082  -999.2500  -999.2500
   41.0000    91.7015  -999.2500  -999.2500
   41.5000    90.4952  -999.2500  -999.2500
   42.0000    88.9814  -999.2500  -999.2500
   42.5000    88.6614  -999.2500  -999.2500
   43.0000    89.9376  -999.2500  -999.2500
   43.5000    93.1141  -999.2500  -999.2500
   44.0000    96.9532  -999.2500  -999.2500
   44.5000   100.3174  -999.2500  -999.2500
   45.0000   103.3768  -999.2500  -999.2500
   45.5000   105.8264  -999.2500  -999.2500
   46.0000   103.0930  -999.2500  -999.2500
   46.5000    94.5670  -999.2500  -999.2500
   47.0000    90.6142  -999.2500  -999.2500
   47.5000    90.0150  -999.2500  -999.2500
   48.0000    93.3819  -999.2500  -999.2500
   48.5000    95.5266  -999.2500  -999.2500
   49.0000    93.0982    23.6031   932.9655
   49.5000    91.8893    18.5670   687.0693
   50.0000    97.3876    13.5309   441.1732
   50.5000   108.0689     6.2816   195.2770
   51.0000   118.1405     4.4321    69.3776
   51.5000   121.2050     3.6460    14.3525
   52.0000   122.4303     3.6978     5.0208
   52.5000   123.6627     6.4629     4.3964
   53.0000   121.2343    11.7429     4.6185
   53.5000   113.9278    16.8154     6.2434
   54.0000   109.9749    12.8111     6.8911
   54.5000   109.0682     9.6250     7.5094
   55.0000   112.1302     8.0292     7.7643
   55.5000   113.6652     7.3853     7.7122
   56.0000   112.4563     7.5954     7.2939
   56.5000   113.9939     8.0887     6.8502
   57.0000   114.3067     8.5615     6.7091
   57.5000   113.7075     9.0468     6.8539
   58.0000   114.6354     9.0481     7.0532
   58.5000   117.3899     8.9861     7.3711
   59.0000   117.7053     8.8011     7.7817
   59.5000   116.4961     8.5600     8.1179
   60.0000   116.8119     8.4425     8.2925
   60.5000   118.6876     8.5031     8.3531
   61.0000   120.1893     8.6266     8.3553
   61.5000   121.4194     8.8074     8.3576
   62.0000   122.6495     8.8088     8.3599
   62.5000   123.5747     8.8100     8.3622
   63.0000   123.8902     8.8112     8.3650
   63.5000   122.9861     8.8124     8.3673
   64.0000   119.9479     8.8136     8.3695
   64.5000   116.2544     8.8148     8.3718
   65.0000   111.2805     8.8160     8.3151
   65.5000   108.7018     8.8172     8.3179
   66.0000   111.7612     8.8185     8.3202
   66.5000   115.7352     8.8199     8.3230
   67.0000   117.2701     8.8211     8.2671
   67.5000   116.6710     8.8840     8.2111
   68.0000   114.8523     9.0101     8.1560
   68.5000   115.4726     9.0744     8.1013
   69.0000   114.7822     9.1405     8.0469
   69.5000   111.2281     9.3338     8.1632
   70.0000   109.7143     9.5996     8.3428
   70.5000   107.5907     9.6681     8.6389
   71.0000   107.2938     9.8053     8.8248
   71.5000   109.4412     9.9445     8.8892
   72.0000   111.8908    10.1562     9.1443
   72.5000   115.5599    10.4451     9.4066
   73.0000   110.0523    10.6679     9.7445
   73.5000   105.7339    10.9809     9.9542
   74.0000   111.6309    11.2048    10.1684
   74.5000   118.0439    11.4434    10.2432
   75.0000   121.7130    11.6870    10.4636
   75.5000   120.1992    11.9359    10.7638
   76.0000   112.2829    12.1052    11.0726
   76.5000   106.8057    12.2770    11.3108
   77.0000   101.9382    12.3646    11.4735
   77.5000    99.1543    12.5504    11.6385
   78.0000    98.6057    12.7185    11.9046
   78.5000   101.9726    12.8990    12.2308
   79.0000   103.2027    13.0820    12.4939
   79.5000   103.8231    13.0838    12.6736
   80.0000   103.8336    13.2694    12.6771
   80.5000   102.6247    13.1789    12.8594
   81.0000   102.0253    13.1807    12.8629
   81.5000   102.6612    13.0908    12.8664
   82.0000   105.1771    12.8214    12.7706
   82.5000   101.4502    12.6454    12.5177
   83.0000    98.1071    12.4719    12.2616
   83.5000    94.4591    12.3868    12.1785
   84.0000    95.6892    12.3024    11.8461
   84.5000   100.5778    12.3045    11.6844
   85.0000   101.6550    12.3061    11.5249
   85.5000    97.8551    12.3078    11.4477
   86.0000    95.1016    12.3099    11.5314
   86.5000    94.5226    12.3115    11.5352
   87.0000    98.4992    12.2272    11.6194
   87.5000   102.4732    12.1438    11.8694
   88.0000   105.5326    12.0610    11.8726
   88.5000   104.9334    12.0630    11.8758
   89.0000   102.5050    12.0647    11.8791
   89.5000   100.0765    11.9824    11.7994
   90.0000    98.2578    11.9844    11.5572
   90.5000    96.7088    11.8200    11.3207
   91.0000    96.4497    11.7390    11.0883
   91.5000    97.9873    11.6593    10.9363
   92.0000   100.1321    11.4993    10.6378
   92.5000    99.5329    11.4205    10.4926
   93.0000    98.9311    11.4224    10.4955
   93.5000   102.6028    11.3396    10.4251
   94.0000   105.9671    11.0342    10.4280
   94.5000   105.3071    10.8070    10.4314
   95.0000   100.3992    10.7333    10.5076
   95.5000   101.4283    10.7348    10.4364
   96.0000   106.6218    10.7363    10.3671
   96.5000   110.8980    10.7377    10.3699
   97.0000   105.7283    10.7392    10.3002
   97.5000   102.6901    10.6622    10.2288
   98.0000   101.4808    10.5195    10.0916
   98.5000   105.4552    10.3755    10.0246
   99.0000   109.5209    10.2328     9.8878
   99.5000   112.4912    10.2345     9.8208
  100.0000   103.6603    10.1647     9.8241
  100.5000    97.8782    10.0954     9.7576
  101.0000    93.9254     9.9568     9.7609
  101.5000    94.8506     9.8890     9.7636
  102.0000   102.4831     9.8107     9.7782
  102.5000   105.8474     9.7546     9.8382
  103.0000   106.7726     9.6880     9.8408
  103.5000   104.2530     9.7575     9.8435
