~VERSION INFORMATION
 VERS.                2.0:   CWLS LOG ASCII STANDARD - VERSION 2.0
 WRAP.                 NO:   ONE LINE PER DEPTH STEP
~WELL INFORMATION
#MNEM.UNIT      DATA TYPE    INFORMATION
#----------   ------------   ------------------------------
 STRT.F           30.0000:   START DEPTH
 STOP.F          580.0000:   STOP DEPTH
 STEP.F            0.5000:   STEP LENGTH
 NULL.          -999.2500:   NO VALUE
 COMP. FENIX & SCISSON INC:   COMPANY
 WELL.      87 SX 3 #87-3:   WELL
 FLD .             TEAPOT:   FIELD
 LOC .       S3 T38N R78W:   LOCATION
 CNTY.            NATRONA:   COUNTY
 STAT.            WYOMING:   STATE
 CTRY. UNITED STATES OF AMERICA:   COUNTRY
 SRVC.            Unknown:   SERVICE COMPANY
 DATE.        16-NOV-1978:   LOGDATE
 API .       490251074200:   API NUMBER
~CURVE INFORMATION
#MNEM.UNIT       API CODE    CURVE DESCRIPTION
#----------   ------------   ------------------------------
 DEPT.F                  :   
 CALD.IN     45 280 60 00:   CALIPER
 GRD .GAPI   45 310 01 00:   GAMMA RAY FROM DENSITY LOG
 RHOB.G/C3   45 350 01 00:   BULK DENSITY
 DPHI.DEC    45 890 12 00:   DENSITY POROSITY SANDSTONE
 CORR.G/C3   45 356 01 00:   DENSITY CORRECTION
 SFL .OHMM   05 221 01 00:   AMP. SHALLOW FOCUSED LOG RESISTIVITY
 ILD .OHMM   05 120 46 00:   INDUCTION LOG DEEP
 SPR .MV     05 010 01 00:   SPONTANEOUS POTENTIAL FROM RES.
~PARAMETER INFORMATION
#MNEM.UNIT          VALUE    DESCRIPTION
#----------   ------------   ------------------------------
 PD  .                 GL:   PERMANENT DATUM
 EPD .F              5120:   ELEVATION PERMANENT DATUM
 LMF .                 KB:   LOG MEASURED FROM
 DAPD.F                 4:   FEET ABOVE PERMANENT DATUM
 DMF .                 KB:   DRILLING MEASURED FROM
 EKB .F              5124:   KELLING BUSHING
 EGL .F              5120:   GROUND LEVEL
 DATE.           11-16-78:   RUN DATE
 RUN .                  1:   RUN NUMBER
 DD  .F               580:   DEPTH DRILLER
 DL  .F               574:   DEPTH LOGGER
 BLI .F               574:   BOTTOM LOG INTERVAL
 TLI .F                50:   TOP LOG INTERVAL
 CS  .IN            8.625:   CASING SIZE
 CBD .F                50:   CASING BOTTOM DRILLER
 CBL .F                50:   CASING BOTTOM LOGGER
 BS  .IN            7.875:   BIT SIZE
 BSD .F               580:   BIT SIZE AT DEPTH
 DFT .            SEA MUD:   DRILLING FLUID TYPE
 DFD .                8.7:   DRILLING FLUID DENSITY
 DFV .                 54:   DRILLING FLUID VISCOSITY
 DFPH.                9.8:   DRILLING FLUID PH
 MSS .           FLOWLINE:   MUD SAMPLE SOURCE
 RMS .OHMM            1.1:   RESISTIVITY MUD SAMPLE
 MST .F                56:   MUD SAMPLE TEMPERATURE
 RMF .OHMM             .9:   RESISTIVITY MUD FILTRATE SAMPLE
 MFST.F                60:   MUD FILTRATE SAMPLE TEMPERATURE
 RMC .OHMM            .95:   RESISTIVITY MUD CAKE
 MCST.F                60:   MUD CAKE SAMPLE TEMPERATURE
 MFSS.           MEASURED:   MUD FILTRATE SAMPLE SOURCE
 MCSS.           MEASURED:   MUD CAKE SAMPLE SOURCE
 RMB .OHMM            .93:   RESISTIVITY MUD AT BHT
 BHT .F                66:   BOTTOM HOLE TEMPERATURE
 TCS .HRS               1:   TIME CURCULATED STOPPED
 MRT .F                66:   MAXIMUM RECORDED TEMPERATURE
 LUN .               2958:   LOGGING UNIT NUMBER
 LUL .                CPR:   LOGGING UNIT LOCATION
 ENGI.             MILLER:   RECORDING ENGINEER
 WITN.           DINSMORE:   WITNESSED BY
 CLNT.            A2DTECH:   CLIENT CODE
 ORIG.       2", 5" PRINT:   ORIGIN OF DATA
 UWI .       490251074200:   UNIQUE WELL ID
 DICO. A2D Technologies, Inc.:   DIGITIZING COMPANY
~OTHER INFORMATION
~A   DEPT     CALD         GRD      RHOB       DPHI       CORR        SFL        ILD        SPR   
   30.0000  -999.2500    77.1287  -999.2500  -999.2500  -999.2500  -999.2500  -999.2500  -999.2500
   30.5000  -999.2500    77.1287  -999.2500  -999.2500  -999.2500  -999.2500  -999.2500  -999.2500
   31.0000  -999.2500    77.1287  -999.2500  -999.2500  -999.2500  -999.2500  -999.2500  -999.2500
   31.5000  -999.2500    77.4139  -999.2500  -999.2500  -999.2500  -999.2500  -999.2500  -999.2500
   32.0000  -999.2500    78.0157  -999.2500  -999.2500  -999.2500  -999.2500  -999.2500  -999.2500
   32.5000  -999.2500    78.5850  -999.2500  -999.2500  -999.2500  -999.2500  -999.2500  -999.2500
   33.0000  -999.2500    80.2145  -999.2500  -999.2500  -999.2500  -999.2500  -999.2500  -999.2500
   33.5000  -999.2500    81.9910  -999.2500  -999.2500  -999.2500  -999.2500  -999.2500  -999.2500
   34.0000  -999.2500    82.3001  -999.2500  -999.2500  -999.2500  -999.2500  -999.2500  -999.2500
   34.5000  -999.2500    80.5004  -999.2500  -999.2500  -999.2500  -999.2500  -999.2500  -999.2500
   35.0000  -999.2500    77.6853  -999.2500  -999.2500  -999.2500  -999.2500  -999.2500  -999.2500
   35.5000  -999.2500    75.9523  -999.2500  -999.2500  -999.2500  -999.2500  -999.2500  -999.2500
   36.0000  -999.2500    76.9287  -999.2500  -999.2500  -999.2500  -999.2500  -999.2500  -999.2500
   36.5000  -999.2500    76.6292  -999.2500  -999.2500  -999.2500  -999.2500  -999.2500  -999.2500
   37.0000  -999.2500    74.8650  -999.2500  -999.2500  -999.2500  -999.2500  -999.2500  -999.2500
   37.5000  -999.2500    73.3200  -999.2500  -999.2500  -999.2500  -999.2500  -999.2500  -999.2500
   38.0000  -999.2500    74.0994  -999.2500  -999.2500  -999.2500  -999.2500  -999.2500  -999.2500
   38.5000  -999.2500    75.5154  -999.2500  -999.2500  -999.2500  -999.2500  -999.2500  -999.2500
   39.0000  -999.2500    77.9053  -999.2500  -999.2500  -999.2500  -999.2500  -999.2500  -999.2500
   39.5000  -999.2500    79.7496  -999.2500  -999.2500  -999.2500  -999.2500  -999.2500  -999.2500
   40.0000  -999.2500    78.8927  -999.2500  -999.2500  -999.2500  -999.2500  -999.2500  -999.2500
   40.5000  -999.2500    77.7672  -999.2500  -999.2500  -999.2500  -999.2500  -999.2500  -999.2500
   41.0000  -999.2500    76.6292  -999.2500  -999.2500  -999.2500  -999.2500  -999.2500  -999.2500
   41.5000  -999.2500    75.4738  -999.2500  -999.2500  -999.2500  -999.2500  -999.2500  -999.2500
   42.0000  -999.2500    76.4177  -999.2500  -999.2500  -999.2500  -999.2500  -999.2500  -999.2500
   42.5000  -999.2500    77.9870  -999.2500  -999.2500  -999.2500  -999.2500  -999.2500  -999.2500
   43.0000  -999.2500    79.4879  -999.2500  -999.2500  -999.2500  -999.2500  -999.2500  -999.2500
   43.5000  -999.2500    79.8556  -999.2500  -999.2500  -999.2500  -999.2500  -999.2500  -999.2500
   44.0000  -999.2500    79.8260  -999.2500  -999.2500  -999.2500  -999.2500  -999.2500  -999.2500
   44.5000  -999.2500    79.4234  -999.2500     0.0681  -999.2500  -999.2500  -999.2500  -999.2500
   45.0000  -999.2500    79.0176     2.5859     0.0685  -999.2500  -999.2500  -999.2500  -999.2500
   45.5000  -999.2500    78.5551     2.5817     0.0688    -0.1522  -999.2500  -999.2500  -999.2500
   46.0000  -999.2500    78.0957     2.5745     0.0762    -0.1519  -999.2500  -999.2500  -999.2500
   46.5000  -999.2500    77.6498     2.5689     0.0855    -0.1516  -999.2500  -999.2500  -999.2500
   47.0000  -999.2500    76.2198     2.5373     0.0952    -0.1514  -999.2500  -999.2500  -999.2500
   47.5000  -999.2500    74.5219     2.5146     0.1115    -0.1511  -999.2500  -999.2500  -999.2500
   48.0000  -999.2500    72.7645     2.4845     0.1405    -0.1508  -999.2500  -999.2500  -999.2500
   48.5000  -999.2500    72.2871     2.4097     0.1796    -0.1506  -999.2500  -999.2500  -999.2500
   49.0000  -999.2500    72.0976     2.3350     0.2188    -0.1425  -999.2500  -999.2500  -999.2500
   49.5000  -999.2500    71.5796     2.2371     0.2615    -0.1304  -999.2500  -999.2500  -999.2500
   50.0000  -999.2500    72.1863     2.2468     0.2613    -0.0740    19.7256     6.9668    -9.2262
   50.5000     7.1386    76.0128     2.3339     0.1920    -0.0144    19.7256     6.9668    -9.2262
   51.0000     7.1892    86.3368     2.3952     0.1737     0.0066    19.7256     6.9668    -9.2262
   51.5000     7.2453    97.4742     2.3955     0.1733     0.0086    19.8787     7.0085    -9.2262
   52.0000     7.2901   105.2934     2.3972     0.1727     0.0095    19.7256     6.9668    -9.2259
   52.5000     7.3461   105.0515     2.3978     0.1717     0.0097    19.7599     6.9643    -9.2263
   53.0000     7.4072   104.6127     2.4001     0.1697     0.0099    19.8624     6.9687    -9.2248
   53.5000     7.4924   104.1666     2.4038     0.1676     0.0101    19.7256     6.9668    -9.4666
   54.0000     7.6038   103.8906     2.4075     0.1656     0.0104     7.0312     8.2991    -9.9217
   54.5000     7.7381   103.6926     2.4113     0.1639     0.0106     8.3174     7.5596   -10.0843
   55.0000     7.8349   105.4916     2.4120     0.1655     0.0108     6.4719     6.8396   -10.1728
   55.5000     7.8380   107.5236     2.4081     0.1675     0.0110     8.8992     6.7360   -10.2590
   56.0000     7.8430   107.7773     2.4039     0.1695     0.0112    11.5619     6.6841   -10.3454
   56.5000     7.8481   108.7720     2.3998     0.1715     0.0114     8.4469     6.6532   -10.4107
   57.0000     7.8667   110.0675     2.3957     0.1735     0.0116     5.5851     6.8337   -10.3598
   57.5000     7.9779   111.3778     2.3953     0.1747     0.0167    13.7731     6.9656   -10.3107
   58.0000     8.0154   111.6596     2.4082     0.1646     0.0305     6.1239     7.1000   -10.2620
   58.5000     8.0555   109.2517     2.4210     0.1543     0.0413     7.5452     7.2371   -10.2133
   59.0000     8.0927   106.8121     2.4315     0.1520     0.0389     8.3759     7.3766   -10.1646
   59.5000     8.1311   104.3542     2.4307     0.1540     0.0368     7.3756     7.5191   -10.1152
   60.0000     8.1375   103.4801     2.4271     0.1560     0.0347     6.9029     7.6498   -10.0635
   60.5000     8.1180   102.6522     2.4255     0.1554     0.0351    11.1972     7.7751   -10.0389
   61.0000     8.0982   102.5345     2.4276     0.1543     0.0399    13.4031     7.9025   -10.5290
   61.5000     8.0785   102.6119     2.4311     0.1485     0.0573     7.2707     8.0319   -11.0297
   62.0000     8.0344   102.7340     2.4484     0.1428     0.0852     9.7186     8.0729   -11.4176
   62.5000     7.9707    99.9742     2.4546     0.1408     0.1125    14.3559     8.0146   -11.4098
   63.0000     7.9067    96.3531     2.4400     0.1505     0.1396     7.2951     7.9754   -11.4090
   63.5000     7.8102    94.8160     2.4281     0.1554     0.1664    10.1924     7.9257   -11.4072
   64.0000     7.7028    97.2676     2.4178     0.1591     0.1983    14.2092     7.9786   -11.3194
   64.5000     7.5953   100.6034     2.4543     0.1266     0.2295    11.1648     8.0530   -11.1253
   65.0000     7.4873   103.1700     2.4794     0.1228     0.2402     9.2540     8.1281   -10.9327
   65.5000     7.3751   105.2308     2.4670     0.1361     0.1913    10.0048     8.2039   -10.7392
   66.0000     7.3701   107.4564     2.4485     0.1465     0.1255    10.5446     8.2804   -10.5458
   66.5000     7.3876   108.3436     2.4349     0.1559     0.0630     7.3626     8.3577   -10.3554
   67.0000     7.4390   108.2665     2.4263     0.1591     0.0254     8.9660     8.4356   -10.2134
   67.5000     7.5145   107.5490     2.4236     0.1590     0.0140    11.0415     8.5316   -10.2131
   68.0000     7.5901   104.8567     2.4265     0.1557     0.0089     8.4534     8.5241   -10.2444
   68.5000     7.6650   101.1089     2.4291     0.1536     0.0053     9.0934     8.5145   -11.4589
   69.0000     7.7130    98.6405     2.4291     0.1542     0.0052     8.7740     8.5049   -15.0772
   69.5000     7.7150    98.5928     2.4292     0.1549     0.0049     8.3135     8.4954   -14.7531
   70.0000     7.8100    99.0820     2.4298     0.1555     0.0047    12.1078     8.4858   -13.9609
