~VERSION INFORMATION
 VERS.                2.0:   CWLS LOG ASCII STANDARD - VERSION 2.0
 WRAP.                 NO:   ONE LINE PER DEPTH STEP
~WELL INFORMATION
#MNEM.UNIT      DATA TYPE    INFORMATION
#----------   ------------   ------------------------------
 STRT.F           10.0000:   START DEPTH
 STOP.F          519.0000:   STOP DEPTH
 STEP.F            0.5000:   STEP LENGTH
 NULL.          -999.2500:   NO VALUE
 COMP. LAWRENCE/ALLISON INC:   COMPANY
 WELL.     56-16 SX #56-3:   WELL
 FLD .             TEAPOT:   FIELD
 LOC .       S3 T38N R78W:   LOCATION
 CNTY.            NATRONA:   COUNTY
 STAT.            WYOMING:   STATE
 CTRY. UNITED STATES OF AMERICA:   COUNTRY
 SRVC.           Gearhart:   SERVICE COMPANY
 DATE.        02-AUG-1987:   LOGDATE
 API .       490251115700:   API NUMBER
~CURVE INFORMATION
#MNEM.UNIT       API CODE    CURVE DESCRIPTION
#----------   ------------   ------------------------------
 DEPT.F                  :   
 GRR .GAPI   07 310 01 00:   GAMMA RAY
 ILD .OHMM   07 120 46 00:   INDUCTION LOG DEEP
 ILM .OHMM   07 120 44 00:   INDUCTION LOG MEDIUM
~PARAMETER INFORMATION
#MNEM.UNIT          VALUE    DESCRIPTION
#----------   ------------   ------------------------------
 PD  .                 GL:   PERMANENT DATUM
 EPD .F              5192:   ELEVATION PERMANENT DATUM
 LMF .                 KB:   LOG MEASURED FROM
 DAPD.F                 8:   FEET ABOVE PERMANENT DATUM
 DMF .                 KB:   DRILLING MEASURED FROM
 EKB .F              5200:   KELLING BUSHING
 EGL .F              5192:   GROUND LEVEL
 DATE.        02-JUN-1997:   RUN DATE
 RUN .                  1:   RUN NUMBER
 DD  .F               530:   DEPTH DRILLER
 DL  .F               527:   DEPTH LOGGER
 BLI .F               518:   BOTTOM LOG INTERVAL
 TLI .F                30:   TOP LOG INTERVAL
 CS  .IN            8.625:   CASING SIZE
 CBD .F                46:   CASING BOTTOM DRILLER
 CBL .F                48:   CASING BOTTOM LOGGER
 BS  .IN            7.875:   BIT SIZE
 BSD .F               530:   BIT SIZE AT DEPTH
 DFT .           NONE/AIR:   DRILLING FLUID TYPE
 TCS .HRS            0530:   TIME CURCULATED STOPPED
 MRT .F                80:   MAXIMUM RECORDED TEMPERATURE
 LUN .               7597:   LOGGING UNIT NUMBER
 LUL .           GILLETTE:   LOGGING UNIT LOCATION
 ENGI.        K.HUCKFELDT:   RECORDING ENGINEER
 WITN.        LYNDA FIVAS:   WITNESSED BY
 CLNT.            A2DTECH:   CLIENT CODE
 ORIG.           5" PRINT:   ORIGIN OF DATA
 UWI .       490251115700:   UNIQUE WELL ID
 DICO. A2D Technologies, Inc.:   DIGITIZING COMPANY
~OTHER INFORMATION
~A   DEPT       GRR       ILD        ILM   
# ...
  192.0000   116.4532     7.6619     7.9427
  192.5000   117.3759     7.0599     7.5165
  193.0000   118.3067     6.4995     7.2126
  193.5000   119.8250     5.9836     6.8255
  194.0000   119.2433     5.4330     6.3701
  194.5000   117.1494     4.8990     5.9039
  195.0000   115.6588     4.5415     5.2851
  195.5000   115.0687     3.9287     4.5858
  196.0000   115.0908     3.5919     3.8165
  196.5000   115.7118     3.1944     3.3694
  197.0000   116.3328     2.9391     2.9132
  197.5000   116.4303     2.9013     2.7189
  198.0000   111.8433     2.9224     2.5729
  198.5000   107.9076     2.9434     2.5382
  199.0000   106.4052     2.9852     2.7033
  199.5000   107.0743     3.1341     2.9395
  200.0000   111.3152     3.3363     3.1087
  200.5000   114.9528     3.6511     3.3899
  201.0000   120.0986     4.2521     4.1081
  201.5000   123.7362     4.8504     4.7223
  202.0000   126.4689     5.3529     5.3907
  202.5000   127.6932     5.8210     5.9851
  203.0000   128.6161     6.2268     6.4182
  203.5000   126.2206     6.4923     6.6017
  204.0000   125.0317     6.6762     6.6968
  204.5000   125.0749     6.6780     6.7462
  205.0000   126.6265     6.6893     6.7489
  205.5000   126.8948     6.6452     6.7987
  206.0000   125.4087     6.5121     6.6562
  206.5000   125.1203     6.4692     6.6118
  207.0000   126.9524     6.2959     6.5234
  207.5000   129.9868     6.1691     6.3468
  208.0000   132.1161     5.9619     6.0898
  208.5000   133.9438     5.7209     5.8027
  209.0000   136.9781     5.5641     5.6066
  209.5000   138.8058     5.3817     5.4548
  210.0000   137.3152     5.3099     5.3071
  210.5000   133.0348     5.2386     5.2357
  211.0000   127.2962     5.2412     5.2741
  211.5000   120.1783     5.3533     5.4627
  212.0000   118.0844     5.5438     5.6971
  212.5000   117.7960     5.8211     5.9830
  213.0000   119.9298     6.0702     6.3270
  213.5000   125.6791     6.4181     6.6445
  214.0000   128.1101     6.7391     6.8817
  214.5000   125.1112     7.0762     7.1770
  215.0000   123.3190     7.3350     7.4331
  215.5000   123.3367     7.6495     7.8061
  216.0000   124.2594     7.9145     8.0847
  216.5000   125.2077     8.0279     8.2055
  217.0000   125.5023     8.1430     8.3280
  217.5000   126.1270     8.2029     8.3210
  218.0000   126.4464     8.1497     8.3246
  218.5000   124.9558     8.0410     8.2118
  219.0000   122.8619     7.9880     8.0459
  219.5000   120.4664     7.7733     7.8281
  220.0000   118.3725     7.6176     7.6162
  220.5000   118.3902     7.4642     7.4100
  221.0000   120.5196     7.3634     7.2595
  221.5000   123.2523     7.1070     7.0142
  222.0000   123.8733     6.6452     6.5914
  222.5000   122.9613     6.3338     6.1906
  223.0000   121.4459     6.0370     5.9710
  223.5000   120.6082     5.7541     5.6297
  224.0000   125.1553     5.5608     5.0696
  224.5000   128.7929     5.4483     4.7640
  225.0000   131.5256     5.4129     4.5707
  225.5000   132.1467     5.4911     4.6366
  226.0000   129.7511     5.6085     4.9374
  226.5000   127.0539     5.8484     5.4059
  227.0000   124.9600     6.1410     5.8371
  227.5000   124.0728     6.4542     6.3908
  228.0000   124.9955     6.8317     6.9487
  228.5000   126.5722     7.3095     7.3060
  229.0000   128.4002     7.6222     7.6726
  229.5000   131.6896     7.8392     8.0488
  230.0000   134.4223     8.0623     8.3361
  230.5000   135.0433     8.1215     8.3964
  231.0000   134.7549     8.2380     8.1698
  231.5000   133.8721     8.2985     8.1726
  232.0000   132.0799     8.3019     8.1181
  232.5000   128.4777     8.3053     8.1215
  233.0000   120.3507     8.3087     8.1809
  233.5000   119.1614     8.3121     8.1837
  234.0000   120.0845     8.2521     8.1865
  234.5000   123.5464     8.1480     8.1893
  235.0000   131.1815     8.0952     8.1922
  235.5000   134.0184     7.9880     8.1955
  236.0000   133.4328     7.9354     8.1983
  236.5000   125.0041     7.9395     8.2011
  237.0000   122.6041     7.9978     8.2039
  237.5000   123.2296     7.9451     8.1492
  238.0000   127.1689     7.9491     8.2095
  238.5000   130.5049     7.9524     8.1547
  239.0000   132.6342     8.0108     8.1016
  239.5000   132.3503     8.0141     7.9927
  240.0000   130.8597     8.0173     7.9401
  240.5000   131.1795     7.8559     7.7790
  241.0000   132.1026     7.6978     7.5511
  241.5000   131.5207     7.4400     7.1623
  242.0000   132.1417     7.0913     6.7775
  242.5000   135.1760     6.9007     6.2376
  243.0000   140.3220     6.7152     5.9020
  243.5000   140.9430     6.5800     5.9045
  244.0000   137.6425     6.4922     5.9477
  244.5000   134.9453     6.3177     6.0750
  245.0000   134.9630     6.1479     6.1194
  245.5000   136.4891     6.0241     6.1215
  246.0000   137.4118     5.9839     6.0391
  246.5000   134.3630     5.9009     5.8282
  247.0000   130.1579     5.8669     5.5923
  247.5000   129.6218     5.7893     5.2983
  248.0000   132.0573     5.7916     5.1544
  248.5000   132.3722     5.7940     5.1566
  249.0000   130.2828     5.8366     5.1584
  249.5000   126.9822     5.9202     5.3425
  250.0000   126.3922     6.1735     5.6497
  250.5000   127.6210     6.5273     6.2722
  251.0000   126.4321     6.7597     6.6791
  251.5000   122.2266     7.0489     6.9657
  252.0000   121.3394     7.2495     7.1148
  252.5000   124.4244     7.3535     7.1669
  253.0000   126.9060     7.3566     7.1698
  253.5000   128.0335     7.2084     7.2222
  254.0000   127.1462     6.9189     7.1250
  254.5000   126.2590     6.3267     6.8841
  255.0000   124.7684     6.0721     6.5596
  255.5000   123.5795     5.9088     5.7906
  256.0000   122.3862     5.8699     5.3665
  256.5000   127.2349     5.8234     5.1132
  257.0000   133.2858     5.7888     5.0447
  257.5000   136.3201     5.9126     5.1890
  258.0000   136.2249     5.9556     5.3742
  258.5000   134.7533     6.2100     5.7627
  259.0000   133.2745     6.6109     6.3095
  259.5000   131.1923     7.0377     6.8602
  260.0000   129.1101     7.4405     7.5110
  260.5000   125.9731     7.8664     8.0540
  261.0000   120.1265     8.2030     8.3415
  261.5000   120.4576     8.3777     8.5820
  262.0000   124.1070     8.5562     8.6422
  262.5000   126.8513     8.5591     8.7060
  263.0000   127.4841     8.6213     8.7090
  263.5000   126.0052     8.7443     8.8338
  264.0000   118.4932     8.8080     8.8368
  264.5000   116.7119     8.8721     8.9014
  265.0000   117.6471     8.8139     8.9044
  265.5000   121.4481     8.8175     8.9695
  266.0000   126.4614     8.8817     8.9726
  266.5000   127.3958     8.8847     8.9135
  267.0000   126.8219     8.9493     8.7333
  267.5000   124.4381     9.0144     8.6151
  268.0000   120.5459     8.8936     8.6187
  268.5000   119.6630     8.8353     8.6817
  269.0000   119.6998     8.7773     8.8061
  269.5000   120.6342     8.8419     8.9946
  270.0000   122.7753     8.9681     9.1235
  270.5000   123.1064     9.2227     9.3837
  271.0000   121.3332     9.4191     9.3874
  271.5000   119.5527     9.4223     9.5879
  272.0000   117.1688     9.2252     9.6579
  272.5000   115.3883     8.6785     9.3973
  273.0000   111.7978     8.1014     8.7696
  273.5000   110.9149     7.6680     7.1225
  274.0000   113.3650     7.2078     6.4647
  274.5000   122.1425     7.1106     6.0329
  275.0000   132.1267     7.0645     5.5139
  275.5000   137.0438     7.0669     5.5542
  276.0000   136.1145     7.0206     6.2613
  276.5000   125.8875     7.3210     7.1090
  277.0000   120.1854     7.9022     8.0349
  277.5000   116.2933     8.4708     8.9824
  278.0000   116.0137     9.2068     9.6989
  278.5000   114.5422    10.0066    10.2565
  279.0000   112.7543    10.5064    10.3315
  279.5000   111.8861    10.9554    10.4071
  280.0000   111.9155    11.1116    10.2670
  280.5000   112.8808    11.1932    10.2704
  281.0000   115.3000    11.4317    10.2792
  281.5000   117.4410    11.6752    10.5801
  282.0000   118.9788    12.2583    11.0981
  282.5000   116.5949    13.1403    11.8181
