~VERSION INFORMATION
 VERS.                2.0:   CWLS LOG ASCII STANDARD - VERSION 2.0
 WRAP.                 NO:   ONE LINE PER DEPTH STEP
~WELL INFORMATION
#MNEM.UNIT      DATA TYPE    INFORMATION
#----------   ------------   ------------------------------
 STRT.F           32.0000:   START DEPTH
 STOP.F          812.0000:   STOP DEPTH
 STEP.F            0.5000:   STEP LENGTH
 NULL.          -999.2500:   NO VALUE
 COMP. FENIX & SCISSON INC:   COMPANY
 WELL.       75 SX #15-15:   WELL
 FLD .             TEAPOT:   FIELD
 LOC .      S15 T38N R78W:   LOCATION
 CNTY.            NATRONA:   COUNTY
 STAT.            WYOMING:   STATE
 CTRY. UNITED STATES OF AMERICA:   COUNTRY
 SRVC.              Welex:   SERVICE COMPANY
 DATE.        28-FEB-1977:   LOGDATE
 API .       490251030100:   API NUMBER
~CURVE INFORMATION
#MNEM.UNIT       API CODE    CURVE DESCRIPTION
#----------   ------------   ------------------------------
 DEPT.F                  :   
 SPR .MV     07 010 01 00:   SPONTANEOUS POTENTIAL
 ILD .OHMM   07 120 46 00:   INDUCTION LOG DEEP
 SGRD.OHMM   07 220 05 00:   SHALLOW RESISTIVITY
 ILM .OHMM   07 120 44 00:   INDUCTION LOG MEDIUM
 GRD .GAPI   45 310 01 00:   GAMMA RAY FROM DENSITY LOG
 CALD.IN     45 280 60 00:   CALIPER FROM DENSITY LOG
 RHOB.G/C3   45 350 01 00:   BULK DENSITY
 DPHI.DEC    45 890 12 00:   DENSITY POROSITY SANDSTONE
 CORR.G/C3   45 356 01 00:   DENSITY CORRECTION
~PARAMETER INFORMATION
#MNEM.UNIT          VALUE    DESCRIPTION
#----------   ------------   ------------------------------
 PD  .                 GL:   PERMANENT DATUM
 EPD .F              5264:   ELEVATION PERMANENT DATUM
 LMF .                 GL:   LOG MEASURED FROM
 DMF .                 GL:   DRILLING MEASURED FROM
 EGL .F              5264:   GROUND LEVEL
 DATE.          2-28-1977:   RUN DATE
 RUN .                  1:   RUN NUMBER
 DD  .F               830:   DEPTH DRILLER
 DL  .F               814:   DEPTH LOGGER
 BLI .F               812:   BOTTOM LOG INTERVAL
 TLI .F                42:   TOP LOG INTERVAL
 CS  .IN            8.625:   CASING SIZE
 CBD .F                40:   CASING BOTTOM DRILLER
 CBL .F                42:   CASING BOTTOM LOGGER
 BS  .IN            7.875:   BIT SIZE
 BSD .F               830:   BIT SIZE AT DEPTH
 DFT .           CHEM-GEL:   DRILLING FLUID TYPE
 DFD .                9.3:   DRILLING FLUID DENSITY
 DFV .                 38:   DRILLING FLUID VISCOSITY
 DFPH.               10.5:   DRILLING FLUID PH
 DFL .               16.2:   DRILLING FLUID LOSS
 MSS .          FLOW LINE:   MUD SAMPLE SOURCE
 RMS .OHMM           0.44:   RESISTIVITY MUD SAMPLE
 MST .F                62:   MUD SAMPLE TEMPERATURE
 RMF .OHMM            .38:   RESISTIVITY MUD FILTRATE SAMPLE
 MFST.F                62:   MUD FILTRATE SAMPLE TEMPERATURE
 RMC .OHMM           0.79:   RESISTIVITY MUD CAKE
 MCST.F                62:   MUD CAKE SAMPLE TEMPERATURE
 MFSS.           MEASURED:   MUD FILTRATE SAMPLE SOURCE
 MCSS.           MEASURED:   MUD CAKE SAMPLE SOURCE
 RMB .OHMM           .368:   RESISTIVITY MUD AT BHT
 BHT .F                74:   BOTTOM HOLE TEMPERATURE
 TCS .HRS               3:   TIME CURCULATED STOPPED
 MRT .F                74:   MAXIMUM RECORDED TEMPERATURE
 LUN .               8611:   LOGGING UNIT NUMBER
 LUL .           GILLETTE:   LOGGING UNIT LOCATION
 ENGI.               DOAK:   RECORDING ENGINEER
 WITN.               JAPP:   WITNESSED BY
 CLNT.            A2DTECH:   CLIENT CODE
 ORIG.       2", 5" PRINT:   ORIGIN OF DATA
 UWI .       490251030100:   UNIQUE WELL ID
 DICO. A2D Technologies, Inc.:   DIGITIZING COMPANY
~OTHER INFORMATION
~A   DEPT      SPR        ILD       SGRD        ILM         GRD        CALD       RHOB       DPHI      CORR  
# ...
  433.5000   -44.8301    11.4327    15.3921    13.7626   116.0708     7.7304     2.4718     0.1041     0.0309
  434.0000   -44.8106    11.2468    15.1018    13.8497   112.8652     7.7603     2.4723     0.1039     0.0303
  434.5000   -44.8102    11.2680    15.4735    13.9005   109.8763     7.7902     2.4729     0.1039     0.0297
  435.0000   -44.8102    11.3024    15.7907    13.5816   108.4038     7.8201     2.4735     0.1043     0.0291
  435.5000   -44.8103    11.3370    15.9636    13.3977   106.8463     7.8502     2.4726     0.1047     0.0285
  436.0000   -44.8188    11.3717    15.3790    13.7853   105.4299     7.8776     2.4714     0.1051     0.0279
  436.5000   -44.8673    11.4065    15.8855    14.0958   106.3128     7.8620     2.4701     0.1055     0.0270
  437.0000   -44.9148    11.4414    16.7182    14.4198   107.2561     7.8453     2.4689     0.1059     0.0233
  437.5000   -44.9624    11.4559    16.1715    13.6062   108.1867     7.8288     2.4676     0.1063     0.0244
  438.0000   -45.0099    11.2468    15.6340    12.7978   109.0834     7.8124     2.4664     0.1067     0.0299
  438.5000   -45.0574    11.0340    15.2002    12.5612   109.7765     7.7959     2.4672     0.1058     0.0350
  439.0000   -45.1050    10.9271    15.0350    12.6774   110.4829     7.7795     2.4756     0.1005     0.0402
  439.5000   -45.1525    10.8151    14.8716    13.1532   111.1840     7.7630     2.4837     0.0952     0.0453
  440.0000   -45.2001    10.7065    14.4932    12.8996   114.6380     7.7466     2.4919     0.0926     0.0492
  440.5000   -45.2476    10.5990    14.0291    12.4305   120.6086     7.7301     2.4953     0.0926     0.0502
  441.0000   -45.2951    10.4926    14.0828    11.9783   126.2957     7.7137     2.4951     0.0925     0.0513
  441.5000   -45.3427    10.3873    14.1385    11.5427   123.2339     7.6972     2.4948     0.0922     0.0524
  442.0000   -45.3901    10.2830    14.4271    11.1437   118.1583     7.6807     2.4945     0.0919     0.0535
  442.5000   -45.4528    10.1798    14.8262    11.1437   112.8759     7.6637     2.4942     0.0916     0.0545
  443.0000   -45.5249    10.0776    14.4098    11.0865   111.3676     7.6602     2.4939     0.0914     0.0556
  443.5000   -45.5972     9.9764    14.0267    10.3557   112.3131     7.6696     2.4938     0.0922     0.0567
  444.0000   -45.6695     9.8763    13.6432    10.6757   113.3540     7.6947     2.4860     0.0957     0.0578
  444.5000   -45.7418     9.7854    13.6483    11.3041   113.7516     7.7196     2.4766     0.1001     0.0586
  445.0000   -45.8141     9.7310    13.7422    11.5619   111.5559     7.7445     2.4673     0.1045     0.0557
  445.5000   -45.8864     9.6770    13.7750    11.1437   108.8057     7.7695     2.4579     0.1089     0.0528
  446.0000   -45.9587     9.6233    13.6128    11.6689   106.0037     7.7953     2.4486     0.1133     0.0499
  446.5000   -46.0310     9.5698    13.5236    11.2967   103.1990     7.7816     2.4392     0.1177     0.0470
  447.0000   -46.1033     9.5167    13.8997    10.7743   104.6386     7.7596     2.4357     0.1209     0.0442
  447.5000   -46.1756     9.4638    13.3389    10.2761   106.8413     7.7374     2.4333     0.1215     0.0413
  448.0000   -46.2479     9.4348    12.6800    10.0700   108.5711     7.7154     2.4308     0.1218     0.0391
  448.5000   -46.3202     9.4245    12.8547     9.9777   109.1723     7.6933     2.4330     0.1221     0.0415
  449.0000   -46.3925     9.4138    13.1544     9.9479   109.8028     7.6713     2.4387     0.1195     0.0438
  449.5000   -46.4648     9.4032    12.9436     9.9117   110.6000     7.6492     2.4444     0.1168     0.0461
  450.0000   -46.5371     9.3926    12.6774     9.8793   111.6375     7.6272     2.4503     0.1142     0.0484
  450.5000   -46.6094     9.3820    12.9942     9.8558   112.6749     7.6051     2.4517     0.1114     0.0507
  451.0000   -46.6817     9.3713    13.6468     9.8323   113.7072     7.5830     2.4491     0.1147     0.0481
  451.5000   -46.7540     9.3608    12.9074     9.8089   115.5223     7.5606     2.4399     0.1183     0.0454
  452.0000   -46.8263     9.2542    12.2188     9.7956   117.8242     7.5425     2.4307     0.1218     0.0382
  452.5000   -46.8986     9.0239    13.2121    10.5494   118.1159     7.5766     2.4232     0.1249     0.0304
  453.0000   -46.9709     8.7992    13.6468    10.2216   112.9705     7.6105     2.4290     0.1243     0.0270
  453.5000   -47.0432     8.5802    13.3353     9.7684   111.3079     7.6441     2.4346     0.1232     0.0271
  454.0000   -47.1155     8.3667    12.9178     9.3373   112.8212     7.6775     2.4367     0.1222     0.0273
  454.5000   -47.1878     8.1584    12.5053     8.9361   114.3181     7.7118     2.4343     0.1211     0.0276
  455.0000   -47.2601     7.9554    12.0946     8.8139   116.6055     7.7554     2.4358     0.1200     0.0278
  455.5000   -47.3324     7.7574    11.8858     8.6774   119.2096     7.7564     2.4387     0.1190     0.0280
  456.0000   -47.4047     7.5643    11.2284     8.5955   121.9286     7.7522     2.4415     0.1179     0.0282
  456.5000   -47.4772     7.3760    10.6487     8.5662   122.4039     7.7484     2.4443     0.1169     0.0284
  457.0000   -47.5494     7.2282    10.0989     8.5318   121.0524     7.7446     2.4458     0.1171     0.0286
  457.5000   -47.5948     7.3243     9.7058     8.6071   121.3882     7.7408     2.4428     0.1173     0.0288
  458.0000   -47.5366     7.4214    12.1068     8.7006   117.5392     7.7371     2.4465     0.1169     0.0316
  458.5000   -47.4812     7.5197    11.9992     8.7956   111.2631     7.7334     2.4543     0.1135     0.0351
  459.0000   -47.4258     7.6193    11.8825     8.8915   110.4592     7.7296     2.4621     0.1088     0.0386
  459.5000   -47.3704     7.7203    11.7598     8.9884   113.0765     7.7259     2.4688     0.1041     0.0422
  460.0000   -47.3150     7.8225    11.6662     9.0864   116.5368     7.7221     2.4659     0.1025     0.0404
  460.5000   -47.2596     7.9262    12.0879     9.1855   120.0019     7.7184     2.4587     0.1083     0.0373
  461.0000   -47.2042     8.0312    12.5620     9.2856   123.1630     7.7146     2.4517     0.1123     0.0341
  461.5000   -47.1488     8.1376    12.4772     9.3709   123.0523     7.7109     2.4459     0.1164     0.0310
  462.0000   -47.0934     8.2454    12.3587     9.5026   122.1514     7.7071     2.4489     0.1156     0.0304
  462.5000   -47.0382     8.3546    12.2414     9.6362   121.3537     7.7034     2.4517     0.1134     0.0300
  463.0000   -46.9992     8.4653    12.1251     9.7718   122.9683     7.6996     2.4544     0.1113     0.0296
  463.5000   -46.9837     8.5774    12.1068     9.9092   124.2465     7.6959     2.4517     0.1098     0.0292
  464.0000   -46.9680     8.6911    12.6805    10.0485   121.6348     7.6921     2.4483     0.1127     0.0287
  464.5000   -46.9524     8.8062    13.0903    10.1898   118.3770     7.6884     2.4460     0.1149     0.0283
  465.0000   -46.9367     8.9229    13.5142    10.3331   117.8387     7.6846     2.4543     0.1133     0.0279
  465.5000   -46.9211     9.0163    14.0321    10.4479   121.6598     7.6806     2.4628     0.1070     0.0274
  466.0000   -46.9054     9.0076    14.0329    10.1245   125.1317     7.6882     2.4652     0.1047     0.0270
  466.5000   -46.8897     8.9990    13.4538     9.8875   124.6266     7.6994     2.4612     0.1082     0.0266
  467.0000   -46.8741     8.9904    13.0083    10.1262   118.3228     7.7107     2.4572     0.1117     0.0261
  467.5000   -46.8584     8.9818    12.5612    10.3553   114.1923     7.7219     2.4537     0.1113     0.0257
  468.0000   -46.8427     8.9733    12.5612    10.5446   114.4296     7.7332     2.4555     0.1100     0.0253
  468.5000   -46.8272     8.9647    12.5612    10.5357   114.5957     7.7444     2.4571     0.1088     0.0249
  469.0000   -46.8104     8.9562    12.5612    10.5267   114.6141     7.7558     2.4588     0.1075     0.0244
  469.5000   -46.8671     8.9476    12.6634    10.5177   112.3333     7.7616     2.4584     0.1066     0.0240
