~VERSION INFORMATION
 VERS.                2.0:   CWLS LOG ASCII STANDARD - VERSION 2.0
 WRAP.                 NO:   ONE LINE PER DEPTH STEP
~WELL INFORMATION
#MNEM.UNIT      DATA TYPE    INFORMATION
#----------   ------------   ------------------------------
 STRT.F            0.0000:   START DEPTH
 STOP.F         1340.0000:   STOP DEPTH
 STEP.F            0.5000:   STEP LENGTH
 NULL.          -999.2500:   NO VALUE
 COMP. U S NAVY-INTEX OIL:   COMPANY
 WELL. NAVAL PETROLEUM RESERVE 3 S #81-14:   WELL
 FLD .             TEAPOT:   FIELD
 LOC .      S14 T38N R78W:   LOCATION
 CNTY.            NATRONA:   COUNTY
 STAT.            WYOMING:   STATE
 CTRY. UNITED STATES OF AMERICA:   COUNTRY
 SRVC.       Schlumberger:   SERVICE COMPANY
 DATE.        20-AUG-1966:   LOGDATE
 API .       490250971600:   API NUMBER
~CURVE INFORMATION
#MNEM.UNIT       API CODE    CURVE DESCRIPTION
#----------   ------------   ------------------------------
 DEPT.F                  :   
 SPR .MV     07 010 01 00:   SPONTANEOUS POTENTIAL
 CILD.MMHO   07 110 46 00:   CONDUCTIVITY INDUCTION LOG DEEP
 ILD .OHMM   07 120 46 00:   INDUCTION LOG DEEP
 ASN .OHMM   01 041 16 00:   AMPLIFIED SHORT NORMAL 16"
 CALD.IN     45 280 60 00:   CALIPER
 RHOB.G/C3   45 350 01 00:   BULK DENSITY
 DPHI.DEC    45 890 12 00:   DENSITY POROSITY SANDSTONE
 GRD .GAPI   45 310 01 00:   GAMMA RAY FROM DENSITY LOG
 CORR.G/C3   45 356 01 00:   DENSITY CORRECTION
~PARAMETER INFORMATION
#MNEM.UNIT          VALUE    DESCRIPTION
#----------   ------------   ------------------------------
 PD  .                 GL:   PERMANENT DATUM
 EPD .F              5283:   ELEVATION PERMANENT DATUM
 LMF .                 KB:   LOG MEASURED FROM
 DAPD.F                 5:   FEET ABOVE PERMANENT DATUM
 DMF .                 KB:   DRILLING MEASURED FROM
 EKB .F              5288:   KELLING BUSHING
 EGL .F              5283:   GROUND LEVEL
 DATE.            8-20-66:   RUN DATE
 RUN .                  1:   RUN NUMBER
 DD  .F              1340:   DEPTH DRILLER
 DL  .F              1337:   DEPTH LOGGER
 BLI .F              1336:   BOTTOM LOG INTERVAL
 TLI .F                17:   TOP LOG INTERVAL
 CS  .IN            8.625:   CASING SIZE
 CBD .F                15:   CASING BOTTOM DRILLER
 CBL .F                17:   CASING BOTTOM LOGGER
 BS  .IN            7.875:   BIT SIZE
 BSD .F              1340:   BIT SIZE AT DEPTH
 DFT .           GEL-CHEM:   DRILLING FLUID TYPE
 DFD .                9.8:   DRILLING FLUID DENSITY
 DFV .                 70:   DRILLING FLUID VISCOSITY
 DFL .                  8:   DRILLING FLUID LOSS
 MSS .          FLOW LINE:   MUD SAMPLE SOURCE
 RMS .OHMM           1.26:   RESISTIVITY MUD SAMPLE
 MST .F                71:   MUD SAMPLE TEMPERATURE
 RMF .OHMM            .71:   RESISTIVITY MUD FILTRATE SAMPLE
 MFST.F                71:   MUD FILTRATE SAMPLE TEMPERATURE
 MFSS.                  M:   MUD FILTRATE SAMPLE SOURCE
 RMB .OHMM           1.04:   RESISTIVITY MUD AT BHT
 BHT .F                86:   BOTTOM HOLE TEMPERATURE
 TCS .HRS               2:   TIME CURCULATED STOPPED
 MRT .F                86:   MAXIMUM RECORDED TEMPERATURE
 LUN .               3527:   LOGGING UNIT NUMBER
 LUL .               CSPR:   LOGGING UNIT LOCATION
 ENGI.          TOLLEFSON:   RECORDING ENGINEER
 WITN.                MAY:   WITNESSED BY
 CLNT.            A2DTECH:   CLIENT CODE
 ORIG.        2" 5" PRINT:   ORIGIN OF DATA
 UWI .       490250971600:   UNIQUE WELL ID
 DICO. A2D Technologies, Inc.:   DIGITIZING COMPANY
~OTHER INFORMATION
~A    DEPT     SPR       CILD        ILD        ASN         CALD     RHOB       DPHI          GRD     CORR   
# ...
  182.5000   -53.3788   175.7219     5.6617     6.5677     8.0238     2.3610     0.1494   100.8056     0.0472
  183.0000   -53.3607   173.3094     5.6763     6.5386     8.0231     2.3746     0.1418   100.9407     0.0556
  183.5000   -53.3427   170.1751     5.6909     6.5302     8.0224     2.3916     0.1340    99.0217     0.0457
  184.0000   -53.3248   171.0756     5.7055     6.5790     8.0215     2.4087     0.1587    97.1175     0.0400
  184.5000   -53.3069   172.3972     5.7200     6.6263     8.0205     2.4257     0.1599    95.1922     0.0536
  185.0000   -53.2890   173.1537     5.7346     6.6954     8.0195     2.4428     0.1517    93.2791     0.0678
  185.5000   -53.2711   171.2442     5.7491     6.7694     8.0184     2.4487     0.1435    92.1988     0.0818
  186.0000   -53.2532   168.2285     5.7637     6.8359     8.0174     2.4325     0.1324    96.0151     0.0781
  186.5000   -53.2353   166.1677     5.7783     6.7698     8.0163     2.4213     0.1366    99.0118     0.0612
  187.0000   -53.2176   166.6713     5.7928     6.6423     8.0153     2.4100     0.1431    97.6759     0.0452
  187.5000   -53.2020   169.8526     5.8074     6.6000     8.0142     2.3970     0.1496    96.0096     0.0264
  188.0000   -53.1770   173.0113     5.8220     6.5542     8.0132     2.4144     0.1543    94.3380     0.0322
  188.5000   -53.1522   174.2414     5.8369     6.5069     8.0122     2.4383     0.1498    92.6670     0.0453
  189.0000   -53.1275   173.5422     5.8184     6.4600     8.0111     2.4542     0.1463    90.9729     0.0538
  189.5000   -53.1028   170.4066     5.7902     6.5576     8.0101     2.4499     0.1428    89.3971     0.0690
  190.0000   -53.0781   167.1657     5.7622     6.6687     8.0090     2.4391     0.1392    92.4049     0.0660
  190.5000   -53.0533   167.1657     5.7334     6.7419     8.0080     2.4283     0.1357    95.7110     0.0526
  191.0000   -53.0282   171.2650     5.5895     6.6842     8.0070     2.4176     0.1345    98.9909     0.0400
  191.5000   -53.0078   178.3732     5.4409     6.6336     8.0059     2.4069     0.1415   102.2978     0.0353
  192.0000   -53.0432   185.4815     5.2931     6.5759     8.0049     2.3960     0.1465   103.4816     0.0515
  192.5000   -53.0781   191.5954     5.1454     6.4046     8.0038     2.3964     0.1515   103.3411     0.0618
  193.0000   -53.1128   195.8557     4.9974     6.2315     8.0028     2.4030     0.1565   102.3544     0.0538
  193.5000   -53.1474   200.0907     4.8738     6.0586     8.0020     2.4097     0.1580   101.3818     0.0496
  194.0000   -53.1820   204.3381     4.7647     5.9129     8.0020     2.4164     0.1553   100.4127     0.0612
  194.5000   -53.2166   208.5814     4.6552     5.7814     8.0020     2.4212     0.1517    99.4439     0.0805
  195.0000   -53.2512   213.0739     4.5451     5.6934     8.0020     2.4214     0.1481    98.4749     0.0640
  195.5000   -53.2858   213.0739     4.5813     5.6812     8.0020     2.4220     0.1446    97.5052     0.0714
  196.0000   -53.3205   211.9015     4.6556     5.7486     8.0020     2.4191     0.1414    96.5312     0.0850
  196.5000   -53.3551   209.8791     4.7296     5.7277     8.0020     2.4119     0.1453    95.7962     0.0786
  197.0000   -53.3896   207.8795     4.8035     5.6895     8.0020     2.4048     0.1502    96.1738     0.0629
  197.5000   -53.3547   205.5639     4.8935     5.6865     8.0020     2.3976     0.1551    96.9571     0.0593
  198.0000   -53.2509   201.0404     4.9993     5.7807     8.0020     2.3904     0.1600    97.7381     0.0536
  198.5000   -53.1472   196.1516     5.1052     5.8988     8.0020     2.3837     0.1643    98.5191     0.0485
  199.0000   -53.0424   190.9889     5.2111     6.0153     8.0020     2.3819     0.1600    99.2995     0.0488
  199.5000   -53.0064   185.8261     5.3170     6.1769     8.0020     2.3907     0.1532   100.0802     0.0540
  200.0000   -53.0058   180.6633     5.4229     6.3611     8.0020     2.4030     0.1464   100.8619     0.0483
  200.5000   -53.0060   175.1497     5.5292     6.5497     8.0020     2.4158     0.1470   101.6673     0.0334
  201.0000   -53.0060   173.1772     5.6358     6.6284     8.0020     2.4174     0.1500   101.4970     0.0223
  201.5000   -53.0060   171.0608     5.6912     6.7032     8.0020     2.4165     0.1530   101.1010     0.0162
  202.0000   -53.0060   168.9487     5.7450     6.7740     8.0020     2.4155     0.1560   100.7009     0.0394
  202.5000   -53.0060   168.6228     5.7989     6.7537     8.0020     2.4147     0.1528   100.3022     0.0272
  203.0000   -53.0060   169.3887     5.8366     6.7304     8.0020     2.4186     0.1452    99.8920     0.0314
  203.5000   -53.0060   170.1426     5.8245     6.7074     8.0020     2.4290     0.1376    99.6303     0.0428
  204.0000   -53.0060   170.8948     5.8135     6.7057     8.0020     2.4393     0.1300    99.6618     0.0517
  204.5000   -53.0060   171.6470     5.8025     6.7226     8.0020     2.4497     0.1224   100.5499     0.0618
  205.0000   -53.0060   172.3991     5.7916     6.7461     8.0020     2.4601     0.1194   101.4818     0.0710
  205.5000   -53.0060   173.1546     5.7807     6.7979     8.0020     2.4684     0.1223   102.4093     0.0799
  206.0000   -53.0060   173.9008     5.7697     6.8275     8.0020     2.4609     0.1251   103.3359     0.0757
  206.5000   -53.0060   173.7012     5.7587     6.7813     8.0020     2.4553     0.1280   104.2630     0.0606
  207.0000   -53.0061   173.0073     5.7477     6.7371     8.0020     2.4589     0.1288   105.1891     0.0731
  207.5000   -53.0061   172.3220     5.7438     6.7115     8.0020     2.4629     0.1241   106.1670     0.0709
  208.0000   -53.0057   171.6692     5.7849     6.7004     8.0020     2.4668     0.1203   105.7671     0.0582
  208.5000   -52.9850   170.6464     5.8256     6.7192     8.0020     2.4708     0.1165   104.8691     0.0613
  209.0000   -52.9355   168.0589     5.8662     6.7591     8.0020     2.4748     0.1179   105.2053     0.0743
  209.5000   -52.8864   165.4921     5.9067     6.8535     8.0020     2.4787     0.1201   105.8646     0.0722
  210.0000   -52.8371   164.6515     5.9473     6.9479     8.0020     2.4778     0.1224   106.5319     0.0538
  210.5000   -52.7879   164.0584     5.9880     7.0416     8.0020     2.4702     0.1246   107.1887     0.0443
  211.0000   -52.7385   163.4654     6.0298     7.1361     8.0020     2.4628     0.1269   107.5880     0.0539
  211.5000   -52.6886   162.8732     6.0297     7.1488     8.0020     2.4552     0.1291   107.3609     0.0635
  212.0000   -52.6402   162.2577     5.9792     7.1057     8.0019     2.4511     0.1314   106.2462     0.0528
  212.5000   -52.6520   163.9672     5.9293     7.0113     8.0017     2.4512     0.1336   105.1395     0.0350
  213.0000   -52.8492   166.1256     5.8795     6.9075     8.0016     2.4515     0.1358   104.0286     0.0305
  213.5000   -52.9867   168.2897     5.8296     6.8013     8.0015     2.4517     0.1381   102.9191     0.0423
  214.0000   -52.8227   170.2508     5.7797     6.7955     8.0014     2.4520     0.1400   101.8090     0.0430
  214.5000   -52.6599   170.9212     5.7380     6.7963     8.0013     2.4496     0.1381   100.6932     0.0369
  215.0000   -52.7174   171.5916     5.7716     6.7966     8.0012     2.4464     0.1356    99.5827     0.0309
  215.5000   -52.8877   172.2620     5.8065     6.7956     8.0011     2.4432     0.1332    98.9014     0.0295
  216.0000   -53.0609   172.9324     5.8379     6.7696     8.0010     2.4443     0.1307   100.5197     0.0413
  216.5000   -53.1992   174.6600     5.8160     6.7262     8.0009     2.4539     0.1282   102.0936     0.0524
  217.0000   -53.1155   176.9087     5.7186     6.6624     8.0008     2.4633     0.1257   103.3027     0.0626
  217.5000   -53.0343   179.1573     5.6251     6.5989     8.0007     2.4729     0.1232   102.2747     0.0723
  218.0000   -53.0431   181.5332     5.5317     6.5355     8.0006     2.4813     0.1208   101.0121     0.0800
  218.5000   -53.0998   184.0079     5.4382     6.4832     8.0005     2.4655     0.1249    99.7444     0.0739
