~VERSION INFORMATION
 VERS.                2.0:   CWLS LOG ASCII STANDARD - VERSION 2.0
 WRAP.                 NO:   ONE LINE PER DEPTH STEP
~WELL INFORMATION
#MNEM.UNIT      DATA TYPE    INFORMATION
#----------   ------------   ------------------------------
 STRT.F           16.0000:   START DEPTH
 STOP.F          716.0000:   STOP DEPTH
 STEP.F            0.5000:   STEP LENGTH
 NULL.          -999.2500:   NO VALUE
 COMP. BROWN JOHN E&C INC:   COMPANY
 WELL.   STX 10 #24-51-10:   WELL
 FLD .             NPR #3:   FIELD
 LOC .      S10 T38N R78W:   LOCATION
 CNTY.            NATRONA:   COUNTY
 STAT.            WYOMING:   STATE
 CTRY. UNITED STATES OF AMERICA:   COUNTRY
 SRVC.           Gearhart:   SERVICE COMPANY
 DATE.        01-JUL-1986:   LOGDATE
 API .       490251107800:   API NUMBER
~CURVE INFORMATION
#MNEM.UNIT       API CODE    CURVE DESCRIPTION
#----------   ------------   ------------------------------
 DEPT.F                  :   
 GRR .GAPI   07 310 01 00:   GAMMA RAY
 RILD.OHMM   07 120 46 00:   INDUCTION LOG DEEP RESISTIVITY
 RILM.OHMM   07 120 44 00:   INDUCTION LOG MEDIUM RESISTIVITY
~PARAMETER INFORMATION
#MNEM.UNIT          VALUE    DESCRIPTION
#----------   ------------   ------------------------------
 PD  .                 GL:   PERMANENT DATUM
 EPD .F              5235:   ELEVATION PERMANENT DATUM
 LMF .                 KB:   LOG MEASURED FROM
 DAPD.F               5.0:   FEET ABOVE PERMANENT DATUM
 DMF .                 KB:   DRILLING MEASURED FROM
 EKB .F              5240:   KELLING BUSHING
 EGL .F              5235:   GROUND LEVEL
 DATE.        01-JUL-1986:   RUN DATE
 RUN .                  1:   RUN NUMBER
 DD  .F               728:   DEPTH DRILLER
 DL  .F               726:   DEPTH LOGGER
 BLI .F               716:   BOTTOM LOG INTERVAL
 TLI .F                15:   TOP LOG INTERVAL
 CS  .IN            8.625:   CASING SIZE
 CBD .F                47:   CASING BOTTOM DRILLER
 CBL .F                47:   CASING BOTTOM LOGGER
 BS  .IN            7.875:   BIT SIZE
 BSD .F               728:   BIT SIZE AT DEPTH
 DFT .               FOAM:   DRILLING FLUID TYPE
 TCS .HRS            0800:   TIME CURCULATED STOPPED
 TLAB.HRS            0930:   TIME LOGGER AT BOTTOM
 MRT .F                85:   MAXIMUM RECORDED TEMPERATURE
 LUN .               7609:   LOGGING UNIT NUMBER
 LUL .           GILLETTE:   LOGGING UNIT LOCATION
 ENGI.              BAUER:   RECORDING ENGINEER
 WITN.              FIVAS:   WITNESSED BY
 CLNT.            A2DTECH:   CLIENT CODE
 ORIG.           5" PRINT:   ORIGIN OF DATA
 UWI .       490251107800:   UNIQUE WELL ID
 DICO. A2D Technologies, Inc.:   DIGITIZING COMPANY
~OTHER INFORMATION
~A   DEPT       GRR      RILD       RILM   
# ...
  289.0000    97.9703     8.4588     8.2617
  289.5000    97.0625     8.3458     8.2070
  290.0000    96.7668     8.1767     8.0966
  290.5000    98.6075     8.1253     8.1016
  291.0000   100.1410     8.1870     8.1626
  291.5000   101.6745     8.3072     8.2241
  292.0000   103.5130     8.3704     8.2861
  292.5000   106.2660     8.4340     8.4073
  293.0000   108.7142     8.5578     8.5302
  293.5000   109.0282     8.6835     8.5945
  294.0000   107.5130     8.6884     8.7202
  294.5000   106.6052     8.6933     8.7859
  295.0000   108.7508     8.7593     8.7902
  295.5000   111.1989     8.8259     8.7946
  296.0000   112.7325     8.8930     8.8608
  296.5000   113.0465     8.8979     8.9276
  297.0000   112.4459     8.9656     8.9949
  297.5000   110.9306     9.0337     8.9993
  298.0000   108.1959     9.1664     9.0671
  298.5000   105.7660     9.1715     9.0715
  299.0000   104.5556     9.2412     9.2042
  299.5000   103.9550     9.3114     9.3389
  300.0000   104.2535     9.3809     9.3214
  300.5000   106.0033     9.1965     9.1963
  301.0000   108.2448     9.0263     9.0711
  301.5000   111.6045     8.9452     9.0335
  302.0000   113.1350     8.9497     9.0390
  302.5000   111.9215     8.9541     8.9791
  303.0000   109.7934     8.9584     8.9846
  303.5000   107.3605     8.9001     8.9890
  304.0000   104.6226     8.8423     8.9304
  304.5000   103.4092     8.8468     8.9349
  305.0000   103.4152     8.8511     8.8766
  305.5000   104.6408     8.8554     8.8811
  306.0000   109.2200     8.7977     8.8854
  306.5000   115.6285     8.8031     8.8276
  307.0000   119.2931     8.7448     8.7702
  307.5000   117.4699     8.6879     8.6482
  308.0000   115.3418     8.6315     8.5904
  308.5000   115.0415     8.5754     8.5400
  309.0000   114.4390     8.5196     8.5443
  309.5000   112.0063     8.5248     8.5485
  310.0000   108.6587     8.5290     8.5535
  310.5000   107.1402     8.5332     8.5577
  311.0000   106.8415     8.5373     8.6222
  311.5000   106.8476     8.4808     8.6264
  312.0000   106.8537     8.5457     8.6913
  312.5000   106.5549     8.4901     8.8184
  313.0000   105.9512     8.3750     8.8848
  313.5000   105.6363     8.2048     8.8892
  314.0000   104.7438     8.0389     8.8303
  314.5000   104.4127     7.8205     8.4123
  315.0000   103.4960     7.7144     7.9571
  315.5000   102.3229     7.5048     7.5795
  316.0000   101.7192     7.3018     7.3218
  316.5000   101.7268     7.1034     7.1227
  317.0000   102.3426     7.0071     7.0269
  317.5000   103.2633     6.9129     6.9316
  318.0000   103.5742     7.0148     6.9846
  318.5000   104.7998     7.1673     7.0867
  319.0000   106.9400     7.3232     7.1904
  319.5000   108.1656     7.4825     7.3469
  320.0000   106.9521     7.5918     7.5068
  320.5000   105.1289     7.7570     7.6702
  321.0000   104.5237     7.8154     7.7823
  321.5000   106.0557     7.9296     7.8409
  322.0000   112.7690     7.9892     7.9000
  322.5000   121.9214     7.9363     7.8485
  323.0000   123.4519     7.9412     7.8524
  323.5000   119.4945     7.8335     7.8012
  324.0000   111.5738     7.7826     7.7506
  324.5000   107.0066     7.6253     7.7002
  325.0000   106.0966     7.5755     7.5966
  325.5000   107.6285     7.4217     7.3900
  326.0000   111.2931     7.2708     7.2396
  326.5000   116.4821     7.0733     7.1344
  327.0000   117.7061     6.8330     6.9378
  327.5000   113.7503     6.6009     6.7466
  328.0000   108.5734     6.2879     6.5149
  328.5000   108.8844     6.0743     6.2633
  329.0000   110.7197     5.9927     6.0937
  329.5000   111.0589     5.9122     5.9690
  330.0000   108.2928     5.9151     5.9301
  330.5000   104.6403     6.0022     5.9755
  331.0000   104.0366     6.1350     6.1056
  331.5000   106.8061     6.3140     6.2824
  332.0000   112.6345     6.4982     6.4643
  332.5000   114.4206     6.7309     6.7455
  333.0000   111.2642     6.9752     7.0389
  333.5000   107.9574     7.1779     7.1921
  334.0000   106.5120     7.3865     7.4004
  334.5000   106.5183     7.5481     7.5086
  335.0000   106.5256     7.7041     7.6720
  335.5000   107.4463     7.8717     7.7842
  336.0000   108.6719     7.9317     7.9536
  336.5000   111.1169     8.1042     8.1267
  337.0000   110.8181     8.1652     8.1879
  337.5000   109.6047     8.3428     8.3661
  338.0000   109.3043     8.4056     8.4291
  338.5000   109.9217     8.5285     8.5524
  339.0000   110.8424     8.5926     8.6168
  339.5000   110.8484     8.6573     8.6817
  340.0000   110.2432     8.7225     8.7471
  340.5000   109.9444     8.7881     8.8130
  341.0000   110.8666     8.7924     8.8173
  341.5000   111.7873     8.8586     8.8837
  342.0000   113.0128     8.8629     8.8880
  342.5000   113.6287     8.9296     8.8923
  343.0000   112.1103     8.9340     8.9593
  343.5000   108.4578     9.0645     9.0268
  344.0000   106.6331     9.0690     9.0947
  344.5000   107.5553     9.1372     9.1632
  345.0000   108.4760     9.1417     9.1678
  345.5000   110.0065     9.1461     9.1723
  346.0000   111.8418     9.1506     9.1766
  346.5000   113.9820     9.0900     9.1077
  347.0000   115.5124     8.9679     8.9943
  347.5000   114.2990     8.9096     8.9358
  348.0000   113.0855     8.7295     8.8167
  348.5000   111.5672     8.5520     8.6970
  349.0000   110.9635     8.3772     8.4616
  349.5000   112.4939     8.1505     8.2884
  350.0000   114.3293     7.9120     8.1525
  350.5000   112.9421     7.4474     7.8584
  351.0000   111.2868     7.2445     7.5642
  351.5000   110.3750     6.8523     7.3177
  352.0000   110.9879     6.4360     7.0198
  352.5000   113.4299     5.9193     6.6862
  353.0000   113.7378     5.3683     6.1923
  353.5000   112.8141     4.8685     5.7752
  354.0000   110.9715     4.4464     5.3486
  354.5000   110.0883     4.0608     4.8844
  355.0000   111.3116     3.7087     4.3984
  355.5000   112.8390     3.2227     3.7412
  356.0000   113.4517     2.9619     3.3439
  356.5000   112.2352     2.7820     3.0968
  357.0000   109.7992     2.6885     2.8843
  357.5000   106.1437     2.6516     2.7548
  358.0000   101.5735     2.6005     2.7563
  358.5000    99.1375     2.6571     2.7964
  359.0000    98.8349     2.7531     2.9383
  359.5000    99.7533     2.8927     3.0875
  360.0000   105.2441     3.0608     3.2901
  360.5000   114.6983     3.3542     3.5555
  361.0000   116.5306     3.8069     3.9795
  361.5000   113.7897     4.1427     4.4540
  362.0000   111.3537     4.5081     4.8472
  362.5000   112.5762     4.9057     5.2750
  363.0000   117.2176     5.3011     5.6211
  363.5000   121.4891     5.6487     5.8652
  364.0000   123.2561     5.8938     6.0771
  364.5000   122.0395     6.0215     6.2090
  365.0000   119.9091     6.1091     6.2553
  365.5000   118.3870     6.0683     6.0841
  366.0000   117.7802     5.9036     5.8775
  366.5000   118.6986     5.7027     5.6376
  367.0000   121.4455     5.5086     5.4456
  367.5000   125.7168     5.2839     5.2233
  368.0000   129.0735     5.1041     5.0809
  368.5000   128.1619     4.9999     4.9772
  369.0000   124.8112     4.9671     4.9793
  369.5000   118.7167     5.0041     4.9813
  370.0000   115.9750     5.1126     5.0538
  370.5000   116.2836     5.2247     5.2746
  371.0000   117.8111     5.4146     5.4690
  371.5000   120.8628     5.6113     5.7453
  372.0000   124.5283     5.8562     5.9599
  372.5000   125.7470     6.1190     6.2580
  373.0000   123.5428     6.4148     6.5686
  373.5000   118.0131     6.7402     6.8538
  374.0000   112.6462     6.9348     7.0518
  374.5000   116.3085     7.1349     7.3065
  375.0000   120.5798     7.3409     7.4651
  375.5000   123.0218     7.5000     7.6270
  376.0000   122.1094     7.6091     7.6839
  376.5000   120.5888     7.6658     7.7412
  377.0000   118.1528     7.6146     7.6895
  377.5000   114.4973     7.4601     7.5863
  378.0000   111.4515     7.4103     7.4830
  378.5000   112.0642     7.2591     7.3310
  379.0000   114.2014     7.0127     7.2319
  379.5000   116.9483     6.8217     7.0842
