~VERSION INFORMATION
 VERS.                2.0:   CWLS LOG ASCII STANDARD - VERSION 2.0
 WRAP.                 NO:   ONE LINE PER DEPTH STEP
~WELL INFORMATION
#MNEM.UNIT      DATA TYPE    INFORMATION
#----------   ------------   ------------------------------
 STRT.F           20.0000:   START DEPTH
 STOP.F          600.0000:   STOP DEPTH
 STEP.F            0.5000:   STEP LENGTH
 NULL.          -999.2500:   NO VALUE
 COMP. FENIX & SCISSON INC:   COMPANY
 WELL. TEAPOT DOME #23 SX 3-4:   WELL
 FLD .             TEAPOT:   FIELD
 LOC .       S4 T38N R78W:   LOCATION
 CNTY.            NATRONA:   COUNTY
 STAT.            WYOMING:   STATE
 CTRY. UNITED STATES OF AMERICA:   COUNTRY
 SRVC.            Unknown:   SERVICE COMPANY
 DATE.        31-JUL-1978:   LOGDATE
 API .       490251067600:   API NUMBER
~CURVE INFORMATION
#MNEM.UNIT       API CODE    CURVE DESCRIPTION
#----------   ------------   ------------------------------
 DEPT.F                  :   
 CALD.IN     45 280 60 00:   CALIPER FROM DENSITY LOG
 GRD .GAPI   45 310 01 00:   GAMMA RAY FROM DENSITY LOG
 CORR.G/C3   45 356 01 00:   DENSITY CORRECTION
 DPHI.DEC    45 890 12 00:   DENSITY POROSITY SANDSTONE
 RHOB.G/C3   45 350 01 00:   BULK DENSITY
 SPR .MV     07 010 01 00:   SPONTANEOUS POTENTIAL
 ILD .OHMM   07 120 46 00:   INDUCTION LOG DEEP
 SN  .OHMM   07 040 16 00:   SHORT NORMAL 16"
 CILD.MMHO   07 110 46 00:   CONDUCTIVITY INDUCTION LOG DEEP
~PARAMETER INFORMATION
#MNEM.UNIT          VALUE    DESCRIPTION
#----------   ------------   ------------------------------
 PD  .                 GL:   PERMANENT DATUM
 EPD .F              5181:   ELEVATION PERMANENT DATUM
 LMF .                 KB:   LOG MEASURED FROM
 DAPD.F                 4:   FEET ABOVE PERMANENT DATUM
 DMF .                 KB:   DRILLING MEASURED FROM
 EKB .F              5185:   KELLING BUSHING
 EGL .F              5181:   GROUND LEVEL
 DATE.        31-JUL-1978:   RUN DATE
 RUN .                  1:   RUN NUMBER
 DD  .F               595:   DEPTH DRILLER
 DL  .F               606:   DEPTH LOGGER
 BLI .F               600:   BOTTOM LOG INTERVAL
 TLI .F                40:   TOP LOG INTERVAL
 CBL .F                45:   CASING BOTTOM LOGGER
 BS  .IN            7.875:   BIT SIZE
 BSD .F               595:   BIT SIZE AT DEPTH
 DFT .                KCL:   DRILLING FLUID TYPE
 DFD .                9.0:   DRILLING FLUID DENSITY
 DFV .                 36:   DRILLING FLUID VISCOSITY
 DFPH.                9.0:   DRILLING FLUID PH
 DFL .                8.0:   DRILLING FLUID LOSS
 MSS .           FLOWLINE:   MUD SAMPLE SOURCE
 BHT .F                74:   BOTTOM HOLE TEMPERATURE
 TCS .HRS            0500:   TIME CURCULATED STOPPED
 MRT .F                74:   MAXIMUM RECORDED TEMPERATURE
 LUN .               2958:   LOGGING UNIT NUMBER
 LUL .               CASP:   LOGGING UNIT LOCATION
 ENGI.            POINTER:   RECORDING ENGINEER
 WITN.              AMEND:   WITNESSED BY
 CLNT.            A2DTECH:   CLIENT CODE
 ORIG.           5" PRINT:   ORIGIN OF DATA
 UWI .       490251067600:   UNIQUE WELL ID
 DICO. A2D Technologies, Inc.:   DIGITIZING COMPANY
~OTHER INFORMATION
~A   DEPT     CALD        GRD       CORR       DPHI       RHOB        SPR        ILD         SN       CILD   
# ...
  458.0000     8.2268    88.7123     0.0028     0.1665     2.3733   -19.9925    15.2198    11.8320    54.1065
  458.5000     8.1739    90.2266     0.0021     0.1698     2.3751   -20.7218    15.2295    11.8360    54.0224
  459.0000     8.1754    89.6420     0.0022     0.1658     2.3865   -20.8601    15.3447    11.8409    53.1893
  459.5000     8.1440    85.0094     0.0030     0.1478     2.4084   -20.5459    15.4608    11.8474    53.1052
  460.0000     8.0125    84.2749     0.0076     0.1223     2.4530   -20.5349    15.5778    11.9329    53.0211
  460.5000     7.9700    83.5403     0.0144     0.0932     2.5033   -20.6864    15.9140    12.0206    52.1880
  461.0000     7.9565    82.3560     0.0198     0.0713     2.5468   -21.1086    16.1455    12.1090    51.3548
  461.5000     7.9580    80.2722     0.0258     0.0527     2.5941   -21.8319    16.6081    12.2826    49.6704
  462.0000     7.9445    77.2888     0.0319     0.0350     2.5979   -22.2639    17.4416    12.5450    46.6517
  462.5000     7.9461    75.6509     0.0305     0.0377     2.5979   -22.6960    18.9602    12.8130    43.6330
  463.0000     7.9476    77.7687     0.0238     0.0311     2.6167   -22.8344    20.1169    12.9966    42.0508
  463.5000     7.9491    73.5859     0.0238     0.0181     2.6228   -22.8173    21.5182    13.0922    39.7195
  464.0000     7.9506    70.7487     0.0239     0.0499     2.6139   -22.6550    22.8855    13.1885    39.6354
  464.5000     7.9521    73.0164     0.0202     0.0801     2.5301   -22.6413    22.4306    13.0118    41.0495
  465.0000     7.9536    74.5578     0.0060     0.1097     2.4672   -22.6276    21.2387    12.9277    42.4845
  465.5000     8.1500    81.6793    -0.0035     0.1370     2.4351   -22.5854    20.2495    12.7558    45.3757
  466.0000     8.1662    86.9175    -0.0110     0.1546     2.4044   -22.4368    19.4401    12.5861    49.7860
  466.5000     8.1527    88.7017    -0.0179     0.1567     2.4165   -22.1441    18.0298    12.2486    53.4472
  467.0000     8.1546    88.8302    -0.0115     0.1372     2.4345   -22.1306    16.2663    11.9200    57.8575
  467.5000     8.1561    83.1084     0.0026     0.1321     2.4398   -22.2655    14.7770    11.5204    61.8351
  468.0000     8.2775    84.0750     0.0093     0.1245     2.4451   -22.6975    13.8955    11.1342    66.8763
  468.5000     8.3690    83.7681     0.0139     0.1224     2.4474   -23.1296    13.5235    10.8355    70.3895
  469.0000     8.4005    81.6942     0.0139     0.1278     2.4393   -23.2680    13.3465    10.6903    71.7752
  469.5000     8.4020    79.4604     0.0140     0.1295     2.4431   -23.2509    13.3551    10.6212    71.6904
  470.0000     8.4035    80.2251     0.0141     0.1292     2.4432   -23.3858    13.3634    10.5526    70.8572
  470.5000     8.4050    84.8879     0.0141     0.1259     2.4432   -23.3721    13.3719    10.4844    70.7731
  471.0000     8.4065    88.2013     0.0142     0.1250     2.4433   -23.3584    13.3804    10.4889    70.6891
  471.5000     8.4230    83.5688     0.0142     0.1273     2.4434   -23.3477    13.3889    10.4211    71.3540
  472.0000     8.4545    81.0351     0.0151     0.1315     2.4433   -23.3344    13.3031    10.3536    72.0190
  472.5000     8.4560    84.9483     0.0151     0.1315     2.4436   -23.1722    13.2220    10.2858    72.7050
  473.0000     8.4575    86.0129     0.0159     0.1301     2.4506   -23.1585    13.1373    10.2194    73.3700
  473.5000     8.4591    85.2783     0.0160     0.1183     2.4596   -23.5906    12.9654    10.1544    73.2649
  474.0000     8.4756    82.7447     0.0161     0.1167     2.4654   -23.7289    12.7077    10.1587    73.9509
  474.5000     8.5068    86.2081     0.0154     0.1273     2.4451   -24.0090    12.4570    10.0920    73.8651
  475.0000     8.5233    88.6219     0.0102     0.1367     2.4311   -23.9953    12.3633    10.0974    74.5318
  475.5000     8.5248    90.5861     0.0102     0.1376     2.4304   -23.9816    12.2084    10.1017    74.4478
  476.0000     8.5096    88.0524     0.0103     0.1274     2.4372   -23.9680    12.0554    10.1050    74.3637
  476.5000     8.4666    87.7639     0.0103     0.1201     2.4560   -23.9543    11.9798    10.1092    74.2796
  477.0000     8.4543    87.7828     0.0104     0.1198     2.4591   -23.9227    11.9736    10.0438    74.1955
  477.5000     8.4708    88.3976     0.0105     0.1186     2.4606   -23.7741    11.9736    10.0481    74.1114
  478.0000     8.4873    89.4621     0.0105     0.1182     2.4615   -23.6195    11.9736    10.0524    74.0274
  478.5000     8.4888    91.8760     0.0106     0.1195     2.4593   -23.6058    11.9736    10.0566    74.7134
  479.0000     8.4903    92.3371     0.0105     0.1224     2.4399   -23.5921    11.9736     9.9906    74.6083
  479.5000     8.4768    89.5074     0.0061     0.1250     2.4392   -23.7304    12.0172    10.0651    74.5242
  480.0000     8.4632    88.7729     0.0062     0.1268     2.4423   -24.1591    12.0990    10.0694    74.4569
  480.5000     8.4648    88.3382     0.0064     0.1283     2.4408   -24.7398    12.1808    10.1435    74.3746
  481.0000     8.4663    88.2034     0.0071     0.1312     2.4334   -25.0267    12.2639    10.1478    74.2922
  481.5000     8.4678    88.2185     0.0019     0.1342     2.4275   -22.0412    12.3471    10.2215    74.2089
  482.0000     8.4694    88.2336     0.0027     0.1372     2.4260   -23.5100    12.3810    10.2258    74.1248
  482.5000     8.4709    85.9998     0.0050     0.1276     2.4564   -23.9455    12.3810    10.3009    74.7940
  483.0000     8.4724    80.6176     0.0096     0.1045     2.4844   -23.6345    12.3810    10.3052    74.7057
  483.5000     8.4435    80.1791     0.0172     0.0972     2.5080   -23.4724    12.3810    10.3096    74.6216
  484.0000     8.4154    81.0005     0.0240     0.1143     2.4548   -23.4587    12.3810    10.3139    75.3077
  484.5000     8.4016    83.0045     0.0233     0.1331     2.4294   -23.4450    12.3810    10.3898    75.2026
  485.0000     8.3881    85.3423     0.0061     0.1400     2.4257   -23.4314    12.3810    10.3942    75.1185
  485.5000     8.3900    84.9735     0.0016     0.1409     2.4273   -23.4177    12.4530    10.3986    75.0344
  486.0000     8.3915    83.2531     0.0025     0.1315     2.4431   -23.2554    12.2055    10.4751    74.9503
  486.5000     8.4080    85.6992     0.0108     0.1159     2.4664   -23.2417    12.1292    10.4795    74.8839
  487.0000     8.4545    86.2818     0.0146     0.1135     2.4723   -23.0795    11.9704    10.4839    75.5522
  487.5000     8.4706    83.5982     0.0147     0.1144     2.4607   -22.9172    11.8956    10.4875    75.4682
  488.0000     8.4125    81.5143     0.0155     0.1188     2.4536   -22.7578    11.9032    10.4918    75.3841
  488.5000     8.3837    80.0302     0.0073     0.1269     2.4494   -22.5959    11.9107    10.4962    75.3000
  489.0000     8.3252    80.7949     0.0073     0.1173     2.4632   -22.1366    11.8360    10.5006    75.2159
  489.5000     8.2671    83.3587     0.0104     0.1166     2.4690   -23.1631    11.7604    10.5050    75.1319
  490.0000     8.1937    86.8221     0.0142     0.1127     2.4766   -23.0008    11.6869    10.4361    75.0478
  490.5000     8.1648    89.8357     0.0150     0.1094     2.4834   -22.5414    11.6962    10.4416    74.9637
  491.0000     8.2717    91.6499     0.0151     0.1118     2.4767   -22.2305    11.7847    10.4460    74.8796
  491.5000     8.3355    93.0143     0.0152     0.1141     2.4715   -22.0682    11.8739    10.5958    73.2974
  492.0000     8.3493    90.9304     0.0152     0.1156     2.4633   -22.2066    12.0466    10.6737    72.4643
  492.5000     8.3191    87.3473     0.0153     0.1288     2.4230   -22.0409    12.2219    10.9017    70.8989
  493.0000     8.2773    85.2635     0.0161     0.1515     2.3594   -21.8786    12.4984    10.9810    68.4795
  493.5000     8.2788    83.0297     0.0059     0.1775     2.3167   -20.5778    12.8489    11.2154    64.6817
  494.0000     8.2496    81.8416    -0.0058     0.2135     2.2988   -19.1561    13.3930    11.2978    60.1640
