~VERSION INFORMATION
 VERS.                2.0:   CWLS LOG ASCII STANDARD - VERSION 2.0
 WRAP.                 NO:   ONE LINE PER DEPTH STEP
~WELL INFORMATION
#MNEM.UNIT      DATA TYPE    INFORMATION
#----------   ------------   ------------------------------
 STRT.F           30.0000:   START DEPTH
 STOP.F          602.0000:   STOP DEPTH
 STEP.F            0.5000:   STEP LENGTH
 NULL.          -999.2500:   NO VALUE
 COMP. FENIX & SCISSON U.S NAVY:   COMPANY
 WELL.   S-3 NPR #3 #51-3:   WELL
 FLD .             TEAPOT:   FIELD
 LOC .       S3 T38N R78W:   LOCATION
 CNTY.            NATRONA:   COUNTY
 STAT.            WYOMING:   STATE
 CTRY. UNITED STATES OF AMERICA:   COUNTRY
 SRVC.              Welex:   SERVICE COMPANY
 DATE.        08-MAR-1977:   LOGDATE
 API .       490251030800:   API NUMBER
~CURVE INFORMATION
#MNEM.UNIT       API CODE    CURVE DESCRIPTION
#----------   ------------   ------------------------------
 DEPT.F                  :   
 SPR .MV     07 010 01 00:   SPONTANEOUS POTENTIAL
 ILD .OHMM   07 120 46 00:   INDUCTION LOG DEEP
 ILM .OHMM   07 120 44 00:   INDUCTION LOG MEDIUM
 SGRD.OHMM   07 221 05 00:   SHALLOW SHORT GUARD RESISTIVITY
 CALD.IN     45 280 60 00:   CALIPER FROM DENSITY LOG
 CORR.G/C3   45 356 01 00:   DENSITY CORRECTION
 RHOB.G/C3   45 350 01 00:   BULK DENSITY
 DPHI.DEC    45 890 12 00:   DENSITY POROSITY SANDSTONE
 GRD .GAPI   45 310 01 00:   GAMMA RAY FROM DENSITY LOG
~PARAMETER INFORMATION
#MNEM.UNIT          VALUE    DESCRIPTION
#----------   ------------   ------------------------------
 PD  .                 GL:   PERMANENT DATUM
 EPD .F              5140:   ELEVATION PERMANENT DATUM
 LMF .                 GL:   LOG MEASURED FROM
 DAPD.F                  :   FEET ABOVE PERMANENT DATUM
 DMF .                 GL:   DRILLING MEASURED FROM
 EKB .F                  :   KELLING BUSHING
 EDF .F                  :   DRILLING FLOOR
 EGL .F              5140:   GROUND LEVEL
 DATE.             3-8-77:   RUN DATE
 RUN .                  1:   RUN NUMBER
 DD  .F               611:   DEPTH DRILLER
 DL  .F               555:   DEPTH LOGGER
 BLI .F               553:   BOTTOM LOG INTERVAL
 TLI .F                40:   TOP LOG INTERVAL
 CS  .IN            8.625:   CASING SIZE
 CBD .F                40:   CASING BOTTOM DRILLER
 CBL .F                40:   CASING BOTTOM LOGGER
 BS  .IN            7.875:   BIT SIZE
 BSD .F               611:   BIT SIZE AT DEPTH
 DFT .           CHEM GEL:   DRILLING FLUID TYPE
 DFD .                8.6:   DRILLING FLUID DENSITY
 DFV .                 42:   DRILLING FLUID VISCOSITY
 DFPH.                  8:   DRILLING FLUID PH
 DFL .                3.2:   DRILLING FLUID LOSS
 MSS .           FLOWLINE:   MUD SAMPLE SOURCE
 RMS .OHMM           1.49:   RESISTIVITY MUD SAMPLE
 MST .F                48:   MUD SAMPLE TEMPERATURE
 RMF .OHMM           1.07:   RESISTIVITY MUD FILTRATE SAMPLE
 MFST.F                48:   MUD FILTRATE SAMPLE TEMPERATURE
 RMC .OHMM           2.34:   RESISTIVITY MUD CAKE
 MCST.F                48:   MUD CAKE SAMPLE TEMPERATURE
 MFSS.           MEASURED:   MUD FILTRATE SAMPLE SOURCE
 MCSS.           MEASURED:   MUD CAKE SAMPLE SOURCE
 RMB .OHMM           1.19:   RESISTIVITY MUD AT BHT
 BHT .F                60:   BOTTOM HOLE TEMPERATURE
 TCS .HRS               2:   TIME CURCULATED STOPPED
 TLAB.HRS                :   TIME LOGGER AT BOTTOM
 MRT .F                60:   MAXIMUM RECORDED TEMPERATURE
 LUN .               0716:   LOGGING UNIT NUMBER
 LUL .             VERNAL:   LOGGING UNIT LOCATION
 ENGI.           CALLAHAN:   RECORDING ENGINEER
 WITN.         STUEBINGER:   WITNESSED BY
 CLNT.            A2DTECH:   CLIENT CODE
 ORIG.       2", 5" PRINT:   ORIGIN OF DATA
 UWI .       490251030800:   UNIQUE WELL ID
 DICO. A2D Technologies, Inc.:   DIGITIZING COMPANY
 OS  .                   :   OTHER SERVICES
 PWI .                   :   PRIMARY WELL IDENTIFIER
 R1  .                   :   REMARKS 1
 R2  .                   :   REMARKS 2
 LSRV.                   :   LOG MNEMONIC
~OTHER INFORMATION
~A   DEPT      SPR        ILD        ILM       SGRD       CALD       CORR       RHOB       DPHI        GRD   
# ...
  541.0000  -999.2500  -999.2500  -999.2500  -999.2500     7.7922     0.0014     2.4560     0.1198   109.0904
  541.5000  -999.2500  -999.2500  -999.2500  -999.2500     7.8066     0.0269     2.4755     0.1072   109.7053
  542.0000  -999.2500  -999.2500  -999.2500  -999.2500     7.8059     0.0193     2.4626     0.1033   110.7405
  542.5000  -999.2500  -999.2500  -999.2500  -999.2500     7.8053     0.0067     2.4626     0.1162   112.0930
  543.0000  -999.2500  -999.2500  -999.2500  -999.2500     7.7898     0.0282     2.4783     0.1042   112.0901
  543.5000  -999.2500  -999.2500  -999.2500  -999.2500     7.7892     0.0160     2.4895     0.1050   112.0872
  544.0000  -999.2500  -999.2500  -999.2500  -999.2500     7.7886     0.0099     2.4571     0.1177   112.0843
  544.5000  -999.2500  -999.2500  -999.2500  -999.2500     7.7879     0.0099     2.4743     0.1129   111.9302
  545.0000  -999.2500  -999.2500  -999.2500  -999.2500     7.7873     0.0098     2.4795     0.1069   111.7767
  545.5000  -999.2500  -999.2500  -999.2500  -999.2500     7.7868     0.0037     2.4761     0.1009   111.9244
  546.0000  -999.2500  -999.2500  -999.2500  -999.2500     7.7862     0.0127     2.4704     0.1004   112.6746
  546.5000  -999.2500  -999.2500  -999.2500  -999.2500     7.7856     0.0216     2.4779     0.1023   113.8774
  547.0000  -999.2500  -999.2500  -999.2500  -999.2500     7.7849     0.0215     2.4868     0.1034   115.0777
  547.5000  -999.2500  -999.2500  -999.2500  -999.2500     7.7843     0.0215     2.5003     0.0995   115.9785
  548.0000  -999.2500  -999.2500  -999.2500  -999.2500     7.7838     0.0229     2.5070     0.0959   117.0298
  548.5000  -999.2500  -999.2500  -999.2500  -999.2500     7.7832     0.0258     2.4892     0.0971   118.0812
  549.0000  -999.2500  -999.2500  -999.2500  -999.2500     7.7826     0.0273     2.4806     0.1055   119.2831
  549.5000  -999.2500  -999.2500  -999.2500  -999.2500     7.7820     0.0287     2.4715     0.1100   120.9799
  550.0000  -999.2500  -999.2500  -999.2500  -999.2500     7.7838     0.0251     2.4556     0.1227   122.8721
  550.5000  -999.2500  -999.2500  -999.2500  -999.2500     7.8128     0.0150     2.4594     0.1211   126.0576
  551.0000  -999.2500  -999.2500  -999.2500  -999.2500     7.8418     0.0270     2.4766     0.1131   127.5666
  551.5000  -999.2500  -999.2500  -999.2500  -999.2500     7.8699     0.0435     2.4811     0.1080   128.4731
  552.0000  -999.2500  -999.2500  -999.2500  -999.2500     7.8694     0.0329     2.4562     0.1107   128.7772
  552.5000  -999.2500  -999.2500  -999.2500  -999.2500     7.8690     0.0177     2.4351     0.1237   128.3258
  553.0000  -999.2500  -999.2500  -999.2500  -999.2500     7.8535     0.0192     2.4246     0.1351   126.7101
  553.5000  -999.2500  -999.2500  -999.2500  -999.2500     7.8531     0.0161     2.4291     0.1417   120.0517
  554.0000  -999.2500  -999.2500  -999.2500  -999.2500     7.8527     0.0010     2.4267     0.1375   116.1390
  554.5000  -999.2500  -999.2500  -999.2500  -999.2500     7.8522    -0.0186     2.4335     0.1315   114.9371
  555.0000  -999.2500  -999.2500  -999.2500  -999.2500     7.8517    -0.0247     2.4503     0.1237   114.3376
  555.5000  -999.2500  -999.2500  -999.2500  -999.2500     7.8513    -0.0157     2.4718     0.1180   114.3158
  556.0000  -999.2500  -999.2500  -999.2500  -999.2500     7.8508    -0.0081     2.4770     0.1115   114.4940
  556.5000  -999.2500  -999.2500  -999.2500  -999.2500     7.8504    -0.0038     2.4499     0.1133   114.4804
  557.0000  -999.2500  -999.2500  -999.2500  -999.2500     7.8649     0.0022     2.4453     0.1229   113.8981
  557.5000  -999.2500  -999.2500  -999.2500  -999.2500     7.8795     0.0126     2.4859     0.1103   113.5998
  558.0000  -999.2500  -999.2500  -999.2500  -999.2500     7.8641     0.0246     2.5107     0.0881   115.1088
  558.5000  -999.2500  -999.2500  -999.2500  -999.2500     7.8635     0.0080     2.5039     0.0845   116.9182
  559.0000  -999.2500  -999.2500  -999.2500  -999.2500     7.8631     0.0125     2.5121     0.0920   114.9640
  559.5000  -999.2500  -999.2500  -999.2500  -999.2500     7.8477     0.0260     2.5173     0.0833   114.5151
  560.0000  -999.2500  -999.2500  -999.2500  -999.2500     7.8473     0.0154     2.5007     0.0951   114.0562
  560.5000  -999.2500  -999.2500  -999.2500  -999.2500     7.8468     0.0002     2.4827     0.0902   112.5638
  561.0000  -999.2500  -999.2500  -999.2500  -999.2500     7.8314    -0.0028     2.4924     0.0987   111.5118
  561.5000  -999.2500  -999.2500  -999.2500  -999.2500     7.8309     0.0242     2.5131     0.0924   112.2684
  562.0000  -999.2500  -999.2500  -999.2500  -999.2500     7.8305     0.0257     2.5224     0.0810   113.0244
  562.5000  -999.2500  -999.2500  -999.2500  -999.2500     7.8300     0.0241     2.5163     0.0843   113.3285
  563.0000  -999.2500  -999.2500  -999.2500  -999.2500     7.8446     0.0161     2.5065     0.0849   113.3484
  563.5000  -999.2500  -999.2500  -999.2500  -999.2500     7.8441     0.0074     2.5042     0.0880   112.8790
  564.0000  -999.2500  -999.2500  -999.2500  -999.2500     7.8437     0.0028     2.5065     0.0967   112.1084
  564.5000  -999.2500  -999.2500  -999.2500  -999.2500     7.8582     0.0028     2.5094     0.0982   111.6835
  565.0000  -999.2500  -999.2500  -999.2500  -999.2500     7.8577     0.0012     2.5093     0.0988   112.2896
  565.5000  -999.2500  -999.2500  -999.2500  -999.2500     7.8573     0.0011     2.4973     0.0997   112.7443
  566.0000  -999.2500  -999.2500  -999.2500  -999.2500     7.8568     0.0026     2.4807     0.1045   112.5959
  566.5000  -999.2500  -999.2500  -999.2500  -999.2500     7.8414     0.0055     2.4785     0.1088   112.4489
  567.0000  -999.2500  -999.2500  -999.2500  -999.2500     7.8410     0.0085     2.4777     0.1100   112.3012
  567.5000  -999.2500  -999.2500  -999.2500  -999.2500     7.8256     0.0114     2.4761     0.1109   112.1535
  568.0000  -999.2500  -999.2500  -999.2500  -999.2500     7.8251     0.0114     2.4730     0.1115   112.4584
  568.5000  -999.2500  -999.2500  -999.2500  -999.2500     7.8246     0.0083     2.4700     0.1118   112.9131
  569.0000  -999.2500  -999.2500  -999.2500  -999.2500     7.8242     0.0067     2.4715     0.1076   113.5184
  569.5000  -999.2500  -999.2500  -999.2500  -999.2500     7.8388     0.0067     2.4737     0.0977   113.9731
  570.0000  -999.2500  -999.2500  -999.2500  -999.2500     7.8383    -0.0024     2.4692     0.1040   113.5242
  570.5000  -999.2500  -999.2500  -999.2500  -999.2500     7.8379    -0.0040     2.4812     0.1092   112.6235
  571.0000  -999.2500  -999.2500  -999.2500  -999.2500     7.8374     0.0020     2.5052     0.1026   111.7228
  571.5000  -999.2500  -999.2500  -999.2500  -999.2500     7.8369     0.0110     2.4994     0.0960   111.8771
  572.0000  -999.2500  -999.2500  -999.2500  -999.2500     7.8365     0.0034     2.4750     0.1017   112.6330
  572.5000  -999.2500  -999.2500  -999.2500  -999.2500     7.8360     0.0003     2.4788     0.1110   113.2383
  573.0000  -999.2500  -999.2500  -999.2500  -999.2500     7.8356     0.0063     2.4960     0.1056   113.3911
  573.5000  -999.2500  -999.2500  -999.2500  -999.2500     7.8501     0.0152     2.5050     0.0933   112.7924
  574.0000  -999.2500  -999.2500  -999.2500  -999.2500     7.8651     0.0228     2.5057     0.0901   113.0965
  574.5000  -999.2500  -999.2500  -999.2500  -999.2500     7.8792     0.0257     2.5057     0.0910   113.7018
  575.0000  -999.2500  -999.2500  -999.2500  -999.2500     7.8937     0.0241     2.5031     0.0898   113.5291
  575.5000  -999.2500  -999.2500  -999.2500  -999.2500     7.8932     0.0105     2.4958     0.0937   113.2558
  576.0000  -999.2500  -999.2500  -999.2500  -999.2500     7.8778     0.0014     2.4995     0.0982   113.4100
  576.5000  -999.2500  -999.2500  -999.2500  -999.2500     7.8774     0.0013     2.5085     0.0970   113.5636
  577.0000  -999.2500  -999.2500  -999.2500  -999.2500     7.8470     0.0013     2.5108     0.0935   114.0183
