~VERSION INFORMATION
 VERS.                2.0:   CWLS LOG ASCII STANDARD - VERSION 2.0
 WRAP.                 NO:   ONE LINE PER DEPTH STEP
~WELL INFORMATION
#MNEM.UNIT      DATA TYPE    INFORMATION
#----------   ------------   ------------------------------
 STRT.F           28.0000:   START DEPTH
 STOP.F          693.0000:   STOP DEPTH
 STEP.F            0.5000:   STEP LENGTH
 NULL.          -999.2500:   NO VALUE
 COMP. FENIX & SCISSON INC:   COMPANY
 WELL.       NPR-3 #63-15:   WELL
 FLD .             TEAPOT:   FIELD
 LOC .      S15 T38N R78W:   LOCATION
 CNTY.            NATRONA:   COUNTY
 STAT.            WYOMING:   STATE
 CTRY. UNITED STATES OF AMERICA:   COUNTRY
 SRVC.            Unknown:   SERVICE COMPANY
 DATE.        10-JUN-1978:   LOGDATE
 API .       490251063800:   API NUMBER
~CURVE INFORMATION
#MNEM.UNIT       API CODE    CURVE DESCRIPTION
#----------   ------------   ------------------------------
 DEPT.F                  :   
 SPR .MV     05 010 01 00:   SPONTANEOUS POTENTIAL FROM RES.
 SN  .OHMM   05 040 16 00:   SHORT NORMAL 16"
 ILD .OHMM   05 120 46 00:   INDUCTION LOG DEEP
 CALD.IN     45 280 60 00:   CALIPER FROM DENSITY LOG
 GRD .GAPI   45 310 01 00:   GAMMA RAY FROM DENSITY LOG
 CORR.G/C3   45 356 01 00:   DENSITY CORRECTION
 DPHI.DEC    45 890 12 00:   DENSITY POROSITY SANDSTONE
 DEN .G/C3   45 350 01 00:   DENSITY
~PARAMETER INFORMATION
#MNEM.UNIT          VALUE    DESCRIPTION
#----------   ------------   ------------------------------
 PD  .                 GL:   PERMANENT DATUM
 EPD .F              5265:   ELEVATION PERMANENT DATUM
 LMF .                 KB:   LOG MEASURED FROM
 DAPD.F                 4:   FEET ABOVE PERMANENT DATUM
 DMF .                 KB:   DRILLING MEASURED FROM
 EKB .F              5269:   KELLING BUSHING
 EGL .F              5265:   GROUND LEVEL
 DATE.        10-JUN-1978:   RUN DATE
 RUN .                  1:   RUN NUMBER
 DD  .F               690:   DEPTH DRILLER
 DL  .F               697:   DEPTH LOGGER
 BLI .F               690:   BOTTOM LOG INTERVAL
 TLI .F                35:   TOP LOG INTERVAL
 CS  .IN            8.625:   CASING SIZE
 CBD .F                40:   CASING BOTTOM DRILLER
 CBL .F                35:   CASING BOTTOM LOGGER
 BS  .IN            7.875:   BIT SIZE
 BSD .F               690:   BIT SIZE AT DEPTH
 DFT .                KCL:   DRILLING FLUID TYPE
 DFD .                8.7:   DRILLING FLUID DENSITY
 DFV .                 34:   DRILLING FLUID VISCOSITY
 DFPH.                 10:   DRILLING FLUID PH
 DFL .               11.6:   DRILLING FLUID LOSS
 MSS .            MUD PIT:   MUD SAMPLE SOURCE
 RMS .OHMM            .32:   RESISTIVITY MUD SAMPLE
 MST .F                74:   MUD SAMPLE TEMPERATURE
 RMF .OHMM            .28:   RESISTIVITY MUD FILTRATE SAMPLE
 MFST.F                78:   MUD FILTRATE SAMPLE TEMPERATURE
 RMC .OHMM            .36:   RESISTIVITY MUD CAKE
 MCST.F                78:   MUD CAKE SAMPLE TEMPERATURE
 MFSS.               MEAS:   MUD FILTRATE SAMPLE SOURCE
 MCSS.               MEAS:   MUD CAKE SAMPLE SOURCE
 BHT .F                80:   BOTTOM HOLE TEMPERATURE
 TCS .HRS            0100:   TIME CURCULATED STOPPED
 MRT .F                80:   MAXIMUM RECORDED TEMPERATURE
 LUN .               2958:   LOGGING UNIT NUMBER
 LUL .               CASP:   LOGGING UNIT LOCATION
 ENGI.             MILLER:   RECORDING ENGINEER
 WITN.           MCGINLEY:   WITNESSED BY
 CLNT.            A2DTECH:   CLIENT CODE
 ORIG.           5" PRINT:   ORIGIN OF DATA
 UWI .       490251063800:   UNIQUE WELL ID
 DICO. A2D Technologies, Inc.:   DIGITIZING COMPANY
~OTHER INFORMATION
~A   DEPT      SPR         SN        ILD       CALD        GRD       CORR       DPHI        DEN   
# ...
  311.5000    -8.1522     8.4411     8.3894     7.6623    86.6801     0.0117     0.1040     2.4950
  312.0000    -8.1361     8.6228     8.5719     7.7084    90.2840     0.0119     0.1067     2.4935
  312.5000    -8.1199     8.8749     8.8805     7.7707    90.5999     0.0105     0.1091     2.4867
  313.0000    -8.1038     8.9984     9.0737     7.8332    89.8711     0.0077     0.1109     2.4862
  313.5000    -8.0876     9.0668     9.0805     7.9068    88.2467     0.0064     0.1102     2.4870
  314.0000    -8.0715     9.1981     9.2140     7.9229    87.3643     0.0065     0.1072     2.4878
  314.5000    -8.0553     9.3962     9.2849     7.9241    89.9234     0.0067     0.1054     2.4872
  315.0000    -8.0389     9.5323     9.4215     7.9402    89.0454     0.0084     0.1084     2.4857
  315.5000    -8.0225     9.5374     9.4940     7.9564    83.8389     0.0071     0.1155     2.4798
  316.0000    -8.0029     9.5426     9.5673     7.8827    81.5821     0.0073     0.1152     2.4784
  316.5000    -7.9867     9.6141     9.5760     7.8090    80.4410     0.0090     0.1164     2.4785
  317.0000    -7.9706     9.9579     9.8523     7.7653    80.9105     0.0121     0.1176     2.4808
  317.5000    -7.9544    10.1723    10.1366     7.7365    79.2862     0.0123     0.1142     2.4824
  318.0000    -7.9383    10.3914    10.2857     7.7012    77.8111     0.0110     0.1124     2.4817
  318.5000    -7.9221    10.4693    10.4369     7.5592    78.7241     0.0082     0.1121     2.4802
  319.0000    -7.9060    10.5478    10.5173     7.5304    80.2341     0.0053     0.1141     2.4833
  319.5000    -7.8899    10.4820    10.5251     7.5166    81.2963     0.0025     0.1141     2.4857
  320.0000    -7.8737    10.4153    10.5329     7.4732    81.6122     0.0042     0.1132     2.4872
  320.5000    -7.8576    10.3477    10.4678     7.3845    81.6297     0.0059     0.1114     2.4828
  321.0000    -7.8413    10.2819    10.4036     7.3408    77.9562     0.0061     0.1110     2.4821
  321.5000    -7.8249    10.2889    10.3395     7.3569    76.7392     0.0063     0.1179     2.4822
  322.0000    -7.8051    10.2221    10.2758     7.4030    77.8058     0.0049     0.1185     2.4770
  322.5000    -7.7890    10.1571    10.1439     7.4491    78.7187     0.0036     0.1140     2.4756
  323.0000    -7.9265    10.1640    10.0795     7.3887    75.7511     0.0023     0.1151     2.4779
  323.5000    -8.0601    10.0993    10.0174     7.3616    75.4657     0.0025     0.1187     2.4795
  324.0000    -8.0399     9.9660     9.9557     7.3780    78.7711     0.0026     0.1187     2.4736
  324.5000    -8.0238     9.8343     9.8944     7.3942    79.9826     0.0029     0.1132     2.4737
  325.0000    -8.0076     9.7608     9.7000     7.4403    79.4030     0.0030     0.1078     2.4775
  325.5000    -7.9915     9.5776     9.5719     7.5013    78.9727     0.0032     0.1102     2.4791
  326.0000    -7.9753     9.4498     9.3839     7.4872    80.3378     0.0034     0.1177     2.4739
  326.5000    -7.9592     9.3249     9.3909     7.4438    80.3552     0.0051     0.1173     2.4747
  327.0000    -7.9431     9.2656     9.3979     7.3851    77.0876     0.0082     0.1173     2.4770
  327.5000    -7.9266     9.2719     9.3400     7.3264    74.1200     0.0054     0.1188     2.4771
  328.0000    -7.9102     9.2770     9.3487     7.2527    77.7195    -0.0004     0.1258     2.4689
  328.5000    -7.8906     9.2820     9.3556     7.2239    80.4235    -0.0064     0.1335     2.4502
  329.0000    -7.8744     9.2870     9.2963     7.2254    77.1618    -0.0106     0.1368     2.4443
  329.5000    -7.8583     9.2921     9.3049     7.2265    75.2389    -0.0074     0.1256     2.4474
  330.0000    -7.8422     9.2971     9.3119     7.2576    76.4504    -0.0042     0.1256     2.4575
  330.5000    -7.8260     9.3023     9.2545     7.2286    80.9454     0.0005     0.1267     2.4595
  331.0000    -7.8099     9.2430     9.2614     7.2749    82.1569    -0.0008     0.1303     2.4521
  331.5000    -7.9475     9.0592     9.2027     7.3210    83.2191    -0.0067     0.1369     2.4477
  332.0000    -7.9273     8.9384     9.1475     7.3521    82.4903    -0.0065     0.1351     2.4478
  332.5000    -7.9111     8.8215     9.0913     7.3832    80.5675    -0.0048     0.1308     2.4508
  333.0000    -8.0449     8.8263     8.9730     7.3232    78.0240    -0.0046     0.1281     2.4569
  333.5000    -8.0284     8.7690     8.8561     7.2188    76.5512    -0.0027     0.1260     2.4622
  334.0000    -8.0120     8.7132     8.7425     7.1921    76.4407     0.0003     0.1236     2.4631
  334.5000    -7.9922     8.7191     8.7490     7.1487    74.5222     0.0019     0.1259     2.4623
  335.0000    -7.9761     8.6635     8.6951     7.1648    73.7890     0.0051     0.1292     2.4610
  335.5000    -8.1137     8.6684     8.7016     7.2259    76.0496     0.0053     0.1271     2.4633
  336.0000    -8.2432     8.6731     8.6464     7.3019    78.4551     0.0085     0.1213     2.4656
  336.5000    -8.2271     8.6131     8.6544     7.3779    79.8159     0.0117     0.1140     2.4664
  337.0000    -8.3646     8.5041     8.6011     7.4689    81.1766     0.0148     0.1204     2.4680
  337.5000    -8.3445     8.3929     8.5479     7.5300    83.4328     0.0210     0.1240     2.4749
  338.0000    -8.3283     8.3385     8.4368     7.5912    84.4951     0.0227     0.1155     2.4674
  338.5000    -8.3122     8.2283     8.3266     7.6371    77.5019     0.0274     0.1146     2.4728
  339.0000    -8.2960     8.1207     8.1619     7.6835    71.6985     0.0336     0.1149     2.4766
  339.5000    -8.2799     8.0134     8.1116     7.7595    71.5623     0.0323     0.1139     2.4767
  340.0000    -8.5729     7.9076     8.1191     7.7906    74.4199     0.0279     0.1136     2.4760
  340.5000    -8.6967     7.9119     8.0691     7.7768    79.9598     0.0251     0.1139     2.4761
  341.0000    -8.6765     7.9162     8.0179     7.7780    81.6190     0.0253     0.1176     2.4761
  341.5000    -8.6604     7.9205     7.9150     7.7941    80.2932     0.0240     0.1225     2.4732
  342.0000    -8.7980     7.9248     7.8648     7.7953    78.3703     0.0121     0.1297     2.4583
  342.5000    -8.7778     7.8744     7.8163     7.8114    79.5124     0.0107     0.1240     2.4598
  343.0000    -8.7616     7.8698     7.8236     7.7677    84.6548     0.0095     0.1210     2.4630
  343.5000    -8.7455     7.8286     7.8295     7.7389    85.7405     0.0112     0.1200     2.4705
  344.0000    -8.7294     7.7788     7.8353     7.7251    84.1161     0.0144     0.1170     2.4758
  344.5000    -8.7132     7.7293     7.8412     7.7415    78.9097     0.0161     0.1128     2.4789
  345.0000    -8.6971     7.7346     7.8472     7.7577    78.3257     0.0162     0.1146     2.4797
  345.5000    -8.6809     7.6844     7.8001     7.7738    79.8401     0.0164     0.1160     2.4761
  346.0000    -8.6647     7.6896     7.7521     7.7750    79.7083     0.0166     0.1178     2.4724
  346.5000    -8.6482     7.5880     7.7029     7.7462    79.2776     0.0168     0.1208     2.4717
  347.0000    -8.6285     7.4361     7.6040     7.6875    79.6020     0.0169     0.1223     2.4718
  347.5000    -8.7660     7.3378     7.4532     7.6437    80.0597     0.0171     0.1219     2.4710
  348.0000    -8.7459     7.0922     7.2049     7.6599    79.7824     0.0173     0.1210     2.4689
  348.5000    -8.7297     6.9946     6.9649     7.6910    79.6462     0.0175     0.1198     2.4690
  349.0000    -8.8673     6.8983     6.9218     7.6473    79.5144     0.0161     0.1179     2.4698
  349.5000    -8.8471     6.8622     6.9272     7.6335    79.8348     0.0119     0.1161     2.4707
  350.0000    -8.8247     6.8186     6.9805     7.5899    82.2874     0.0090     0.1155     2.4715
  350.5000    -8.7612     6.9500     7.0222     7.5164    84.6427     0.0121     0.1154     2.4715
  351.0000    -8.6977     7.0192     7.0638     7.5177    85.2542     0.0092     0.1169     2.4731
  351.5000    -8.6329     7.0722     7.1409     7.5040    84.2240     0.0094     0.1184     2.4739
