~VERSION INFORMATION
 VERS.                2.0:   CWLS LOG ASCII STANDARD - VERSION 2.0
 WRAP.                 NO:   ONE LINE PER DEPTH STEP
~WELL INFORMATION
#MNEM.UNIT      DATA TYPE    INFORMATION
#----------   ------------   ------------------------------
 STRT.F           75.0000:   START DEPTH
 STOP.F          859.0000:   STOP DEPTH
 STEP.F            0.5000:   STEP LENGTH
 NULL.          -999.2500:   NO VALUE
 COMP. U S NAVY/INTEX OIL CO:   COMPANY
 WELL.     NPR ##3 14S-35:   WELL
 FLD .             TEAPOT:   FIELD
 LOC .      S35 T39N R78W:   LOCATION
 CNTY.            NATRONA:   COUNTY
 STAT.            WYOMING:   STATE
 CTRY. UNITED STATES OF AMERICA:   COUNTRY
 SRVC. Schlumberger Well Surveying Corp:   SERVICE COMPANY
 DATE.        27-FEB-1961:   LOGDATE
 API .       490251023000:   API NUMBER
~CURVE INFORMATION
#MNEM.UNIT       API CODE    CURVE DESCRIPTION
#----------   ------------   ------------------------------
 DEPT.F                  :   
 GRN .CPS    35 310 30 00:   GAMMA RAY
 SPR .MV     05 010 01 00:   SPONTANEOUS POTENTIAL FROM RES.
 ILD .OHMM   05 120 46 00:   INDUCTION LOG DEEP
 ASN .OHMM   05 041 16 00:   AMPLIFIED SHORT NORMAL 16"
 CILD.MMHO   05 110 46 00:   CONDUCTIVITY INDUCTION LOG DEEP
~PARAMETER INFORMATION
#MNEM.UNIT          VALUE    DESCRIPTION
#----------   ------------   ------------------------------
 PD  .                 GL:   PERMANENT DATUM
 EPD .F              5110:   ELEVATION PERMANENT DATUM
 LMF .                 KB:   LOG MEASURED FROM
 DAPD.F                 4:   FEET ABOVE PERMANENT DATUM
 DMF .                 KB:   DRILLING MEASURED FROM
 EKB .F              5114:   KELLING BUSHING
 EGL .F              5110:   GROUND LEVEL
 DATE.            2-27-61:   RUN DATE
 RUN .                  1:   RUN NUMBER
 DD  .F               862:   DEPTH DRILLER
 DL  .F               860:   DEPTH LOGGER
 BLI .F               859:   BOTTOM LOG INTERVAL
 TLI .F                84:   TOP LOG INTERVAL
 CBD .F                12:   CASING BOTTOM DRILLER
 BS  .IN            7.875:   BIT SIZE
 BSD .F               862:   BIT SIZE AT DEPTH
 DFT .       GEL-OIL EMUL:   DRILLING FLUID TYPE
 DFD .                9.4:   DRILLING FLUID DENSITY
 DFV .                 33:   DRILLING FLUID VISCOSITY
 DFPH.                  8:   DRILLING FLUID PH
 DFL .               19.4:   DRILLING FLUID LOSS
 MSS .          FLOW LINE:   MUD SAMPLE SOURCE
 RMS .OHMM            .76:   RESISTIVITY MUD SAMPLE
 MST .F                73:   MUD SAMPLE TEMPERATURE
 RMF .OHMM            .52:   RESISTIVITY MUD FILTRATE SAMPLE
 MFST.F                73:   MUD FILTRATE SAMPLE TEMPERATURE
 RMC .OHMM            1.7:   RESISTIVITY MUD CAKE
 MCST.F                73:   MUD CAKE SAMPLE TEMPERATURE
 MFSS.                  M:   MUD FILTRATE SAMPLE SOURCE
 MCSS.                  M:   MUD CAKE SAMPLE SOURCE
 RMB .OHMM            .73:   RESISTIVITY MUD AT BHT
 BHT .F                77:   BOTTOM HOLE TEMPERATURE
 TCS .HRS               1:   TIME CURCULATED STOPPED
 MRT .F                77:   MAXIMUM RECORDED TEMPERATURE
 LUN .               2523:   LOGGING UNIT NUMBER
 LUL .               CSPR:   LOGGING UNIT LOCATION
 ENGI.             KNOBEL:   RECORDING ENGINEER
 WITN.          JORGENSEN:   WITNESSED BY
 CLNT.            A2DTECH:   CLIENT CODE
 ORIG.       2", 5" PRINT:   ORIGIN OF DATA
 UWI .       490251023000:   UNIQUE WELL ID
 DICO. A2D Technologies, Inc.:   DIGITIZING COMPANY
~OTHER INFORMATION
~A   DEPT      GRN        SPR        ILD        ASN       CILD   
# ...
  380.0000  -999.2500   -31.0572    16.5824    17.1671    54.4422
  380.5000  -999.2500   -31.1052    17.1392    17.7483    50.6012
  381.0000  -999.2500   -31.1141    17.2701    18.4078    50.6012
  381.5000  -999.2500   -31.1378    17.2807    18.2586    50.6012
  382.0000  -999.2500   -31.1557    16.7672    17.6688    50.6012
  382.5000  -999.2500   -31.1767    16.1074    17.0655    52.6052
  383.0000  -999.2500   -31.1961    15.4453    16.4592    56.3420
  383.5000  -999.2500   -31.2163    14.8260    15.8325    59.7906
  384.0000  -999.2500   -31.2362    14.0874    15.1911    63.2393
  384.5000  -999.2500   -31.2562    13.6210    14.6975    66.6880
  385.0000  -999.2500   -31.2762    13.3331    14.5306    70.1367
  385.5000  -999.2500   -31.2962    12.7984    14.3583    73.5854
  386.0000  -999.2500   -31.3162    12.6360    14.1775    75.9319
  386.5000  -999.2500   -31.3362    12.4809    13.9837    76.6316
  387.0000  -999.2500   -31.3562    12.4722    13.9395    77.3313
  387.5000  -999.2500   -31.3763    12.4712    13.8946    77.4439
  388.0000  -999.2500   -31.3962    12.4801    13.8871    77.0503
  388.5000  -999.2500   -31.4164    12.5329    13.9067    76.6568
  389.0000  -999.2500   -31.4362    12.5874    13.9284    76.2632
  389.5000  -999.2500   -31.4566    12.6406    13.9457    75.8696
  390.0000  -999.2500   -31.4761    12.6936    13.9731    75.4760
  390.5000  -999.2500   -31.4983    12.7530    13.9619    75.0824
  391.0000  -999.2500   -31.4959    12.7506    13.9188    74.6493
  391.5000  -999.2500   -31.4806    12.2134    13.7571    74.6493
  392.0000  -999.2500   -31.4665    11.5620    13.4268    78.6573
  392.5000  -999.2500   -31.4518    10.9247    13.0950    85.1247
  393.0000  -999.2500   -31.4374    10.2821    12.4921    91.6584
  393.5000  -999.2500   -31.4228     9.6426    11.7788    98.2052
  394.0000  -999.2500   -31.4083     8.9996    11.0712   107.0434
  394.5000  -999.2500   -31.3935     8.3611    10.3685   117.1289
  395.0000  -999.2500   -31.3792     7.7166     9.9843   127.2324
  395.5000  -999.2500   -31.3639     7.0781     9.6647   137.3492
  396.0000  -999.2500   -31.3506     6.4171     9.2583   148.7305
  396.5000  -999.2500   -31.3335     6.1658     8.9190   154.6814
  397.0000  -999.2500   -31.3234     5.9696     8.6862   161.3988
  397.5000  -999.2500   -31.2995     5.7454     8.4326   165.1720
  398.0000  -999.2500   -31.3572     5.6589     8.1890   165.8317
  398.5000  -999.2500   -31.4916     5.7910     7.9702   165.0918
  399.0000  -999.2500   -31.6117     5.9058     8.0455   164.3921
  399.5000  -999.2500   -31.7391     6.0350     8.1963   163.8277
  400.0000  -999.2500   -31.8623     6.1496     8.3323   160.5514
  400.5000  -999.2500   -31.9884     6.2877     8.4890   157.8060
  401.0000  -999.2500   -32.1119     6.3718     8.5070   155.0605
  401.5000  -999.2500   -32.2381     6.3474     8.4146   151.8036
  402.0000  -999.2500   -32.3620     6.3116     8.2945   152.9679
  402.5000  -999.2500   -32.4838     6.2678     8.1749   154.3988
  403.0000  -999.2500   -32.4114     6.2283     8.0581   155.8297
  403.5000  -999.2500   -32.2995     6.1851     7.9336   157.2605
  404.0000  -999.2500   -32.1937     6.1566     7.9614   158.8176
  404.5000  -999.2500   -32.0860     6.1958     8.0680   158.8176
  405.0000  -999.2500   -31.9787     6.2783     8.1651   157.6461
  405.5000  -999.2500   -31.8713     6.3617     8.2682   156.3882
  406.0000  -999.2500   -31.7635     6.4398     8.3674   155.1303
  406.5000  -999.2500   -31.6568     6.5309     8.4631   153.8724
  407.0000  -999.2500   -31.5481     6.5355     8.4441   152.6145
  407.5000  -999.2500   -31.4438     6.4572     8.3898   151.3566
  408.0000  -999.2500   -31.3320     6.3936     8.3377   150.7431
  408.5000  -999.2500   -31.3107     6.3227     8.2910   151.9307
  409.0000  -999.2500   -31.4620     6.2552     8.2168   153.9910
  409.5000  -999.2500   -31.5932     6.1869     8.1242   156.0585
  410.0000  -999.2500   -31.7371     6.1165     8.0346   158.1299
  410.5000  -999.2500   -31.8646     6.0640     8.0026   160.2014
  411.0000  -999.2500   -32.0227     6.0588     8.0053   160.8835
  411.5000  -999.2500   -32.0832     6.0743     8.0586   160.8950
  412.0000  -999.2500   -31.9889     6.1934     8.1674   159.3587
  412.5000  -999.2500   -31.9139     6.3008     8.3135   157.3146
  413.0000  -999.2500   -31.8272     6.4115     8.5056   155.2705
  413.5000  -999.2500   -31.7475     6.5197     8.6588   153.2265
  414.0000  -999.2500   -31.6632     6.6295     8.8518   151.1824
  414.5000  -999.2500   -31.5827     6.7384     8.9498   149.1383
  415.0000  -999.2500   -31.4977     6.8477     8.8153   147.0942
  415.5000  -999.2500   -31.4198     6.9569     8.6370   145.0501
  416.0000  -999.2500   -31.3296     7.0660     8.5427   143.0060
  416.5000  -999.2500   -31.3250     7.1756     8.6519   140.9619
  417.0000  -999.2500   -31.3934     7.2843     8.7627   138.9178
  417.5000  -999.2500   -31.4477     7.3944     8.8808   136.8737
  418.0000  -999.2500   -31.5089     7.5022     8.9954   134.8297
  418.5000  -999.2500   -31.5663     7.6150     9.1103   132.7856
  419.0000  -999.2500   -31.6262     7.6769     9.2313   130.7415
  419.5000  -999.2500   -31.6838     7.6138     9.3522   129.7595
  420.0000  -999.2500   -31.7444     7.5010     9.4797   130.5862
  420.5000  -999.2500   -31.7998     7.3939     9.5393   132.1192
  421.0000  -999.2500   -31.8668     7.2845     9.5062   133.9479
  421.5000  -999.2500   -31.8947     7.1759     9.2997   135.9920
  422.0000  -999.2500   -31.8596     7.0678     9.1100   138.0361
  422.5000  -999.2500   -31.8328     6.9578     8.9345   140.0802
  423.0000  -999.2500   -31.8012     6.8509     8.7710   142.1243
  423.5000  -999.2500   -31.7724     6.7583     8.5936   144.1683
  424.0000  -999.2500   -31.7421     6.8316     8.4789   144.7896
  424.5000  -999.2500   -31.7125     6.9607     8.5444   144.7896
  425.0000  -999.2500   -31.6826     7.0707     8.6076   142.4411
  425.5000  -999.2500   -31.6529     7.1897     8.6143   140.5248
  426.0000  -999.2500   -31.6232     7.3014     8.5953   138.6085
  426.5000  -999.2500   -31.5935     7.4225     8.5737   136.6921
  427.0000  -999.2500   -31.5638     7.5278     8.5949   134.7758
  427.5000  -999.2500   -31.5341     7.6792     8.7080   132.8161
  428.0000  -999.2500   -31.5044     7.7743     8.8999   130.8873
  428.5000  -999.2500   -31.4746     7.7668     9.1418   129.7008
  429.0000  -999.2500   -31.4449     7.7210     9.3629   130.1534
  429.5000  -999.2500   -31.4152     7.5825     9.6164   131.2697
  430.0000  -999.2500   -31.3855     7.4630     9.7324   132.3856
  430.5000  -999.2500   -31.3558     7.3241     9.5897   133.4979
  431.0000  -999.2500   -31.3261     7.2569     9.4475   134.6046
  431.5000  -999.2500   -31.2964     7.2834     9.3020   135.7053
  432.0000  -999.2500   -31.2667     7.3193     9.1493   136.7735
  432.5000  -999.2500   -31.2370     7.3577     9.0913   136.2837
  433.0000  -999.2500   -31.2073     7.3944     9.2110   135.3752
  433.5000  -999.2500   -31.1775     7.4332     9.3228   134.4667
  434.0000  -999.2500   -31.1478     7.4633     9.4401   133.5582
  434.5000  -999.2500   -31.1181     7.4685     9.5564   132.7655
  435.0000  -999.2500   -31.0884     7.4507     9.6674   133.6874
  435.5000  -999.2500   -31.0587     7.3042     9.7253   134.4568
  436.0000  -999.2500   -31.0291     7.1649     9.6033   136.3949
  436.5000  -999.2500   -30.9991     7.0221     9.4044   138.8825
  437.0000  -999.2500   -30.9699     6.8837     9.2315   141.3729
  437.5000  -999.2500   -30.9393     6.7394     9.0457   143.8606
  438.0000  -999.2500   -30.9120     6.6046     8.8527   146.3423
  438.5000  -999.2500   -30.8785     6.4484     8.6974   148.8223
  439.0000  -999.2500   -30.8403     6.3389     8.5889   151.7707
  439.5000  -999.2500   -30.8056     6.3029     8.5731   152.9706
  440.0000  -999.2500   -30.7694     6.2494     8.5535   154.4487
  440.5000  -999.2500   -30.7340     6.2042     8.5455   155.9270
