~VERSION INFORMATION
 VERS.                2.0:   CWLS LOG ASCII STANDARD - VERSION 2.0
 WRAP.                 NO:   ONE LINE PER DEPTH STEP
~WELL INFORMATION
#MNEM.UNIT      DATA TYPE    INFORMATION
#----------   ------------   ------------------------------
 STRT.F           33.0000:   START DEPTH
 STOP.F         1374.0000:   STOP DEPTH
 STEP.F            0.5000:   STEP LENGTH
 NULL.          -999.2500:   NO VALUE
 COMP. FENIX & SCISSON INC:   COMPANY
 WELL.   NPR-3 "S" #84-14:   WELL
 FLD .             TEAPOT:   FIELD
 LOC .      S14 T38N R78W:   LOCATION
 CNTY.            NATRONA:   COUNTY
 STAT.            WYOMING:   STATE
 CTRY. UNITED STATES OF AMERICA:   COUNTRY
 SRVC.            Unknown:   SERVICE COMPANY
 DATE.        18-MAR-1978:   LOGDATE
 API .       490251060400:   API NUMBER
~CURVE INFORMATION
#MNEM.UNIT       API CODE    CURVE DESCRIPTION
#----------   ------------   ------------------------------
 DEPT.F                  :   
 SPR .MV     05 010 01 00:   SPONTANEOUS POTENTIAL FROM RES.
 SN  .OHMM   05 040 16 00:   SHORT NORMAL 16"
 ILD .OHMM   05 120 46 00:   INDUCTION LOG DEEP
 CALD.IN     45 280 60 00:   CALIPER
 GRD .GAPI   45 310 01 00:   GAMMA RAY FROM DENSITY LOG
 CORR.G/C3   45 356 01 00:   DENSITY CORRECTION
 RHOB.G/C3   45 350 01 00:   BULK DENSITY
 DPHI.DEC    45 890 00 00:   DENSITY POROSITY
~PARAMETER INFORMATION
#MNEM.UNIT          VALUE    DESCRIPTION
#----------   ------------   ------------------------------
 PD  .                 GL:   PERMANENT DATUM
 EPD .F              5314:   ELEVATION PERMANENT DATUM
 LMF .                 KB:   LOG MEASURED FROM
 DMF .                 KB:   DRILLING MEASURED FROM
 EKB .F              5318:   KELLING BUSHING
 EGL .F              5314:   GROUND LEVEL
 DATE.          3-18-1978:   RUN DATE
 RUN .                  1:   RUN NUMBER
 DD  .F              1375:   DEPTH DRILLER
 DL  .F              1380:   DEPTH LOGGER
 BLI .F              1374:   BOTTOM LOG INTERVAL
 TLI .F                50:   TOP LOG INTERVAL
 CS  .IN            8.625:   CASING SIZE
 CBD .F                40:   CASING BOTTOM DRILLER
 CBL .F                50:   CASING BOTTOM LOGGER
 BS  .IN            7.875:   BIT SIZE
 BSD .F              1375:   BIT SIZE AT DEPTH
 DFT .                KCL:   DRILLING FLUID TYPE
 DFD .                8.1:   DRILLING FLUID DENSITY
 DFV .                 31:   DRILLING FLUID VISCOSITY
 DFPH.                 10:   DRILLING FLUID PH
 DFL .                8.4:   DRILLING FLUID LOSS
 MSS .           FLOWLINE:   MUD SAMPLE SOURCE
 RMS .OHMM            .28:   RESISTIVITY MUD SAMPLE
 MST .F                62:   MUD SAMPLE TEMPERATURE
 RMF .OHMM            .26:   RESISTIVITY MUD FILTRATE SAMPLE
 MFST.F                67:   MUD FILTRATE SAMPLE TEMPERATURE
 RMC .OHMM            .36:   RESISTIVITY MUD CAKE
 MCST.F                70:   MUD CAKE SAMPLE TEMPERATURE
 MFSS.               MEAS:   MUD FILTRATE SAMPLE SOURCE
 RMB .OHMM            .22:   RESISTIVITY MUD AT BHT
 BHT .F                80:   BOTTOM HOLE TEMPERATURE
 TCS .HRS               4:   TIME CURCULATED STOPPED
 MRT .F                80:   MAXIMUM RECORDED TEMPERATURE
 LUN .               2958:   LOGGING UNIT NUMBER
 LUL .               CASP:   LOGGING UNIT LOCATION
 ENGI.             MILLER:   RECORDING ENGINEER
 WITN.           MCGINLEY:   WITNESSED BY
 CLNT.            A2DTECH:   CLIENT CODE
 ORIG.      2" & 5" PRINT:   ORIGIN OF DATA
 UWI .       490251060400:   UNIQUE WELL ID
 DICO. A2D Technologies, Inc.:   DIGITIZING COMPANY
~OTHER INFORMATION
~A   DEPT      SPR         SN        ILD       CALD         GRD      CORR       RHOB       DPHI   
# ...
 1248.0000   -32.5504     8.8373     9.0861     7.2732    90.9298     0.0061     2.4536     0.1025
 1248.5000   -32.3891     8.8373     9.1090     7.2726    93.5118     0.0052     2.4641     0.1028
 1249.0000   -32.2085     8.8373     9.1524     7.2721    95.5046     0.0027     2.4636     0.1058
 1249.5000   -32.0302     8.8373     9.1969     7.2715    95.4851     0.0002     2.4558     0.1109
 1250.0000   -31.8520     8.8373     9.2549     7.2710    92.6066    -0.0010     2.4476     0.1134
 1250.5000   -31.9509     8.8373     9.2298     7.2704    92.3148    -0.0010     2.4449     0.1126
 1251.0000   -32.3331     8.8373     9.1792     7.2698    92.6315     0.0037     2.4438     0.1134
 1251.5000   -32.7170     8.8373     9.1290     7.2693    92.4611     0.0089     2.4443     0.1172
 1252.0000   -33.0990     8.8373     9.0792     7.2687    90.3180     0.0142     2.4393     0.1202
 1252.5000   -32.8137     8.8373     9.0297     7.2682    88.2551     0.0190     2.4415     0.1056
 1253.0000   -32.4179     8.8373     9.0026     7.2676    86.1885     0.0176     2.4574     0.1030
 1253.5000   -32.4684     8.8373     9.0021     7.2670    86.1253     0.0149     2.4595     0.1032
 1254.0000   -32.6411     8.8373     9.0020     7.2665    87.7481     0.0132     2.4577     0.1078
 1254.5000   -32.8132     8.8373     9.0020     7.2659    89.3697     0.0163     2.4581     0.1051
 1255.0000   -32.9083     8.8373     9.0020     7.2654    89.9178     0.0194     2.4615     0.1030
 1255.5000   -32.6382     8.8373     9.0019     7.2648    89.8531     0.0226     2.4607     0.1045
 1256.0000   -32.3746     8.8373     9.0020     7.2604    89.7743     0.0251     2.4595     0.1090
 1256.5000   -32.1119     8.8373     9.0011     7.2416    89.7305     0.0239     2.4587     0.1010
 1257.0000   -31.8484     8.8372     9.0020     7.2229    90.3104     0.0227     2.4601     0.1043
 1257.5000   -31.5861     8.8373     9.0998     7.2051    91.7272     0.0214     2.4578     0.1082
 1258.0000   -31.3735     8.8425     9.2307     7.2047    93.1384     0.0201     2.4535     0.1065
 1258.5000   -31.4655     8.8792     9.4271     7.2006    94.0447     0.0188     2.4559     0.1076
 1259.0000   -31.5478     8.9163     9.3306     7.1958    94.3010     0.0175     2.4537     0.1109
 1259.5000   -30.9567     8.9534     9.1697     7.1907    93.8674     0.0189     2.4492     0.1134
 1260.0000   -30.3712     8.9906     9.1697     7.1856    91.3997     0.0219     2.4454     0.1114
 1260.5000   -30.4279     9.0280     9.2142     7.1688    88.9395     0.0249     2.4455     0.1110
 1261.0000   -30.5032     9.0656     9.3048     7.1424    86.4748     0.0239     2.4464     0.1148
 1261.5000   -30.5771     9.1224     9.3964     7.1322    84.0522     0.0227     2.4414     0.1207
 1262.0000   -30.6504     9.2012     9.5426     7.1432    83.7344     0.0215     2.4329     0.1266
 1262.5000   -30.7205     9.2811     9.7186     7.0396    84.0283     0.0255     2.4243     0.1324
 1263.0000   -30.6653     9.3405     9.8978     6.9638    84.5209     0.0338     2.4135     0.1383
 1263.5000   -30.3334     9.6462    10.0803     6.9654    84.9815     0.0455     2.3978     0.1414
 1264.0000   -29.2477     9.9143    10.2662     6.8262    83.5346     0.0680     2.4079     0.1306
 1264.5000   -28.2042    10.1898    10.4555     6.6893    81.6468     0.0727     2.4266     0.1159
 1265.0000   -28.2438    10.4729    10.9019     6.4182    79.9436     0.0556     2.4456     0.1022
 1265.5000   -28.3242    10.7640    11.5426     6.5409    79.8828     0.0367     2.4623     0.1002
 1266.0000   -28.2504    10.9889    12.2209     6.6846    79.9261     0.0175     2.4630     0.1158
 1266.5000   -27.9165    11.2714    12.8255     6.9876    77.8137    -0.0021     2.4548     0.1301
 1267.0000   -27.5928    11.3380    13.0456     7.2024    75.6788     0.0040     2.4203     0.1444
 1267.5000   -27.4694    11.3380    13.4454     7.0442    74.6075     0.0121     2.3895     0.1550
 1268.0000   -27.2778    11.3034    14.0183     7.0236    74.7955     0.0200     2.3691     0.1579
 1268.5000   -26.5592    11.0614    13.6477     7.1105    76.6636     0.0210     2.3537     0.1576
 1269.0000   -26.4213    10.8246    13.3777     7.2228    79.7206     0.0196     2.3641     0.1557
 1269.5000   -26.4813    10.5929    13.0608     7.2259    82.5083     0.0175     2.3742     0.1538
 1270.0000   -26.5480    10.3385    12.3516     7.2268    82.0398     0.0154     2.3734     0.1529
 1270.5000   -26.6145    10.1562    11.8055     7.2280    80.8807     0.0133     2.3753     0.1523
 1271.0000   -26.6796    10.0335    11.5767     7.2293    79.7608     0.0173     2.3790     0.1530
 1271.5000   -26.7444     9.9123    11.5492     7.2306    79.1510     0.0223     2.3667     0.1539
 1272.0000   -26.7355     9.7923    11.5492     7.2319    79.1678     0.0266     2.3801     0.1493
 1272.5000   -26.6394     9.6739    11.5492     7.2332    79.1529     0.0226     2.3933     0.1447
 1273.0000   -26.7870     9.5229    11.3876     7.2345    79.5659     0.0195     2.3942     0.1433
 1273.5000   -27.2459     9.5541    11.2000     7.2358    79.8473     0.0211     2.3881     0.1464
 1274.0000   -27.6988     9.6027    11.0155     7.2372    81.0485     0.0203     2.3847     0.1462
 1274.5000   -27.8722     9.3109    10.8352     7.2385    82.7065     0.0197     2.3894     0.1458
 1275.0000   -27.6231     9.1659    10.6877     7.2398    82.5872     0.0191     2.3884     0.1498
 1275.5000   -27.3889     9.1403    10.5871     7.2411    82.9801     0.0208     2.3790     0.1480
 1276.0000   -27.5146     9.1154    10.4875     7.2424    84.0684     0.0238     2.3906     0.1449
 1276.5000   -27.4412     9.0911    10.3893     7.2435    84.5782     0.0250     2.3987     0.1418
 1277.0000   -27.0619     9.0667    10.2920     7.2304    83.5858     0.0216     2.4033     0.1388
 1277.5000   -26.9816     9.0424    10.1957     7.1919    83.0651     0.0160     2.4061     0.1358
 1278.0000   -26.9791     9.0181    10.1002     7.1532    84.5489     0.0104     2.4106     0.1335
 1278.5000   -26.9793     8.9193    10.0562     7.1451    86.5954     0.0047     2.4112     0.1330
 1279.0000   -26.9811     8.9193     9.9833     7.1448    88.3556     0.0009     2.4089     0.1345
 1279.5000   -27.0231     8.9193     9.9054     7.1449    89.0568     0.0010     2.4067     0.1366
 1280.0000   -27.1825     8.9193     9.8281     7.1449    89.5343     0.0010     2.4044     0.1364
 1280.5000   -27.3365     8.9193     9.7514     7.1449    89.5198     0.0010     2.4021     0.1347
 1281.0000   -27.4903     8.9193     9.6754     7.1449    89.5119     0.0010     2.4032     0.1344
 1281.5000   -27.6444     8.9192     9.5999     7.1449    88.3183     0.0010     2.4062     0.1324
 1282.0000   -27.7988     8.9195     9.5145     7.1449    86.0477     0.0010     2.4132     0.1280
 1282.5000   -27.9526     8.9265     9.5301     7.1449    85.5520     0.0010     2.4201     0.1256
 1283.0000   -27.9765     8.9335     9.5645     7.1449    85.2390     0.0025     2.4227     0.1286
 1283.5000   -27.9759     8.9404     9.5991     7.1449    84.9569     0.0045     2.4174     0.1298
 1284.0000   -27.9559     8.9473     9.6337     7.1450    85.1385     0.0066     2.4225     0.1234
 1284.5000   -28.5118     8.9543     9.6686     7.1451    85.1388     0.0087     2.4266     0.1247
 1285.0000   -29.0917     8.9612     9.7035     7.1446    85.4065     0.0108     2.4245     0.1254
 1285.5000   -29.7424     8.9682     9.7386     7.1325    85.7861     0.0110     2.4252     0.1250
 1286.0000   -29.3638     8.9751     9.7737     7.0819    86.1339     0.0126     2.4202     0.1308
 1286.5000   -28.6785     8.9820     9.7816     7.0327    86.0458     0.0161     2.4088     0.1375
 1287.0000   -28.0012     8.9889     9.8228     7.0055    85.9409     0.0196     2.3970     0.1438
 1287.5000   -28.0441     8.9960     9.8768     7.0044    85.9416     0.0230     2.3951     0.1438
 1288.0000   -28.1204     9.0016     9.9312     7.0033    85.9819     0.0250     2.3972     0.1461
