~VERSION INFORMATION
 VERS.                2.0:   CWLS LOG ASCII STANDARD - VERSION 2.0
 WRAP.                 NO:   ONE LINE PER DEPTH STEP
~WELL INFORMATION
#MNEM.UNIT      DATA TYPE    INFORMATION
#----------   ------------   ------------------------------
 STRT.F           92.0000:   START DEPTH
 STOP.F          810.0000:   STOP DEPTH
 STEP.F            0.5000:   STEP LENGTH
 NULL.          -999.2500:   NO VALUE
 COMP. U S NAVY/INTEX OIL CO:   COMPANY
 WELL. NPR #3 #86 S 34-34:   WELL
 FLD .        EAST TEAPOT:   FIELD
 LOC .      S34 T39N R78W:   LOCATION
 CNTY.            NATRONA:   COUNTY
 STAT.            WYOMING:   STATE
 CTRY. UNITED STATES OF AMERICA:   COUNTRY
 SRVC. Schlumberger Well Surveying Corp:   SERVICE COMPANY
 DATE.        22-JUL-1962:   LOGDATE
 API .       490250652900:   API NUMBER
~CURVE INFORMATION
#MNEM.UNIT       API CODE    CURVE DESCRIPTION
#----------   ------------   ------------------------------
 DEPT.F                  :   
 GR  .GAPI   30 310 01 00:   GAMMA RAY
 SPR .MV     05 010 01 00:   SPONTANEOUS POTENTIAL FROM RES.
 CILD.MMHO   05 110 46 00:   CONDUCTIVITY INDUCTION LOG DEEP
 ASN .OHMM   05 041 16 00:   AMPLIFIED SHORT NORMAL 16"
 ILD .OHMM   05 120 46 00:   INDUCTION LOG DEEP
 CALM.IN     15 280 01 00:   CALIPER FROM MICRO LOG
~PARAMETER INFORMATION
#MNEM.UNIT          VALUE    DESCRIPTION
#----------   ------------   ------------------------------
 PD  .                 GL:   PERMANENT DATUM
 EPD .F              5094:   ELEVATION PERMANENT DATUM
 LMF .                 KB:   LOG MEASURED FROM
 DAPD.F                 5:   FEET ABOVE PERMANENT DATUM
 DMF .                 KB:   DRILLING MEASURED FROM
 EKB .F              5099:   KELLING BUSHING
 EGL .F              5094:   GROUND LEVEL
 DATE.            7-22-62:   RUN DATE
 RUN .                  1:   RUN NUMBER
 DD  .F               810:   DEPTH DRILLER
 DL  .F               811:   DEPTH LOGGER
 BLI .F               810:   BOTTOM LOG INTERVAL
 TLI .F               100:   TOP LOG INTERVAL
 BS  .IN             6.75:   BIT SIZE
 BSD .F               810:   BIT SIZE AT DEPTH
 DFT .                GEL:   DRILLING FLUID TYPE
 DFD .               10.3:   DRILLING FLUID DENSITY
 DFV .                 43:   DRILLING FLUID VISCOSITY
 RMS .OHMM              4:   RESISTIVITY MUD SAMPLE
 MST .F                75:   MUD SAMPLE TEMPERATURE
 RMF .OHMM            2.9:   RESISTIVITY MUD FILTRATE SAMPLE
 MFST.F                75:   MUD FILTRATE SAMPLE TEMPERATURE
 RMC .OHMM            3.8:   RESISTIVITY MUD CAKE
 MCST.F                75:   MUD CAKE SAMPLE TEMPERATURE
 TCS .HRS               1:   TIME CURCULATED STOPPED
 LUN .               2503:   LOGGING UNIT NUMBER
 ENGI.           ELLERMAN:   RECORDING ENGINEER
 WITN.          JORGENSON:   WITNESSED BY
 CLNT.            A2DTECH:   CLIENT CODE
 ORIG.   1", 2", 5" PRINT:   ORIGIN OF DATA
 UWI .       490250652900:   UNIQUE WELL ID
 DICO. A2D Technologies, Inc.:   DIGITIZING COMPANY
~OTHER INFORMATION
~A   DEPT       GR        SPR       CILD        ASN        ILD       CALM   
# ...
  196.0000  -999.2500   -40.0117   353.1928     3.1051     3.7203  -999.2500
  196.5000  -999.2500   -40.1679   325.9343     3.3585     3.9768  -999.2500
  197.0000  -999.2500   -40.3248   298.7051     3.6190     4.3071  -999.2500
  197.5000  -999.2500   -40.4700   271.5769     3.7267     4.6354  -999.2500
  198.0000  -999.2500   -40.4038   259.0862     3.7420     4.8321  -999.2500
  198.5000  -999.2500   -40.3302   259.9377     3.7400     4.7195  -999.2500
  199.0000  -999.2500   -40.2577   266.7488     3.6955     4.5521  -999.2500
  199.5000  -999.2500   -40.1855   275.3467     3.6454     4.3823  -999.2500
  200.0000  -999.2500   -40.1123   286.5369     3.5971     4.2128  -999.2500
  200.5000  -999.2500   -39.9869   299.7841     3.5564     4.0432  -999.2500
  201.0000  -999.2500   -39.7248   313.1595     3.4667     3.8737  -999.2500
  201.5000  -999.2500   -39.4679   326.8414     3.3789     3.7088  -999.2500
  202.0000  -999.2500   -39.4092   348.7020     3.2913     3.5567  -999.2500
  202.5000  -999.2500   -39.3750   380.1229     3.1985     3.4118  -999.2500
  203.0000  -999.2500   -39.3409   417.2586     3.0746     3.2664  -999.2500
  203.5000  -999.2500   -39.3068   454.3943     2.9547     3.1203  -999.2500
  204.0000  -999.2500   -39.2756   491.5299     2.8356     2.9731  -999.2500
  204.5000  -999.2500   -39.2199   495.8463     2.7625     3.0692  -999.2500
  205.0000  -999.2500   -38.9808   471.9211     2.7673     3.1944  -999.2500
  205.5000  -999.2500   -38.8989   449.8124     2.9762     3.3202  -999.2500
  206.0000  -999.2500   -38.8293   429.3873     3.1793     3.4448  -999.2500
  206.5000  -999.2500   -39.2616   390.3531     3.1040     3.5675  -999.2500
  207.0000  -999.2500   -39.7557   352.5857     3.1611     3.7053  -999.2500
  207.5000  -999.2500   -40.2505   310.8271     3.6915     4.1466  -999.2500
  208.0000  -999.2500   -40.7505   269.0685     4.2065     4.5810  -999.2500
  208.5000  -999.2500   -40.8472   227.3099     4.4576     5.0119  -999.2500
  209.0000  -999.2500   -40.4549   212.7310     4.5883     5.2475  -999.2500
  209.5000  -999.2500   -40.0546   202.3676     4.7175     5.2960  -999.2500
  210.0000  -999.2500   -39.8004   200.9346     4.8467     5.3461  -999.2500
  210.5000  -999.2500   -39.6915   200.9346     4.9754     5.3945  -999.2500
  211.0000  -999.2500   -39.5822   195.2780     5.1058     5.4386  -999.2500
  211.5000  -999.2500   -39.4693   188.6831     5.3215     5.6730  -999.2500
  212.0000  -999.2500   -39.5868   182.0882     5.5345     5.9320  -999.2500
  212.5000  -999.2500   -39.7924   175.4933     5.7467     6.1932  -999.2500
  213.0000  -999.2500   -39.9998   169.5048     5.9590     6.3496  -999.2500
  213.5000  -999.2500   -40.2061   164.3322     6.1437     6.4536  -999.2500
  214.0000  -999.2500   -40.4600   161.4766     6.3128     6.5582  -999.2500
  214.5000  -999.2500   -40.7327   161.4746     6.4384     6.5933  -999.2500
  215.0000  -999.2500   -41.0076   161.4746     6.4775     6.5877  -999.2500
  215.5000  -999.2500   -41.2742   161.4746     6.5180     6.5814  -999.2500
  216.0000  -999.2500   -40.9675   161.4746     6.5081     6.5752  -999.2500
  216.5000  -999.2500   -40.5848   161.4746     6.4724     6.5690  -999.2500
  217.0000  -999.2500   -40.4987   162.1475     6.4361     6.5629  -999.2500
  217.5000  -999.2500   -40.5272   163.7020     6.3993     6.5567  -999.2500
  218.0000  -999.2500   -40.5582   165.2565     6.3935     6.5505  -999.2500
  218.5000  -999.2500   -40.5888   166.8110     6.4043     6.5444  -999.2500
  219.0000  -999.2500   -40.6193   167.7051     6.4155     6.5382  -999.2500
  219.5000  -999.2500   -40.6499   167.7051     6.4266     6.5320  -999.2500
  220.0000  -999.2500   -40.6801   167.7051     6.4377     6.5259  -999.2500
  220.5000  -999.2500   -40.6833   167.9185     6.4484     6.5197  -999.2500
  221.0000  -999.2500   -40.6833   168.2705     6.4456     6.5135  -999.2500
  221.5000  -999.2500   -40.6832   168.6032     6.4406     6.5073  -999.2500
  222.0000  -999.2500   -40.6832   167.4594     6.4355     6.5008  -999.2500
  222.5000  -999.2500   -40.6833   165.3259     6.4304     6.4950  -999.2500
  223.0000  -999.2500   -40.6832   163.2070     6.4355     6.5172  -999.2500
  223.5000  -999.2500   -40.6833   161.0842     6.5020     6.6667  -999.2500
  224.0000  -999.2500   -40.5848   158.6033     6.6777     6.8135  -999.2500
  224.5000  -999.2500   -40.3872   154.7170     6.8524     6.9600  -999.2500
  225.0000  -999.2500   -40.1896   149.4444     6.9428     7.1064  -999.2500
  225.5000  -999.2500   -39.9943   143.2085     7.0148     7.2529  -999.2500
  226.0000  -999.2500   -39.9229   136.9798     7.1267     7.3993  -999.2500
  226.5000  -999.2500   -40.1752   130.7891     7.2467     7.5460  -999.2500
  227.0000  -999.2500   -40.4224   127.6862     7.3328     7.6936  -999.2500
  227.5000  -999.2500   -40.6698   126.7441     7.3602     7.8389  -999.2500
  228.0000  -999.2500   -40.8887   125.8019     7.3790     7.7047  -999.2500
  228.5000  -999.2500   -40.7822   124.8598     7.3498     7.5316  -999.2500
  229.0000  -999.2500   -40.6593   124.4098     7.2470     7.3581  -999.2500
  229.5000  -999.2500   -40.5371   126.1371     7.0972     7.1845  -999.2500
  230.0000  -999.2500   -40.4153   128.3281     6.9270     7.0174  -999.2500
  230.5000  -999.2500   -40.2935   136.3638     6.7577     6.9416  -999.2500
  231.0000  -999.2500   -40.1717   153.1672     6.4987     6.8522  -999.2500
  231.5000  -999.2500   -40.0499   186.0384     6.2148     6.5119  -999.2500
  232.0000  -999.2500   -39.9282   230.8255     5.6852     5.7158  -999.2500
  232.5000  -999.2500   -39.8070   294.3017     4.9632     4.9256  -999.2500
  233.0000  -999.2500   -39.6843   353.9387     4.3382     4.1338  -999.2500
  233.5000  -999.2500   -39.6064   412.8448     3.7337     3.3785  -999.2500
  234.0000  -999.2500   -39.2066   471.0429     3.3299     3.1767  -999.2500
  234.5000  -999.2500   -38.8029   496.8847     3.2214     2.9779  -999.2500
  235.0000  -999.2500   -38.3999   496.8847     3.1214     2.7786  -999.2500
  235.5000  -999.2500   -38.1246   496.8847     3.0594     2.6472  -999.2500
  236.0000  -999.2500   -37.9764   496.8847     2.9893     2.7380  -999.2500
  236.5000  -999.2500   -37.8238   496.8847     3.0005     2.9985  -999.2500
  237.0000  -999.2500   -37.8906   444.5776     3.2497     3.2572  -999.2500
  237.5000  -999.2500   -38.2053   374.0105     3.5537     3.5905  -999.2500
  238.0000  -999.2500   -38.9525   303.2952     3.9077     4.3367  -999.2500
  238.5000  -999.2500   -39.6925   231.9368     4.5244     5.2980  -999.2500
  239.0000  -999.2500   -40.0615   177.5218     6.0437     6.6783  -999.2500
  239.5000  -999.2500   -39.9123   125.2972     7.5025     8.0530  -999.2500
  240.0000  -999.2500   -39.6815   103.4096     8.2417     9.4293  -999.2500
  240.5000  -999.2500   -39.9800    89.8350     8.9902    10.8553  -999.2500
  241.0000  -999.2500   -40.2861    84.0775     9.3796    11.3061  -999.2500
  241.5000  -999.2500   -40.5787    82.5545     9.6615    11.6963  -999.2500
  242.0000  -999.2500   -41.6577    87.7466     9.9501    11.3014  -999.2500
  242.5000  -999.2500   -43.0193    99.1091     9.9586     9.9828  -999.2500
  243.0000  -999.2500   -43.5279   115.3331     9.6019     8.6538  -999.2500
  243.5000  -999.2500   -41.7931   143.6745     8.9806     7.3325  -999.2500
  244.0000  -999.2500   -40.1555   172.2845     8.1363     6.1448  -999.2500
  244.5000  -999.2500   -39.7332   183.9149     7.2391     6.0683  -999.2500
  245.0000  -999.2500   -39.4860   186.9752     6.3262     6.0752  -999.2500
  245.5000  -999.2500   -39.2431   188.0824     6.1081     6.0742  -999.2500
  246.0000  -999.2500   -39.0821   189.3224     6.3273     6.0725  -999.2500
  246.5000  -999.2500   -39.5933   186.4457     6.1887     6.0830  -999.2500
  247.0000  -999.2500   -40.1204   172.9803     6.9454     6.2963  -999.2500
  247.5000  -999.2500   -40.2677   152.8459     7.9570     7.0382  -999.2500
