~VERSION INFORMATION
 VERS.                2.0:   CWLS LOG ASCII STANDARD - VERSION 2.0
 WRAP.                 NO:   ONE LINE PER DEPTH STEP
~WELL INFORMATION
#MNEM.UNIT      DATA TYPE    INFORMATION
#----------   ------------   ------------------------------
 STRT.F           38.0000:   START DEPTH
 STOP.F         1202.0000:   STOP DEPTH
 STEP.F            0.5000:   STEP LENGTH
 NULL.          -999.2500:   NO VALUE
 COMP.       INTEX OIL CO:   COMPANY
 WELL.     72 S 14 #72-14:   WELL
 FLD .            WILDCAT:   FIELD
 LOC .      S14 T38N R78W:   LOCATION
 CNTY.            NATRONA:   COUNTY
 STAT.            WYOMING:   STATE
 CTRY. UNITED STATES OF AMERICA:   COUNTRY
 SRVC.       Schlumberger:   SERVICE COMPANY
 DATE.        26-AUG-1966:   LOGDATE
 API .       490250970800:   API NUMBER
~CURVE INFORMATION
#MNEM.UNIT       API CODE    CURVE DESCRIPTION
#----------   ------------   ------------------------------
 DEPT.F                  :   
 SPR .MV     05 010 01 00:   SPONTANEOUS POTENTIAL FROM RES.
 ASN .OHMM   05 041 16 00:   AMPLIFIED SHORT NORMAL 16"
 ILD .OHMM   05 120 46 00:   INDUCTION LOG DEEP
 CILD.MMHO   05 110 46 00:   CONDUCTIVITY INDUCTION LOG DEEP
 CORR.G/C3   45 356 01 00:   DENSITY CORRECTION
 GRD .GAPI   45 310 01 00:   GAMMA RAY FROM DENSITY LOG
 CALD.IN     45 280 60 00:   CALIPER FROM DENSITY LOG
 DPHI.DEC    45 890 12 00:   DENSITY POROSITY SANDSTONE
 RHOB.G/C3   45 350 01 00:   BULK DENSITY
~PARAMETER INFORMATION
#MNEM.UNIT          VALUE    DESCRIPTION
#----------   ------------   ------------------------------
 PD  .                 GL:   PERMANENT DATUM
 EPD .F              5265:   ELEVATION PERMANENT DATUM
 LMF .                 KB:   LOG MEASURED FROM
 DAPD.F                 5:   FEET ABOVE PERMANENT DATUM
 DMF .                 KB:   DRILLING MEASURED FROM
 EKB .F              5270:   KELLING BUSHING
 DATE.        26-AUG-1966:   RUN DATE
 RUN .                  1:   RUN NUMBER
 DD  .F              1201:   DEPTH DRILLER
 DL  .F              1203:   DEPTH LOGGER
 BLI .F              1202:   BOTTOM LOG INTERVAL
 TLI .F                46:   TOP LOG INTERVAL
 CS  .IN            8.625:   CASING SIZE
 BS  .IN             6.75:   BIT SIZE
 BSD .F              1201:   BIT SIZE AT DEPTH
 DFT .     CHEM- GEL- OIL:   DRILLING FLUID TYPE
 DFD .                9.4:   DRILLING FLUID DENSITY
 MRT .F                94:   MAXIMUM RECORDED TEMPERATURE
 LUN .               3527:   LOGGING UNIT NUMBER
 LUL .             CASPER:   LOGGING UNIT LOCATION
 ENGI.             KNOBEL:   RECORDING ENGINEER
 WITN.                MAY:   WITNESSED BY
 CLNT.            A2DTECH:   CLIENT CODE
 ORIG.       2", 5" PRINT:   ORIGIN OF DATA
 UWI .       490250970800:   UNIQUE WELL ID
 DICO. A2D Technologies, Inc.:   DIGITIZING COMPANY
~OTHER INFORMATION
~A   DEPT      SPR        ASN        ILD       CILD       CORR        GRD       CALD       DPHI       RHOB   
   38.0000  -999.2500  -999.2500  -999.2500  -999.2500  -999.2500  -999.2500  -999.2500  -999.2500  -999.2500
   38.5000  -999.2500  -999.2500  -999.2500  -999.2500  -999.2500    92.2931     7.7155     0.4658     1.8772
   39.0000  -999.2500  -999.2500  -999.2500  -999.2500  -999.2500    93.8691     7.4292     0.4586     1.8967
   39.5000  -999.2500  -999.2500  -999.2500  -999.2500     0.0002    94.3275     7.2213     0.4660     1.8900
   40.0000  -999.2500  -999.2500  -999.2500  -999.2500  -999.2500    94.7858     7.2519     0.4696     1.8729
   40.5000  -999.2500  -999.2500  -999.2500  -999.2500     0.0148    94.7970     7.2974     0.4669     1.8721
   41.0000  -999.2500  -999.2500  -999.2500  -999.2500     0.0114    94.5819     7.2832     0.4556     1.8954
   41.5000  -999.2500  -999.2500  -999.2500  -999.2500     0.0103    94.1460     7.2689     0.4508     1.9111
   42.0000  -999.2500  -999.2500  -999.2500  -999.2500     0.0169    94.1600     7.2251     0.4466     1.9149
   42.5000  -999.2500  -999.2500  -999.2500  -999.2500     0.0209    93.0535     7.2107     0.4487     1.9119
   43.0000  -999.2500  -999.2500  -999.2500  -999.2500     0.0204    93.2883     7.1521     0.4450     1.9112
   43.5000  -999.2500  -999.2500  -999.2500  -999.2500     0.0141    93.9702     7.1528     0.4411     1.9172
   44.0000  -999.2500  -999.2500  -999.2500  -999.2500     0.0059    94.9180     7.1685     0.4299     1.9442
   44.5000  -999.2500  -999.2500  -999.2500  -999.2500     0.0015    96.0022     7.2139     0.4243     1.9532
   45.0000  -999.2500  -999.2500  -999.2500  -999.2500     0.0006    95.5291     7.2670     0.4183     1.9615
   45.5000  -999.2500  -999.2500  -999.2500  -999.2500     0.0038    95.1300     7.3198     0.4014     1.9742
   46.0000  -999.2500  -999.2500  -999.2500  -999.2500     0.0107    95.1416     7.3801     0.3743     1.9967
   46.5000  -999.2500  -999.2500  -999.2500  -999.2500     0.0172    95.4024     7.3361     0.3485     2.0651
   47.0000  -999.2500  -999.2500  -999.2500  -999.2500     0.0207    96.3264     7.2773     0.3003     2.1186
   47.5000  -999.2500  -999.2500  -999.2500  -999.2500     0.0287    97.8949     7.2184     0.2820     2.1758
   48.0000  -999.2500  -999.2500  -999.2500  -999.2500     0.0461    99.0015     7.1742     0.2554     2.2377
   48.5000  -999.2500  -999.2500  -999.2500  -999.2500     0.0580    99.4449     7.1454     0.2419     2.2594
   49.0000  -999.2500  -999.2500  -999.2500  -999.2500     0.0644    99.4560     7.1161     0.2416     2.2624
   49.5000  -999.2500  -999.2500  -999.2500  -999.2500     0.0424    99.0164     7.0872     0.2428     2.2573
   50.0000  -999.2500  -999.2500  -999.2500  -999.2500     0.0270    97.9136     7.0580     0.2470     2.2498
   50.5000  -999.2500  -999.2500  -999.2500  -999.2500     0.0232    96.5835     7.0589     0.2521     2.2446
   51.0000  -999.2500  -999.2500  -999.2500  -999.2500     0.0237    95.9241     7.0299     0.2533     2.2439
   51.5000  -999.2500  -999.2500  -999.2500  -999.2500     0.0315    96.8295     7.0006     0.2485     2.2514
   52.0000  -999.2500  -999.2500  -999.2500  -999.2500     0.0370    98.4056     6.9718     0.2386     2.2687
   52.5000  -999.2500  -999.2500  -999.2500  -999.2500     0.0450    99.7581     6.8980     0.2296     2.2822
   53.0000  -999.2500  -999.2500  -999.2500  -999.2500     0.0542   100.6635     6.8242     0.2248     2.2919
   53.5000  -999.2500  -999.2500  -999.2500  -999.2500     0.0636   100.7004     6.7652     0.2155     2.3084
   54.0000  -999.2500  -999.2500  -999.2500  -999.2500     0.0655    97.7798     6.8853     0.2111     2.3107
   54.5000  -999.2500  -999.2500  -999.2500  -999.2500     0.0519    97.7910     6.9457     0.2137     2.3070
   55.0000  -999.2500  -999.2500  -999.2500  -999.2500     0.0481    98.0258     6.9464     0.2149     2.3033
   55.5000  -999.2500  -999.2500  -999.2500  -999.2500     0.0497    98.0370     6.9621     0.2164     2.3101
   56.0000  -999.2500  -999.2500  -999.2500  -999.2500     0.0520    97.1541     7.0671     0.2080     2.3191
   56.5000  -999.2500  -999.2500  -999.2500  -999.2500     0.0534    96.0476     7.1424     0.2009     2.3348
   57.0000  -999.2500  -999.2500  -999.2500  -999.2500     0.0534    95.3853     7.1431     0.1922     2.3506
   57.5000  -999.2500  -999.2500  -999.2500  -999.2500     0.0526    94.5024     7.1439     0.1850     2.3558
   58.0000  -999.2500  -999.2500  -999.2500  -999.2500     0.0515    94.5164     7.1296     0.1859     2.3544
   58.5000  -999.2500  -999.2500  -999.2500  -999.2500     0.0493    94.7484     7.1305     0.1850     2.3567
   59.0000  -999.2500  -999.2500  -999.2500  -999.2500     0.0452    93.8654     7.1461     0.1826     2.3612
   59.5000  -999.2500  -999.2500  -999.2500  -999.2500     0.0372    96.5620     7.1618     0.1865     2.3537
   60.0000  -999.2500  -999.2500  -999.2500  -999.2500     0.0345   100.1500     7.1325     0.1883     2.3560
   60.5000  -999.2500  -999.2500  -999.2500  -999.2500     0.0431   100.8318     7.1931     0.1805     2.3620
   61.0000  -999.2500  -999.2500  -999.2500  -999.2500     0.0445   102.4079     7.2534     0.1772     2.3696
   61.5000  -999.2500  -999.2500  -999.2500  -999.2500     0.0287   102.4191     7.2393     0.1721     2.3733
   62.0000  -999.2500  -999.2500  -999.2500  -999.2500     0.0272   101.5361     7.1059     0.1844     2.3592
   62.5000  -999.2500  -999.2500  -999.2500  -999.2500     0.0310    97.2972     7.1961     0.1781     2.3674
   63.0000  -999.2500  -999.2500  -999.2500  -999.2500     0.0329    97.0849     7.2415     0.1757     2.3735
   63.5000  -999.2500  -999.2500  -999.2500  -999.2500     0.0334    97.3224     7.2423     0.1721     2.3772
   64.0000  -999.2500  -999.2500  -999.2500  -999.2500     0.0348    97.3336     7.1981     0.1721     2.3810
   64.5000  -999.2500  -999.2500  -999.2500  -999.2500     0.0362    96.0036     7.1543     0.1670     2.3863
   65.0000  -999.2500  -999.2500  -999.2500  -999.2500     0.0423    93.1087     7.1402     0.1601     2.3975
   65.5000  -999.2500  -999.2500  -999.2500  -999.2500     0.0577    93.7906     7.1409     0.1577     2.4013
   66.0000  -999.2500  -999.2500  -999.2500  -999.2500     0.0605    98.2727     7.0821     0.1610     2.3707
   66.5000  -999.2500  -999.2500  -999.2500  -999.2500     0.0648    99.8488     7.0977     0.1768     2.3789
   67.0000  -999.2500  -999.2500  -999.2500  -999.2500     0.0612    99.8600     7.2028     0.1706     2.3767
   67.5000  -999.2500  -999.2500  -999.2500  -999.2500     0.0484    99.8712     7.2482     0.1828     2.3626
   68.0000  -999.2500  -999.2500  -999.2500  -999.2500     0.0398    98.0941     7.2192     0.1987     2.3297
   68.5000  -999.2500  -999.2500  -999.2500  -999.2500     0.0394    97.8790     7.2048     0.2017     2.3260
   69.0000  -999.2500  -999.2500  -999.2500  -999.2500     0.0422    98.7872     7.2058     0.1933     2.3440
   69.5000  -999.2500  -999.2500  -999.2500  -999.2500     0.0505    97.4571     7.2214     0.1825     2.3627
   70.0000  -999.2500  -999.2500  -999.2500  -999.2500     0.0629    95.6800     7.2669     0.1717     2.3830
   70.5000  -999.2500  -999.2500  -999.2500  -999.2500     0.0731    99.0444     7.3123     0.1445     2.4137
   71.0000  -999.2500  -999.2500  -999.2500  -999.2500     0.0747   102.6324     7.2684     0.1424     2.4219
   71.5000  -999.2500  -999.2500  -999.2500  -999.2500     0.0571   105.1026     7.2691     0.1490     2.4137
   72.0000  -999.2500  -999.2500  -999.2500  -999.2500     0.0421   106.4551     7.2401     0.1529     2.4070
   72.5000  -999.2500  -999.2500  -999.2500  -999.2500     0.0416   104.4544     7.2110     0.1553     2.4033
   73.0000  -999.2500  -999.2500  -999.2500  -999.2500     0.0428   102.6773     7.2117     0.1564     2.4041
   73.5000  -999.2500  -999.2500  -999.2500  -999.2500     0.0440   101.1237     7.1827     0.1469     2.4184
   74.0000  -999.2500  -999.2500  -999.2500  -999.2500     0.0445   102.1609     7.1683     0.1409     2.4319
