~VERSION INFORMATION
 VERS.                2.0:   CWLS LOG ASCII STANDARD - VERSION 2.0
 WRAP.                 NO:   ONE LINE PER DEPTH STEP
~WELL INFORMATION
#MNEM.UNIT      DATA TYPE    INFORMATION
#----------   ------------   ------------------------------
 STRT.F           34.0000:   START DEPTH
 STOP.F          510.0000:   STOP DEPTH
 STEP.F            0.5000:   STEP LENGTH
 NULL.          -999.2500:   NO VALUE
 COMP. LAWRENCE/ALLISON INC:   COMPANY
 WELL.      58-36 SX #3-3:   WELL
 FLD .             TEAPOT:   FIELD
 LOC .       S3 T38N R78W:   LOCATION
 CNTY.            NATRONA:   COUNTY
 STAT.            WYOMING:   STATE
 CTRY. UNITED STATES OF AMERICA:   COUNTRY
 SRVC.           Gearhart:   SERVICE COMPANY
 DATE.        17-SEP-1987:   LOGDATE
 API .       490251116300:   API NUMBER
~CURVE INFORMATION
#MNEM.UNIT       API CODE    CURVE DESCRIPTION
#----------   ------------   ------------------------------
 DEPT.F                  :   
 SPR .MV     07 010 01 00:   SPONTANEOUS POTENTIAL
 RLL .OHMM   07 220 00 00:   LATEROLOG RESISTIVITY
 RILD.OHMM   07 120 46 00:   INDUCTION LOG DEEP RESISTIVITY
 RILM.OHMM   07 120 44 00:   INDUCTION LOG MEDIUM RESISTIVITY
 GRR .GAPI   07 310 01 00:   GAMMA RAY FROM RES. LOG.
~PARAMETER INFORMATION
#MNEM.UNIT          VALUE    DESCRIPTION
#----------   ------------   ------------------------------
 PD  .                 GL:   PERMANENT DATUM
 EPD .F              5205:   ELEVATION PERMANENT DATUM
 LMF .                 KB:   LOG MEASURED FROM
 DAPD.F                 8:   FEET ABOVE PERMANENT DATUM
 DMF .                 KB:   DRILLING MEASURED FROM
 EKB .F              5213:   KELLING BUSHING
 EDF .F              5211:   DRILLING FLOOR
 EGL .F              5205:   GROUND LEVEL
 DATE.            9-17-87:   RUN DATE
 RUN .                  1:   RUN NUMBER
 DD  .F               521:   DEPTH DRILLER
 DL  .F               512:   DEPTH LOGGER
 BLI .F               510:   BOTTOM LOG INTERVAL
 TLI .F                30:   TOP LOG INTERVAL
 CS  .IN            8.625:   CASING SIZE
 CBD .F                52:   CASING BOTTOM DRILLER
 CBL .F                52:   CASING BOTTOM LOGGER
 BS  .IN            7.875:   BIT SIZE
 BSD .F               521:   BIT SIZE AT DEPTH
 DFT .          KCL WATER:   DRILLING FLUID TYPE
 DFD .                8.8:   DRILLING FLUID DENSITY
 MSS .            MUD PIT:   MUD SAMPLE SOURCE
 RMS .OHMM            .60:   RESISTIVITY MUD SAMPLE
 MST .F                41:   MUD SAMPLE TEMPERATURE
 TCS .HRS            0630:   TIME CURCULATED STOPPED
 TLAB.HRS            0918:   TIME LOGGER AT BOTTOM
 MRT .F                80:   MAXIMUM RECORDED TEMPERATURE
 LUN .               7650:   LOGGING UNIT NUMBER
 LUL .           GILLETTE:   LOGGING UNIT LOCATION
 ENGI.         WEATHERMON:   RECORDING ENGINEER
 WITN.             STRONG:   WITNESSED BY
 CLNT.            A2DTECH:   CLIENT CODE
 ORIG. 1", 2.5", 5" PRINT:   ORIGIN OF DATA
 UWI .       490251116300:   UNIQUE WELL ID
 DICO. A2D Technologies, Inc.:   DIGITIZING COMPANY
~OTHER INFORMATION
~A   DEPT      SPR        RLL       RILD       RILM        GRR   
   34.0000  -999.2500  -999.2500  -999.2500  -999.2500   102.4242
   34.5000  -999.2500  -999.2500  -999.2500  -999.2500   107.6768
   35.0000  -999.2500  -999.2500  -999.2500  -999.2500   109.9495
   35.5000  -999.2500  -999.2500  -999.2500  -999.2500   113.5607
   36.0000  -999.2500  -999.2500  -999.2500  -999.2500   118.1503
   36.5000  -999.2500  -999.2500  -999.2500  -999.2500   122.4017
   37.0000  -999.2500  -999.2500  -999.2500  -999.2500   121.3988
   37.5000  -999.2500  -999.2500  -999.2500  -999.2500   118.5597
   38.0000  -999.2500  -999.2500  -999.2500  -999.2500   116.4075
   38.5000  -999.2500  -999.2500  -999.2500  -999.2500   116.9175
   39.0000  -999.2500  -999.2500  -999.2500  -999.2500   119.8367
   39.5000  -999.2500  -999.2500  -999.2500  -999.2500   117.4322
   40.0000  -999.2500  -999.2500  -999.2500  -999.2500   114.8242
   40.5000  -999.2500  -999.2500  -999.2500  -999.2500   114.6981
   41.0000  -999.2500  -999.2500  -999.2500  -999.2500   114.9587
   41.5000  -999.2500  -999.2500  -999.2500  -999.2500   112.9782
   42.0000  -999.2500  -999.2500  -999.2500  -999.2500   110.1871
   42.5000  -999.2500  -999.2500  -999.2500  -999.2500   107.6855
   43.0000  -999.2500  -999.2500  -999.2500  -999.2500   107.8238
   43.5000  -999.2500  -999.2500  -999.2500  -999.2500   109.3383
   44.0000  -999.2500  -999.2500  -999.2500  -999.2500   110.8740
   44.5000  -999.2500  -999.2500  -999.2500  -999.2500   110.8738
   45.0000  -999.2500  -999.2500  -999.2500  -999.2500   109.3403
   45.5000  -999.2500  -999.2500  -999.2500  -999.2500   107.8479
   46.0000  -999.2500  -999.2500  -999.2500  -999.2500   107.8919
   46.5000  -999.2500  -999.2500  -999.2500  -999.2500   107.5120
   47.0000  -999.2500  -999.2500  -999.2500  -999.2500   102.1579
   47.5000  -999.2500  -999.2500  -999.2500  -999.2500    96.7303
   48.0000  -999.2500  -999.2500  -999.2500  -999.2500    91.3191
   48.5000  -999.2500  -999.2500  -999.2500  -999.2500    85.9096
   49.0000  -999.2500  -999.2500  -999.2500  -999.2500    80.4998
   49.5000  -999.2500  -999.2500  -999.2500  -999.2500    75.1118
   50.0000  -999.2500  -999.2500  -999.2500  -999.2500    70.9221
   50.5000  -999.2500  -999.2500  -999.2500  -999.2500    70.9068
   51.0000  -999.2500     1.8555  -999.2500  -999.2500    75.1528
   51.5000  -999.2500     3.6403  -999.2500  -999.2500    79.9465
   52.0000   -37.2076     7.8723    25.7745   394.7314    85.3074
   52.5000   -43.3333    10.7230    11.0659   397.0240    93.6214
   53.0000   -47.5958    11.8137     5.6739    64.8297   102.4622
   53.5000   -51.3388    13.0593     3.1835    17.4991   106.4028
   54.0000   -56.0211    13.4897     2.9974     5.7782   107.0390
   54.5000   -59.2907    11.5291     4.0622     4.1778   107.6591
   55.0000   -61.0614    10.2160     6.0803     4.0821   108.1922
   55.5000   -62.5712    10.3589     9.1011     4.5328   108.4974
   56.0000   -64.0618    10.4877    12.0702     5.6094   107.1583
   56.5000   -65.5982    10.0916    10.2278     6.9418   104.6272
   57.0000   -66.4839     9.7309     8.5351     8.3823   102.1313
   57.5000   -67.2153     9.4861     7.9548     8.1148   100.5353
   58.0000   -67.9505     9.5207     8.0736     7.8824   101.0808
   58.5000   -68.2615     9.5522     8.3166     8.0233   101.5800
   59.0000   -68.5552     9.6735     8.5668     8.0888   102.0814
   59.5000   -68.8522     9.7736     8.8247     7.8814   102.5755
   60.0000   -69.2115     9.8443     9.0902     7.7367   103.6571
   60.5000   -69.6272     9.7444     9.2260     7.6653   104.7581
   61.0000   -70.0420     9.6545     8.9172     7.8632   104.9407
   61.5000   -70.4549     9.5833     8.6867     8.0288   104.4132
   62.0000   -70.8246     9.7084     8.4622     8.0041   104.4373
   62.5000   -70.9668     9.8447     8.1847     7.9688   105.6375
   63.0000   -70.7738     9.7857     8.2189     7.9337   104.3919
   63.5000   -70.4520     9.6685     8.2762     7.8988   102.7004
   64.0000   -70.1285     9.5530     8.3339     7.8640   101.2908
   64.5000   -69.8092     9.4390     8.3920     7.8294   103.3556
   65.0000   -69.8572     9.3263     8.4095     7.7949   105.0513
   65.5000   -69.9397     9.2260     8.3513     7.7606   105.5689
   66.0000   -70.0215     9.2260     8.2987     7.7310   106.1063
   66.5000   -70.1039     9.2259     8.2465     7.6739   106.6336
   67.0000   -70.1984     9.2261     8.1945     7.6172   107.7374
   67.5000   -69.6557     9.2261     8.1615     7.5609   109.2538
   68.0000   -68.9308     9.2178     8.1036     7.5051   110.5187
   68.5000   -68.8682     9.1360     8.0460     7.3978   109.4282
   69.0000   -69.0031     9.0550     7.9889     7.4898   105.9717
   69.5000   -69.1437     8.9747     7.9321     7.5946   106.7534
   70.0000   -69.2814     8.8951     7.8814     7.5430   107.9929
   70.5000   -69.3451     8.8162     8.0140     7.4697   107.2865
   71.0000   -69.0273     8.7857     8.1638     7.3972   105.2760
   71.5000   -68.7126     8.7262     8.3166     7.3183   103.2820
   72.0000   -68.6140     8.9199     8.4721     7.5784   105.0907
   72.5000   -68.7678     9.3039     8.5424     7.9661   108.2991
   73.0000   -68.9424     9.6682     8.6036     8.3320   108.9144
   73.5000   -68.9041     9.7155     8.6572     8.2287   107.8034
   74.0000   -69.2604     9.7630     8.7649     8.0810   106.4174
   74.5000   -69.5933     9.8107     8.8740     7.9363   105.0329
   75.0000   -69.8008     9.8443     8.9701     7.8087   103.6727
   75.5000   -69.8131     9.8177     8.9405     7.7642   103.4593
   76.0000   -69.8293     9.7799     8.9109     7.7009   105.1027
   76.5000   -69.8447     9.7423     8.8713     7.6382   106.6979
   77.0000   -69.8603     9.7050     8.8083     7.5760   107.1415
   77.5000   -69.8758     9.6672     8.7458     7.5143   105.7610
   78.0000   -69.8914     9.4757     8.6777     7.4532   104.6091
   78.5000   -69.9070     9.2714     8.5799     7.3925   104.8214
   79.0000   -69.9225     9.0714     8.4830     7.3323   106.8958
   79.5000   -69.9381     8.9731     8.3873     7.2726   108.9421
   80.0000   -69.9537     9.1550     8.2927     7.2134   109.9525
   80.5000   -69.9698     9.3119     8.1991     7.1839   111.0209
   81.0000   -69.9876     9.2447     8.1066     7.1839   111.8603
   81.5000   -69.9859     9.1118     8.0152     7.1703   112.6893
   82.0000   -69.6073     8.9809     7.9247     7.1252   113.2936
   82.5000   -69.2192     8.8518     7.8087     7.0803   113.0030
   83.0000   -68.8324     8.7246     7.8541     7.0355   111.9702
   83.5000   -68.4454     8.5991     7.9456     6.9911   110.8141
   84.0000   -68.2993     8.4878     7.9548     7.0557   109.6560
   84.5000   -68.2011     8.5929     7.9939     7.1332   108.4887
   85.0000   -68.0121     8.7452     8.0503     7.2114   108.0938
   85.5000   -67.8095     8.9003     8.1070     7.2992   108.0768
   86.0000   -67.6043     9.0581     8.1641     7.4626   107.4957
   86.5000   -67.6489     9.2186     8.2216     7.6299   104.6679
   87.0000   -67.7605     9.3926     8.2795     7.8007   101.9086
   87.5000   -67.8747     9.3403     8.3320     7.9766   100.0276
   88.0000   -67.9716     9.2754     8.3668     8.0690   102.2415
   88.5000   -67.8239     9.2111     8.4057     8.1512   104.8640
   89.0000   -67.6724     9.1473     8.4447     8.2336   104.5241
   89.5000   -67.5223     9.2903     8.4839     8.3169   102.8932
   90.0000   -67.3723     9.4593     8.5233     8.4011   101.7828
   90.5000   -67.2184     9.6312     8.5629     8.4095   102.0072
   91.0000   -67.0438     9.7535     8.6026     8.4095   103.7877
   91.5000   -66.7624     9.6382     8.6426     8.3869   105.5156
   92.0000   -66.4841     9.5345     8.6829     8.3116   107.2415
   92.5000   -66.2047     9.4320     8.7233     8.2371   108.9814
   93.0000   -65.9254     9.3306     8.6666     8.1632   110.7603
   93.5000   -65.6437     9.2303     8.5999     8.0900   108.6018
   94.0000   -65.5180     9.1409     8.5666     8.0175   105.9461
   94.5000   -65.4613     9.1773     8.6127     7.9456   103.2413
