~VERSION INFORMATION
 VERS.                2.0:   CWLS LOG ASCII STANDARD - VERSION 2.0
 WRAP.                 NO:   ONE LINE PER DEPTH STEP
~WELL INFORMATION
#MNEM.UNIT      DATA TYPE    INFORMATION
#----------   ------------   ------------------------------
 STRT.F            2.5000:   START DEPTH
 STOP.F          548.0000:   STOP DEPTH
 STEP.F            0.5000:   STEP LENGTH
 NULL.          -999.2500:   NO VALUE
 COMP. LAWRENCE/ALLISON INC:   COMPANY
 WELL.    55-61 SX #10-10:   WELL
 FLD .           N.P.R #3:   FIELD
 LOC .      S10 T38N R78W:   LOCATION
 CNTY.            NATRONA:   COUNTY
 STAT.            WYOMING:   STATE
 CTRY. UNITED STATES OF AMERICA:   COUNTRY
 SRVC.            Unknown:   SERVICE COMPANY
 DATE.        05-SEP-1984:   LOGDATE
 API .       490251098100:   API NUMBER
~CURVE INFORMATION
#MNEM.UNIT       API CODE    CURVE DESCRIPTION
#----------   ------------   ------------------------------
 DEPT.F                  :   
 GRR .GAPI   07 310 01 00:   GAMMA RAY FROM RES
 SPR .MV     07 010 01 00:   SPONTANEOUS POTENTIAL
 RFOC.OHMM   07 220 04 00:   RESISTIVITY FOCUSED LOG
 RILD.OHMM   07 120 46 00:   INDUCTION LOG DEEP RESISTIVITY
 RILM.OHMM   07 120 44 00:   INDUCTION LOG MEDIUM RESISTIVITY
 CALD.IN     45 280 60 00:   CALIPER FROM DENSITY LOG
 DEN .G/C3   45 350 01 00:   COMPENSATED BULK DENSTIY
 CNC .DEC    42 890 03 00:   NEUTRON POROSITY SANDSTONE
 PORD.DEC    45 890 12 00:   POROSITY DENSITY SANDSTONE
 CORR.G/C3   45 356 01 00:   DENSITY CORRECTION
 AC  .US/F   60 520 00 00:   ACCOUSTIC SONIC
~PARAMETER INFORMATION
#MNEM.UNIT          VALUE    DESCRIPTION
#----------   ------------   ------------------------------
 PD  .                 GL:   PERMANENT DATUM
 EPD .F              5191:   ELEVATION PERMANENT DATUM
 LMF .                 KB:   LOG MEASURED FROM
 DAPD.F                12:   FEET ABOVE PERMANENT DATUM
 DMF .                 KB:   DRILLING MEASURED FROM
 EKB .F              5203:   KELLING BUSHING
 EGL .F              5191:   GROUND LEVEL
 DATE.         5-SEP-1984:   RUN DATE
 RUN .                  1:   RUN NUMBER
 DD  .F               540:   DEPTH DRILLER
 DL  .F               550:   DEPTH LOGGER
 BLI .F               548:   BOTTOM LOG INTERVAL
 CS  .IN            8.625:   CASING SIZE
 CBD .F                42:   CASING BOTTOM DRILLER
 CBL .F                54:   CASING BOTTOM LOGGER
 BS  .IN            7.875:   BIT SIZE
 BSD .F               540:   BIT SIZE AT DEPTH
 DFT .        KCL POLYMER:   DRILLING FLUID TYPE
 MSS .           FLOWLINE:   MUD SAMPLE SOURCE
 RMS .OHMM            .79:   RESISTIVITY MUD SAMPLE
 MST .F                74:   MUD SAMPLE TEMPERATURE
 RMF .OHMM            .59:   RESISTIVITY MUD FILTRATE SAMPLE
 MFST.F                74:   MUD FILTRATE SAMPLE TEMPERATURE
 RMC .OHMM            .99:   RESISTIVITY MUD CAKE
 MCST.F                74:   MUD CAKE SAMPLE TEMPERATURE
 MFSS.               CALC:   MUD FILTRATE SAMPLE SOURCE
 MCSS.               CALC:   MUD CAKE SAMPLE SOURCE
 RMB .OHMM            .65:   RESISTIVITY MUD AT BHT
 BHT .F                90:   BOTTOM HOLE TEMPERATURE
 TCS .HRS               3:   TIME CURCULATED STOPPED
 MRT .F                90:   MAXIMUM RECORDED TEMPERATURE
 LUN .               6274:   LOGGING UNIT NUMBER
 LUL .               GLTE:   LOGGING UNIT LOCATION
 ENGI.             RAUTIO:   RECORDING ENGINEER
 WITN.            JOHNSON:   WITNESSED BY
 CLNT.            A2DTECH:   CLIENT CODE
 ORIG. 2", 2.5", 5" PRINT:   ORIGIN OF DATA
 UWI .       490251098100:   UNIQUE WELL ID
 DICO. A2D Technologies, Inc.:   DIGITIZING COMPANY
~OTHER INFORMATION
~A    DEPT      GRR       SPR       RFOC       RILD       RILM       CALD        DEN        CNC       PORD       CORR         AC   
# ...
  521.0000    93.8040   -69.6620    10.3000    10.1220     9.9580     7.8550     2.5030     0.2670     0.1040     0.0110    93.8150
  521.5000    95.9410   -69.1490    10.3660    10.1680    10.0010     7.8680     2.5100     0.2700     0.1000     0.0040    93.7320
  522.0000    98.5570   -68.6560    10.4310    10.2140    10.0440     7.8800     2.5100     0.2770     0.1020    -0.0030    93.5620
  522.5000    96.6540   -68.2280    10.4960    10.2600    10.0880     7.8850     2.5030     0.2800     0.1070     0.0070    93.2840
  523.0000    93.2160   -68.2640    10.5610    10.3060    10.1310     7.8800     2.4970     0.2780     0.1110     0.0150    93.0060
  523.5000    89.9260   -68.3070    10.6270    10.3520    10.1740     7.8740     2.4910     0.2740     0.1130     0.0020    92.6890
  524.0000    86.3440   -68.3480    10.6920    10.4200    10.2310     7.8680     2.4880     0.2710     0.1140    -0.0080    93.0130
  524.5000  -999.2500   -68.3920    10.8100    10.4150    10.2230     7.8690     2.4930     0.2710     0.1120    -0.0050    93.2060
  525.0000  -999.2500   -68.1030    10.7990    10.4050    10.2120     7.8700     2.4970     0.2700     0.1090     0.0010    92.9050
  525.5000  -999.2500   -67.4690    10.7870    10.3940    10.2010     7.8720     2.4990     0.2690     0.1090     0.0060    92.6890
  526.0000  -999.2500   -66.8290    10.7750    10.3840    10.1890     7.8730     2.4930     0.2690     0.1120     0.0110    92.7590
  526.5000  -999.2500   -66.4700    10.7630    10.3740    10.1780     7.8740     2.4870     0.2700     0.1150     0.0170    92.9020
  527.0000  -999.2500   -67.0840    10.7510    10.3630    10.1670     7.8760     2.4870     0.2700     0.1140     0.0150    93.0450
  527.5000  -999.2500   -67.6820    10.7390    10.3530    10.1560     7.8770     2.4900     0.2720     0.1120     0.0110    92.8680
  528.0000  -999.2500   -68.2790    10.7270    10.3430    10.1460     7.8790     2.4940     0.2750     0.1110     0.0070    92.5550
  528.5000  -999.2500   -68.8780    10.7140    10.3320    10.1350     7.8800     2.4970     0.2760     0.1090     0.0110    92.2420
  529.0000  -999.2500   -69.0020    10.7110    10.3250    10.3000     7.8820     2.4990     0.2680     0.1070     0.0160    91.9290
  529.5000  -999.2500   -68.5550    10.8270    10.5250    10.4470     7.8830     2.5020     0.2590     0.1050     0.0200    91.6160
  530.0000  -999.2500   -68.1140    10.9550    10.6800    10.5950     7.8840     2.5020     0.2590     0.1060     0.0180    91.3030
  530.5000  -999.2500   -67.6720    11.0830    10.8340    10.7420     7.8860     2.4970     0.2700     0.1100     0.0070    90.9900
  531.0000  -999.2500   -67.0900    11.2110    10.9880    10.8900     7.8870     2.4920     0.2710     0.1120    -0.0030    90.6770
  531.5000  -999.2500   -66.3260    11.3390    11.1420    11.0380     7.8820     2.4990     0.2700     0.1080    -0.0080    90.3640
  532.0000  -999.2500   -65.5650    11.4680    11.2970    11.1850     7.8770     2.5140     0.2750     0.0970     0.0020  -999.2500
  532.5000  -999.2500   -64.8010    11.5960    11.4510    11.3180     7.8720     2.5240     0.2830     0.0940     0.0120  -999.2500
  533.0000  -999.2500   -64.0360    11.7420    11.5280    11.2880     7.8660     2.5170     0.2860     0.0980     0.0220  -999.2500
  533.5000  -999.2500   -63.9830    11.6970    11.5090    11.2540     7.8610     2.5050     0.2850     0.1050     0.0330  -999.2500
  534.0000  -999.2500   -64.1080    11.6470    11.4710    11.2210     7.8560     2.4960     0.2840     0.1110     0.0260  -999.2500
  534.5000  -999.2500   -64.2380    11.5970    11.4330    11.1880     7.8500     2.4920     0.2840     0.1120     0.0140  -999.2500
  535.0000  -999.2500   -64.3700    11.5480    11.3960    11.1540     7.8490     2.4950     0.2840     0.1100     0.0030  -999.2500
  535.5000  -999.2500   -64.2270    11.4980    11.3580    11.1210     7.8520     2.5010     0.2840     0.1060     0.0130  -999.2500
  536.0000  -999.2500   -63.6510    11.4480    11.3200    11.0870     7.8540     2.5060     0.2840     0.1030     0.0240  -999.2500
  536.5000  -999.2500   -63.0810    11.3990    11.2820    11.0540     7.8570     2.5110     0.2840     0.1000     0.0240  -999.2500
  537.0000  -999.2500   -62.5070    11.3490    11.2440    11.0200     7.8590     2.5160     0.2840     0.0970     0.0070  -999.2500
  537.5000  -999.2500   -62.2870    11.2990    11.2070    10.9870     7.8620     2.5130     0.2840     0.1000    -0.0060  -999.2500
  538.0000  -999.2500   -62.0640    11.2490    11.1690    10.9530     7.8640     2.4970     0.2840     0.1080     0.0020  -999.2500
  538.5000  -999.2500  -999.2500    11.2150    11.1120    10.9100     7.8670     2.4980     0.2840     0.1110     0.0030  -999.2500
  539.0000  -999.2500  -999.2500    11.3900    11.1910    11.0720     7.8680     2.5090     0.2840     0.1040     0.0010  -999.2500
  539.5000  -999.2500  -999.2500    11.6300    11.3480    11.1950     7.8680     2.5220     0.2840     0.0970     0.0070  -999.2500
  540.0000  -999.2500  -999.2500    11.8690    11.5050    11.3180     7.8680     2.5230     0.2840     0.0920     0.0060  -999.2500
  540.5000  -999.2500  -999.2500    12.1810    11.6630    11.4420     7.8680     2.5170     0.2840     0.0960     0.0000  -999.2500
  541.0000  -999.2500  -999.2500    12.0280    11.7420    11.5280     7.8680     2.5100     0.2840     0.1020     0.0030  -999.2500
  541.5000  -999.2500  -999.2500    11.8910    11.6420    11.4670     7.8670     2.5090     0.2840     0.1030     0.0200  -999.2500
  542.0000  -999.2500  -999.2500    11.7420    11.5280    11.4120     7.8640     2.5330     0.2840     0.0860     0.0470  -999.2500
  542.5000  -999.2500  -999.2500    11.8920    11.5760    11.3570     7.8050  -999.2500     0.2840  -999.2500     0.0750  -999.2500
  543.0000  -999.2500  -999.2500    12.0280    11.6730    11.3180     7.6940  -999.2500     0.2860  -999.2500     0.0990  -999.2500
  543.5000  -999.2500  -999.2500    12.1440    11.7700    11.4380     7.5910  -999.2500     0.2870  -999.2500     0.1090  -999.2500
  544.0000  -999.2500  -999.2500    12.2930    11.8660    11.5300     7.5910  -999.2500     0.2880  -999.2500     0.1110  -999.2500
  544.5000  -999.2500  -999.2500    12.4430    11.9630    11.6220  -999.2500  -999.2500  -999.2500  -999.2500  -999.2500  -999.2500
  545.0000  -999.2500  -999.2500    12.6370    12.0690    11.7420  -999.2500  -999.2500  -999.2500  -999.2500  -999.2500  -999.2500
  545.5000  -999.2500  -999.2500    12.4640    12.0000    11.6870  -999.2500  -999.2500  -999.2500  -999.2500  -999.2500  -999.2500
  546.0000  -999.2500  -999.2500    12.2760    11.9220    11.5770  -999.2500  -999.2500  -999.2500  -999.2500  -999.2500  -999.2500
  546.5000  -999.2500  -999.2500    12.0900    11.8440    11.4670  -999.2500  -999.2500  -999.2500  -999.2500  -999.2500  -999.2500
  547.0000  -999.2500  -999.2500    11.9040    11.7660    11.3570  -999.2500  -999.2500  -999.2500  -999.2500  -999.2500  -999.2500
  547.5000  -999.2500  -999.2500    11.8500    11.6890    11.2480  -999.2500  -999.2500  -999.2500  -999.2500  -999.2500  -999.2500
  548.0000  -999.2500  -999.2500    11.9590    11.6340    11.2150  -999.2500  -999.2500  -999.2500  -999.2500  -999.2500  -999.2500
