~VERSION INFORMATION
 VERS.                2.0:   CWLS LOG ASCII STANDARD - VERSION 2.0
 WRAP.                 NO:   ONE LINE PER DEPTH STEP
~WELL INFORMATION
#MNEM.UNIT      DATA TYPE    INFORMATION
#----------   ------------   ------------------------------
 STRT.F           46.0000:   START DEPTH
 STOP.F          457.0000:   STOP DEPTH
 STEP.F            0.5000:   STEP LENGTH
 NULL.          -999.2500:   NO VALUE
 COMP. BROWN JOHN E&C INC:   COMPANY
 WELL. NPR 3 X10 #54-52-10:   WELL
 FLD .             TEAPOT:   FIELD
 LOC .      S10 T38N R78W:   LOCATION
 CNTY.            NATRONA:   COUNTY
 STAT.            WYOMING:   STATE
 CTRY. UNITED STATES OF AMERICA:   COUNTRY
 SRVC.       Schlumberger:   SERVICE COMPANY
 DATE.        27-SEP-1990:   LOGDATE
 API .       490251131700:   API NUMBER
~CURVE INFORMATION
#MNEM.UNIT       API CODE    CURVE DESCRIPTION
#----------   ------------   ------------------------------
 DEPT.F                  :   
 GRR .GAPI   07 310 01 00:   GAMMA RAY
 ILD .OHMM   07 120 46 00:   INDUCTION LOG DEEP
 ILM .OHMM   07 120 44 00:   INDUCTION LOG MEDIUM
~PARAMETER INFORMATION
#MNEM.UNIT          VALUE    DESCRIPTION
#----------   ------------   ------------------------------
 PD  .                 GL:   PERMANENT DATUM
 EPD .F              5190:   ELEVATION PERMANENT DATUM
 LMF .                 KB:   LOG MEASURED FROM
 DAPD.F              10.0:   FEET ABOVE PERMANENT DATUM
 DMF .                 KB:   DRILLING MEASURED FROM
 EKB .F              5200:   KELLING BUSHING
 EDF .F              5199:   DRILLING FLOOR
 EGL .F              5190:   GROUND LEVEL
 DATE.        27-SEP-1990:   RUN DATE
 RUN .                  1:   RUN NUMBER
 DD  .F               460:   DEPTH DRILLER
 DL  .F               463:   DEPTH LOGGER
 BLI .F               467:   BOTTOM LOG INTERVAL
 TLI .F                48:   TOP LOG INTERVAL
 CS  .IN            8.625:   CASING SIZE
 CBD .F                48:   CASING BOTTOM DRILLER
 CBL .F                62:   CASING BOTTOM LOGGER
 BS  .IN            7.875:   BIT SIZE
 BSD .F               460:   BIT SIZE AT DEPTH
 DFT .                AIR:   DRILLING FLUID TYPE
 TCS .HRS            1900:   TIME CURCULATED STOPPED
 TLAB.HRS            1618:   TIME LOGGER AT BOTTOM
 LUN .               6882:   LOGGING UNIT NUMBER
 LUL .               CODY:   LOGGING UNIT LOCATION
 ENGI.        MICK FISHER:   RECORDING ENGINEER
 WITN.       GARRY STRONG:   WITNESSED BY
 CLNT.            A2DTECH:   CLIENT CODE
 ORIG.           5" PRINT:   ORIGIN OF DATA
 UWI .       490251131700:   UNIQUE WELL ID
 DICO. A2D Technologies, Inc.:   DIGITIZING COMPANY
~OTHER INFORMATION
~A   DEPT       GRR       ILD        ILM   
# ...
  137.0000   134.0081     6.8842     6.6534
  137.5000   135.2045     6.5097     6.1608
  138.0000   135.7939     6.1555     5.7047
  138.5000   134.2544     5.6571     5.3568
  139.0000   132.7193     5.3520     5.0301
  139.5000   130.5773     5.3147     4.8236
  140.0000   128.7388     5.3147     4.9263
  140.5000   125.6862     5.3520     5.2104
  141.0000   123.2407     5.3896     5.5108
  141.5000   122.0091     5.5814     5.8695
  142.0000   121.9909     5.9472     6.2079
  142.5000   123.4870     6.3745     6.5659
  143.0000   128.0217     6.6943     6.8498
  143.5000   131.3425     7.0302     7.0924
  144.0000   132.8468     7.2804     7.3455
  144.5000   126.7549     7.4869     7.5018
  145.0000   126.4338     7.5924     7.6615
  145.5000   129.2413     7.6993     7.7159
  146.0000   133.9815     7.8625     7.7706
  146.5000   136.3918     7.9177     7.8268
  147.0000   136.6821     7.9177     7.8812
  147.5000   134.5356     7.9733     7.9372
  148.0000   131.4831     8.0856     8.1062
  148.5000   129.6446     8.1423     8.1636
  149.0000   128.7162     8.1995     8.2215
  149.5000   128.3910     8.3150     8.3380
  150.0000   128.3778     8.3180     8.3971
  150.5000   128.9629     8.3558     8.3959
  151.0000   130.4629     8.3722     8.5131
  151.5000   133.4803     8.4304     8.5717
  152.0000   134.9803     8.4890     8.6308
  152.5000   134.0010     8.5480     8.6293
  153.0000   133.1200     8.6072     8.6282
  153.5000   132.4955     8.6744     8.8100
  154.0000   131.2641     8.7273     8.8089
  154.5000   129.7292     8.7266     8.8077
  155.0000   130.0152     8.6652     8.8062
  155.5000   132.1720     8.6042     8.8050
  156.0000   133.6221     8.6036     8.6815
  156.5000   134.8142     8.5336     8.5596
  157.0000   136.0107     8.1913     8.3807
  157.5000   137.2079     8.1337     8.1482
  158.0000   139.6176     8.0202     8.0900
  158.5000   139.4982     7.9083     8.0325
  159.0000   137.1503     7.9077     7.9754
  159.5000   133.7945     7.8521     7.9187
  160.0000   129.8316     7.6884     7.8076
  160.5000   128.5504     7.4758     7.6415
  161.0000   132.2246     7.2691     7.1765
  161.5000   134.6848     6.9699     6.8325
  162.0000   136.4341     6.6831     6.5506
  162.5000   136.7245     6.2750     6.1499
  163.0000   135.4887     5.7504     5.6934
  163.5000   133.3468     5.1945     5.2709
  164.0000   130.9014     4.7427     4.6275
  164.5000   131.8443     4.1523     3.9273
  165.0000   132.3795     3.6610     3.5602
  165.5000   131.4515     3.1607     3.2275
  166.0000   129.6131     2.7798     2.8055
  166.5000   126.8642     2.5089     2.5612
  167.0000   124.7223     2.5088     2.4902
  167.5000   125.9188     2.5798     2.5426
  168.0000   127.1153     2.6528     2.6328
  168.5000   129.5213     2.7279     2.7262
  169.0000   132.8422     2.9924     2.9646
  169.5000   136.7701     3.3174     3.2923
  170.0000   139.4841     3.8419     3.7184
  170.5000   141.0339     4.2666     4.4160
  171.0000   141.8727     4.7051     4.8700
  171.5000   141.2482     5.1887     5.3706
  172.0000   140.3202     5.6490     5.7996
  172.5000   140.3028     6.0508     6.1327
  173.0000   141.1958     6.2220     6.3060
  173.5000   141.0258     6.3094     6.4389
  174.0000   139.0320     6.2649     6.3484
  174.5000   139.9250     5.9652     6.1292
  175.0000   143.2459     5.6798     5.7142
  175.5000   146.5668     5.2782     5.2900
  176.0000   148.6738     4.7680     4.8974
  176.5000   149.5667     4.6362     4.6858
  177.0000   145.2960     4.6359     4.4701
  177.5000   140.1192     4.6032     4.3767
  178.0000   137.0668     4.5709     4.3457
  178.5000   134.6214     4.5387     4.4062
  179.0000   133.3900     4.6345     4.5307
  179.5000   133.0683     4.8328     4.7611
  180.0000   135.1716     5.0396     5.0660
  180.5000   139.7065     5.3292     5.3570
  181.0000   146.0623     5.7550     5.6253
  181.5000   149.6867     6.2618     6.1173
  182.0000   149.3657     6.6644     6.4687
  182.5000   144.4916     6.9982     6.8467
  183.0000   138.7042     7.2468     7.2330
  183.5000   138.3833     7.4519     7.4373
  184.0000   138.6736     7.6094     7.5944
  184.5000   137.4378     7.7160     7.7001
  185.0000   137.1168     7.7696     7.8076
  185.5000   138.8184     7.7690     7.8065
  186.0000   145.5752     7.7685     7.8052
  186.5000   148.8961     7.6601     7.6420
  187.0000   148.2717     7.3963     7.4822
  187.5000   144.6123     7.1918     7.2747
  188.0000   140.9530     7.0835     7.1726
  188.5000   140.9348     7.0414     7.0226
  189.0000   142.1319     6.9432     6.9170
  189.5000   143.3241     6.7986     6.8267
  190.0000   142.0926     6.6570     6.6374
  190.5000   142.0751     6.3830     6.3635
  191.0000   143.8786     6.0625     6.0162
  191.5000   143.5063     5.4719     5.4540
  192.0000   142.9332     5.3206     5.1090
  192.5000   143.8218     5.3203     4.8747
  193.0000   144.1122     5.3199     4.8741
  193.5000   144.3945     5.3569     5.0118
  194.0000   143.7693     5.4762     5.2997
  194.5000   140.5645     5.7440     5.6041
  195.0000   139.1777     5.9066     5.9315
  195.5000   139.4680     6.2460     6.2664
  196.0000   141.8741     6.4679     6.6262
  196.5000   145.1950     6.8396     6.9094
  197.0000   146.6950     7.2327     7.2048
  197.5000   147.8915     7.4374     7.4083
  198.0000   148.4810     7.5945     7.6176
  198.5000   148.7670     7.6473     7.6164
  199.0000   149.0530     7.8089     7.7227
  199.5000   149.0311     7.8631     7.7759
  200.0000   148.7102     7.8625     7.7785
  200.5000   146.2194     7.7857     7.8000
  201.0000   144.1049     7.7498     7.8215
  201.5000   142.8674     7.6942     7.7681
  202.0000   140.1124     7.6927     7.7162
  202.5000   142.8203     7.6911     7.6613
  203.0000   147.3491     7.6895     7.6068
  203.5000   150.6640     7.6880     7.6058
  204.0000   152.1579     7.6864     7.6048
  204.5000   147.5812     7.6313     7.6038
  205.0000   146.0351     7.6833     7.6027
  205.5000   146.9221     7.6278     7.6017
  206.0000   145.9881     7.6263     7.6004
  206.5000   144.7506     7.6247     7.5994
  207.0000   144.4294     7.6232     7.5983
  207.5000   145.9175     7.6216     7.5973
  208.0000   148.3298     7.6200     7.5963
  208.5000   149.5123     7.6181     7.5953
  209.0000   147.3584     7.5108     7.5942
  209.5000   146.7279     7.2007     7.3833
  210.0000   146.0974     6.6197     6.9317
  210.5000   148.5018     6.0856     6.0678
  211.0000   154.8515     5.7533     5.3115
  211.5000   163.3257     5.5935     5.0924
  212.0000   175.5620     5.6316     5.1275
  212.5000   183.3586     5.4749     5.5371
  213.0000   178.7272     5.3227     5.4594
  213.5000   167.7781     5.2478     5.6927
  214.0000   155.6149     5.1738     5.6521
  214.5000   154.0798     5.1728     5.4953
  215.0000   158.9063     5.1717     5.1591
  215.5000   161.3111     5.1707     4.8435
  216.0000   156.5392     5.1694     4.8429
  216.5000   142.1378     5.1683     4.8785
  217.0000   135.7410     5.2038     5.0845
  217.5000   139.6628     5.2760     5.2648
  218.0000   146.9231     5.4243     5.5673
  218.5000   150.2438     5.6162     5.7648
  219.0000   148.3934     5.9465     6.0534
  219.5000   147.4594     6.5473     6.4461
  220.0000   147.1324     6.8265     6.7688
  220.5000   149.8344     7.0680     6.9601
  221.0000   152.8458     7.0173     7.1068
  221.5000   154.3397     6.9184     7.0068
  222.0000   152.7987     6.5866     6.7649
  222.5000   150.0438     6.2269     6.3957
  223.0000   146.3783     5.8706     6.0045
  223.5000   144.2304     5.1893     5.5588
  224.0000   145.4446     4.8378     5.2529
  224.5000   149.9437     4.5736     5.0738
  225.0000   149.3132     4.8358     5.0377
  225.5000   147.1653     5.1130     5.0726
  226.0000   146.2312     5.2204     5.1075
  226.5000   145.2973     5.4076     5.3631
  227.0000   145.2737     5.7547     5.6316
  227.5000   145.2502     6.1703     6.0815
