~VERSION INFORMATION
 VERS.                2.0:   CWLS LOG ASCII STANDARD - VERSION 2.0
 WRAP.                 NO:   ONE LINE PER DEPTH STEP
~WELL INFORMATION
#MNEM.UNIT      DATA TYPE    INFORMATION
#----------   ------------   ------------------------------
 STRT.F           71.5000:   START DEPTH
 STOP.F          820.0000:   STOP DEPTH
 STEP.F            0.5000:   STEP LENGTH
 NULL.          -999.2500:   NO VALUE
 COMP. U S NAVY/INTEX OIL CO:   COMPANY
 WELL. RES 3 TEAPOT DOME #72-S-34:   WELL
 FLD .             TEAPOT:   FIELD
 LOC .      S34 T39N R78W:   LOCATION
 CNTY.            NATRONA:   COUNTY
 STAT.            WYOMING:   STATE
 CTRY. UNITED STATES OF AMERICA:   COUNTRY
 SRVC.       Schlumberger:   SERVICE COMPANY
 DATE.        20-FEB-1961:   LOGDATE
 API .       490250655700:   API NUMBER
~CURVE INFORMATION
#MNEM.UNIT       API CODE    CURVE DESCRIPTION
#----------   ------------   ------------------------------
 DEPT.F                  :   
 GR  .GAPI   30 310 01 00:   GAMMA RAY
 SPR .MV     05 010 01 00:   SPONTANEOUS POTENTIAL FROM RES.
 ILD .OHMM   05 120 46 00:   INDUCTION LOG DEEP
 ASN .OHMM   05 041 16 00:   AMPLIFIED SHORT NORMAL 16"
 CILD.MMHO   05 110 46 00:   CONDUCTIVITY INDUCTION LOG DEEP
~PARAMETER INFORMATION
#MNEM.UNIT          VALUE    DESCRIPTION
#----------   ------------   ------------------------------
 LMF .                 KB:   LOG MEASURED FROM
 DMF .                 KB:   DRILLING MEASURED FROM
 EKB .F              5071:   KELLING BUSHING
 EGL .F              5057:   GROUND LEVEL
 DATE.          2-20-1961:   RUN DATE
 RUN .                  1:   RUN NUMBER
 DD  .F               820:   DEPTH DRILLER
 DL  .F               820:   DEPTH LOGGER
 BLI .F               819:   BOTTOM LOG INTERVAL
 TLI .F                80:   TOP LOG INTERVAL
 CBD .F                12:   CASING BOTTOM DRILLER
 BS  .IN            7.875:   BIT SIZE
 BSD .F               820:   BIT SIZE AT DEPTH
 DFT .       GEL-OIL EMUL:   DRILLING FLUID TYPE
 DFD .                9.3:   DRILLING FLUID DENSITY
 DFV .                 48:   DRILLING FLUID VISCOSITY
 DFPH.                8.5:   DRILLING FLUID PH
 DFL .                 16:   DRILLING FLUID LOSS
 MSS .           FLOWLINE:   MUD SAMPLE SOURCE
 RMS .OHMM            .82:   RESISTIVITY MUD SAMPLE
 MST .F                70:   MUD SAMPLE TEMPERATURE
 RMF .OHMM            .45:   RESISTIVITY MUD FILTRATE SAMPLE
 MFST.F                72:   MUD FILTRATE SAMPLE TEMPERATURE
 RMC .OHMM            1.4:   RESISTIVITY MUD CAKE
 MCST.F                78:   MUD CAKE SAMPLE TEMPERATURE
 RMB .OHMM            .73:   RESISTIVITY MUD AT BHT
 BHT .F                78:   BOTTOM HOLE TEMPERATURE
 TCS .HRS               1:   TIME CURCULATED STOPPED
 MRT .F                78:   MAXIMUM RECORDED TEMPERATURE
 LUN .               2523:   LOGGING UNIT NUMBER
 LUL .              CSPR.:   LOGGING UNIT LOCATION
 ENGI.             KNOBEL:   RECORDING ENGINEER
 WITN.          JORGENSEN:   WITNESSED BY
 CLNT.            A2DTECH:   CLIENT CODE
 ORIG.      2" & 5" PRINT:   ORIGIN OF DATA
 UWI .       490250655700:   UNIQUE WELL ID
 DICO. A2D Technologies, Inc.:   DIGITIZING COMPANY
~OTHER INFORMATION
~A   DEPT       GR        SPR          ILD      ASN       CILD   
# ...
  315.5000  -999.2500   -21.6225     7.1166     8.2214   146.6544
  316.0000  -999.2500   -21.6638     7.1529     8.3006   145.6262
  316.5000  -999.2500   -21.7051     7.1895     8.3689   145.6262
  317.0000  -999.2500   -21.7463     7.2259     8.4364   145.6262
  317.5000  -999.2500   -21.7877     7.2624     8.4475   145.6262
  318.0000  -999.2500   -21.8289     7.2988     8.4291   145.6262
  318.5000  -999.2500   -21.8703     7.3353     8.4112   145.6262
  319.0000  -999.2500   -21.9114     7.3717     8.3929   145.6262
  319.5000  -999.2500   -21.9529     7.4082     8.3751   145.6262
  320.0000  -999.2500   -21.9919     7.4446     8.3595   144.3561
  320.5000  -999.2500   -21.9827     7.4812     8.4231   143.2544
  321.0000  -999.2500   -21.9736     7.5176     8.5205   142.1526
  321.5000  -999.2500   -21.9648     7.5542     8.6183   141.0509
  322.0000  -999.2500   -21.9558     7.5906     8.7157   140.6561
  322.5000  -999.2500   -21.9470     7.5617     8.8135   140.6561
  323.0000  -999.2500   -21.9379     7.4955     8.9107   140.6561
  323.5000  -999.2500   -21.9291     7.4296     8.9956   140.6561
  324.0000  -999.2500   -21.9201     7.3347     8.9556   143.5938
  324.5000  -999.2500   -21.9113     7.2234     8.7170   146.1871
  325.0000  -999.2500   -21.9023     7.1118     8.5052   148.7804
  325.5000  -999.2500   -21.8935     7.0005     8.2941   151.3737
  326.0000  -999.2500   -21.8846     6.8889     8.0824   153.9670
  326.5000  -999.2500   -21.8757     6.7776     7.9728   156.5603
  327.0000  -999.2500   -21.8667     6.6660     7.9250   158.0641
  327.5000  -999.2500   -21.8578     6.5547     7.8830   158.8904
  328.0000  -999.2500   -21.8489     6.4962     7.9601   159.7167
  328.5000  -999.2500   -21.8400     6.4715     8.0297   160.5430
  329.0000  -999.2500   -21.8311     6.4467     8.0989   161.3693
  329.5000  -999.2500   -21.8222     6.4221     8.1614   162.1956
  330.0000  -999.2500   -21.8132     6.3972     8.0629   163.1213
  330.5000  -999.2500   -21.8043     6.3725     7.9739   164.1128
  331.0000  -999.2500   -21.7949     6.3476     7.8846   164.3651
  331.5000  -999.2500   -21.7843     6.3228     7.8039   164.1172
  332.0000  -999.2500   -21.7731     6.3660     7.7531   163.8693
  332.5000  -999.2500   -21.7619     6.4559     7.7070   163.6214
  333.0000  -999.2500   -21.7507     6.5461     7.6643   162.1378
  333.5000  -999.2500   -21.7395     6.6359     7.6645   159.7829
  334.0000  -999.2500   -21.7284     6.7263     7.8201   157.4279
  334.5000  -999.2500   -21.7172     6.8159     7.9646   155.0730
  335.0000  -999.2500   -21.7060     6.9064     8.1084   152.7181
  335.5000  -999.2500   -21.6948     6.9959     8.2528   150.3631
  336.0000  -999.2500   -21.6836     7.0866     8.3967   148.0082
  336.5000  -999.2500   -21.6724     7.1761     8.4776   145.6533
  337.0000  -999.2500   -21.6612     7.2669     8.5098   143.5090
  337.5000  -999.2500   -21.6500     7.4048     8.5425   141.6501
  338.0000  -999.2500   -21.6388     7.3652     8.5748   142.1449
  338.5000  -999.2500   -21.6276     7.2924     8.6074   143.0263
  339.0000  -999.2500   -21.6164     7.2211     8.6380   143.9077
  339.5000  -999.2500   -21.6052     7.1484     8.6381   144.7890
  340.0000  -999.2500   -21.6255     7.0770     8.5337   145.6262
  340.5000  -999.2500   -21.7040     7.0044     8.4347   148.4029
  341.0000  -999.2500   -21.7823     6.9329     8.3355   151.0470
  341.5000  -999.2500   -21.8609     6.8604     8.2366   153.6912
  342.0000  -999.2500   -21.9391     6.7887     8.1373   156.3353
  342.5000  -999.2500   -22.0155     6.7162     8.0421   158.3561
  343.0000  -999.2500   -22.0865     6.6445     8.0254   159.8434
  343.5000  -999.2500   -22.1581     6.6928     8.0099   159.5427
  344.0000  -999.2500   -22.2291     6.8472     8.0021   156.3095
  344.5000  -999.2500   -22.3008     7.0011     8.0024   153.1783
  345.0000  -999.2500   -22.3861     7.1555     8.1296   150.0471
  345.5000  -999.2500   -22.3669     7.3094     8.3721   146.9159
  346.0000  -999.2500   -22.3419     7.4637     8.6141   143.7847
  346.5000  -999.2500   -22.3178     7.6176     8.8566   140.6534
  347.0000  -999.2500   -22.2929     7.7720     9.0950   137.5222
  347.5000  -999.2500   -22.2687     7.9259     9.1957   134.3910
  348.0000  -999.2500   -22.2439     8.0015     9.2948   131.2598
  348.5000  -999.2500   -22.2197     8.1007     9.3932   130.2261
  349.0000  -999.2500   -22.1950     8.1009     9.3932   131.2177
  349.5000  -999.2500   -22.1707     7.9329     9.3533   132.2092
  350.0000  -999.2500   -22.1461     7.7663     9.2580   134.3191
  350.5000  -999.2500   -22.1216     7.5992     9.1627   137.5416
  351.0000  -999.2500   -22.0971     7.4325     9.0304   140.7642
  351.5000  -999.2500   -22.0726     7.2654     8.8598   143.9867
  352.0000  -999.2500   -22.0481     7.0989     8.6895   147.2092
  352.5000  -999.2500   -22.0236     6.9317     8.5189   150.4318
  353.0000  -999.2500   -21.9991     6.7653     8.3488   153.6543
  353.5000  -999.2500   -21.9922     6.5980     8.2032   156.8769
  354.0000  -999.2500   -21.9922     6.5119     8.0845   158.5487
  354.5000  -999.2500   -21.9921     6.6301     8.0026   158.5487
  355.0000  -999.2500   -21.9922     6.7519     8.0226   156.3823
  355.5000  -999.2500   -21.9921     6.8724     8.1578   154.1659
  356.0000  -999.2500   -21.9921     6.9942     8.2967   151.9495
  356.5000  -999.2500   -21.9921     7.1146     8.4354   149.7331
  357.0000  -999.2500   -21.9921     7.2364     8.5791   147.5167
  357.5000  -999.2500   -21.9921     7.3566     8.6936   145.3003
  358.0000  -999.2500   -21.9921     7.4784     8.7349   143.0838
  358.5000  -999.2500   -21.9921     7.6039     8.6850   140.8670
  359.0000  -999.2500   -21.9920     7.6639     8.7125   139.2109
  359.5000  -999.2500   -21.9781     7.7249     8.8310   138.2188
  360.0000  -999.2500   -21.9568     7.7876     8.9426   137.2284
  360.5000  -999.2500   -21.9356     7.8487     9.0441   136.5328
  361.0000  -999.2500   -21.9144     7.9114     9.1464   136.2034
  361.5000  -999.2500   -21.8932     7.9725     9.2537   135.8723
  362.0000  -999.2500   -21.8720     8.0352     9.2074   135.5426
  362.5000  -999.2500   -21.8509     8.1003     9.1544   135.2114
  363.0000  -999.2500   -21.8296     8.0033     9.2396   134.8813
  363.5000  -999.2500   -21.8085     7.8984     9.3300   134.6935
  364.0000  -999.2500   -21.7872     7.7947     9.4208   134.6936
  364.5000  -999.2500   -21.7661     7.6899     9.4925   136.6908
  365.0000  -999.2500   -21.7448     7.5861     9.2673   138.8385
  365.5000  -999.2500   -21.7237     7.4814     9.0247   140.9868
  366.0000  -999.2500   -21.7024     7.3775     8.7817   143.1342
  366.5000  -999.2500   -21.6813     7.2730     8.5191   145.2829
  367.0000  -999.2500   -21.6600     7.1688     8.5333   147.6143
  367.5000  -999.2500   -21.6390     7.1115     8.5497   147.7792
  368.0000  -999.2500   -21.6176     7.1210     8.5516   147.9595
  368.5000  -999.2500   -21.5979     7.1305     8.5351   148.1398
  369.0000  -999.2500   -21.6247     7.1399     8.5177   148.3201
  369.5000  -999.2500   -21.6502     7.1494     8.5012   148.5004
  370.0000  -999.2500   -21.6753     7.1589     8.4837   148.4095
  370.5000  -999.2500   -21.7007     7.1684     8.4672   147.9138
  371.0000  -999.2500   -21.7258     7.1777     8.4499   147.4180
  371.5000  -999.2500   -21.7513     7.1872     8.4400   146.9222
  372.0000  -999.2500   -21.7764     7.1966     8.4630   146.4264
  372.5000  -999.2500   -21.8019     7.2071     8.5227   145.9307
  373.0000  -999.2500   -21.8270     7.2341     8.5632   145.4349
  373.5000  -999.2500   -21.8524     7.2647     8.5741   144.9391
  374.0000  -999.2500   -21.8776     7.2951     8.5847   144.6308
  374.5000  -999.2500   -21.9031     7.3256     8.5957   144.6319
  375.0000  -999.2500   -21.9283     7.3560     8.6064   144.6310
  375.5000  -999.2500   -21.9538     7.3866     8.6187   144.6319
  376.0000  -999.2500   -21.9789     7.4302     8.6685   144.6310
