~VERSION INFORMATION
 VERS.                2.0:   CWLS LOG ASCII STANDARD - VERSION 2.0
 WRAP.                 NO:   ONE LINE PER DEPTH STEP
~WELL INFORMATION
#MNEM.UNIT      DATA TYPE    INFORMATION
#----------   ------------   ------------------------------
 STRT.F           22.0000:   START DEPTH
 STOP.F          630.5000:   STOP DEPTH
 STEP.F            0.5000:   STEP LENGTH
 NULL.          -999.2500:   NO VALUE
 COMP. LAWRENCE/ALLISON INC:   COMPANY
 WELL.   16-61 SHX #11-11:   WELL
 FLD .             TEAPOT:   FIELD
 LOC .      S11 T38N R78W:   LOCATION
 CNTY.            NATRONA:   COUNTY
 STAT.            WYOMING:   STATE
 CTRY. UNITED STATES OF AMERICA:   COUNTRY
 SRVC.           Gearhart:   SERVICE COMPANY
 DATE.        13-JUN-1986:   LOGDATE
 API .       490251108900:   API NUMBER
~CURVE INFORMATION
#MNEM.UNIT       API CODE    CURVE DESCRIPTION
#----------   ------------   ------------------------------
 DEPT.F                  :   
 GRR .GAPI   07 310 01 00:   GAMMA RAY FROM RES. LOG.
 RILD.OHMM   07 120 46 00:   INDUCTION LOG DEEP RESISTIVITY
 RILM.OHMM   07 120 44 00:   INDUCTION LOG MEDIUM RESISTIVITY
~PARAMETER INFORMATION
#MNEM.UNIT          VALUE    DESCRIPTION
#----------   ------------   ------------------------------
 PD  .                 GL:   PERMANENT DATUM
 EPD .F              5185:   ELEVATION PERMANENT DATUM
 LMF .                 KB:   LOG MEASURED FROM
 DAPD.F                 5:   FEET ABOVE PERMANENT DATUM
 DMF .                 KB:   DRILLING MEASURED FROM
 EKB .F              5190:   KELLING BUSHING
 EGL .F              5185:   GROUND LEVEL
 DATE.            6-13-86:   RUN DATE
 RUN .                  1:   RUN NUMBER
 DD  .F               648:   DEPTH DRILLER
 DL  .F               640:   DEPTH LOGGER
 BLI .F               631:   BOTTOM LOG INTERVAL
 TLI .F                22:   TOP LOG INTERVAL
 CS  .IN            8.625:   CASING SIZE
 CBD .F                42:   CASING BOTTOM DRILLER
 CBL .F                47:   CASING BOTTOM LOGGER
 BS  .IN            7.875:   BIT SIZE
 BSD .F               648:   BIT SIZE AT DEPTH
 DFT .               FOAM:   DRILLING FLUID TYPE
 MSS .               TANK:   MUD SAMPLE SOURCE
 RMS .OHMM           1.85:   RESISTIVITY MUD SAMPLE
 MST .F                70:   MUD SAMPLE TEMPERATURE
 RMB .OHMM           1.55:   RESISTIVITY MUD AT BHT
 BHT .F                85:   BOTTOM HOLE TEMPERATURE
 TCS .HRS            1330:   TIME CURCULATED STOPPED
 TLAB.HRS            1600:   TIME LOGGER AT BOTTOM
 MRT .F                85:   MAXIMUM RECORDED TEMPERATURE
 LUN .               7609:   LOGGING UNIT NUMBER
 LUL .           GILLETTE:   LOGGING UNIT LOCATION
 ENGI.              BAUER:   RECORDING ENGINEER
 WITN.           JENNINGS:   WITNESSED BY
 CLNT.            A2DTECH:   CLIENT CODE
 ORIG.       2", 5" PRINT:   ORIGIN OF DATA
 UWI .       490251108900:   UNIQUE WELL ID
 DICO. A2D Technologies, Inc.:   DIGITIZING COMPANY
~OTHER INFORMATION
~A   DEPT       GRR      RILD       RILM   
# ...
  386.0000   118.9328     7.4709     7.2621
  386.5000   115.8676     7.8518     7.7071
  387.0000   113.1857     7.9547     7.8295
  387.5000   112.1243     8.0803     8.0454
  388.0000   113.2412     8.2078     8.2673
  388.5000   114.3301     8.3374     8.4952
  389.0000   115.4345     8.3890     8.6280
  389.5000   115.1927     8.4022     8.6506
  390.0000   114.7133     8.4153     8.6732
  390.5000   114.3012     8.4285     8.6959
  391.0000   116.5946     8.4417     8.7186
  391.5000   119.1641     8.4554     8.7414
  392.0000   120.4499     8.4585     8.7642
  392.5000   119.0739     8.4585     8.7784
  393.0000   117.1684     8.4585     8.7600
  393.5000   115.2263     8.4585     8.7459
  394.0000   115.2695     8.4584     8.7317
  394.5000   116.8701     8.4581     8.7175
  395.0000   117.8658     8.4579     8.6973
  395.5000   117.7560     8.5116     8.7272
  396.0000   115.9873     8.5639     8.7999
  396.5000   112.1942     8.6173     8.8731
  397.0000   107.9770     8.3476     8.9441
  397.5000   103.7609     7.8968     8.8037
  398.0000   100.4446     7.4703     8.2129
  398.5000   103.6285     7.0668     7.5944
  399.0000   107.0887     6.6851     7.0287
  399.5000   113.8898     6.2932     6.5116
  400.0000   121.8756     6.1081     6.0326
  400.5000   129.9958     6.2790     5.7226
  401.0000   133.4926     6.2224     5.7670
  401.5000   124.0782     6.5908     6.0463
  402.0000   115.8680     7.0117     6.4726
  402.5000   109.0876     7.4599     7.0338
  403.0000   107.9181     8.0327     7.6801
  403.5000   107.5160     8.6826     8.3864
  404.0000   105.6295     9.3877     9.1602
  404.5000   104.2729     9.8399     9.6493
  405.0000   105.4455     9.9605     9.6888
  405.5000   106.2815    10.0768     9.7240
  406.0000   106.5690    10.1963     9.7602
  406.5000   109.0944    10.3342     9.7938
  407.0000   111.6540    10.5186     9.9949
  407.5000   112.4006    11.0203    10.3678
  408.0000   108.8466    11.6896    10.8877
  408.5000   103.0038    12.5667    11.5945
  409.0000    96.5997    13.9738    12.6192
  409.5000    84.5729    15.5383    14.3940
  410.0000    72.8303    17.2780    16.5262
  410.5000    60.9385    19.2850    18.9579
  411.0000    51.8454    21.8698    21.6686
  411.5000    46.7708    24.8011    24.7669
  412.0000    46.2606    26.7041    28.3082
  412.5000    52.7470    28.3495    30.1104
  413.0000    58.2281    28.9945    30.7629
  413.5000    62.0986    29.6994    31.4043
  414.0000    64.4411    29.1183    30.8262
  414.5000    59.2193    28.4716    30.2931
  415.0000    56.1730    27.8392    29.7651
  415.5000    54.5358    27.2209    29.2918
  416.0000    56.8589    26.6163    28.3082
  416.5000    61.3211    26.0251    27.3577
  417.0000    65.9235    25.4468    26.4390
  417.5000    70.5523    24.8822    25.5512
  418.0000    74.2916    24.3700    24.6932
  418.5000    76.7139    23.8957    24.0733
  419.0000    77.2816    23.4824    23.7631
  419.5000    75.4524    23.2486    23.4568
  420.0000    71.7954    23.0172    23.1545
  420.5000    68.2307    22.7880    22.8561
  421.0000    66.4993    22.5612    22.5616
  421.5000    64.8500    22.3366    22.2708
  422.0000    63.1993    22.0523    21.8497
  422.5000    61.6827    22.2529    21.9126
  423.0000    63.2861    22.5346    22.0439
  423.5000    68.8138    22.8198    22.1838
  424.0000    74.4145    23.1950    22.0631
  424.5000    80.1357    23.7562    22.4038
  425.0000    80.6817    24.1275    22.9638
  425.5000    77.2147    24.5098    23.6094
  426.0000    75.2380    24.8982    24.2739
  426.5000    75.6109    25.2928    24.9571
  427.0000    75.8181    25.8343    25.6600
  427.5000    73.9070    25.6901    26.3821
  428.0000    71.9269    25.3904    27.0610
  428.5000    71.2198    25.0917    26.7798
  429.0000    69.5151    24.7973    26.4083
  429.5000    66.6823    24.3713    25.9148
  430.0000    65.5480    23.8300    25.4304
  430.5000    66.1861    23.3007    24.9551
  431.0000    67.1883    22.7832    24.3399
  431.5000    69.0946    22.2561    23.4871
  432.0000    71.1542    21.7072    22.6642
  432.5000    73.2317    21.1719    21.8702
  433.0000    75.1109    20.6497    21.1040
  433.5000    76.6499    20.1401    20.3646
  434.0000    76.2747    19.6428    19.6511
  434.5000    75.9522    19.0023    18.9626
  435.0000    76.2804    19.0469    18.3082
  435.5000    76.6053    19.1136    18.3267
  436.0000    76.9376    19.1805    18.3537
  436.5000    77.7040    19.2475    18.3808
  437.0000    79.2307    19.3149    18.4079
  437.5000    82.1503    19.4138    18.4350
  438.0000    85.0874    19.5741    18.4625
  438.5000    84.5075    19.7353    18.4897
  439.0000    81.3248    19.8978    18.5527
  439.5000    78.1359    20.0617    18.6153
  440.0000    74.9494    20.2270    18.7739
  440.5000    72.1822    20.3936    19.0714
  441.0000    73.4155    20.5616    19.3737
  441.5000    76.9893    20.7309    19.6807
  442.0000    81.6067    20.8551    19.9072
  442.5000    85.8782    20.7055    19.9072
  443.0000    83.9221    20.5367    19.9072
  443.5000    83.2711    20.3686    19.9072
  444.0000    84.5293    20.2021    19.8390
  444.5000    85.8039    20.0371    19.6321
  445.0000    87.0694    19.8734    19.4208
  445.5000    88.3374    19.7110    19.2064
  446.0000    89.6113    19.5484    18.9945
  446.5000    90.7607    19.3970    18.7762
  447.0000    88.9895    18.9986    18.5246
  447.5000    86.4043    18.7152    18.2766
  448.0000    84.2976    18.4318    18.0320
  448.5000    86.9036    18.1526    17.7906
  449.0000    89.9414    17.8777    17.5524
  449.5000    91.1173    17.6070    17.3175
  450.0000    87.1974    17.3143    17.3143
  450.5000    81.6778    17.3437    17.2025
  451.0000    80.6010    17.3765    17.1013
  451.5000    80.9153    17.4093    16.9951
  452.0000    81.6622    17.4422    17.0708
  452.5000    82.2950    17.4761    17.1539
  453.0000    79.7802    17.5261    17.2034
  453.5000    77.1264    17.5778    17.2538
  454.0000    74.8718    17.6390    17.3137
  454.5000    77.1028    17.5378    17.1961
  455.0000    80.2562    17.4146    17.0530
  455.5000    80.7172    17.2917    16.9105
  456.0000    83.8758    17.1697    16.7692
  456.5000    82.2464    17.0487    16.6292
  457.0000    78.8403    16.9285    16.4903
  457.5000    75.3986    16.8091    16.3526
  458.0000    76.5248    16.6818    16.2154
  458.5000    81.4244    16.4617    16.0742
  459.0000    85.3626    16.2271    15.9015
  459.5000    83.3883    15.9958    15.6740
  460.0000    81.1409    15.7678    15.4497
  460.5000    79.5618    15.5431    15.2286
  461.0000    79.6106    15.3215    15.0107
  461.5000    79.8802    15.1030    14.7959
  462.0000    80.7037    14.8877    14.5842
  462.5000    81.7273    14.6749    14.4916
  463.0000    82.7738    14.6262    14.4526
  463.5000    82.2369    14.6046    14.4137
  464.0000    80.5893    14.5831    14.3749
  464.5000    80.0977    14.5617    14.3362
  465.0000    80.2905    14.5404    14.2976
  465.5000    80.3647    14.5189    14.2591
  466.0000    80.3561    14.4383    14.1718
  466.5000    81.2654    14.3078    14.0439
  467.0000    82.2653    14.1785    13.9171
  467.5000    80.8867    14.0504    13.7914
  468.0000    79.9481    13.9235    13.6669
  468.5000    79.9646    13.7978    13.5435
  469.0000    79.9430    13.6732    13.4212
  469.5000    78.9501    13.5498    13.3000
  470.0000    76.2970    13.4274    13.1799
  470.5000    76.8978    13.3058    13.0609
  471.0000    78.5127    13.2113    12.9680
  471.5000    80.1214    13.1808    12.9389
  472.0000    82.6053    13.1507    12.9099
  472.5000    85.8125    13.1205    12.8809
  473.0000    89.1612    13.0904    12.8520
  473.5000    92.2685    13.0603    12.8232
  474.0000    95.3855    13.0302    12.7946
  474.5000    95.2525    13.0003    12.7656
  475.0000    92.6587    12.9763    12.7371
  475.5000    89.9024    13.0744    12.8115
  476.0000    87.1603    13.1569    12.9041
  476.5000    85.4754    13.2200    12.9773
