~VERSION INFORMATION
 VERS.                2.0:   CWLS LOG ASCII STANDARD - VERSION 2.0
 WRAP.                 NO:   ONE LINE PER DEPTH STEP
~WELL INFORMATION
#MNEM.UNIT      DATA TYPE    INFORMATION
#----------   ------------   ------------------------------
 STRT.F           14.0000:   START DEPTH
 STOP.F          608.0000:   STOP DEPTH
 STEP.F            0.1000:   STEP LENGTH
 NULL.          -999.2500:   NO VALUE
 COMP. FENIX & SCISSON INC:   COMPANY
 WELL. NAVAL PETROLEUM RESERVE 3 S-15 #72-15:   WELL
 FLD .             TEAPOT:   FIELD
 LOC .      S15 T38N R78W:   LOCATION
 CNTY.            NATRONA:   COUNTY
 STAT.            WYOMING:   STATE
 CTRY. UNITED STATES OF AMERICA:   COUNTRY
 SRVC.           BIRDWELL:   SERVICE COMPANY
 DATE.        21-JUL-1978:   LOGDATE
 API .       490251067300:   API NUMBER
~CURVE INFORMATION
#MNEM.UNIT       API CODE    CURVE DESCRIPTION
#----------   ------------   ------------------------------
 DEPT.F                  :   
 ILD .OHMM   05 120 46 00:   INDUCTION LOG DEEP
 SN  .OHMM   05 040 16 00:   SHORT NORMAL 16"
 SPR .MV     05 010 01 00:   SPONTANEOUS POTENTIAL FROM RES.
 CALD.IN     45 280 60 00:   CALIPER FROM DENSITY LOG
 DPHI.DEC    45 890 12 00:   DENSITY POROSITY SANDSTONE
 DRHO.G/C3   45 356 01 00:   DENSITY CORRECTION
 GRD .GAPI   45 310 01 00:   GAMMA RAY FROM DENSITY LOG
 RHOB.G/C3   45 350 01 00:   BULK DENSITY
~PARAMETER INFORMATION
#MNEM.UNIT          VALUE    DESCRIPTION
#----------   ------------   ------------------------------
 PD  .                 GL:   PERMANENT DATUM
 EPD .F              5238:   ELEVATION PERMANENT DATUM
 LMF .                 KB:   LOG MEASURED FROM
 DAPD.F                 4:   FEET ABOVE PERMANENT DATUM
 DMF .                 KB:   DRILLING MEASURED FROM
 EKB .F              5242:   KELLING BUSHING
 EGL .F              5238:   GROUND LEVEL
 DATE.        21-JUL-1978:   RUN DATE
 RUN .                  1:   RUN NUMBER
 DD  .F               597:   DEPTH DRILLER
 DL  .F               615:   DEPTH LOGGER
 BLI .F               608:   BOTTOM LOG INTERVAL
 TLI .F                35:   TOP LOG INTERVAL
 CS  .IN            8.625:   CASING SIZE
 CBD .F                40:   CASING BOTTOM DRILLER
 CBL .F                35:   CASING BOTTOM LOGGER
 BS  .IN            7.875:   BIT SIZE
 BSD .F               597:   BIT SIZE AT DEPTH
 DFT .                KCL:   DRILLING FLUID TYPE
 DFD .                8.6:   DRILLING FLUID DENSITY
 DFV .                 33:   DRILLING FLUID VISCOSITY
 DFPH.                9.0:   DRILLING FLUID PH
 MSS .            MUD PIT:   MUD SAMPLE SOURCE
 MFSS.               MEAS:   MUD FILTRATE SAMPLE SOURCE
 MCSS.               MEAS:   MUD CAKE SAMPLE SOURCE
 BHT .F                74:   BOTTOM HOLE TEMPERATURE
 TCS .HRS               2:   TIME CURCULATED STOPPED
 MRT .F                74:   MAXIMUM RECORDED TEMPERATURE
 LUN .               2958:   LOGGING UNIT NUMBER
 LUL .             CASPER:   LOGGING UNIT LOCATION
 ENGI.             MILLER:   RECORDING ENGINEER
 WITN.           MCGINLEY:   WITNESSED BY
 CLNT.            A2DTECH:   CLIENT CODE
 ORIG.           5" PRINT:   ORIGIN OF DATA
 UWI .       490251067300:   UNIQUE WELL ID
 DICO. A2D Technologies, Inc.:   DIGITIZING COMPANY
~OTHER INFORMATION
~A   DEPT      ILD         SN        SPR       CALD       DPHI       DRHO         GRD      RHOB   
# ...
  370.4000     6.8118     7.8299   -18.5019     7.8917     0.1142     0.0268    99.8998     2.4889
  370.5000     6.8118     7.8296   -18.5022     7.8934     0.1138     0.0268    99.8974     2.4889
  370.6000     6.8118     7.8292   -18.5025     7.8932     0.1129     0.0275    99.8950     2.4900
  370.7000     6.8118     7.8289   -18.5028     7.8930     0.1117     0.0287    99.8926     2.4908
  370.8000     6.8118     7.8286   -18.5032     7.8928     0.1103     0.0297    99.8900     2.4914
  370.9000     6.8118     7.8283   -18.5034     7.8926     0.1094     0.0297    99.7757     2.4921
  371.0000     6.8118     7.8280   -18.5037     7.8924     0.1086     0.0297    99.6491     2.4934
  371.1000     6.8118     7.8276   -18.5040     7.8923     0.1083     0.0297    99.5813     2.4948
  371.2000     6.8118     7.8273   -18.5243     7.8921     0.1081     0.0297    99.5467     2.4958
  371.3000     6.8118     7.8270   -18.6546     7.8919     0.1079     0.0297    99.4256     2.4970
  371.4000     6.8118     7.8267   -18.6549     7.8917     0.1077     0.0297    99.4228     2.4978
  371.5000     6.8118     7.8263   -18.6552     7.8915     0.1077     0.0297    99.3177     2.4980
  371.6000     6.8118     7.8260   -18.5955     7.8914     0.1080     0.0296    99.2676     2.4992
  371.7000     6.8118     7.8256   -18.5058     7.8912     0.1082     0.0296    99.2652     2.4998
  371.8000     6.8118     7.8254   -18.5061     7.8910     0.1086     0.0300    99.2627     2.5004
  371.9000     6.8118     7.8111   -18.5065     7.8908     0.1090     0.0311    99.2603     2.5010
  372.0000     6.8118     7.7888   -18.4068     7.8906     0.1092     0.0311    99.2579     2.5016
  372.1000     6.8118     7.7705   -18.3571     7.8905     0.1095     0.0311    99.2555     2.5023
  372.2000     6.8118     7.7702   -18.3574     7.8903     0.1095     0.0311    99.2531     2.5037
  372.3000     6.8118     7.7699   -18.3577     7.8901     0.1095     0.0311    99.2100     2.5042
  372.4000     6.8118     7.7695   -18.3580     7.8899     0.1095     0.0310    99.0834     2.5048
  372.5000     6.8118     7.7692   -18.3583     7.8897     0.1094     0.0310    98.9440     2.5051
  372.6000     6.8118     7.7689   -18.3586     7.8895     0.1092     0.0310    98.8302     2.5051
  372.7000     6.8118     7.7686   -18.3015     7.8894     0.1089     0.0310    98.6186     2.5051
  372.8000     6.8118     7.7683   -18.2093     7.8892     0.1085     0.0304    98.3678     2.5059
  372.9000     6.8118     7.7679   -18.2096     7.8890     0.1077     0.0295    98.1487     2.5058
  373.0000     6.8118     7.7609   -18.2099     7.8888     0.1068     0.0295    98.0171     2.5062
  373.1000     6.8118     7.7497   -18.2102     7.8886     0.1059     0.0295    97.7227     2.5068
  373.2000     6.8118     7.7384   -18.2105     7.8885     0.1047     0.0295    97.6181     2.5074
  373.3000     6.8118     7.7272   -18.2108     7.8883     0.1035     0.0294    97.3397     2.5080
  373.4000     6.8118     7.7160   -18.1961     7.8881     0.1031     0.0294    97.0632     2.5093
  373.5000     6.8118     7.7125   -18.0615     7.8879     0.1038     0.0294    96.9140     2.5100
  373.6000     6.8118     7.7122   -18.0618     7.8877     0.1051     0.0294    96.6551     2.5106
  373.7000     6.8118     7.7119   -18.0621     7.8876     0.1061     0.0294    96.5326     2.5112
  373.8000     6.8118     7.7116   -18.0624     7.8874     0.1069     0.0294    96.4060     2.5118
  373.9000     6.8118     7.7112   -18.0627     7.8872     0.1073     0.0294    96.3463     2.5125
  374.0000     6.8118     7.7109   -18.0630     7.8870     0.1078     0.0294    96.3036     2.5125
  374.1000     6.8118     7.6978   -18.0633     7.8868     0.1082     0.0293    96.1909     2.5116
  374.2000     6.8118     7.6758   -18.0636     7.8866     0.1084     0.0293    96.3388     2.5106
  374.3000     6.8118     7.6569   -18.0639     7.8865     0.1084     0.0293    96.5589     2.5100
  374.4000     6.8118     7.6565   -18.0642     7.8863     0.1084     0.0293    96.7766     2.5093
  374.5000     6.8118     7.6562   -18.0645     7.8861     0.1082     0.0293    96.9812     2.5079
  374.6000     6.8118     7.6261   -18.0648     7.8859     0.1079     0.0293    97.1858     2.5069
  374.7000     6.8118     7.6029   -18.0651     7.8857     0.1077     0.0293    97.3896     2.5056
  374.8000     6.8118     7.6026   -18.0654     7.8856     0.1074     0.0293    97.5735     2.5044
  374.9000     6.8118     7.6023   -18.0657     7.8854     0.1072     0.0292    97.7573     2.5034
  375.0000     6.8118     7.6019   -18.0660     7.8852     0.1072     0.0292    97.9789     2.5034
  375.1000     6.8118     7.6016   -18.0663     7.8850     0.1076     0.0292    98.2248     2.5021
  375.2000     6.8118     7.6013   -18.0666     7.8848     0.1081     0.0292    98.4708     2.5014
  375.3000     6.8118     7.6010   -18.0669     7.8847     0.1086     0.0292    98.7257     2.5007
  375.4000     6.8118     7.6007   -18.0672     7.8845     0.1091     0.0292    99.2021     2.5001
  375.5000     6.8118     7.6004   -18.0675     7.8843     0.1096     0.0292    99.6033     2.4995
  375.6000     6.8118     7.6001   -18.0678     7.8841     0.1103     0.0292   100.0398     2.4988
  375.7000     6.8118     7.5997   -18.0681     7.8839     0.1109     0.0292   100.4944     2.4982
  375.8000     6.8118     7.5994   -18.0684     7.8837     0.1115     0.0291   100.8514     2.4976
  375.9000     6.8118     7.5991   -18.0687     7.8836     0.1122     0.0291   101.1243     2.4967
  376.0000     6.8118     7.5988   -18.0690     7.8834     0.1127     0.0291   101.1222     2.4956
  376.1000     6.8118     7.5985   -18.0693     7.8832     0.1132     0.0291   101.2037     2.4950
  376.2000     6.8118     7.5982   -18.0696     7.8830     0.1135     0.0291   101.3255     2.4943
  376.3000     6.8118     7.5979   -18.1873     7.8828     0.1139     0.0291   101.4166     2.4937
  376.4000     6.8118     7.5975   -18.2201     7.8827     0.1143     0.0291   101.4143     2.4931
  376.5000     6.8118     7.5972   -18.2204     7.8825     0.1145     0.0291   101.5622     2.4925
  376.6000     6.8118     7.5969   -18.2207     7.8823     0.1148     0.0290   101.6617     2.4918
  376.7000     6.8118     7.5966   -18.2210     7.8821     0.1150     0.0290   101.7835     2.4912
  376.8000     6.8108     7.5963   -18.2213     7.8819     0.1154     0.0290   101.9294     2.4912
  376.9000     6.7650     7.5960   -18.3240     7.8818     0.1157     0.0290   102.1133     2.4912
  377.0000     6.7650     7.5956   -18.3718     7.8827     0.1157     0.0290   102.3046     2.4915
  377.1000     6.7650     7.5953   -18.3721     7.8887     0.1156     0.0290   102.5406     2.4919
  377.2000     6.7650     7.5950   -18.3724     7.8948     0.1154     0.0290   102.7865     2.4920
  377.3000     6.7650     7.5947   -18.3727     7.8961     0.1151     0.0290   103.0325     2.4926
  377.4000     6.7650     7.5944   -18.3730     7.8976     0.1149     0.0289   103.3177     2.4926
  377.5000     6.7650     7.5941   -18.3733     7.9006     0.1147     0.0289   103.6878     2.4931
  377.6000     6.7650     7.5938   -18.3736     7.9035     0.1145     0.0289   104.0999     2.4934
  377.7000     6.7650     7.5934   -18.3739     7.9064     0.1145     0.0289   104.3180     2.4935
  377.8000     6.7650     7.5931   -18.3742     7.9093     0.1145     0.0289   104.5639     2.4941
  377.9000     6.7650     7.5928   -18.3745     7.9102     0.1145     0.0289   104.8667     2.4941
  378.0000     6.7650     7.5925   -18.3748     7.9100     0.1145     0.0289   105.2066     2.4941
  378.1000     6.7650     7.5922   -18.3751     7.9098     0.1145     0.0289   105.4526     2.4941
  378.2000     6.7650     7.5919   -18.3754     7.9101     0.1145     0.0289   105.7443     2.4940
  378.3000     6.7650     7.5916   -18.3757     7.9245     0.1145     0.0288   105.9445     2.4940
  378.4000     6.7638     7.5912   -18.3760     7.9278     0.1145     0.0288   106.2648     2.4940
