~VERSION INFORMATION
 VERS.                2.0:   CWLS LOG ASCII STANDARD - VERSION 2.0
 WRAP.                 NO:   ONE LINE PER DEPTH STEP
~WELL INFORMATION
#MNEM.UNIT      DATA TYPE    INFORMATION
#----------   ------------   ------------------------------
 STRT.F           30.0000:   START DEPTH
 STOP.F          580.0000:   STOP DEPTH
 STEP.F            0.5000:   STEP LENGTH
 NULL.          -999.2500:   NO VALUE
 COMP. FENIX & SCISSON INC:   COMPANY
 WELL.      87 SX 3 #87-3:   WELL
 FLD .             TEAPOT:   FIELD
 LOC .       S3 T38N R78W:   LOCATION
 CNTY.            NATRONA:   COUNTY
 STAT.            WYOMING:   STATE
 CTRY. UNITED STATES OF AMERICA:   COUNTRY
 SRVC.            Unknown:   SERVICE COMPANY
 DATE.        16-NOV-1978:   LOGDATE
 API .       490251074200:   API NUMBER
~CURVE INFORMATION
#MNEM.UNIT       API CODE    CURVE DESCRIPTION
#----------   ------------   ------------------------------
 DEPT.F                  :   
 CALD.IN     45 280 60 00:   CALIPER
 GRD .GAPI   45 310 01 00:   GAMMA RAY FROM DENSITY LOG
 RHOB.G/C3   45 350 01 00:   BULK DENSITY
 DPHI.DEC    45 890 12 00:   DENSITY POROSITY SANDSTONE
 CORR.G/C3   45 356 01 00:   DENSITY CORRECTION
 SFL .OHMM   05 221 01 00:   AMP. SHALLOW FOCUSED LOG RESISTIVITY
 ILD .OHMM   05 120 46 00:   INDUCTION LOG DEEP
 SPR .MV     05 010 01 00:   SPONTANEOUS POTENTIAL FROM RES.
~PARAMETER INFORMATION
#MNEM.UNIT          VALUE    DESCRIPTION
#----------   ------------   ------------------------------
 PD  .                 GL:   PERMANENT DATUM
 EPD .F              5120:   ELEVATION PERMANENT DATUM
 LMF .                 KB:   LOG MEASURED FROM
 DAPD.F                 4:   FEET ABOVE PERMANENT DATUM
 DMF .                 KB:   DRILLING MEASURED FROM
 EKB .F              5124:   KELLING BUSHING
 EGL .F              5120:   GROUND LEVEL
 DATE.           11-16-78:   RUN DATE
 RUN .                  1:   RUN NUMBER
 DD  .F               580:   DEPTH DRILLER
 DL  .F               574:   DEPTH LOGGER
 BLI .F               574:   BOTTOM LOG INTERVAL
 TLI .F                50:   TOP LOG INTERVAL
 CS  .IN            8.625:   CASING SIZE
 CBD .F                50:   CASING BOTTOM DRILLER
 CBL .F                50:   CASING BOTTOM LOGGER
 BS  .IN            7.875:   BIT SIZE
 BSD .F               580:   BIT SIZE AT DEPTH
 DFT .            SEA MUD:   DRILLING FLUID TYPE
 DFD .                8.7:   DRILLING FLUID DENSITY
 DFV .                 54:   DRILLING FLUID VISCOSITY
 DFPH.                9.8:   DRILLING FLUID PH
 MSS .           FLOWLINE:   MUD SAMPLE SOURCE
 RMS .OHMM            1.1:   RESISTIVITY MUD SAMPLE
 MST .F                56:   MUD SAMPLE TEMPERATURE
 RMF .OHMM             .9:   RESISTIVITY MUD FILTRATE SAMPLE
 MFST.F                60:   MUD FILTRATE SAMPLE TEMPERATURE
 RMC .OHMM            .95:   RESISTIVITY MUD CAKE
 MCST.F                60:   MUD CAKE SAMPLE TEMPERATURE
 MFSS.           MEASURED:   MUD FILTRATE SAMPLE SOURCE
 MCSS.           MEASURED:   MUD CAKE SAMPLE SOURCE
 RMB .OHMM            .93:   RESISTIVITY MUD AT BHT
 BHT .F                66:   BOTTOM HOLE TEMPERATURE
 TCS .HRS               1:   TIME CURCULATED STOPPED
 MRT .F                66:   MAXIMUM RECORDED TEMPERATURE
 LUN .               2958:   LOGGING UNIT NUMBER
 LUL .                CPR:   LOGGING UNIT LOCATION
 ENGI.             MILLER:   RECORDING ENGINEER
 WITN.           DINSMORE:   WITNESSED BY
 CLNT.            A2DTECH:   CLIENT CODE
 ORIG.       2", 5" PRINT:   ORIGIN OF DATA
 UWI .       490251074200:   UNIQUE WELL ID
 DICO. A2D Technologies, Inc.:   DIGITIZING COMPANY
~OTHER INFORMATION
~A   DEPT     CALD         GRD      RHOB       DPHI       CORR        SFL        ILD        SPR   
# ...
  151.5000     6.8082    91.1089     2.4206     0.1579     0.0293    10.5645     9.1442    -8.9219
  152.0000     6.8174    92.8768     2.4210     0.1587     0.0289    10.3588     8.9867    -8.5823
  152.5000     6.8570    93.3745     2.4198     0.1596     0.0285    10.1572     8.8319    -8.2477
  153.0000     6.9775    93.2215     2.4180     0.1605     0.0280     9.9595     8.6798    -8.2123
  153.5000     7.0960    91.8417     2.4161     0.1614     0.0274     9.7657     8.5303    -8.1938
  154.0000     7.2282    89.5418     2.4089     0.1650     0.0196     9.5757     8.3759    -8.1738
  154.5000     7.3883    89.7145     2.4012     0.1718     0.0112     9.5286     8.3759    -8.1533
  155.0000     7.3662    91.0495     2.3956     0.1751     0.0054     9.5286     8.4879    -8.1329
  155.5000     7.3637    92.7018     2.3899     0.1773     0.0055     9.7137     8.5716    -8.1124
  156.0000     7.4124    94.9713     2.3841     0.1805     0.0055     9.9623     8.6564    -8.0920
  156.5000     7.4390    96.9175     2.3784     0.1855     0.0062    10.0831     8.7419    -8.0715
  157.0000     7.3044    98.0318     2.3726     0.1887     0.0112    10.1059     8.8281    -8.0511
  157.5000     7.3274    99.1757     2.3704     0.1862     0.0211    10.1288     8.9334    -8.0354
  158.0000     7.4290    99.6248     2.3818     0.1792     0.0347    10.1517     8.9163    -8.0358
  158.5000     7.4830    99.1019     2.3941     0.1723     0.0487    10.1747     8.8947    -8.0354
  159.0000     7.5113    98.5638     2.4065     0.1653     0.0515    10.1977     8.8731    -8.0381
  159.5000     7.5441    98.3576     2.4164     0.1595     0.0496    10.2207     8.8518    -7.8999
  160.0000     7.6614    98.4175     2.4156     0.1612     0.0459    10.2437     8.9026    -7.7070
  160.5000     7.7740    98.4893     2.4124     0.1629     0.0366    10.2765     8.9531    -7.5113
  161.0000     7.7720    97.7217     2.4117     0.1621     0.0272    10.3218     9.0038    -7.3156
  161.5000     7.7723    96.2651     2.4214     0.1575     0.0255    10.3675     9.0548    -7.1201
  162.0000     7.7723    94.8199     2.4309     0.1529     0.0255    10.4133     9.1061    -6.9245
  162.5000     7.7722    95.1073     2.4362     0.1490     0.0255    10.4594     9.1577    -6.7294
  163.0000     7.7723    96.3488     2.4364     0.1494     0.0255    10.5056     9.2096    -6.5330
  163.5000     7.7722    97.6413     2.4322     0.1512     0.0255    10.5521     9.2687    -6.4089
  164.0000     7.8201    98.2257     2.4225     0.1576     0.0290    10.5988     9.2327    -6.3343
  164.5000     7.8923    98.5081     2.4128     0.1639     0.0377    10.6422     9.1913    -6.2476
  165.0000     7.8559    97.8640     2.4067     0.1671     0.0517    10.5767     9.1498    -6.8676
  165.5000     7.8182    94.8973     2.4055     0.1671     0.0668    10.5152     9.1085    -7.6476
  166.0000     7.7800    92.9174     2.4065     0.1671     0.0818    10.4544     9.0674    -8.4269
  166.5000     7.7723    94.1667     2.4088     0.1653     0.0970    10.3940     9.0266    -8.9505
  167.0000     7.7723    95.6793     2.4125     0.1630     0.1153    10.3340     8.9858    -8.3747
  167.5000     7.7724    95.7022     2.4180     0.1607     0.1376    10.2572     8.9453    -6.6991
  168.0000     7.7710    95.6404     2.4272     0.1538     0.1543    10.2880     8.9279    -6.2339
  168.5000     7.7052    95.5851     2.4369     0.1487     0.1638    10.3314     8.9195    -6.0435
  169.0000     7.5357    95.6385     2.4393     0.1484     0.1476    10.3750     8.9112    -6.0461
  169.5000     7.5418    96.3861     2.4227     0.1615     0.1269    10.4189     8.9030    -6.0841
  170.0000     7.5511    97.8444     2.4061     0.1694     0.1077    10.4630     8.8948    -6.7028
  170.5000     7.5427    99.2610     2.3966     0.1717     0.1087    10.5068     8.8865    -7.2621
  171.0000     7.5238    99.4377     2.3956     0.1678     0.1179    10.5446     8.8783    -7.2889
  171.5000     7.4298    99.5546     2.4156     0.1592     0.1377    10.4204     8.8701    -7.3266
  172.0000     7.2870    99.6774     2.4383     0.1468     0.1551    10.3449     8.8617    -7.3668
  172.5000     7.1791    99.8001     2.4510     0.1429     0.1540    10.3250     8.8536    -7.4068
  173.0000     7.1328    99.9086     2.4470     0.1440     0.1506    10.3050     8.8013    -7.4414
  173.5000     7.0858    99.4437     2.4436     0.1452     0.1447    10.2852     8.7363    -7.4408
  174.0000     7.0384    98.6812     2.4442     0.1460     0.1389    10.2653     8.6718    -7.4424
  174.5000     7.0223    97.9440     2.4577     0.1365     0.1278    10.2455     8.6077    -7.4562
  175.0000     7.0256    97.9158     2.4706     0.1279     0.1171    10.2258     8.5442    -6.8027
  175.5000     7.0293    97.9197     2.4827     0.1231     0.1058    10.2061     8.5010    -5.9854
  176.0000     7.0327    97.9216     2.4797     0.1329     0.0733    10.1864     8.4630    -6.1036
  176.5000     7.0367    97.9705     2.4587     0.1435     0.0364    10.1667     8.4251    -6.4088
  177.0000     7.0606    98.0975     2.4370     0.1524     0.0194    10.0306     8.3874    -6.6408
  177.5000     7.1754    98.2184     2.4220     0.1593     0.0091     9.8710     8.3499    -6.5805
  178.0000     7.2878    98.1659     2.4174     0.1627     0.0089     9.7140     8.3125    -6.5257
  178.5000     7.3784    97.3576     2.4155     0.1620     0.0084     9.5594     8.1371    -6.4715
  179.0000     7.3765    96.8737     2.4163     0.1611     0.0080     9.4073     7.8896    -6.4173
  179.5000     7.3762    97.7224     2.4175     0.1603     0.0075     9.2149     7.6497    -6.3629
  180.0000     7.3761    98.5452     2.4188     0.1598     0.0070     8.8902     7.4170    -6.3076
  180.5000     7.3751    99.3740     2.4158     0.1615     0.0065     8.4485     7.1915    -6.2542
  181.0000     7.4197    99.4317     2.4090     0.1648     0.0060     8.1518     6.9029    -6.4313
  181.5000     7.4727    99.3441     2.4022     0.1694     0.0055     8.0021     6.9137    -6.6325
  182.0000     7.5262    99.2517     2.3954     0.1740     0.0071     7.8552     6.9295    -6.8323
  182.5000     7.5363    99.1475     2.3913     0.1751     0.0089     7.7809     6.9456    -7.0287
  183.0000     7.5383    98.3124     2.4029     0.1665     0.0106     8.2272     6.9602    -7.2566
  183.5000     7.5401    96.4305     2.4152     0.1591     0.0124     8.5412     7.0584    -8.3520
  184.0000     7.5420    94.5660     2.4243     0.1559     0.0135     8.8711     7.2456    -9.5202
  184.5000     7.5439    92.7695     2.4178     0.1618     0.0135     9.1096     7.4379   -10.6882
  185.0000     7.5458    93.6400     2.4070     0.1678     0.0135     9.1502     7.6352   -11.5808
  185.5000     7.5477    95.2797     2.3964     0.1727     0.0135     9.1906     7.8529    -9.9242
  186.0000     7.5496    96.9365     2.3952     0.1718     0.0135     9.2440     7.8289    -8.2240
  186.5000     7.5515    98.5970     2.3956     0.1706     0.0135     9.2689     7.7960    -7.1627
  187.0000     7.5538   100.2566     2.4045     0.1654     0.0135     9.2689     7.7632    -7.0381
  187.5000     7.5758   100.5089     2.4151     0.1591     0.0121     9.2689     7.7306    -7.0190
  188.0000     7.6241    99.7675     2.4257     0.1528     0.0105     9.2689     7.6895    -7.8948
  188.5000     7.6720    98.6721     2.4352     0.1497     0.0089     9.1876     7.6330    -8.8959
  189.0000     7.7200    98.4309     2.4393     0.1487     0.0073     9.1030     7.5770    -9.4884
  189.5000     7.7681    98.3437     2.4402     0.1477     0.0058     9.0163     7.5213    -9.6175
  190.0000     7.8160    97.7493     2.4412     0.1467     0.0042     8.7971     7.4661    -9.7496
  190.5000     7.8523    97.1268     2.4418     0.1481     0.0027     8.5776     7.4113    -9.8848
  191.0000     7.8516    96.8262     2.4360     0.1509     0.0017     8.4332     7.3569   -10.0038
  191.5000     7.8515    96.5444     2.4301     0.1537     0.0030     8.3097     7.3030    -9.0998
