~VERSION INFORMATION
 VERS.                2.0:   CWLS LOG ASCII STANDARD - VERSION 2.0
 WRAP.                 NO:   ONE LINE PER DEPTH STEP
~WELL INFORMATION
#MNEM.UNIT      DATA TYPE    INFORMATION
#----------   ------------   ------------------------------
 STRT.F           12.0000:   START DEPTH
 STOP.F          664.5000:   STOP DEPTH
 STEP.F            0.5000:   STEP LENGTH
 NULL.          -999.2500:   NO VALUE
 COMP. LAWRENCE/ALLISON INC:   COMPANY
 WELL.   23-16 SHX #14-14:   WELL
 FLD .             TEAPOT:   FIELD
 LOC .      S14 T38N R78W:   LOCATION
 CNTY.            NATRONA:   COUNTY
 STAT.            WYOMING:   STATE
 CTRY. UNITED STATES OF AMERICA:   COUNTRY
 SRVC.           Gearhart:   SERVICE COMPANY
 DATE.        03-JUL-1987:   LOGDATE
 API .       490251114200:   API NUMBER
~CURVE INFORMATION
#MNEM.UNIT       API CODE    CURVE DESCRIPTION
#----------   ------------   ------------------------------
 DEPT.F                  :   
 RILD.OHMM   07 120 46 00:   INDUCTION LOG DEEP RESISTIVITY
 RILM.OHMM   07 120 44 00:   INDUCTION LOG MEDIUM RESISTIVITY
 GRR .GAPI   07 310 01 00:   GAMMA RAY FROM RES. LOG
~PARAMETER INFORMATION
#MNEM.UNIT          VALUE    DESCRIPTION
#----------   ------------   ------------------------------
 PD  .                 GL:   PERMANENT DATUM
 EPD .F              5203:   ELEVATION PERMANENT DATUM
 LMF .                 KB:   LOG MEASURED FROM
 DAPD.F                 8:   FEET ABOVE PERMANENT DATUM
 DMF .                 KB:   DRILLING MEASURED FROM
 EKB .F              5211:   KELLING BUSHING
 EDF .F              5210:   DRILLING FLOOR
 EGL .F              5203:   GROUND LEVEL
 DATE.             7-3-87:   RUN DATE
 RUN .                  1:   RUN NUMBER
 DD  .F               679:   DEPTH DRILLER
 DL  .F               672:   DEPTH LOGGER
 BLI .F               664:   BOTTOM LOG INTERVAL
 TLI .F                48:   TOP LOG INTERVAL
 CS  .IN            8.625:   CASING SIZE
 CBD .F                48:   CASING BOTTOM DRILLER
 CBL .F                48:   CASING BOTTOM LOGGER
 BS  .IN            7.875:   BIT SIZE
 BSD .F               679:   BIT SIZE AT DEPTH
 DFT .               FOAM:   DRILLING FLUID TYPE
 TCS .HRS            1345:   TIME CURCULATED STOPPED
 TLAB.HRS            1450:   TIME LOGGER AT BOTTOM
 MRT .F                80:   MAXIMUM RECORDED TEMPERATURE
 LUN .               7597:   LOGGING UNIT NUMBER
 LUL .           GILLETTE:   LOGGING UNIT LOCATION
 ENGI.            WANGLER:   RECORDING ENGINEER
 WITN.             STRONG:   WITNESSED BY
 CLNT.            A2DTECH:   CLIENT CODE
 ORIG.       2", 5" PRINT:   ORIGIN OF DATA
 UWI .       490251114200:   UNIQUE WELL ID
 DICO. A2D Technologies, Inc.:   DIGITIZING COMPANY
~OTHER INFORMATION
~A   DEPT     RILD       RILM         GRR  
# ...
  376.0000     8.2038     7.8389   113.3172
  376.5000     8.3081     7.9991   114.4871
  377.0000     8.4137     7.9912   113.4056
  377.5000     8.5207     7.9787   112.2715
  378.0000     8.6290     7.9663   112.1807
  378.5000     8.7387     7.9539   113.5460
  379.0000     8.7849     7.9418   114.5607
  379.5000     8.7999     7.9288   114.5221
  380.0000     8.8148     7.9254   115.4563
  380.5000     8.8298     8.2015   116.4402
  381.0000     8.8449     8.4611   116.7685
  381.5000     8.8599     8.5345   114.6801
  382.0000     8.8750     8.5094   112.6673
  382.5000     8.8901     8.4905   111.2737
  383.0000     8.9052     8.4716   112.6042
  383.5000     8.9204     8.4528   115.4516
  384.0000     8.9357     8.4340   118.3437
  384.5000     8.9388     8.4152   121.2796
  385.0000     8.9389     8.3965   121.5587
  385.5000     8.9389     8.3780   121.0528
  386.0000     8.9388     8.3625   118.8922
  386.5000     8.9388     8.3472   116.1206
  387.0000     8.9388     8.3319   113.3266
  387.5000     8.9388     8.3166   110.5531
  388.0000     8.9389     8.3014   108.4578
  388.5000     8.9389     8.2862   109.5867
  389.0000     8.9389     8.2710   111.9854
  389.5000     8.9394     8.2559   114.1172
  390.0000     8.9039     8.2407   114.3180
  390.5000     8.8767     8.2247   114.5036
  391.0000     8.8497     8.2073   115.5985
  391.5000     8.8228     8.1886   117.5712
  392.0000     8.7959     8.1699   115.5940
  392.5000     8.7692     8.1513   112.6574
  393.0000     8.7427     8.1327   110.8887
  393.5000     8.7157     8.1142   111.8726
  394.0000     8.6588     8.0958   111.7052
  394.5000     8.4581     8.0732   110.5917
  395.0000     8.2784     8.0743   109.5738
  395.5000     8.1691     7.8807   109.8270
  396.0000     8.0607     7.7454   112.6952
  396.5000     7.9462     7.6125   115.5576
  397.0000     7.8233     7.4818   116.5652
  397.5000     7.6207     7.3597   116.0560
  398.0000     7.3797     7.0791   115.4222
  398.5000     7.1463     6.8217   116.5465
  399.0000     6.9422     6.5736   118.3092
  399.5000     6.7674     6.3346   115.6225
  400.0000     6.6472     6.1043   111.4263
  400.5000     6.6472     5.9483   109.9781
  401.0000     6.6980     5.9611   113.7591
  401.5000     6.8002     6.0858   116.5074
  402.0000     6.9040     6.1901   115.6370
  402.5000     7.0093     6.3684   114.8295
  403.0000     7.1163     6.5502   114.5969
  403.5000     7.2249     6.7372   117.0810
  404.0000     7.3351     6.9296   118.9716
  404.5000     7.4470     7.1275   115.4746
  405.0000     7.5606     7.2919   111.7653
  405.5000     7.7083     7.3597   108.2781
  406.0000     7.7015     7.3191   110.2717
  406.5000     7.6921     7.2831   113.3491
  407.0000     7.6828     7.2472   116.4520
  407.5000     7.6734     7.2115   116.9611
  408.0000     7.6640     7.1760   116.7554
  408.5000     7.6544     7.1407   116.8950
  409.0000     7.6444     7.1056   117.6753
  409.5000     7.6373     7.0706   118.1846
  410.0000     7.3921     7.0358   117.5856
  410.5000     7.1394     6.9007   116.2576
  411.0000     6.8954     6.6734   114.9455
  411.5000     6.6597     6.4535   113.7751
  412.0000     6.4321     6.2301   113.3598
  412.5000     6.2125     5.9329   114.4462
  413.0000     5.9992     5.6352   116.7934
  413.5000     5.7449     5.3521   118.9309
  414.0000     5.4840     5.0833   116.8036
  414.5000     5.2355     4.8278   113.7565
  415.0000     5.0354     4.5850   110.6726
  415.5000     5.0354     4.3552   109.3111
  416.0000     5.0354     4.2626   109.6900
  416.5000     5.0354     4.5568   112.4504
  417.0000     5.0303     4.7854   115.2073
  417.5000     5.2571     5.0255   117.9515
  418.0000     5.6056     5.3101   120.7276
  418.5000     5.9825     5.6210   121.7485
  419.0000     6.3838     5.9503   119.5876
  419.5000     6.8120     6.2987   117.2604
  420.0000     7.1069     6.5679   114.9309
  420.5000     7.1898     6.6817   114.7916
  421.0000     7.2737     6.7975   117.2986
  421.5000     7.3585     6.9152   120.3328
  422.0000     7.4443     7.0350   123.3576
  422.5000     7.4972     7.1581   123.7678
  423.0000     7.6068     7.2879   120.8957
  423.5000     7.7958     7.4213   119.3932
  424.0000     7.9896     7.5573   119.4052
  424.5000     8.1558     7.6956   119.3074
  425.0000     8.1928     7.7893   118.3932
  425.5000     8.2300     7.8126   117.7646
  426.0000     8.2673     7.8361   118.2033
  426.5000     8.3048     7.8594   119.6269
  427.0000     8.3424     7.8830   120.7242
  427.5000     8.3803     7.9192   121.0210
  428.0000     8.4184     7.9175   119.9033
  428.5000     8.4558     7.9983   118.4097
  429.0000     8.4561     8.0179   116.8723
  429.5000     8.4559     8.0281   116.5665
  430.0000     8.4559     8.0385   116.5589
  430.5000     8.4558     8.0489   116.8226
  431.0000     8.4561     8.0593   117.2659
  431.5000     8.4548     8.0744   117.7675
  432.0000     8.4575     8.0246   115.1432
  432.5000     8.2718     7.9128   111.8559
  433.0000     8.1446     7.8017   111.5356
  433.5000     8.0196     7.6922   114.6151
  434.0000     7.8966     7.5844   118.1095
  434.5000     7.7754     7.4781   121.3136
  435.0000     7.6562     7.3733   120.8316
  435.5000     7.5387     7.2700   118.2441
  436.0000     7.4231     7.1681   115.7258
  436.5000     7.3092     7.0519   113.2655
  437.0000     6.9631     6.8903   112.1011
  437.5000     6.4836     6.7714   114.0628
  438.0000     6.0371     6.3845   117.1971
  438.5000     5.6216     6.0366   120.3295
  439.0000     5.2330     5.7076   122.1970
  439.5000     4.8495     5.3966   122.5614
  440.0000     4.3282     5.1295   122.0957
  440.5000     3.8670     4.4007   121.6260
  441.0000     3.4544     3.8083   121.1543
  441.5000     3.0857     3.2957   120.6807
  442.0000     2.7558     2.9277   120.2209
  442.5000     2.5144     2.5697   120.2562
  443.0000     2.4282     2.2555   120.6004
  443.5000     2.3457     2.0516   118.8702
  444.0000     2.3354     1.9954   115.4716
  444.5000     2.3771     2.0638   112.0727
  445.0000     2.5442     2.2539   108.6444
  445.5000     2.8159     2.4825   110.6123
  446.0000     3.1165     2.7944   115.5890
  446.5000     3.4693     3.1454   119.5680
  447.0000     3.9184     3.5406   119.3334
  447.5000     4.4257     3.9853   118.3372
  448.0000     4.9430     4.4860   119.2534
  448.5000     5.1998     4.8524   122.1125
  449.0000     5.4466     5.1721   124.6306
  449.5000     5.7062     5.4225   124.2198
  450.0000     5.7329     5.5238   123.5828
  450.5000     5.5778     5.3656   122.9697
  451.0000     5.4105     5.1952   124.7675
  451.5000     5.2487     5.0303   127.8526
  452.0000     5.1432     4.8705   130.9113
  452.5000     5.0476     4.7158   133.6204
  453.0000     4.9537     4.5661   132.0304
  453.5000     4.8975     4.4645   129.2499
  454.0000     4.9071     4.5396   126.4660
  454.5000     4.9430     4.6176   123.6889
  455.0000     4.9890     4.6962   121.3518
  455.5000     5.1870     4.7748   121.5784
  456.0000     5.4287     4.8524   122.6191
  456.5000     5.6817     5.2208   123.6430
  457.0000     5.9465     5.5915   124.6591
  457.5000     6.2236     5.9236   125.4686
  458.0000     6.5136     6.2083   125.2125
  458.5000     6.8172     6.5253   124.6448
  459.0000     6.9752     6.6287   125.7538
  459.5000     7.1241     6.8229   127.2547
  460.0000     7.2733     7.0268   126.8199
  460.5000     7.4281     7.1581   123.7864
  461.0000     7.4972     7.1122   122.2123
  461.5000     7.3437     7.0363   122.2356
  462.0000     7.2362     6.9613   121.2087
  462.5000     7.1302     6.8870   120.1855
  463.0000     7.0258     6.8138   122.3458
  463.5000     6.9230     6.7408   126.6438
  464.0000     6.8216     6.6689   127.3375
  464.5000     6.6650     6.4651   124.8461
  465.0000     6.4573     6.2380   122.3811
  465.5000     6.2550     5.9969   125.2107
  466.0000     6.0595     5.7650   128.7422
  466.5000     5.8701     5.5422   130.6007
