~VERSION INFORMATION
 VERS.                2.0:   CWLS LOG ASCII STANDARD - VERSION 2.0
 WRAP.                 NO:   ONE LINE PER DEPTH STEP
~WELL INFORMATION
#MNEM.UNIT      DATA TYPE    INFORMATION
#----------   ------------   ------------------------------
 STRT.F           90.0000:   START DEPTH
 STOP.F          799.0000:   STOP DEPTH
 STEP.F            0.5000:   STEP LENGTH
 NULL.          -999.2500:   NO VALUE
 COMP. U S NAVY-INTEX OIL:   COMPANY
 WELL. RES 3 TEAPOT DOM #83S-34:   WELL
 FLD .             TEAPOT:   FIELD
 LOC .      S34 T39N R78W:   LOCATION
 CNTY.            NATRONA:   COUNTY
 STAT.            WYOMING:   STATE
 CTRY. UNITED STATES OF AMERICA:   COUNTRY
 SRVC.       Schlumberger:   SERVICE COMPANY
 DATE.        15-FEB-1961:   LOGDATE
 API .       490250655100:   API NUMBER
~CURVE INFORMATION
#MNEM.UNIT       API CODE    CURVE DESCRIPTION
#----------   ------------   ------------------------------
 DEPT.F                  :   
 ASN .OHMM   05 041 16 00:   AMPLIFIED SHORT NORMAL 16"
 ILD .OHMM   05 120 46 00:   INDUCTION LOG DEEP RESISTIVITY.
 CILD.MMHO   05 110 46 00:   CONDUCTIVITY INDUCTION LOG DEEP
 SPR .MV     05 010 01 00:   SPONTANEOUS POTENTIAL FROM RES.
 GR  .GAPI   30 310 01 00:   GAMMA RAY
~PARAMETER INFORMATION
#MNEM.UNIT          VALUE    DESCRIPTION
#----------   ------------   ------------------------------
 PD  .                 GL:   PERMANENT DATUM
 EPD .F              5090:   ELEVATION PERMANENT DATUM
 LMF .                 KB:   LOG MEASURED FROM
 DAPD.F                 4:   FEET ABOVE PERMANENT DATUM
 DMF .                 KB:   DRILLING MEASURED FROM
 EKB .F              5094:   KELLING BUSHING
 EGL .F              5090:   GROUND LEVEL
 DATE.        15-FEB-1961:   RUN DATE
 RUN .                  1:   RUN NUMBER
 DD  .F               800:   DEPTH DRILLER
 DL  .F               800:   DEPTH LOGGER
 BLI .F               799:   BOTTOM LOG INTERVAL
 TLI .F               100:   TOP LOG INTERVAL
 CBD .F                12:   CASING BOTTOM DRILLER
 BS  .IN            7.875:   BIT SIZE
 BSD .F               800:   BIT SIZE AT DEPTH
 DFT .       OIL EMULSION:   DRILLING FLUID TYPE
 DFD .                9.5:   DRILLING FLUID DENSITY
 DFV .                 50:   DRILLING FLUID VISCOSITY
 RMS .OHMM           1.25:   RESISTIVITY MUD SAMPLE
 MST .F                57:   MUD SAMPLE TEMPERATURE
 RMB .OHMM           0.98:   RESISTIVITY MUD AT BHT
 BHT .F                73:   BOTTOM HOLE TEMPERATURE
 TCS .HRS               1:   TIME CURCULATED STOPPED
 LUN .               2572:   LOGGING UNIT NUMBER
 LUL .                 NC:   LOGGING UNIT LOCATION
 ENGI.            EARNEST:   RECORDING ENGINEER
 WITN.          JORGENSEN:   WITNESSED BY
 CLNT.            A2DTECH:   CLIENT CODE
 ORIG.       2" ,5" PRINT:   ORIGIN OF DATA
 UWI .       490250655100:   UNIQUE WELL ID
 DICO. A2D Technologies, Inc.:   DIGITIZING COMPANY
~OTHER INFORMATION
~A   DEPT        ASN        ILD      CILD       SPR         GR   
# ...
  273.0000    13.0468    11.3299    92.9980   -44.6596  -999.2500
  273.5000    12.9713    11.1364    94.4389   -44.8087  -999.2500
  274.0000    12.8718    11.0300    95.1802   -44.9578  -999.2500
  274.5000    12.8205    11.0309    95.9202   -44.9563  -999.2500
  275.0000    12.8205    10.9124    95.9067   -45.2560  -999.2500
  275.5000    12.7195    10.8817    96.9645   -45.3047  -999.2500
  276.0000    12.6697    10.8073    97.4575   -45.5542  -999.2500
  276.5000    12.6697    10.7637    98.8760   -45.5527  -999.2500
  277.0000    12.5189    10.7141   100.6957   -45.7520  -999.2500
  277.5000    12.3655    10.5836   102.1020   -45.8509  -999.2500
  278.0000    12.1418    10.4644   104.8484   -46.0000  -999.2500
  278.5000    12.0090    10.2445   106.6792   -46.1491  -999.2500
  279.0000    11.7406     9.9835   108.7663   -46.1476  -999.2500
  279.5000    11.0106     9.6984   112.3222   -46.3971  -999.2500
  280.0000    10.5882     9.3022   115.2153   -46.4960  -999.2500
  280.5000    10.1766     8.7809   120.2240   -46.7455  -999.2500
  281.0000     9.8244     8.4493   125.8020   -46.7440  -999.2500
  281.5000     9.5324     8.0981   131.7429   -47.0440  -999.2500
  282.0000     9.2097     7.7289   136.7518   -47.1928  -999.2500
  282.5000     8.9155     7.4875   141.5341   -47.2917  -999.2500
  283.0000     8.6878     7.3123   144.5220   -47.3906  -999.2500
  283.5000     8.5402     7.1288   147.0207   -47.6401  -999.2500
  284.0000     8.4730     6.9327   149.7587   -47.6386  -999.2500
  284.5000     8.4163     6.7866   151.2500   -47.7877  -999.2500
  285.0000     8.4304     6.6792   151.9907   -47.7861  -999.2500
  285.5000     8.5324     6.5294   151.9772   -47.8850  -999.2500
  286.0000     8.6425     6.4332   151.9670   -47.9337  -999.2500
  286.5000     8.7025     6.3803   152.7078   -47.9322  -999.2500
  287.0000     8.7481     6.3810   152.6943   -47.9307  -999.2500
  287.5000     8.7632     6.3598   154.1854   -47.9292  -999.2500
  288.0000     8.7175     6.3072   155.0851   -47.9277  -999.2500
  288.5000     8.6166     6.3080   157.1651   -47.9262  -999.2500
  289.0000     8.5219     6.3311   157.5726   -47.9247  -999.2500
  289.5000     8.4528     6.3848   158.0656   -47.9232  -999.2500
  290.0000     8.4012     6.3855   158.6336   -47.9217  -999.2500
  290.5000     8.4465     6.3863   158.6224   -47.9202  -999.2500
  291.0000     8.5398     6.3871   158.4284   -47.9187  -999.2500
  291.5000     8.6407     6.3878   157.8485   -47.9172  -999.2500
  292.0000     8.7179     6.3886   157.3974   -47.9157  -999.2500
  292.5000     8.7652     6.3140   157.0758   -47.9142  -999.2500
  293.0000     8.7934     6.3148   157.0641   -47.9127  -999.2500
  293.5000     8.7481     6.2920   156.3026   -47.9111  -999.2500
  294.0000     8.7003     6.2410   157.0439   -47.8343  -999.2500
  294.5000     8.6498     6.2417   157.0304   -47.7575  -999.2500
  295.0000     8.5973     6.2425   157.0195   -47.7560  -999.2500
  295.5000     8.5488     6.2432   157.0083   -47.7545  -999.2500
  296.0000     8.4983     6.2440   156.9967   -47.7530  -999.2500
  296.5000     8.4465     6.2447   156.9857   -47.7264  -999.2500
  297.0000     8.4163     6.2455   156.9745   -47.5994  -999.2500
  297.5000     8.4163     6.2462   156.2123   -47.5979  -999.2500
  298.0000     8.4314     6.2470   155.4504   -47.5964  -999.2500
  298.5000     8.4465     6.2477   154.4495   -47.4443  -999.2500
  299.0000     8.4664     6.2485   153.9264   -47.2922  -999.2500
  299.5000     8.4917     6.3999   152.4137   -47.2907  -999.2500
  300.0000     8.5973     6.5104   151.4119   -47.2892  -999.2500
  300.5000     8.7083     6.5976   150.1981   -47.1370  -999.2500
  301.0000     8.8086     6.6849   148.9843   -47.0853  -999.2500
  301.5000     8.8386     6.7721   147.7705   -47.0998  -999.2500
  302.0000     8.8688     6.8604   146.3494   -47.2923  -999.2500
  302.5000     8.8688     7.0088   145.7520   -47.2080  -999.2500
  303.0000     8.8989     7.2211   144.0241   -47.0630  -999.2500
  303.5000     8.9937     7.5442   141.8114   -46.8531  -999.2500
  304.0000     9.1618     7.6899   140.7307   -46.7509  -999.2500
  304.5000     9.3514     7.8415   139.5383   -46.4593  -999.2500
  305.0000     9.4359     7.9179   139.5256   -46.3960  -999.2500
  305.5000     9.5346     7.9192   139.5158   -46.1571  -999.2500
  306.0000     9.6229     7.8489   139.6096   -46.1563  -999.2500
  306.5000     9.6872     7.5973   140.2440   -46.0053  -999.2500
  307.0000     9.7464     7.3954   140.2327   -46.0045  -999.2500
  307.5000     9.8039     7.3965   140.3528   -46.0037  -999.2500
  308.0000     9.8190     7.3835   141.7107   -46.0030  -999.2500
  308.5000     9.8005     7.3234   142.0996   -46.0023  -999.2500
  309.0000     9.7134     7.3245   142.5976   -45.8510  -999.2500
  309.5000     9.6033     7.2502   143.1794   -45.8504  -999.2500
  310.0000     9.4942     7.1763   144.3443   -45.8496  -999.2500
  310.5000     9.3816     7.1020   144.8423   -45.6984  -999.2500
  311.0000     9.2845     7.1225   146.1481   -45.5474  -999.2500
  311.5000     9.1960     7.1796   147.0408   -45.5178  -999.2500
  312.0000     9.1252     7.2269   147.6295   -45.3954  -999.2500
  312.5000     9.0799     7.2572   148.3668   -45.2444  -999.2500
  313.0000     9.0649     7.2583   148.3559   -45.0932  -999.2500
  313.5000     9.1101     7.1841   148.3446   -44.9421  -999.2500
  314.0000     9.1638     7.1852   148.3333   -44.8561  -999.2500
  314.5000     9.2205     7.1864   147.5691   -44.7539  -999.2500
  315.0000     9.1637     7.1877   147.0346   -44.4887  -999.2500
  315.5000     9.0004     7.1886   146.0473   -44.3376  -999.2500
  316.0000     9.0476     7.2651   145.2833   -44.1865  -999.2500
  316.5000     9.1388     7.2664   145.2740   -44.0353  -999.2500
  317.0000     9.2422     7.3426   146.0139   -44.0346  -999.2500
  317.5000     9.2787     7.4191   147.5020   -44.0338  -999.2500
  318.0000     9.2879     7.4956   147.8078   -44.0331  -999.2500
  318.5000     9.2431     7.4966   147.3336   -44.0323  -999.2500
  319.0000     9.1865     7.4895   145.9670   -44.0316  -999.2500
  319.5000     9.0743     7.4236   144.8649   -44.0308  -999.2500
  320.0000     9.0602     7.4247   143.5936   -44.0299  -999.2500
  320.5000     9.1081     7.3396   142.9304   -43.8789  -999.2500
  321.0000     9.1787     7.2012   142.5526   -43.8757  -999.2500
  321.5000     9.3052     7.1269   142.0320   -43.7269  -999.2500
  322.0000     9.5032     7.0392   141.3954   -43.7263  -999.2500
  322.5000     9.6069     6.9785   142.5300   -43.5752  -999.2500
  323.0000     9.5922     6.9044   143.1807   -43.4239  -999.2500
  323.5000     9.5458     6.8893   144.3656   -43.4233  -999.2500
  324.0000     9.4586     6.8313   145.8559   -43.2622  -999.2500
  324.5000     9.3371     6.7894   147.3477   -43.1209  -999.2500
  325.0000     9.1378     6.7395   148.0850   -42.9699  -999.2500
  325.5000     8.9906     6.6841   149.7184   -42.8188  -999.2500
  326.0000     8.8862     6.6099   151.2713   -42.6676  -999.2500
  326.5000     8.7588     6.6111   152.5560   -42.5165  -999.2500
  327.0000     8.6625     6.6122   153.7688   -42.4982  -999.2500
  327.5000     8.6160     6.5650   154.7881   -42.3646  -999.2500
  328.0000     8.5665     6.5389   156.2762   -42.2135  -999.2500
  328.5000     8.5162     6.5403   157.0158   -42.0624  -999.2500
  329.0000     8.4660     6.6922   157.7552   -41.9112  -999.2500
  329.5000     8.4214     6.7684   157.7440   -41.9105  -999.2500
  330.0000     8.3860     6.7721   157.7307   -41.9098  -999.2500
  330.5000     8.3611     6.8462   156.9707   -41.9090  -999.2500
  331.0000     8.3169     6.9977   156.9169   -41.9083  -999.2500
  331.5000     8.3232     7.0040   156.1957   -41.9075  -999.2500
  332.0000     8.3337     7.0755   156.1862   -41.9067  -999.2500
  332.5000     8.3931     7.1517   154.6734   -41.8246  -999.2500
  333.0000     8.5194     7.1529   154.6606   -41.7549  -999.2500
  333.5000     8.7371     7.2294   152.8128   -41.7541  -999.2500
