~VERSION INFORMATION
 VERS.                2.0:   CWLS LOG ASCII STANDARD - VERSION 2.0
 WRAP.                 NO:   ONE LINE PER DEPTH STEP
~WELL INFORMATION
#MNEM.UNIT      DATA TYPE    INFORMATION
#----------   ------------   ------------------------------
 STRT.F            5.0000:   START DEPTH
 STOP.F          668.0000:   STOP DEPTH
 STEP.F            0.5000:   STEP LENGTH
 NULL.          -999.2500:   NO VALUE
 COMP. LAWRENCE/ALLISON INC:   COMPANY
 WELL.    38-61 SX #38-34:   WELL
 FLD .             TEAPOT:   FIELD
 LOC .      S34 T39N R78W:   LOCATION
 CNTY.            NATRONA:   COUNTY
 STAT.            WYOMING:   STATE
 CTRY. UNITED STATES OF AMERICA:   COUNTRY
 SRVC.           Gearhart:   SERVICE COMPANY
 DATE.        18-AUG-1987:   LOGDATE
 API .       490251116700:   API NUMBER
~CURVE INFORMATION
#MNEM.UNIT       API CODE    CURVE DESCRIPTION
#----------   ------------   ------------------------------
 DEPT.F                  :   
 GRR .GAPI   07 310 01 00:   GAMMA RAY
 ILD .OHMM   07 120 46 00:   INDUCTION LOG DEEP
 ILM .OHMM   07 120 44 00:   INDUCTION LOG MEDIUM
~PARAMETER INFORMATION
#MNEM.UNIT          VALUE    DESCRIPTION
#----------   ------------   ------------------------------
 PD  .                 GL:   PERMANENT DATUM
 EPD .F              5175:   ELEVATION PERMANENT DATUM
 LMF .                 KB:   LOG MEASURED FROM
 DAPD.F                 8:   FEET ABOVE PERMANENT DATUM
 DMF .                 KB:   DRILLING MEASURED FROM
 EKB .F              5183:   KELLING BUSHING
 EGL .F              5175:   GROUND LEVEL
 DATE.        18-AUG-1987:   RUN DATE
 RUN .                  1:   RUN NUMBER
 DD  .F               665:   DEPTH DRILLER
 DL  .F               669:   DEPTH LOGGER
 BLI .F               667:   BOTTOM LOG INTERVAL
 CBD .F                47:   CASING BOTTOM DRILLER
 CBL .F                47:   CASING BOTTOM LOGGER
 BS  .IN            7.875:   BIT SIZE
 BSD .F               665:   BIT SIZE AT DEPTH
 DFT .           NONE AIR:   DRILLING FLUID TYPE
 TLAB.HRS            0830:   TIME LOGGER AT BOTTOM
 MRT .F                80:   MAXIMUM RECORDED TEMPERATURE
 LUN .               7597:   LOGGING UNIT NUMBER
 LUL .           GILLETTE:   LOGGING UNIT LOCATION
 ENGI.        K.HUCKFELDT:   RECORDING ENGINEER
 WITN.          G. STRONG:   WITNESSED BY
 CLNT.            A2DTECH:   CLIENT CODE
 ORIG.           5" PRINT:   ORIGIN OF DATA
 UWI .       490251116700:   UNIQUE WELL ID
 DICO. A2D Technologies, Inc.:   DIGITIZING COMPANY
~OTHER INFORMATION
~A    DEPT      GRR       ILD        ILM   
# ...
   96.0000   110.5775     8.9925     8.7664
   96.5000   108.4690     8.9931     8.6464
   97.0000   107.2589     8.9314     8.4691
   97.5000   107.8725     8.8089     8.2957
   98.0000   108.7914     8.6880     8.2232
   98.5000   108.7971     8.5095     8.0700
   99.0000   108.4974     8.3925     8.0092
   99.5000   109.1408     8.2774     7.8513
  100.0000   111.4069     8.2207     7.7977
  100.5000   113.4802     8.3357     7.6919
  101.0000   115.8455     8.2207     7.6934
  101.5000   117.3823     8.2207     7.6416
  102.0000   118.3113     8.3068     7.6435
  102.5000   117.7204     8.4523     7.6450
  103.0000   115.9183     8.5112     7.6998
  103.5000   114.1117     8.6302     7.8095
  104.0000   111.6973     8.7510     8.0873
  104.5000   110.4843     8.8734     8.2021
  105.0000   114.1674     8.8120     8.2038
  105.5000   116.0083     8.8120     8.1485
  106.0000   115.4175     8.6904     8.0380
  106.5000   114.8267     8.5705     7.9839
  107.0000   115.1521     8.3938     7.9301
  107.5000   115.7771     8.2207     7.7684
  108.0000   116.4022     8.1072     7.6626
  108.5000   116.1154     7.9954     7.5583
  109.0000   114.9210     7.8851     7.4038
  109.5000   113.4184     7.8851     7.3030
  110.0000   111.9158     7.8305     7.2036
  110.5000   110.0922     7.7763     7.2053
  111.0000   108.9105     7.7225     7.2570
  111.5000   110.1463     7.6690     7.3094
  112.0000   116.5507     7.7225     7.3108
  112.5000   119.3034     7.7763     7.2113
  113.0000   121.1443     7.7225     7.2128
  113.5000   116.2982     7.7225     7.1642
  114.0000   114.1877     7.7763     7.1159
  114.5000   115.1209     7.7763     7.0194
  115.0000   115.1381     7.8305     7.0208
  115.5000   112.1157     7.8680     7.0225
  116.0000   107.2739     7.9954     7.0239
  116.5000   106.6788     8.0511     7.0253
  117.0000   109.7398     8.1638     7.0760
  117.5000   111.8846     8.2780     7.1765
  118.0000   112.8136     8.3647     7.4317
  118.5000   111.6192     8.5112     7.5898
  119.0000   110.7245     8.5705     7.7516
  119.5000   110.1277     8.6904     7.9718
  120.0000   109.5429     8.6904     8.1981
  120.5000   111.0841     8.6302     8.3145
  121.0000   108.6696     8.6302     8.3166
  121.5000   104.6798     8.5705     8.3182
  122.0000    99.5854     8.5112     8.2618
  122.5000   103.8621     8.3938     8.2047
  123.0000   106.9188     8.2780     8.0392
  123.5000   109.3678     8.1638     7.8748
  124.0000   108.1731     8.0511     7.6604
  124.5000   107.2784     7.8851     7.5523
  125.0000   106.9873     7.6690     7.3507
  125.5000   108.2796     7.4589     7.2004
  126.0000   111.5894     7.3560     7.1024
  126.5000   114.6461     7.3560     7.0545
  127.0000   116.4869     7.4073     7.1055
  127.5000   117.4164     7.5503     7.1565
  128.0000   118.0452     7.7763     7.3087
  128.5000   117.4545     7.9954     7.5166
  129.0000   117.1672     8.2207     7.7300
  129.5000   115.2746     8.4523     7.9496
  130.0000   111.4311     8.6302     8.2323
  130.5000   109.3206     8.8734     8.5850
  131.0000   109.9457     9.0602     8.7676
  131.5000   112.0947     9.1234     8.8921
  132.0000   111.2000     9.1234     8.9559
  132.5000   106.6579     9.0602     9.0206
  133.0000   103.9395     8.9975     8.9594
  133.5000   103.3487     8.8734     8.7767
  134.0000   107.0175     8.7510     8.5964
  134.5000   109.7702     8.5705     8.3056
  135.0000   111.3071     8.3357     8.0234
  135.5000   109.8088     8.1638     7.7509
  136.0000   108.0022     7.9954     7.4848
  136.5000   107.7111     7.6690     7.2332
  137.0000   108.0365     7.6159     7.2350
  137.5000   113.5291     7.6690     7.2869
  138.0000   116.8896     7.8305     7.4468
  138.5000   118.1226     7.9954     7.6006
  139.0000   117.8298     8.1638     7.7085
  139.5000   115.4256     8.2780     7.8180
  140.0000   113.3151     8.4523     7.9290
  140.5000   110.9006     8.5705     7.9309
  141.0000   109.0800     8.6904     7.9874
  141.5000   106.9878     8.8120     7.9340
  142.0000   105.7891     8.9352     7.9359
  142.5000   104.8944     9.0602     7.9929
  143.0000   109.5603     9.1234     8.0502
  143.5000   112.5275     9.1870     8.1079
  144.0000   110.1173     9.2510     8.2808
  144.5000   110.7423     9.1870     8.3984
  145.0000   113.5562     9.1234     8.5176
  145.5000   117.7718     9.0602     8.6386
  146.0000   120.2205     9.0602     8.7009
  146.5000   117.8060     8.9716     8.7027
  147.0000   113.1874     8.9198     8.6436
  147.5000   109.9419     8.8120     8.6458
  148.0000   108.4349     8.7510     8.5281
  148.5000   112.1038     8.5705     8.4120
  149.0000   116.0766     8.4523     8.2979
  149.5000   117.6135     8.3357     8.1849
  150.0000   116.1854     8.3357     7.8523
  150.5000   114.5997     8.3965     7.7989
  151.0000   112.7846     8.3400     7.7459
  151.5000   111.5704     8.2845     7.7472
  152.0000   113.4119     8.2872     7.8023
  152.5000   116.4601     8.2962     7.8577
  153.0000   117.3806     8.3499     7.8588
  153.5000   115.8694     8.4103     7.8601
  154.0000   111.9288     8.5302     7.8611
  154.5000   109.5058     8.5926     7.8621
  155.0000   110.4263     8.6547     7.9732
  155.5000   113.1705     8.6570     8.0862
  156.0000   113.7870     8.5398     8.2005
  156.5000   113.1899     8.4242     8.2015
  157.0000   113.1985     8.3029     8.1455
  157.5000   113.2072     8.1414     8.0867
  158.0000   113.5238     8.1436     8.0355
  158.5000   115.3542     8.1457     8.0928
  159.0000   117.4905     8.2047     8.0939
  159.5000   120.8426     8.3802     8.1514
  160.0000   122.6950     8.4997     8.2096
  160.5000   118.7343     8.6208     8.2680
  161.0000   115.3995     8.8047     8.3849
  161.5000   113.2804     9.0638     8.5627
  162.0000   112.0733     9.3133     8.7172
  162.5000   113.5141     9.4460     8.8167
  163.0000   115.0068     9.4485     8.9312
  163.5000   116.6606     9.5832     9.0067
  164.0000   117.5810     9.7882     9.1218
  164.5000   120.9362     9.7908     9.1869
  165.0000   125.5032     9.7934     9.2836
  165.5000   127.6395     9.7281     9.4056
  166.0000   124.3046     9.7986     9.5156
  166.5000   121.5777     9.8824     9.6501
  167.0000   120.6744     9.9618     9.7190
  167.5000   122.2050    10.0832     9.8563
  168.0000   124.6452    10.2270     9.8576
  168.5000   126.4775    10.3734     9.9296
  169.0000   127.7244    10.4659    10.0779
  169.5000   128.9286    10.5405    10.2818
  170.0000   128.9372    10.6741    10.4272
  170.5000   128.6418    10.8270    10.6483
  171.0000   127.1307    10.9813    10.8745
  171.5000   122.8862    11.2155    10.9518
  172.0000   116.2079    11.4547    11.0296
  172.5000   108.9217    11.6221    11.0310
  173.0000   104.9789    11.7844    10.8802
  173.5000   101.5137    11.8697    10.8062
  174.0000   107.7339    11.8728    10.8080
  174.5000   113.8215    11.8759    10.8848
  175.0000   114.7398    11.7968    11.0387
  175.5000   112.6038    11.7182    11.1950
  176.0000   112.0237    11.6402    11.3533
  176.5000   112.0345    11.5626    11.4340
  177.0000   112.9549    11.5665    11.4355
  177.5000   113.8754    11.5703    11.3577
  178.0000   115.7099    11.5327    11.2806
  178.5000   116.6282    11.4955    11.2039
  179.0000   115.4232    11.4992    11.0507
  179.5000   113.9121    11.5030    10.8244
  180.0000   113.0088    11.5061    10.6027
  180.5000   114.5394    11.3503    10.4577
  181.0000   115.7638    11.1967    10.3867
  181.5000   116.9882    11.1221    10.3160
  182.0000   120.1013    11.0480    10.3175
  182.5000   126.1262    10.9748    10.2473
  183.0000   126.7405    10.9780    10.2490
  183.5000   123.7118    10.9809    10.2503
  184.0000   122.2007    10.9845    10.2517
  184.5000   120.6917    10.9107    10.2843
  185.0000   118.8766    10.7637    10.3261
  185.5000   113.4141    10.6180    10.3276
  186.0000   109.4714    10.5473    10.3290
  186.5000   107.9602    10.4770    10.3307
