~VERSION INFORMATION
 VERS.                2.0:   CWLS LOG ASCII STANDARD - VERSION 2.0
 WRAP.                 NO:   ONE LINE PER DEPTH STEP
~WELL INFORMATION
#MNEM.UNIT      DATA TYPE    INFORMATION
#----------   ------------   ------------------------------
 STRT.F           80.0000:   START DEPTH
 STOP.F          782.0000:   STOP DEPTH
 STEP.F            0.5000:   STEP LENGTH
 NULL.          -999.2500:   NO VALUE
 COMP.            US NAVY:   COMPANY
 WELL. NPR 3 TEAPOT DOM #87-S-34:   WELL
 FLD .             TEAPOT:   FIELD
 LOC .      S34 T39N R78W:   LOCATION
 CNTY.            NATRONA:   COUNTY
 STAT.            WYOMING:   STATE
 CTRY. UNITED STATES OF AMERICA:   COUNTRY
 SRVC.       Schlumberger:   SERVICE COMPANY
 DATE.        07-AUG-1961:   LOGDATE
 API .       490250651100:   API NUMBER
~CURVE INFORMATION
#MNEM.UNIT       API CODE    CURVE DESCRIPTION
#----------   ------------   ------------------------------
 DEPT.F                  :   
 GR  .GAPI   30 310 01 00:   GAMMA RAY
 SPR .MV     05 010 01 00:   SPONTANEOUS POTENTIAL FROM RES.
 ASN .OHMM   05 041 16 00:   AMPLIFIED SHORT NORMAL 16"
 ILD .OHMM   05 120 46 00:   INDUCTION LOG DEEP
 CILD.MMHO   05 110 46 00:   CONDUCTIVITY INDUCTION LOG DEEP
~PARAMETER INFORMATION
#MNEM.UNIT          VALUE    DESCRIPTION
#----------   ------------   ------------------------------
 PD  .                 KB:   PERMANENT DATUM
 EPD .F                  :   ELEVATION PERMANENT DATUM
 LMF .                 KB:   LOG MEASURED FROM
 DAPD.F                  :   FEET ABOVE PERMANENT DATUM
 DMF .                 KB:   DRILLING MEASURED FROM
 EKB .F              5102:   KELLING BUSHING
 EDF .F                  :   DRILLING FLOOR
 EGL .F              5097:   GROUND LEVEL
 DATE.        07-AUG-1961:   RUN DATE
 RUN .                  1:   RUN NUMBER
 DD  .F               770:   DEPTH DRILLER
 DL  .F               783:   DEPTH LOGGER
 BLI .F               782:   BOTTOM LOG INTERVAL
 TLI .F               100:   TOP LOG INTERVAL
 CS  .IN                 :   CASING SIZE
 CBD .F                  :   CASING BOTTOM DRILLER
 CBL .F                  :   CASING BOTTOM LOGGER
 BS  .IN             6.75:   BIT SIZE
 BSD .F               770:   BIT SIZE AT DEPTH
 DFT .       OIL EMULSION:   DRILLING FLUID TYPE
 DFD .               10.4:   DRILLING FLUID DENSITY
 DFV .                 45:   DRILLING FLUID VISCOSITY
 DFPH.                   :   DRILLING FLUID PH
 DFL .                   :   DRILLING FLUID LOSS
 MSS .                   :   MUD SAMPLE SOURCE
 RMS .OHMM           0.95:   RESISTIVITY MUD SAMPLE
 MST .F                72:   MUD SAMPLE TEMPERATURE
 RMF .OHMM               :   RESISTIVITY MUD FILTRATE SAMPLE
 MFST.F                  :   MUD FILTRATE SAMPLE TEMPERATURE
 RMC .OHMM               :   RESISTIVITY MUD CAKE
 MCST.F                  :   MUD CAKE SAMPLE TEMPERATURE
 MFSS.                   :   MUD FILTRATE SAMPLE SOURCE
 MCSS.                   :   MUD CAKE SAMPLE SOURCE
 RMB .OHMM               :   RESISTIVITY MUD AT BHT
 BHT .F                  :   BOTTOM HOLE TEMPERATURE
 TCS .HRS               1:   TIME CURCULATED STOPPED
 TLAB.HRS                :   TIME LOGGER AT BOTTOM
 MRT .F                  :   MAXIMUM RECORDED TEMPERATURE
 LUN .               2544:   LOGGING UNIT NUMBER
 LUL .                   :   LOGGING UNIT LOCATION
 ENGI.             QUINBY:   RECORDING ENGINEER
 WITN.          JORGENSON:   WITNESSED BY
 CLNT.            A2DTECH:   CLIENT CODE
 ORIG.       2", 5" PRINT:   ORIGIN OF DATA
 UWI .       490250651100:   UNIQUE WELL ID
 DICO. A2D Technologies, Inc.:   DIGITIZING COMPANY
 OS  .                   :   OTHER SERVICES
 PWI .                   :   PRIMARY WELL IDENTIFIER
 R1  .                   :   REMARKS 1
 R2  .                   :   REMARKS 2
~OTHER INFORMATION
~A   DEPT       GR        SPR         ASN         ILD      CILD  
# ...
  141.0000  -999.2500   -34.1661     1.6381     1.5505   310.5402
  141.5000  -999.2500   -34.1644     1.6149     1.5500   317.6941
  142.0000  -999.2500   -33.9537     1.6076     1.6250   320.4503
  142.5000  -999.2500   -33.7085     1.6073     1.7144   325.4628
  143.0000  -999.2500   -33.5556     1.6150     1.7748   329.6836
  143.5000  -999.2500   -33.4034     1.6663     1.8891   333.9863
  144.0000  -999.2500   -33.2508     1.9982     1.9387   337.4975
  144.5000  -999.2500   -33.2490     2.2651     2.0749   344.6762
  145.0000  -999.2500   -33.3031     2.5497     1.8072   364.2643
  145.5000  -999.2500   -33.4018     2.7354     1.5197   386.6648
  146.0000  -999.2500   -33.5469     2.8036     1.3207   415.2243
  146.5000  -999.2500   -33.6964     2.7968     1.2066   450.3093
  147.0000  -999.2500   -33.8459     2.6745     1.1694   493.3647
  147.5000  -999.2500   -33.8441     2.6138     1.0937   523.3100
  148.0000  -999.2500   -33.9940     2.5687     1.1687   528.6482
  148.5000  -999.2500   -33.9925     2.6287     1.1683   519.1533
  149.0000  -999.2500   -33.9906     2.6510     1.2432   499.2635
  149.5000  -999.2500   -33.9386     2.4997     1.3559   468.5997
  150.0000  -999.2500   -33.8369     1.8750     1.5060   411.9090
  150.5000  -999.2500   -33.6843     1.2862     1.8445   355.0969
  151.0000  -999.2500   -33.5317     1.1065     2.1822   314.3130
  151.5000  -999.2500   -33.3791     1.4827     2.4074   292.9757
  152.0000  -999.2500   -33.2790     2.3670     2.6716   287.5069
  152.5000  -999.2500   -33.2251     3.1486     2.7466   283.7088
  153.0000  -999.2500   -33.0725     3.6507     2.6592   279.6898
  153.5000  -999.2500   -33.0710     3.6733     2.3693   281.4784
  154.0000  -999.2500   -33.1158     3.6433     2.2204   289.9096
  154.5000  -999.2500   -33.3701     3.5747     1.9807   299.2515
  155.0000  -999.2500   -33.5196     3.4556     1.7658   309.9845
  155.5000  -999.2500   -33.6695     3.2921     1.6538   324.8198
  156.0000  -999.2500   -33.8187     3.1524     1.6034   340.0601
  156.5000  -999.2500   -33.8172     3.0035     1.5387   379.0311
  157.0000  -999.2500   -33.8157     2.7861     1.4631   445.6920
  157.5000  -999.2500   -33.6631     2.4474     1.4521   470.9212
  158.0000  -999.2500   -33.5690     2.5625     1.3870   487.1167
  158.5000  -999.2500   -33.3162     2.6132     1.3867   499.6326
  159.0000  -999.2500   -33.2054     2.6540     1.3966   507.7782
  159.5000  -999.2500   -32.9617     2.6760     1.5365   508.3304
  160.0000  -999.2500   -32.8600     2.7600     1.6466   479.5742
  160.5000  -999.2500   -32.7477     3.0449     2.0272   408.2155
  161.0000  -999.2500   -32.7463     3.5204     2.6649   350.4352
  161.5000  -999.2500   -32.7447     4.0732     3.0700   309.2085
  162.0000  -999.2500   -32.7431     4.5051     3.5020   266.3195
  162.5000  -999.2500   -32.8298     4.6253     3.7179   236.2986
  163.0000  -999.2500   -33.0795     4.7267     3.8617   226.8922
  163.5000  -999.2500   -33.1919     4.8787     4.1029   221.8646
  164.0000  -999.2500   -33.3414     5.1217     4.3192   216.7566
  164.5000  -999.2500   -33.3756     5.3619     4.5375   209.3396
  165.0000  -999.2500   -33.3383     5.6243     4.7967   201.3268
  165.5000  -999.2500   -33.3369     5.9342     5.1464   192.7102
  166.0000  -999.2500   -33.1843     6.1368     5.3303   181.7419
  166.5000  -999.2500   -33.1827     6.3388     5.5306   173.1833
  167.0000  -999.2500   -33.2648     6.5661     5.6724   167.1521
  167.5000  -999.2500   -33.3310     6.7179     5.7053   161.1472
  168.0000  -999.2500   -33.3292     6.8781     5.7470   159.6396
  168.5000  -999.2500   -33.2457     7.0473     5.7466   159.6045
  169.0000  -999.2500   -32.9930     7.0876     5.7133   158.1217
  169.5000  -999.2500   -32.7204     6.9821     5.6629   158.6587
  170.0000  -999.2500   -32.3363     6.9111     5.5948   159.6098
  170.5000  -999.2500   -32.0836     6.8678     5.5192   159.6008
  171.0000  -999.2500   -31.9606     6.8339     5.5188   161.0961
  171.5000  -999.2500   -31.8081     6.8315     5.5184   161.0886
  172.0000  -999.2500   -31.8348     6.8779     5.4428   161.0798
  172.5000  -999.2500   -32.1071     6.9428     5.4424   161.0735
  173.0000  -999.2500   -32.3343     7.0001     5.4420   161.0660
  173.5000  -999.2500   -32.5841     7.0578     5.4416   161.0574
  174.0000  -999.2500   -32.8579     7.0901     5.4413   161.0511
  174.5000  -999.2500   -33.0836     7.0446     5.4408   161.0435
  175.0000  -999.2500   -33.3083     7.0081     5.4405   161.0349
  175.5000  -999.2500   -33.3065     6.9677     5.4402   161.0285
  176.0000  -999.2500   -33.2306     6.9385     5.4397   161.0210
  176.5000  -999.2500   -32.8268     6.9233     5.4704   161.0125
  177.0000  -999.2500   -32.5467     6.9937     5.5201   161.0060
  177.5000  -999.2500   -32.3943     7.2692     5.5893   160.9985
  178.0000  -999.2500   -32.2195     7.4413     5.8007   159.4885
  178.5000  -999.2500   -32.0890     7.5915     6.2071   158.8038
  179.0000  -999.2500   -31.9366     7.7354     6.5670   154.5995
  179.5000  -999.2500   -31.9764     7.8136     6.8530   150.4570
  180.0000  -999.2500   -32.3865     7.8715     7.1034   146.0458
  180.5000  -999.2500   -32.7573     7.9154     7.4694   141.0183
  181.0000  -999.2500   -33.0070     7.9632     7.6794   135.4196
  181.5000  -999.2500   -33.1375     8.0542     7.9299   130.9631
  182.0000  -999.2500   -33.2870     8.1557     8.0708   125.9357
  182.5000  -999.2500   -33.2855     8.2066     8.0409   121.8836
  183.0000  -999.2500   -33.2838     8.1660     7.9862   120.3754
  183.5000  -999.2500   -33.2825     7.9442     7.7684   118.8663
  184.0000  -999.2500   -33.2810     7.6691     7.4257   118.8581
  184.5000  -999.2500   -33.1282     7.3772     7.0030   121.8890
  185.0000  -999.2500   -33.0614     7.0399     6.5624   131.0049
  185.5000  -999.2500   -32.9597     6.7347     6.1747   150.3672
  186.0000  -999.2500   -32.6705     6.3341     4.0241   193.3602
  186.5000  -999.2500   -32.6053     5.4886     2.4950   245.1371
  187.0000  -999.2500   -32.3525     4.8338     2.1837   298.8125
  187.5000  -999.2500   -32.2128     4.1321     1.8889   368.0550
  188.0000  -999.2500   -32.1491     3.6524     1.6656   427.3261
  188.5000  -999.2500   -32.0589     3.2530     1.4587   481.0139
  189.0000  -999.2500   -32.2082     3.0471     1.2829   552.7172
  189.5000  -999.2500   -32.2069     2.9439     1.0621   582.0210
  190.0000  -999.2500   -32.3566     2.8810     1.0893   559.6589
  190.5000  -999.2500   -32.5058     3.1820     1.3016   498.6407
  191.0000  -999.2500   -32.5639     3.4131     2.3410   406.1914
  191.5000  -999.2500   -32.6541     3.8135     3.3933   338.7593
  192.0000  -999.2500   -32.8034     5.7566     4.7700   291.4110
  192.5000  -999.2500   -32.8600     7.1180     6.1803   236.8925
  193.0000  -999.2500   -32.9517     7.8062     7.1747   193.1784
  193.5000  -999.2500   -32.9499     8.8433     8.4533   147.2004
  194.0000  -999.2500   -32.9487     9.4983    10.1701   114.6587
  194.5000  -999.2500   -32.7905    10.2512    11.5906    88.0118
  195.0000  -999.2500   -32.4922    10.6499    12.8138    71.9892
  195.5000  -999.2500   -32.2850    10.6496    13.0237    76.2651
  196.0000  -999.2500   -32.1833    10.6233    11.9669    85.1204
  196.5000  -999.2500   -32.0345     9.9714    10.4590    99.1876
  197.0000  -999.2500   -31.8822     9.6273     8.8124   113.9157
  197.5000  -999.2500   -31.8807     9.1103     7.4234   129.5181
  198.0000  -999.2500   -31.8789     8.5852     6.1732   147.4704
  198.5000  -999.2500   -31.9295     8.1055     5.3474   168.4038
  199.0000  -999.2500   -32.0272     7.1821     4.8946   180.6025
  199.5000  -999.2500   -32.1764     6.2954     4.5937   188.2230
  200.0000  -999.2500   -32.1752     6.3655     4.6937   191.2711
  200.5000  -999.2500   -32.1737     6.5962     4.7449   187.7410
  201.0000  -999.2500   -32.2719     7.3365     5.1197   176.1446
  201.5000  -999.2500   -32.7795     8.2851     6.2289   159.7346
