~VERSION INFORMATION
 VERS.                2.0:   CWLS LOG ASCII STANDARD - VERSION 2.0
 WRAP.                 NO:   ONE LINE PER DEPTH STEP
~WELL INFORMATION
#MNEM.UNIT      DATA TYPE    INFORMATION
#----------   ------------   ------------------------------
 STRT.F            8.5000:   START DEPTH
 STOP.F          642.0000:   STOP DEPTH
 STEP.F            0.5000:   STEP LENGTH
 NULL.          -999.2500:   NO VALUE
 COMP. FENIX & SCISSON INC:   COMPANY
 WELL. 26-36 S11 W1 #26-36 SX11:   WELL
 FLD .             TEAPOT:   FIELD
 LOC .      S11 T38N R78W:   LOCATION
 CNTY.            NATRONA:   COUNTY
 STAT.            WYOMING:   STATE
 CTRY. UNITED STATES OF AMERICA:   COUNTRY
 SRVC.      Dresser Atlas:   SERVICE COMPANY
 DATE.        16-JUL-1980:   LOGDATE
 API .       490251083500:   API NUMBER
~CURVE INFORMATION
#MNEM.UNIT       API CODE    CURVE DESCRIPTION
#----------   ------------   ------------------------------
 DEPT.F                  :   
 NPHI.DEC    42 890 03 00:   NEUTRON POROSITY SANDSTONE
 RHOB.G/C3   45 350 01 00:   BULK DENSITY
 CORR.G/C3   45 356 01 00:   DENSITY CORRECTION
 GRD .GAPI   45 310 01 00:   GAMMA RAY FROM DENSITY LOG
 CALD.IN     45 280 60 00:   CALIPER
 SPR .MV     07 010 01 00:   SPONTANEOUS POTENTIAL
 SFL .OHMM   07 220 01 00:   SHALLOW FOCUSED LOG RESISTIVITY
 ILD .OHMM   07 120 46 00:   INDUCTION LOG DEEP
 ILM .OHMM   07 120 44 00:   INDUCTION LOG MEDIUM
 DPHI.DEC    45 890 12 00:   DENSITY POROSITY SANDSTONE
~PARAMETER INFORMATION
#MNEM.UNIT          VALUE    DESCRIPTION
#----------   ------------   ------------------------------
 PD  .                 GL:   PERMANENT DATUM
 EPD .F              5184:   ELEVATION PERMANENT DATUM
 LMF .                 KB:   LOG MEASURED FROM
 DAPD.F                 5:   FEET ABOVE PERMANENT DATUM
 DMF .                 KB:   DRILLING MEASURED FROM
 EKB .F              5189:   KELLING BUSHING
 EGL .F              5184:   GROUND LEVEL
 DATE.            7-16-80:   RUN DATE
 RUN .                  1:   RUN NUMBER
 DD  .F               630:   DEPTH DRILLER
 DL  .F               637:   DEPTH LOGGER
 BLI .F               635:   BOTTOM LOG INTERVAL
 TLI .F                 8:   TOP LOG INTERVAL
 BS  .IN            7.875:   BIT SIZE
 BSD .F               630:   BIT SIZE AT DEPTH
 DFT .           CHEM GEL:   DRILLING FLUID TYPE
 DFD .                9.2:   DRILLING FLUID DENSITY
 DFV .                 65:   DRILLING FLUID VISCOSITY
 DFPH.                 10:   DRILLING FLUID PH
 DFL .                  8:   DRILLING FLUID LOSS
 MSS .           FLOWLINE:   MUD SAMPLE SOURCE
 RMS .OHMM            .61:   RESISTIVITY MUD SAMPLE
 MST .F                60:   MUD SAMPLE TEMPERATURE
 RMC .OHMM            .62:   RESISTIVITY MUD CAKE
 MCST.F                58:   MUD CAKE SAMPLE TEMPERATURE
 MFSS.               MEAS:   MUD FILTRATE SAMPLE SOURCE
 MCSS.               MEAS:   MUD CAKE SAMPLE SOURCE
 RMB .OHMM            .41:   RESISTIVITY MUD AT BHT
 BHT .F                90:   BOTTOM HOLE TEMPERATURE
 TCS .HRS               5:   TIME CURCULATED STOPPED
 MRT .F                90:   MAXIMUM RECORDED TEMPERATURE
 LUN .               6109:   LOGGING UNIT NUMBER
 LUL .              GLTTE:   LOGGING UNIT LOCATION
 ENGI.            GARONER:   RECORDING ENGINEER
 WITN.              AMEND:   WITNESSED BY
 CLNT.            A2DTECH:   CLIENT CODE
 ORIG.           5" PRINT:   ORIGIN OF DATA
 UWI .       490251083500:   UNIQUE WELL ID
 DICO. A2D Technologies, Inc.:   DIGITIZING COMPANY
~OTHER INFORMATION
~A    DEPT    NPHI       RHOB       CORR        GRD       CALD        SPR        SFL          ILD      ILM       DPHI   
# ...
  544.5000     0.2705     2.4090     0.0381    68.0665     7.5499   -34.1115    21.1477    16.5078    17.4648     0.1818
  545.0000     0.2667     2.4002     0.0437    67.5957     7.5552   -34.1787    21.1452    16.2307    17.2192     0.1762
  545.5000     0.2619     2.3890     0.0391    66.3379     7.5680   -34.2473    21.3952    16.0265    16.9350     0.1682
  546.0000     0.2597     2.3825     0.0317    65.0870     7.5771   -34.3153    21.9297    16.0265    16.9426     0.1773
  546.5000     0.2584     2.3961     0.0258    64.8862     7.5902   -34.3835    21.5667    16.0265    16.9355     0.1669
  547.0000     0.2595     2.3939     0.0254    65.3223     7.6013   -34.4515    21.0295    15.7442    16.9363     0.1596
  547.5000     0.2572     2.3897     0.0154    65.8339     7.6123   -34.5201    20.5002    15.6013    16.9373     0.1637
  548.0000     0.2535     2.4057     0.0103    66.4797     7.6231   -34.5886    19.9892    15.4011    16.5484     0.1592
  548.5000     0.2669     2.4126     0.0180    67.3022     7.6340   -34.6552    19.4909    15.2030    16.2561     0.1558
  549.0000     0.2670     2.4119     0.0177    68.1159     7.6449   -34.7256    19.2752    15.0078    15.9692     0.1607
  549.5000     0.2643     2.4228     0.0239    68.7117     7.6558   -34.7404    19.6294    14.8157    15.6877     0.1680
  550.0000     0.2589     2.4201     0.0258    68.6985     7.6668   -34.7382    20.3726    14.6268    15.4113     0.1718
  550.5000     0.2543     2.4082     0.0199    68.6864     7.6719   -34.7532    20.0004    14.4406    15.1400     0.1590
  551.0000     0.2564     2.3998     0.0138    69.2003     7.6747   -34.6058    19.1518    14.2571    14.8736     0.1608
  551.5000     0.2595     2.4068     0.0160    69.7100     7.6775   -34.3576    18.3420    14.0759    14.6117     0.1626
  552.0000     0.2640     2.4152     0.0236    69.1838     7.6803   -34.1256    17.5616    13.8970    14.3434     0.1647
  552.5000     0.2655     2.4118     0.0194    68.6007     7.6830   -33.8969    17.2545    13.8250    14.3482     0.1694
  553.0000     0.2595     2.4101     0.0131    68.2943     7.6858   -33.6629    17.5643    13.8251    14.3478     0.1714
  553.5000     0.2571     2.4032     0.0068    68.5794     7.6885   -33.4345    17.9467    13.8253    14.3472     0.1714
  554.0000     0.2547     2.3985     0.0003    68.9737     7.6861   -33.2002    18.3372    13.8255    14.3467     0.1633
  554.5000     0.2591     2.3961    -0.0001    69.3816     7.6781   -33.1268    18.5835    13.8258    14.3464     0.1530
  555.0000     0.2554     2.3963     0.0001    69.4722     7.6701   -33.1315    18.4339    13.7813    14.3463     0.1626
  555.5000     0.2508     2.4125     0.0083    68.9294     7.6622   -33.1324    18.1915    13.7381    14.3462     0.1695
  556.0000     0.2588     2.4262     0.0177    68.3913     7.6543   -33.1308    17.9521    13.6946    14.3461     0.1718
  556.5000     0.2550     2.4137     0.0179    67.9058     7.6547   -33.1347    17.7161    13.6504    14.3464     0.1731
  557.0000     0.2501     2.3993     0.0143    67.8977     7.6648   -33.1071    17.5756    13.6061    14.3468     0.1777
  557.5000     0.2459     2.3961     0.0126    67.8996     7.6747   -33.0624    17.5752    13.5730    14.3511     0.1814
  558.0000     0.2436     2.3918     0.0177    67.8972     7.6847   -33.0208    17.7593    13.5741    14.3386     0.1780
  558.5000     0.2420     2.3824     0.0153    67.7450     7.6947   -32.9798    17.9021    13.4569    14.1992     0.1765
  559.0000     0.2456     2.3816     0.0117    67.4111     7.7046   -32.9376    17.5405    13.3253    14.0753     0.1663
  559.5000     0.2457     2.3832     0.0081    67.1134     7.7090   -32.8961    17.1674    13.2730    13.9480     0.1533
  560.0000     0.2472     2.3879     0.0093    66.7852     7.7067   -32.8546    16.8024    13.1484    13.8216     0.1407
  560.5000     0.2508     2.4084     0.0135    66.4220     7.7044   -32.8118    16.6233    13.0251    13.6965     0.1468
  561.0000     0.2445     2.4286     0.0176    66.3911     7.7021   -32.7718    16.7416    12.9029    13.5726     0.1530
  561.5000     0.2384     2.4453     0.0217    66.8000     7.6999   -32.7339    16.9338    12.7819    13.4498     0.1530
  562.0000     0.2384     2.4391     0.0201    67.1062     7.6976   -32.7612    16.7684    12.6620    13.3281     0.1542
  562.5000     0.2372     2.4283     0.0146    67.0983     7.6953   -32.7883    16.5688    12.5432    13.2075     0.1518
  563.0000     0.2389     2.4234     0.0091    67.1012     7.6931   -32.8183    16.3733    12.4255    13.0880     0.1445
  563.5000     0.2390     2.4220     0.0084    67.2859     7.6908   -32.8471    16.3250    12.3089    12.9696     0.1399
  564.0000     0.2384     2.4311     0.0134    68.1785     7.6911   -32.8759    16.3250    12.1935    12.8522     0.1367
  564.5000     0.2436     2.4421     0.0181    69.0419     7.6926   -32.9050    16.2651    12.0791    12.7359     0.1355
  565.0000     0.2486     2.4481     0.0229    69.7136     7.6942   -32.9339    16.1941    11.9657    12.6207     0.1331
  565.5000     0.2527     2.4507     0.0238    69.7022     7.6958   -32.9629    16.1233    11.8535    12.5065     0.1307
  566.0000     0.2503     2.4561     0.0231    69.8339     7.6974   -32.9918    16.0528    11.7423    12.3933     0.1341
  566.5000     0.2472     2.4615     0.0224    70.4978     7.6989   -33.0208    15.9730    11.6324    12.2812     0.1458
  567.0000     0.2501     2.4636     0.0221    71.1448     7.7005   -33.0496    15.8885    11.5241    12.1701     0.1587
  567.5000     0.2540     2.4602     0.0129    71.8066     7.7021   -33.0788    15.8035    11.4174    12.0599     0.1638
  568.0000     0.2578     2.4436     0.0013    71.3891     7.7037   -33.1075    15.7338    11.2797    11.9508     0.1531
  568.5000     0.2617     2.4225    -0.0104    70.6938     7.7053   -33.1319    15.7336    11.2923    11.9284     0.1438
  569.0000     0.2637     2.4124    -0.0199    69.9851     7.7069   -33.1324    15.7334    11.2938    11.9284     0.1345
  569.5000     0.2615     2.4229    -0.0098    69.3239     7.7086   -33.1329    15.7333    11.1604    11.9284     0.1319
  570.0000     0.2538     2.4415     0.0008    69.7299     7.7093   -33.1331    15.7334    11.2933    12.1431     0.1291
  570.5000     0.2474     2.4581     0.0113    70.7865     7.6903   -33.1333    15.7338    11.2858    12.3397     0.1263
  571.0000     0.2457     2.4620     0.0217    71.8331     7.6707   -33.1331    15.7334    11.4479    12.5394     0.1263
  571.5000     0.2477     2.4657     0.0278    72.8782     7.6512   -33.1351    15.7334    11.5518    12.7424     0.1263
  572.0000     0.2497     2.4705     0.0337    73.7355     7.6317   -33.1324    15.7334    11.6566    12.9487     0.1195
  572.5000     0.2517     2.4714     0.0398    73.0996     7.6122   -33.1308    15.7334    11.7624    13.1583     0.1131
  573.0000     0.2511     2.4720     0.0472    72.4405     7.5928   -33.1455    16.1095    11.8691    13.2860     0.1101
  573.5000     0.2495     2.4818     0.0547    72.3037     7.5733   -32.9812    16.5022    11.9284    13.1044     0.1120
  574.0000     0.2501     2.4923     0.0622    72.0746     7.5539   -32.6142    16.9046    11.9676    12.9253     0.1242
  574.5000     0.2451     2.5022     0.0621    70.8409     7.5309   -32.2738    17.2545    12.0254    12.7486     0.1287
  575.0000     0.2412     2.4895     0.0581    70.0913     7.5071   -31.9478    15.8792    12.0835    12.5743     0.1156
  575.5000     0.2468     2.4732     0.0555    70.1010     7.4832   -31.9360    14.6136    12.1506    12.4024     0.1076
  576.0000     0.2471     2.4669     0.0614    70.0962     7.4607   -32.1799    14.6136    12.1506    12.2329     0.0942
  576.5000     0.2448     2.4916     0.0685    70.3564     7.4288   -32.5047    14.8717    11.9929    12.0657     0.0912
  577.0000     0.2425     2.5093     0.0756    71.8272     7.4359   -32.8119    15.7135    11.8494    11.9007     0.1059
  577.5000     0.2416     2.5271     0.0828    73.3740     7.4697   -33.0995    16.6028    11.7075    11.7380     0.1165
