~VERSION INFORMATION
 VERS.                2.0:   CWLS LOG ASCII STANDARD - VERSION 2.0
 WRAP.                 NO:   ONE LINE PER DEPTH STEP
~WELL INFORMATION
#MNEM.UNIT      DATA TYPE    INFORMATION
#----------   ------------   ------------------------------
 STRT.F            0.0000:   START DEPTH
 STOP.F          978.0000:   STOP DEPTH
 STEP.F            0.5000:   STEP LENGTH
 NULL.          -999.2500:   NO VALUE
 COMP. FENIX & SCISSON INC:   COMPANY
 WELL. N.P.R #3 SX-14 #53:   WELL
 FLD .             TEAPOT:   FIELD
 LOC .      S14 T38N R78W:   LOCATION
 CNTY.            NATRONA:   COUNTY
 STAT.            WYOMING:   STATE
 CTRY. UNITED STATES OF AMERICA:   COUNTRY
 SRVC.              Welex:   SERVICE COMPANY
 DATE.        06-MAR-1977:   LOGDATE
 API .       490251029800:   API NUMBER
~CURVE INFORMATION
#MNEM.UNIT       API CODE    CURVE DESCRIPTION
#----------   ------------   ------------------------------
 DEPT.F                  :   
 SPR .MV     07 010 01 00:   SPONTANEOUS POTENTIAL
 SGRD.OHMM   07 220 05 00:   SHALLOW RESISTIVITY
 ILD .OHMM   07 120 46 00:   INDUCTION LOG DEEP
 ILM .OHMM   07 120 44 00:   INDUCTION LOG MEDIUM
 GRD .GAPI   45 310 01 00:   GAMMA RAY FROM DENSITY LOG
 CALD.IN     45 280 60 00:   CALIPER
 RHOB.G/C3   45 350 01 00:   BULK DENSITY
 DPHI.DEC    45 890 12 00:   DENSITY POROSITY SANDSTONE
 CORR.G/C3   45 356 01 00:   DENSITY CORRECTION
~PARAMETER INFORMATION
#MNEM.UNIT          VALUE    DESCRIPTION
#----------   ------------   ------------------------------
 PD  .                 GL:   PERMANENT DATUM
 EPD .F              5230:   ELEVATION PERMANENT DATUM
 LMF .                 GL:   LOG MEASURED FROM
 DMF .                 GL:   DRILLING MEASURED FROM
 EGL .F              5230:   GROUND LEVEL
 DATE.             3-6-77:   RUN DATE
 RUN .                  1:   RUN NUMBER
 DD  .F               989:   DEPTH DRILLER
 DL  .F               980:   DEPTH LOGGER
 BLI .F               978:   BOTTOM LOG INTERVAL
 TLI .F                50:   TOP LOG INTERVAL
 CS  .IN            8.625:   CASING SIZE
 CBD .F                42:   CASING BOTTOM DRILLER
 CBL .F                42:   CASING BOTTOM LOGGER
 BS  .IN            7.875:   BIT SIZE
 BSD .F               989:   BIT SIZE AT DEPTH
 DFT .            KCL MUD:   DRILLING FLUID TYPE
 DFD .                8.4:   DRILLING FLUID DENSITY
 DFV .                 30:   DRILLING FLUID VISCOSITY
 DFPH.                7.2:   DRILLING FLUID PH
 DFL .               14.4:   DRILLING FLUID LOSS
 MSS .            MUD PIT:   MUD SAMPLE SOURCE
 RMS .OHMM            .41:   RESISTIVITY MUD SAMPLE
 MST .F                48:   MUD SAMPLE TEMPERATURE
 RMF .OHMM            .39:   RESISTIVITY MUD FILTRATE SAMPLE
 MFST.F                48:   MUD FILTRATE SAMPLE TEMPERATURE
 RMC .OHMM            .55:   RESISTIVITY MUD CAKE
 MCST.F                48:   MUD CAKE SAMPLE TEMPERATURE
 MFSS.           FANN KIT:   MUD FILTRATE SAMPLE SOURCE
 MCSS.           FANN KIT:   MUD CAKE SAMPLE SOURCE
 RMB .OHMM            .34:   RESISTIVITY MUD AT BHT
 BHT .F                58:   BOTTOM HOLE TEMPERATURE
 TCS .HRS               2:   TIME CURCULATED STOPPED
 MRT .F                58:   MAXIMUM RECORDED TEMPERATURE
 LUN .               8611:   LOGGING UNIT NUMBER
 LUL .           GILLETTE:   LOGGING UNIT LOCATION
 ENGI.            C. DOAK:   RECORDING ENGINEER
 WITN.           S. BURKE:   WITNESSED BY
 CLNT.            A2DTECH:   CLIENT CODE
 ORIG.        2" 5" PRINT:   ORIGIN OF DATA
 UWI .       490251029800:   UNIQUE WELL ID
 DICO. A2D Technologies, Inc.:   DIGITIZING COMPANY
~OTHER INFORMATION
~A    DEPT     SPR       SGRD        ILD        ILM        GRD       CALD       RHOB       DPHI       CORR   
# ...
  511.0000   -43.6812    10.9094     7.3329     8.4204   121.8900     7.8018     2.4915     0.0932     0.0432
  511.5000   -43.6733    10.6829     7.3266     8.3886   123.7378     7.8030     2.4914     0.0928     0.0430
  512.0000   -43.6654    10.3771     7.3203     8.3570   124.7594     7.8042     2.4822     0.0963     0.0427
  512.5000   -43.6576    10.1238     7.3141     8.3255   122.4371     7.8054     2.4734     0.1020     0.0425
  513.0000   -43.6497    10.0445     7.3078     8.2828   119.2182     7.8066     2.4669     0.1080     0.0432
  513.5000   -43.6418    10.2255     7.3014     8.3270   117.8618     7.8077     2.4692     0.1059     0.0448
  514.0000   -43.6339    10.4473     7.2956     8.3966   120.8035     7.8089     2.4751     0.1024     0.0463
  514.5000   -43.6260    10.5164     7.2908     8.4669   123.3360     7.8101     2.4725     0.1045     0.0458
  515.0000   -43.6181    10.5164     7.2836     8.5377   122.8611     7.8113     2.4721     0.1056     0.0452
  515.5000   -43.6102    10.5164     7.3508     8.6091   119.9984     7.8125     2.4721     0.1056     0.0446
  516.0000   -43.6023    10.5164     7.4070     8.6811   116.8295     7.8137     2.4747     0.1028     0.0441
  516.5000   -43.5944    10.5164     7.5756     8.7537   118.7972     7.8149     2.4830     0.0988     0.0435
  517.0000   -43.5865    10.6134     7.6894     8.8269   122.1113     7.8161     2.4881     0.0980     0.0429
  517.5000   -43.5786    11.5278     7.8359     8.9007   123.4004     7.8172     2.4850     0.0988     0.0424
  518.0000   -43.5707    11.4283     7.9853     8.9752   124.4508     7.8184     2.4780     0.1027     0.0418
  518.5000   -43.5628    11.2854     8.0578     9.0503   121.7708     7.8196     2.4720     0.1045     0.0412
  519.0000   -43.5549    11.1121     8.0115     9.1259   122.2270     7.8208     2.4728     0.1022     0.0406
  519.5000   -43.5566    11.1673     7.9767     9.2023   122.4102     7.8220     2.4780     0.0999     0.0413
  520.0000   -43.5649    11.2394     7.9422     9.2477   123.3139     7.8224     2.4832     0.0977     0.0429
  520.5000   -43.5735    11.3120     7.9077     9.0142   127.2098     7.8217     2.4884     0.0956     0.0445
  521.0000   -43.5820    11.3850     7.8735     8.8522   126.9250     7.8210     2.4871     0.0960     0.0462
  521.5000   -43.5905    11.4225     7.8393     8.6928   123.4573     7.8202     2.4844     0.0975     0.0478
  522.0000   -43.5990    10.5164     7.8054     8.5352   121.0796     7.8195     2.4827     0.0988     0.0494
  522.5000   -43.6075    10.5799     7.7715     8.4363   119.2661     7.8188     2.4872     0.0968     0.0510
  523.0000   -43.6160    10.6538     7.7379     8.4363   118.3998     7.8180     2.4917     0.0932     0.0527
  523.5000   -43.6245    10.7266     7.7043     8.4363   117.5325     7.8173     2.4962     0.0897     0.0543
  524.0000   -43.6330    10.7991     7.6709     8.4363   117.1397     7.8166     2.5010     0.0862     0.0560
  524.5000   -43.6415    10.8722     7.6377     8.4363   116.8430     7.8159     2.5031     0.0860     0.0547
  525.0000   -43.6500    10.9099     7.6046     8.4363   117.5979     7.8151     2.4987     0.0888     0.0524
  525.5000   -43.6585    10.8473     7.5716     8.4363   120.1646     7.8144     2.4929     0.0922     0.0501
  526.0000   -43.6670    10.8054     7.5388     8.4363   122.9116     7.8137     2.4870     0.0955     0.0478
  526.5000   -43.6755    10.7637     7.5061     8.4357   121.0159     7.8130     2.4811     0.0989     0.0455
  527.0000   -43.6840    10.7221     7.4736     8.4626   118.7592     7.8122     2.4759     0.1023     0.0444
  527.5000   -43.6925    10.6807     7.4412     8.4960   120.1998     7.8115     2.4761     0.1025     0.0444
  528.0000   -43.7010    10.6395     7.4089     8.5294   121.5828     7.8108     2.4761     0.1004     0.0444
  528.5000   -43.7095    10.5984     7.3768     8.5631   122.6679     7.8100     2.4761     0.1023     0.0443
  529.0000   -43.7180    10.5575     7.3449     8.5968   122.8108     7.8093     2.4713     0.1067     0.0413
  529.5000   -43.7265    10.5167     7.3130     8.6307   122.9743     7.8086     2.4642     0.1111     0.0384
  530.0000   -43.7350    10.4761     7.2813     8.6720   123.0945     7.8078     2.4580     0.1136     0.0362
  530.5000   -43.7435    10.4369     7.2498     8.5919   123.2404     7.8071     2.4617     0.1108     0.0346
  531.0000   -43.7519    10.3461     7.2184     8.4911   121.1651     7.8064     2.4654     0.1081     0.0371
  531.5000   -43.7604    10.1761     7.1871     8.3915   117.6564     7.8057     2.4695     0.1048     0.0406
  532.0000   -43.7690    10.0079     7.1559     8.3552   119.4502     7.8049     2.4800     0.0995     0.0440
  532.5000   -43.7775     9.8617     7.1249     8.3499   122.2835     7.8042     2.4893     0.0944     0.0462
  533.0000   -43.7859     9.9913     7.0940     8.3444   125.1569     7.8035     2.4876     0.0948     0.0454
  533.5000   -43.7944    10.1337     7.0633     8.3389   128.0237     7.8028     2.4851     0.0979     0.0448
  534.0000   -43.8029    10.2791     7.0209     8.3333   130.1235     7.8028     2.4865     0.0996     0.0446
  534.5000   -43.8114    10.4221     7.0288     8.3278   130.7007     7.8028     2.4901     0.0961     0.0452
  535.0000   -43.8199    10.3552     7.0415     8.3222   130.6513     7.8028     2.4937     0.0923     0.0458
  535.5000   -43.8284    10.2545     7.0543     8.3167   130.7214     7.8028     2.4973     0.0886     0.0463
  536.0000   -43.8369    10.1549     7.0671     8.3112   124.3455     7.8028     2.5008     0.0848     0.0459
  536.5000   -43.8454    10.0562     7.0800     8.3056   121.9944     7.8028     2.5023     0.0866     0.0452
  537.0000   -43.8539     9.9585     7.0929     8.3001   127.4097     7.8028     2.4986     0.0884     0.0444
  537.5000   -43.8624     9.8617     7.1057     8.2946   130.7303     7.8028     2.4964     0.0901     0.0450
  538.0000   -43.8709     9.9709     7.1186     8.2892   132.3028     7.8028     2.5046     0.0862     0.0456
  538.5000   -43.8794    10.0813     7.1316     8.2821   129.6537     7.8028     2.5101     0.0813     0.0463
  539.0000   -43.8879    10.1930     7.1445     8.4082   129.4030     7.8028     2.5067     0.0836     0.0470
  539.5000   -43.8964    10.3058     7.1765     8.5551   129.1122     7.8028     2.5029     0.0860     0.0477
  540.0000   -43.9049    10.4200     7.2278     8.7052   126.4721     7.8028     2.5030     0.0862     0.0484
  540.5000   -43.9134    10.5652     7.2795     8.8327   122.9572     7.8028     2.5028     0.0866     0.0491
  541.0000   -43.9219    10.8687     7.3315     8.7003   119.4425     7.8028     2.5002     0.0872     0.0498
  541.5000   -43.9304    11.1121     7.3839     8.5882   117.1058     7.8028     2.4973     0.0904     0.0503
  542.0000   -43.9389    10.7354     7.4367     8.4774   120.1183     7.8028     2.4911     0.0937     0.0496
  542.5000   -43.9473    10.5167     7.4899     8.3681   122.2417     7.8028     2.4842     0.0970     0.0490
  543.0000   -43.9524    10.5373     7.5434     8.2601   121.2228     7.8028     2.4842     0.0984     0.0483
  543.5000   -43.9569    10.5539     7.5974     8.1536   118.7600     7.8028     2.4844     0.0975     0.0477
  544.0000   -43.9614    10.5706     7.6517     8.0485   116.9820     7.8021     2.4847     0.0966     0.0470
  544.5000   -43.9659    10.5871     7.6962     7.9841   121.3145     7.7985     2.4848     0.0969     0.0464
  545.0000   -43.9704    10.6120     7.6472     8.0290   126.4242     7.7951     2.4852     0.0959     0.0457
  545.5000   -43.9749    10.5750     7.5981     8.0669   129.2819     7.7916     2.4893     0.0936     0.0451
  546.0000   -43.9794    10.4873     7.5494     8.1051   130.3056     7.7882     2.4930     0.0916     0.0445
  546.5000   -43.9839    10.4003     7.5009     8.1321   125.6292     7.7848     2.4914     0.0945     0.0438
  547.0000   -43.9884    10.3250     7.4528     7.9356   122.5019     7.7857     2.4861     0.0971     0.0432
