~VERSION INFORMATION
 VERS.                2.0:   CWLS LOG ASCII STANDARD - VERSION 2.0
 WRAP.                 NO:   ONE LINE PER DEPTH STEP
~WELL INFORMATION
#MNEM.UNIT      DATA TYPE    INFORMATION
#----------   ------------   ------------------------------
 STRT.F           40.0000:   START DEPTH
 STOP.F          684.0000:   STOP DEPTH
 STEP.F            0.5000:   STEP LENGTH
 NULL.          -999.2500:   NO VALUE
 COMP.    FENIX & SCISSON:   COMPANY
 WELL.   N P R-3 #26SX2-2:   WELL
 FLD .             TEAPOT:   FIELD
 LOC .       S2 T38N R78W:   LOCATION
 CNTY.            NATRONA:   COUNTY
 STAT.            WYOMING:   STATE
 CTRY. UNITED STATES OF AMERICA:   COUNTRY
 SRVC.            Unknown:   SERVICE COMPANY
 DATE.        26-JAN-1978:   LOGDATE
 API .       490251056400:   API NUMBER
~CURVE INFORMATION
#MNEM.UNIT       API CODE    CURVE DESCRIPTION
#----------   ------------   ------------------------------
 DEPT.F                  :   
 ILD .OHMM   05 120 46 00:   INDUCTION LOG DEEP
 SN  .OHMM   05 040 16 00:   SHORT NORMAL 16"
 SPR .MV     05 010 01 00:   SPONTANEOUS POTENTIAL FROM RES.
 CALD.IN     45 280 60 00:   CALIPER FROM DENSITY LOG
 CORR.G/C3   45 356 01 00:   DENSITY CORRECTION
 DPHI.DEC    45 890 12 00:   DENSITY POROSITY SANDSTONE
 GRD .GAPI   45 310 01 00:   GAMMA RAY FROM DENSITY LOG
 RHOB.G/C3   45 350 01 00:   BULK DENSITY
~PARAMETER INFORMATION
#MNEM.UNIT          VALUE    DESCRIPTION
#----------   ------------   ------------------------------
 PD  .                 GL:   PERMANENT DATUM
 EPD .F              5142:   ELEVATION PERMANENT DATUM
 LMF .                 KB:   LOG MEASURED FROM
 DMF .                 KB:   DRILLING MEASURED FROM
 EKB .F              5146:   KELLING BUSHING
 EGL .F              5142:   GROUND LEVEL
 DATE.        26-JAN-1978:   RUN DATE
 RUN .                  1:   RUN NUMBER
 DD  .F               690:   DEPTH DRILLER
 DL  .F               684:   DEPTH LOGGER
 BLI .F               684:   BOTTOM LOG INTERVAL
 TLI .F                50:   TOP LOG INTERVAL
 CS  .IN            8.625:   CASING SIZE
 CBD .F                39:   CASING BOTTOM DRILLER
 CBL .F                40:   CASING BOTTOM LOGGER
 BS  .IN            7.875:   BIT SIZE
 BSD .F               690:   BIT SIZE AT DEPTH
 DFT .                KCL:   DRILLING FLUID TYPE
 DFD .                8.5:   DRILLING FLUID DENSITY
 DFV .                 33:   DRILLING FLUID VISCOSITY
 DFPH.                  9:   DRILLING FLUID PH
 MSS .           FLOWLINE:   MUD SAMPLE SOURCE
 RMS .OHMM           0.48:   RESISTIVITY MUD SAMPLE
 MST .F                75:   MUD SAMPLE TEMPERATURE
 RMF .OHMM           0.46:   RESISTIVITY MUD FILTRATE SAMPLE
 MFST.F                75:   MUD FILTRATE SAMPLE TEMPERATURE
 RMC .OHMM              1:   RESISTIVITY MUD CAKE
 MCST.F                75:   MUD CAKE SAMPLE TEMPERATURE
 MFSS.               MEAS:   MUD FILTRATE SAMPLE SOURCE
 MCSS.               MEAS:   MUD CAKE SAMPLE SOURCE
 RMB .OHMM           0.47:   RESISTIVITY MUD AT BHT
 BHT .F                76:   BOTTOM HOLE TEMPERATURE
 TCS .HRS               1:   TIME CURCULATED STOPPED
 MRT .F                76:   MAXIMUM RECORDED TEMPERATURE
 LUN .               2958:   LOGGING UNIT NUMBER
 LUL .             CASPER:   LOGGING UNIT LOCATION
 ENGI.           REYNOLDS:   RECORDING ENGINEER
 WITN.       MR. MCGINLEY:   WITNESSED BY
 CLNT.            A2DTECH:   CLIENT CODE
 ORIG.      2.5" 5" PRINT:   ORIGIN OF DATA
 UWI .       490251056400:   UNIQUE WELL ID
 DICO. A2D Technologies, Inc.:   DIGITIZING COMPANY
~OTHER INFORMATION
~A   DEPT      ILD         SN        SPR       CALD       CORR       DPHI         GRD        RHOB 
# ...
  283.0000     7.5032     8.8526   -57.9321     9.3413     0.1898     0.1811   102.9052     2.3606
  283.5000     7.5580     8.7975   -57.7720     9.3415     0.1929     0.1787   103.5168     2.3591
  284.0000     7.5611     8.8050   -57.6096     9.3416     0.1960     0.1756   103.4761     2.3621
  284.5000     7.6164     8.7505   -57.4497     9.3418     0.1960     0.1750   101.9164     2.3667
  285.0000     7.6195     8.7564   -57.2898     9.3419     0.1961     0.1762   100.6626     2.3697
  285.5000     7.6226     8.7454   -57.2781     9.3421     0.1961     0.1781    98.7971     2.3667
  286.0000     7.5213     8.6469   -57.2665     9.3422     0.1962     0.1799    97.2375     2.3606
  286.5000     7.5245     8.5359   -57.4060     9.3424     0.1932     0.1793    96.1774     2.3606
  287.0000     7.5275     8.5416   -57.3915     9.3426     0.1916     0.1750   102.5994     2.3653
  287.5000     7.4790     8.5472   -57.5310     9.3427     0.1903     0.1753   101.2487     2.3697
  288.0000     7.4821     8.5532   -57.5165     9.3429     0.1934     0.1776   100.7645     2.3667
  288.5000     7.4858     8.5590   -57.5048     9.3430     0.1943     0.1792   101.8501     2.3664
  289.0000     7.4888     8.5060   -57.4932     9.3432     0.1975     0.1766   102.9459     2.3667
  289.5000     7.4919     8.5119   -57.6298     9.3433     0.2027     0.1737   103.2110     2.3667
  290.0000     7.4949     8.5190   -57.6178     9.3435     0.2057     0.1759   101.3761     2.3662
  290.5000     7.4979     8.5237   -57.6036     9.3436     0.2058     0.1797    98.9297     2.3652
  291.0000     7.5007     8.5305   -57.5920     9.3438     0.2044     0.1846   100.7645     2.3652
  291.5000     7.5038     8.5362   -57.4321     9.3439     0.2013     0.1773   102.5994     2.3599
  292.0000     7.5357     8.5413   -57.4204     9.3441     0.1982     0.1753   103.5168     2.3600
  292.5000     7.5100     8.6068   -57.4088     9.3442     0.1970     0.1803   104.1284     2.3628
  293.0000     7.5131     8.6127   -57.3972     9.3444     0.1970     0.1821   104.4342     2.3606
  293.5000     7.5422     8.6780   -57.3855     9.3445     0.2001     0.1724   103.4914     2.3788
  294.0000     7.5712     8.8043   -57.3739     9.3447     0.2032     0.1627   100.3568     2.3773
  294.5000     7.5743     8.8711   -57.2140     9.3448     0.2063     0.1822    97.5638     2.3667
  295.0000     7.5780     8.9384   -57.2023     9.3450     0.2063     0.1800    95.1070     2.3591
  295.5000     7.5811     9.0684   -57.1907     9.3451     0.2034     0.1686    93.5321     2.3818
  296.0000     7.5841     9.0123   -57.1789     9.3453     0.2004     0.1662    92.0387     2.3924
  296.5000     7.5872     9.0186   -57.1670     9.3454     0.1975     0.1651    91.0907     2.3909
  297.0000     7.5903     8.9626   -57.1529     9.3456     0.2007     0.1651    90.3670     2.3848
  297.5000     7.5934     8.9702   -57.1412     9.3457     0.2039     0.1701    97.5025     2.3816
  298.0000     7.5436     8.9131   -57.1296     9.3459     0.2067     0.1756    98.6442     2.3738
  298.5000     7.5474     8.9207   -57.1180     9.3460     0.2032     0.1790    97.0744     2.3676
  299.0000     7.5505     8.8640   -57.1063     9.3462     0.1978     0.1821    95.2192     2.3618
  299.5000     7.5017     8.8715   -56.9464     9.3464     0.1978     0.1844    94.0367     2.3567
  300.0000     7.5048     8.8645   -56.9377     9.3465     0.1979     0.1814    98.9297     2.3545
  300.5000     7.5078     8.7947   -57.0262     9.3446     0.1959     0.1833   102.6560     2.3576
  301.0000     7.3848     8.7248   -57.0633     9.3416     0.1929     0.1804   103.8981     2.3576
  301.5000     7.2640     8.6549   -57.3494     9.3386     0.1899     0.1766   104.7401     2.3621
  302.0000     7.2149     8.5850   -57.7839     9.3357     0.1869     0.1785   103.5208     2.3625
  302.5000     7.1689     8.5408   -58.0703     9.3327     0.1858     0.1844   101.7992     2.3561
  303.0000     7.1231     8.4868   -58.0576     9.3298     0.1828     0.1863   100.5382     2.3546
  303.5000     7.0776     8.4925   -58.0475     9.3268     0.1828     0.1869    99.5831     2.3515
  304.0000     7.0817     8.3798   -58.0373     9.3238     0.1828     0.1869    98.4730     2.3501
  304.5000     7.0364     8.2140   -57.8789     9.3209     0.1798     0.1869    97.3669     2.3501
  305.0000     7.0398     8.1619   -57.8687     9.3179     0.1789     0.1875    96.1774     2.3501
  305.5000     7.0431     8.1104   -57.8586     9.3149     0.1767     0.1875    95.2599     2.3501
  306.0000     7.0465     8.0591   -57.8484     9.3120     0.1737     0.1875    95.2599     2.3501
  306.5000     7.0506     8.1193   -57.6900     9.3090     0.1737     0.1869    98.0122     2.3507
  307.0000     7.1026     8.1808   -57.5316     9.3061     0.1707     0.1868    99.2355     2.3516
  307.5000     7.1059     8.2417   -57.5214     9.3031     0.1707     0.1835    98.9297     2.3524
  308.0000     7.1583     8.3031   -57.5110     9.3001     0.1677     0.1770    98.6239     2.3540
  308.5000     7.2609     8.4360   -57.3503     9.2972     0.1707     0.1739    98.6682     2.3638
  309.0000     7.3145     8.5441   -57.3402     9.2942     0.1708     0.1730   100.8318     2.3683
  309.5000     7.4705     8.5488   -57.3300     9.2913     0.1739     0.1829   101.3761     2.3683
  310.0000     7.5775     8.6124   -57.3199     9.2883     0.1802     0.1845   101.3761     2.3653
  310.5000     7.6861     8.6766   -57.3521     9.2857     0.1858     0.1782   101.3761     2.3638
  311.0000     7.7429     8.6813   -57.4504     9.2553     0.1858     0.1742   102.2059     2.3683
  311.5000     7.6934     8.6860   -57.4377     9.2553     0.1858     0.1720   104.5901     2.3729
  312.0000     7.6972     8.6907   -57.4280     9.2553     0.1858     0.1730   106.8807     2.3744
  312.5000     7.7015     8.6357   -57.4174     9.2553     0.1858     0.1754   105.6320     2.3711
  313.0000     7.7051     8.6415   -57.4073     9.2553     0.1888     0.1778   104.4342     2.3669
  313.5000     7.7088     8.5861   -57.3969     9.2553     0.1904     0.1748   102.9052     2.3669
  314.0000     7.6586     8.5915   -57.5352     9.2249     0.1918     0.1706   101.3761     2.3692
  314.5000     7.6631     8.5955   -57.6734     9.2249     0.1949     0.1694    99.2355     2.3763
  315.0000     7.6667     8.6007   -57.8089     9.2249     0.1949     0.1688    98.0122     2.3805
  315.5000     7.6177     8.6054   -57.9471     9.1945     0.1949     0.1700    97.0948     2.3805
  316.0000     7.6213     8.5510   -57.9369     9.1945     0.1888     0.1706    96.1774     2.3790
  316.5000     7.6250     8.5554   -57.9268     9.1945     0.1858     0.1719    95.2599     2.3782
  317.0000     7.6287     8.5014   -58.0674     9.1957     0.1798     0.1724    94.9541     2.3745
  317.5000     7.6857     8.4481   -58.2055     9.2249     0.1737     0.1733    98.5447     2.3715
  318.0000     7.6887     8.4524   -58.1928     9.2249     0.1706     0.1748   101.6820     2.3745
  318.5000     7.6929     8.4579   -58.1827     9.2316     0.1677     0.1672    99.5887     2.3821
  319.0000     7.7497     8.4617   -57.8629     9.2553     0.1712     0.1652    98.4139     2.3867
  319.5000     7.8068     8.4671   -57.0979     9.2553     0.1780     0.1708    97.4587     2.3776
  320.0000     7.8644     8.5301   -56.6670     9.2553     0.1866     0.1802    96.1978     2.3639
  320.5000     7.9224     8.5937   -56.5086     9.2857     0.1928     0.1864    95.0984     2.3549
  321.0000     7.9809     8.6577   -56.4984     9.2857     0.1979     0.1864    94.0367     2.3473
  321.5000     8.1519     8.6624   -56.4883     9.2845     0.1979     0.1791    95.2599     2.3570
  322.0000     8.2741     8.7872   -56.4781     9.2829     0.1964     0.1773   101.3761     2.3672
  322.5000     8.5035     8.8801   -56.6188     9.2813     0.1918     0.1761   103.2110     2.3704
  323.0000     8.6849     9.0108   -56.6061     9.2797     0.1888     0.1749   104.4342     2.3716
