~VERSION INFORMATION
 VERS.                2.0:   CWLS LOG ASCII STANDARD - VERSION 2.0
 WRAP.                 NO:   ONE LINE PER DEPTH STEP
~WELL INFORMATION
#MNEM.UNIT      DATA TYPE    INFORMATION
#----------   ------------   ------------------------------
 STRT.F           60.0000:   START DEPTH
 STOP.F          482.0000:   STOP DEPTH
 STEP.F            0.5000:   STEP LENGTH
 NULL.          -999.2500:   NO VALUE
 COMP. BROWN JOHN E&C INC:   COMPANY
 WELL. NPR 3 68 SX-3 #68-1-3:   WELL
 FLD .             TEAPOT:   FIELD
 LOC .       S3 T38N R78W:   LOCATION
 CNTY.            NATRONA:   COUNTY
 STAT.            WYOMING:   STATE
 CTRY. UNITED STATES OF AMERICA:   COUNTRY
 SRVC.     Atlas Wireline:   SERVICE COMPANY
 DATE.        29-SEP-1991:   LOGDATE
 API .       490252244800:   API NUMBER
~CURVE INFORMATION
#MNEM.UNIT       API CODE    CURVE DESCRIPTION
#----------   ------------   ------------------------------
 DEPT.F                  :   
 CALD.IN     45 280 60 00:   CALIPER FROM DENSITY LOG
 CNC .DEC    42 890 03 00:   NEUTRON POROSITY SANDSTONE
 CORR.G/C3   45 356 01 00:   DENSITY CORRECTION
 GRD .GAPI   45 310 01 00:   GAMMA RAY FROM DENSITY LOG
 PORD.DEC    45 890 12 00:   POROSITY DENSITY SANDSTONE
 RHOB.G/C3   45 350 01 00:   BULK DENSITY
 RFOC.OHMM   07 220 04 00:   RESISTIVITY FOCUSED LOG
 RILD.OHMM   07 120 46 00:   RESISTIVITY INDUCTION LOG DEEP
 RILM.OHMM   07 120 44 00:   RESISTIVITY INDUCTION LOG MEDIUM
~PARAMETER INFORMATION
#MNEM.UNIT          VALUE    DESCRIPTION
#----------   ------------   ------------------------------
 PD  .                 GL:   PERMANENT DATUM
 EPD .F              5153:   ELEVATION PERMANENT DATUM
 LMF .                 KB:   LOG MEASURED FROM
 DAPD.F                10:   FEET ABOVE PERMANENT DATUM
 DMF .                 KB:   DRILLING MEASURED FROM
 EKB .F              5163:   KELLING BUSHING
 EGL .F              5153:   GROUND LEVEL
 DATE.        29-SEP-1991:   RUN DATE
 RUN .                  1:   RUN NUMBER
 DD  .F               485:   DEPTH DRILLER
 DL  .F               485:   DEPTH LOGGER
 BLI .F               482:   BOTTOM LOG INTERVAL
 CS  .IN            8.625:   CASING SIZE
 CBD .F                98:   CASING BOTTOM DRILLER
 CBL .F               100:   CASING BOTTOM LOGGER
 BS  .IN            7.875:   BIT SIZE
 BSD .F               485:   BIT SIZE AT DEPTH
 DFT .           CHEM GEL:   DRILLING FLUID TYPE
 DFD .               15.4:   DRILLING FLUID DENSITY
 DFV .                 38:   DRILLING FLUID VISCOSITY
 DFPH.                9.0:   DRILLING FLUID PH
 DFL .                8.0:   DRILLING FLUID LOSS
 MSS .           FLOWLINE:   MUD SAMPLE SOURCE
 RMS .OHMM           1.65:   RESISTIVITY MUD SAMPLE
 MST .F                90:   MUD SAMPLE TEMPERATURE
 RMF .OHMM           1.32:   RESISTIVITY MUD FILTRATE SAMPLE
 MFST.F                90:   MUD FILTRATE SAMPLE TEMPERATURE
 RMC .OHMM           2.06:   RESISTIVITY MUD CAKE
 MCST.F                90:   MUD CAKE SAMPLE TEMPERATURE
 MFSS.               CALC:   MUD FILTRATE SAMPLE SOURCE
 MCSS.               CALC:   MUD CAKE SAMPLE SOURCE
 RMB .OHMM           1.65:   RESISTIVITY MUD AT BHT
 BHT .F                90:   BOTTOM HOLE TEMPERATURE
 TCS .HRS               1:   TIME CURCULATED STOPPED
 MRT .F                90:   MAXIMUM RECORDED TEMPERATURE
 LUN .            HL 6272:   LOGGING UNIT NUMBER
 LUL .             CASPER:   LOGGING UNIT LOCATION
 ENGI. WADDELL/ OTTERHOLT:   RECORDING ENGINEER
 WITN.             STRONG:   WITNESSED BY
 CLNT.            A2DTECH:   CLIENT CODE
 ORIG.           5" PRINT:   ORIGIN OF DATA
 UWI .       490252244800:   UNIQUE WELL ID
 DICO. A2D Technologies, Inc.:   DIGITIZING COMPANY
~OTHER INFORMATION
~A   DEPT     CALD        CNC       CORR         GRD      PORD       RHOB       RFOC       RILD       RILM   
# ...
  461.5000     7.9974     0.3215     0.0205   102.2693     0.0632     2.5499    10.2767     8.6933     8.4524
  462.0000     7.9818     0.3148     0.0175   100.4539     0.0495     2.5720    10.5674     9.1919     9.0036
  462.5000     7.9817     0.3112     0.0114    97.4281     0.0377     2.5941    10.7907     9.5180     9.4578
  463.0000     7.9816     0.3082     0.0038    94.0998     0.0271     2.6154    10.9423     9.7872     9.8028
  463.5000     7.9815     0.3061    -0.0099    93.1921     0.0149     2.6245    10.9423     9.9246    10.0787
  464.0000     7.9814     0.3042    -0.0205    93.5048     0.0234     2.6017    11.0188     9.9941    10.1527
  464.5000     7.9813     0.3036    -0.0174  -999.2500     0.0440     2.5826    11.0959    10.0640    10.2989
  465.0000     7.9813     0.3036    -0.0048  -999.2500     0.0494     2.5636    11.1736    10.1344    10.3023
  465.5000     7.9812     0.3036     0.0023  -999.2500     0.0554     2.5497    11.1736    10.1344    10.3059
  466.0000     7.9811     0.3036     0.0008  -999.2500     0.0612     2.5453    11.1736    10.0640    10.3100
  466.5000     7.9810     0.3042    -0.0023  -999.2500     0.0642     2.5423    11.0959    10.0640    10.3135
  467.0000     7.9809     0.3048    -0.0042  -999.2500     0.0651     2.5423    11.0107    10.0640    10.2451
  467.5000     7.9808     0.3055    -0.0053  -999.2500     0.0654     2.5438    10.8662     9.9941    10.2485
  468.0000     7.9961     0.3027    -0.0068  -999.2500     0.0620     2.5453    10.7907     9.7872    10.2527
  468.5000     7.9806     0.3024    -0.0053  -999.2500     0.0556     2.5545    10.6413     9.7192    10.2561
  469.0000     7.9805     0.3024     0.0038  -999.2500     0.0495     2.5712    10.5674     9.5180    10.2596
  469.5000     7.9804     0.3024     0.0114  -999.2500     0.0491     2.5682    10.5674     9.3210    10.2630
  470.0000     7.9803     0.3007     0.0084  -999.2500     0.0562     2.5462    10.6413     8.9391    10.1949
  470.5000     7.9802     0.2964     0.0037  -999.2500     0.0662     2.5278    10.7158     8.2792    10.1273
  471.0000     7.9801     0.2621    -0.0008  -999.2500     0.0725     2.5209    10.6413  -999.2500    10.1315
  471.5000     7.9800    -0.0976    -0.0053  -999.2500     0.0776     2.5171    10.3486  -999.2500    10.0636
  472.0000     7.9799    -0.0982    -0.0068  -999.2500     0.0788     2.5194    10.2767  -999.2500     9.9281
  472.5000     7.9798  -999.2500    -0.0053  -999.2500     0.0761     2.5301    10.2053  -999.2500     9.7937
  473.0000     7.9797  -999.2500    -0.0023  -999.2500     0.0736     2.5362     9.9922  -999.2500     9.5946
  473.5000     7.9487  -999.2500    -0.0023  -999.2500     0.0699     2.5392     9.6517  -999.2500     9.3334
  474.0000     7.9022  -999.2500    -0.0023  -999.2500     0.0663     2.5392     9.2562  -999.2500     9.0162
  474.5000     7.8712  -999.2500    -0.0008  -999.2500     0.0690     2.5344     8.9391  -999.2500     8.7097
  475.0000     7.8402  -999.2500    -0.0012  -999.2500     0.0726     2.5248     8.6329  -999.2500     8.3503
  475.5000     7.8247  -999.2500    -0.0023  -999.2500     0.0756     2.5225     8.3954  -999.2500     7.7948
  476.0000     7.7937  -999.2500    -0.0053  -999.2500     0.0765     2.5270     8.1645  -999.2500     7.1707
  476.5000     7.7626  -999.2500    -0.0077  -999.2500     0.0741     2.5293     7.9874  -999.2500     6.4597
  477.0000     7.7162  -999.2500    -0.0068  -999.2500     0.0732     2.5301     7.7756  -999.2500     5.7386
  477.5000     7.6852  -999.2500    -0.0023  -999.2500     0.0825     2.5179     7.6147  -999.2500     5.2700
  478.0000     7.6696  -999.2500     0.0008  -999.2500     0.1016     2.5080     7.3027  -999.2500     5.0646
  478.5000     7.6379  -999.2500    -0.0053  -999.2500     0.1219     2.4928     6.9065  -999.2500     4.9267
  479.0000     7.6054  -999.2500    -0.0251  -999.2500     0.1376     2.4367     6.2207  -999.2500     4.8940
  479.5000     7.5611  -999.2500    -0.0282  -999.2500     0.1630     2.3945     5.2758  -999.2500     4.8957
  480.0000     7.5456  -999.2500    -0.0236  -999.2500     0.2142     2.3397     3.7655  -999.2500     4.8636
  480.5000  -999.2500  -999.2500    -0.0129  -999.2500     0.2163     2.2894     3.7655  -999.2500     4.8758
  481.0000  -999.2500  -999.2500    -0.0094  -999.2500     0.2030     2.3024     3.9538  -999.2500  -999.2500
  481.5000  -999.2500  -999.2500     0.0053  -999.2500     0.1966     2.3107     4.5455  -999.2500  -999.2500
  482.0000  -999.2500  -999.2500    -1.1737  -999.2500     0.2293     2.2415     6.7446  -999.2500  -999.2500
