~VERSION INFORMATION
 VERS.                2.0:   CWLS LOG ASCII STANDARD - VERSION 2.0
 WRAP.                 NO:   ONE LINE PER DEPTH STEP
~WELL INFORMATION
#MNEM.UNIT      DATA TYPE    INFORMATION
#----------   ------------   ------------------------------
 STRT.F            4.0000:   START DEPTH
 STOP.F         1997.5000:   STOP DEPTH
 STEP.F            0.5000:   STEP LENGTH
 NULL.          -999.2500:   NO VALUE
 COMP. LAWRENCE/ALLISON INC:   COMPANY
 WELL. NPR 3 66 SX #32-11:   WELL
 FLD .             TEAPOT:   FIELD
 LOC .      S11 T38N R78W:   LOCATION
 CNTY.            NATRONA:   COUNTY
 STAT.            WYOMING:   STATE
 CTRY. UNITED STATES OF AMERICA:   COUNTRY
 SRVC.      NL McCullough:   SERVICE COMPANY
 DATE.        16-SEP-1988:   LOGDATE
 API .       490251108600:   API NUMBER
~CURVE INFORMATION
#MNEM.UNIT       API CODE    CURVE DESCRIPTION
#----------   ------------   ------------------------------
 DEPT.F                  :   
 ROP .MIN/FT 91 810 01 00:   RATE OF DRILLING PENETRATION
 GR  .GAPI   81 310 01 00:   GAMMA RAY FROM CEMENT BOND LOG
 TGAS.UNITS  91 830 01 00:   TOTAL GAS FROM HOTWIRE
~PARAMETER INFORMATION
#MNEM.UNIT          VALUE    DESCRIPTION
#----------   ------------   ------------------------------
 PD  .                 GL:   PERMANENT DATUM
 EPD .F              5170:   ELEVATION PERMANENT DATUM
 LMF .                 KB:   LOG MEASURED FROM
 DMF .                 KB:   DRILLING MEASURED FROM
 EKB .F              5170:   KELLING BUSHING
 EGL .F              5170:   GROUND LEVEL
 DATE.        16-SEP-1988:   RUN DATE
 RUN .                  1:   RUN NUMBER
 DD  .F               837:   DEPTH DRILLER
 DL  .F               737:   DEPTH LOGGER
 BLI .F               733:   BOTTOM LOG INTERVAL
 CS  .IN              5.5:   CASING SIZE
 CBD .F               836:   CASING BOTTOM DRILLER
 BSD .F               837:   BIT SIZE AT DEPTH
 DFT .              WATER:   DRILLING FLUID TYPE
 TCS .HRS             1.5:   TIME CURCULATED STOPPED
 ENGI.          BANGERTER:   RECORDING ENGINEER
 WITN.               LOWE:   WITNESSED BY
 CLNT.            A2DTECH:   CLIENT CODE
 ORIG.           5" PRINT:   ORIGIN OF DATA
 UWI .       490251108600:   UNIQUE WELL ID
 DICO. A2D Technologies, Inc.:   DIGITIZING COMPANY
~OTHER INFORMATION
~A    DEPT     ROP          GR      TGAS   
# ...
 1005.0000     0.2844  -999.2500     4.5743
 1005.5000     0.2845  -999.2500     4.6156
 1006.0000     0.2846  -999.2500     4.6569
 1006.5000     0.2847  -999.2500     4.6983
 1007.0000     0.2848  -999.2500     4.7396
 1007.5000     0.2849  -999.2500     4.7810
 1008.0000     0.2850  -999.2500     4.8223
 1008.5000     0.2851  -999.2500     4.8636
 1009.0000     0.2852  -999.2500     4.9050
 1009.5000     0.2853  -999.2500     4.9463
 1010.0000     0.2854  -999.2500     4.9877
 1010.5000     0.2855  -999.2500     5.0290
 1011.0000     0.2856  -999.2500     5.0703
 1011.5000     0.2857  -999.2500     5.1117
 1012.0000     0.2858  -999.2500     5.1530
 1012.5000     0.2859  -999.2500     5.1944
 1013.0000     0.2860  -999.2500     5.2357
 1013.5000     0.2861  -999.2500     5.2770
 1014.0000     0.2862  -999.2500     5.3184
 1014.5000     0.2863  -999.2500     5.3597
 1015.0000     0.2864  -999.2500     5.4011
 1015.5000     0.2865  -999.2500     5.4424
 1016.0000     0.2866  -999.2500     5.4838
 1016.5000     0.2867  -999.2500     5.5251
 1017.0000     0.2868  -999.2500     5.5664
 1017.5000     0.2869  -999.2500     5.6078
 1018.0000     0.2870  -999.2500     5.6491
 1018.5000     0.2871  -999.2500     5.6905
 1019.0000     0.2872  -999.2500     5.7318
 1019.5000     0.2873  -999.2500     5.7731
 1020.0000     0.2874  -999.2500     5.8145
 1020.5000     0.2876  -999.2500     5.8558
 1021.0000     0.2877  -999.2500     5.8972
 1021.5000     0.2878  -999.2500     5.9385
 1022.0000     0.2879  -999.2500     5.9798
 1022.5000     0.2880  -999.2500     6.0212
 1023.0000     0.2881  -999.2500     6.0625
 1023.5000     0.2882  -999.2500     6.1039
 1024.0000     0.2883  -999.2500     6.1452
 1024.5000     0.2884  -999.2500     6.1865
 1025.0000     0.2885  -999.2500     6.2279
 1025.5000     0.2886  -999.2500     6.2692
 1026.0000     0.2887  -999.2500     6.3106
 1026.5000     0.2888  -999.2500     6.3519
 1027.0000     0.2889  -999.2500     6.3933
 1027.5000     0.2890  -999.2500     6.4346
 1028.0000     0.2891  -999.2500     6.4759
 1028.5000     0.2892  -999.2500     6.5173
 1029.0000     0.2893  -999.2500     6.5586
 1029.5000     0.2894  -999.2500     6.6000
 1030.0000     0.2895  -999.2500     6.6413
 1030.5000     0.2896  -999.2500     6.6826
 1031.0000     0.2897  -999.2500     6.7240
 1031.5000     0.2898  -999.2500     6.7653
 1032.0000     0.2899  -999.2500     6.8067
 1032.5000     0.2900  -999.2500     6.8480
 1033.0000     0.2901  -999.2500     6.8893
 1033.5000     0.2902  -999.2500     6.9307
 1034.0000     0.2903  -999.2500     6.9720
 1034.5000     0.2904  -999.2500     7.0134
 1035.0000     0.2905  -999.2500     7.0547
 1035.5000     0.2906  -999.2500     7.0960
 1036.0000     0.2907  -999.2500     7.1374
 1036.5000     0.2908  -999.2500     7.1787
 1037.0000     0.2909  -999.2500     7.2201
 1037.5000     0.2910  -999.2500     7.2614
 1038.0000     0.2911  -999.2500     7.3028
 1038.5000     0.2912  -999.2500     7.3441
 1039.0000     0.2913  -999.2500     7.3854
 1039.5000     0.2914  -999.2500     7.4268
 1040.0000     0.2915  -999.2500     7.4681
 1040.5000     0.2916  -999.2500     7.5095
 1041.0000     0.2917  -999.2500     7.5508
 1041.5000     0.2918  -999.2500     7.5921
 1042.0000     0.2919  -999.2500     7.6335
 1042.5000     0.2920  -999.2500     7.6748
 1043.0000     0.2921  -999.2500     7.7162
 1043.5000     0.2922  -999.2500     7.7575
 1044.0000     0.2923  -999.2500     7.7988
 1044.5000     0.2924  -999.2500     7.8402
 1045.0000     0.2925  -999.2500     7.8815
 1045.5000     0.2926  -999.2500     7.9229
 1046.0000     0.2927  -999.2500     7.9642
 1046.5000     0.2928  -999.2500     8.0055
 1047.0000     0.2929  -999.2500     8.0469
 1047.5000     0.2930  -999.2500     8.0882
 1048.0000     0.2931  -999.2500     8.1296
 1048.5000     0.2932  -999.2500     8.1709
 1049.0000     0.2933  -999.2500     8.2123
 1049.5000     0.2934  -999.2500     8.2536
 1050.0000     0.2935  -999.2500     8.2949
 1050.5000     0.2934  -999.2500     8.3053
 1051.0000     0.2933  -999.2500     8.3157
 1051.5000     0.2932  -999.2500     8.3260
 1052.0000     0.2931  -999.2500     8.3364
 1052.5000     0.2930  -999.2500     8.3468
 1053.0000     0.2929  -999.2500     8.3571
 1053.5000     0.2928  -999.2500     8.3675
 1054.0000     0.2927  -999.2500     8.3779
 1054.5000     0.2926  -999.2500     8.3883
 1055.0000     0.2925  -999.2500     8.3986
 1055.5000     0.2924  -999.2500     8.4090
 1056.0000     0.2923  -999.2500     8.4194
 1056.5000     0.2922  -999.2500     8.4297
 1057.0000     0.2921  -999.2500     8.4401
 1057.5000     0.2920  -999.2500     8.4505
 1058.0000     0.2919  -999.2500     8.4608
 1058.5000     0.2918  -999.2500     8.4712
 1059.0000     0.2917  -999.2500     8.4816
 1059.5000     0.2916  -999.2500     8.4919
 1060.0000     0.2915  -999.2500     8.5023
 1060.5000     0.2914  -999.2500     8.5127
 1061.0000     0.2913  -999.2500     8.5230
 1061.5000     0.2912  -999.2500     8.5334
 1062.0000     0.2911  -999.2500     8.5438
 1062.5000     0.2910  -999.2500     8.5541
 1063.0000     0.2909  -999.2500     8.5645
 1063.5000     0.2908  -999.2500     8.5749
 1064.0000     0.2907  -999.2500     8.5853
 1064.5000     0.2906  -999.2500     8.5956
 1065.0000     0.2905  -999.2500     8.6060
 1065.5000     0.2904  -999.2500     8.6164
 1066.0000     0.2903  -999.2500     8.6267
 1066.5000     0.2902  -999.2500     8.6371
 1067.0000     0.2901  -999.2500     8.6475
 1067.5000     0.2900  -999.2500     8.6578
 1068.0000     0.2899  -999.2500     8.6682
 1068.5000     0.2898  -999.2500     8.6786
 1069.0000     0.2896  -999.2500     8.6889
 1069.5000     0.2895  -999.2500     8.6993
 1070.0000     0.2894  -999.2500     8.7097
 1070.5000     0.2893  -999.2500     8.7200
 1071.0000     0.2892  -999.2500     8.7304
 1071.5000     0.2891  -999.2500     8.7408
 1072.0000     0.2890  -999.2500     8.7512
 1072.5000     0.2889  -999.2500     8.7615
 1073.0000     0.2888  -999.2500     8.7719
 1073.5000     0.2887  -999.2500     8.7823
 1074.0000     0.2886  -999.2500     8.7926
 1074.5000     0.2885  -999.2500     8.8030
 1075.0000     0.2884  -999.2500     8.8134
 1075.5000     0.2883  -999.2500     8.8237
 1076.0000     0.2882  -999.2500     8.8341
 1076.5000     0.2881  -999.2500     8.8445
 1077.0000     0.2880  -999.2500     8.8548
 1077.5000     0.2879  -999.2500     8.8652
 1078.0000     0.2878  -999.2500     8.8756
 1078.5000     0.2877  -999.2500     8.8859
 1079.0000     0.2876  -999.2500     8.8963
 1079.5000     0.2875  -999.2500     8.9067
 1080.0000     0.2874  -999.2500     8.9170
 1080.5000     0.2873  -999.2500     8.9274
 1081.0000     0.2872  -999.2500     8.9378
 1081.5000     0.2871  -999.2500     8.9482
 1082.0000     0.2870  -999.2500     8.9585
 1082.5000     0.2869  -999.2500     8.9689
 1083.0000     0.2868  -999.2500     8.9793
 1083.5000     0.2867  -999.2500     8.9896
 1084.0000     0.2866  -999.2500     9.0000
 1084.5000     0.2865  -999.2500     9.0104
 1085.0000     0.2864  -999.2500     9.0207
 1085.5000     0.2863  -999.2500     9.0311
 1086.0000     0.2862  -999.2500     9.0415
 1086.5000     0.2861  -999.2500     9.0518
 1087.0000     0.2860  -999.2500     9.0622
 1087.5000     0.2859  -999.2500     9.0726
 1088.0000     0.2858  -999.2500     9.0829
 1088.5000     0.2857  -999.2500     9.0933
 1089.0000     0.2856  -999.2500     9.1037
 1089.5000     0.2855  -999.2500     9.1141
 1090.0000     0.2854  -999.2500     9.1244
 1090.5000     0.2853  -999.2500     9.1348
 1091.0000     0.2852  -999.2500     9.1452
 1091.5000     0.2851  -999.2500     9.1555
 1092.0000     0.2850  -999.2500     9.1659
 1092.5000     0.2849  -999.2500     9.1763
 1093.0000     0.2848  -999.2500     9.1866
 1093.5000     0.2847  -999.2500     9.1970
 1094.0000     0.2846  -999.2500     9.2074
 1094.5000     0.2844  -999.2500     9.2177
 1095.0000     0.2843  -999.2500     9.2281
 1095.5000     0.2842  -999.2500     9.2385
