~VERSION INFORMATION
 VERS.                2.0:   CWLS LOG ASCII STANDARD - VERSION 2.0
 WRAP.                 NO:   ONE LINE PER DEPTH STEP
~WELL INFORMATION
#MNEM.UNIT      DATA TYPE    INFORMATION
#----------   ------------   ------------------------------
 STRT.F            8.5000:   START DEPTH
 STOP.F          509.0000:   STOP DEPTH
 STEP.F            0.5000:   STEP LENGTH
 NULL.          -999.2500:   NO VALUE
 COMP. LAWRENCE-ALLISON &AS:   COMPANY
 WELL. NPR 3 #68-26SX3LP2:   WELL
 FLD .             TEAPOT:   FIELD
 LOC .       S3 T38N R78W:   LOCATION
 CNTY.            NATRONA:   COUNTY
 STAT.            WYOMING:   STATE
 CTRY. UNITED STATES OF AMERICA:   COUNTRY
 SRVC.      Dresser Atlas:   SERVICE COMPANY
 DATE.        12-DEC-1984:   LOGDATE
 API .       490251099600:   API NUMBER
~CURVE INFORMATION
#MNEM.UNIT       API CODE    CURVE DESCRIPTION
#----------   ------------   ------------------------------
 DEPT.F                  :   
 CNC .DEC    42 890 03 00:   NEUTRON POROSITY SANDSTONE
 CALD.IN     45 280 60 00:   CALIPER FROM DENSITY LOG
 CORR.G/C3   45 356 01 00:   DENSITY CORRECTION
 GRD .GAPI   45 310 01 00:   GAMMA RAY FROM DENSITY LOG
 PORD.DEC    45 890 12 00:   POROSITY DENSITY SANDSTONE
 RHOB.G/C3   45 350 01 00:   BULK DENSITY
 DT  .US/F   60 520 00 00:   INTERVAL TRANSIT TIME
 SPR .MV     11 010 01 00:   SPONTANEOUS POTENTIAL FROM RES.
 RS  .OHMM   11 220 09 00:   RESISTIVITY SHALLOW
 RD  .OHMM   11 220 10 00:   RESISTIVITY DEEP
~PARAMETER INFORMATION
#MNEM.UNIT          VALUE    DESCRIPTION
#----------   ------------   ------------------------------
 PD  .                 GL:   PERMANENT DATUM
 EPD .F              5158:   ELEVATION PERMANENT DATUM
 LMF .                 GL:   LOG MEASURED FROM
 DMF .                 GL:   DRILLING MEASURED FROM
 EGL .F              5158:   GROUND LEVEL
 DATE.        12-DEC-1984:   RUN DATE
 RUN .                  1:   RUN NUMBER
 DD  .F               510:   DEPTH DRILLER
 DL  .F               510:   DEPTH LOGGER
 BLI .F               501:   BOTTOM LOG INTERVAL
 TLI .F                20:   TOP LOG INTERVAL
 CS  .IN            8.625:   CASING SIZE
 CBD .F                20:   CASING BOTTOM DRILLER
 CBL .F                20:   CASING BOTTOM LOGGER
 BS  .IN            7.875:   BIT SIZE
 BSD .F               510:   BIT SIZE AT DEPTH
 DFT .          KCL/WATER:   DRILLING FLUID TYPE
 MSS .            MUDTANK:   MUD SAMPLE SOURCE
 RMS .OHMM           0.21:   RESISTIVITY MUD SAMPLE
 MST .F                70:   MUD SAMPLE TEMPERATURE
 RMF .OHMM           0.16:   RESISTIVITY MUD FILTRATE SAMPLE
 MFST.F                70:   MUD FILTRATE SAMPLE TEMPERATURE
 RMC .OHMM           0.26:   RESISTIVITY MUD CAKE
 MCST.F                70:   MUD CAKE SAMPLE TEMPERATURE
 MFSS.               CALC:   MUD FILTRATE SAMPLE SOURCE
 MCSS.               CALC:   MUD CAKE SAMPLE SOURCE
 RMB .OHMM           0.17:   RESISTIVITY MUD AT BHT
 BHT .F                85:   BOTTOM HOLE TEMPERATURE
 TCS .HRS               6:   TIME CURCULATED STOPPED
 MRT .F               100:   MAXIMUM RECORDED TEMPERATURE
 LUN .               6270:   LOGGING UNIT NUMBER
 LUL .                 FM:   LOGGING UNIT LOCATION
 ENGI.           E.GOVETT:   RECORDING ENGINEER
 WITN.              LUERS:   WITNESSED BY
 CLNT.            A2DTECH:   CLIENT CODE
 ORIG.           5" PRINT:   ORIGIN OF DATA
 UWI .       490251099600:   UNIQUE WELL ID
 DICO. A2D Technologies, Inc.:   DIGITIZING COMPANY
~OTHER INFORMATION
~A    DEPT     CNC       CALD       CORR        GRD       PORD       RHOB          DT       SPR         RS         RD   
# ...
  276.5000     0.2745     7.8287     0.0675    74.3109     0.1816     2.3689    96.1886   -21.7434    30.3578    28.1292
  277.0000     0.2875     7.8299     0.0556    76.5480     0.1804     2.3734    96.3238   -22.4698    29.9542    27.5658
  277.5000     0.2866     7.8607     0.0212    78.0434     0.1813     2.3750    96.3043   -22.6082    29.5524    27.3868
  278.0000     0.2702     7.8767     0.0199    78.4972     0.1827     2.3743    96.2149   -22.8926    28.9616    27.2126
  278.5000     0.2649     7.8779     0.0216    77.4732     0.1845     2.3699    96.3495   -23.1821    28.5765    27.2311
  279.0000     0.2594     7.8791     0.0172    73.3306     0.1863     2.3677    96.6384   -23.7637    28.3926    27.0579
  279.5000     0.2559     7.8802     0.0114    72.4520     0.1832     2.3670    96.4686   -24.0532    27.8217    26.8822
  280.0000     0.2544     7.8514     0.0101    72.3124     0.1787     2.3731    95.7017   -24.6348    27.8353    26.7143
  280.5000     0.2537     7.8081     0.0088    72.4753     0.1778     2.3815    95.4607   -24.9217    27.2784    26.7294
  281.0000     0.2525     7.7947     0.0157    73.0805     0.1799     2.3808    95.6705   -25.0626    27.2914    26.7439
  281.5000     0.2522     7.7662     0.0334    75.0209     0.1843     2.3756    95.7303   -25.6442    27.6854    26.9447
  282.0000     0.2485     7.7822     0.0229    76.3679     0.1985     2.3611    95.4139   -25.7851    27.8912    27.1470
  282.5000     0.2361     7.7982     0.0110    72.5239     0.2018     2.3434    94.5567   -25.9212    28.2940    27.5438
  283.0000     0.2309     7.8168     0.0081    70.6068     0.1993     2.3413    91.9895   -26.2079    29.1031    28.3328
  283.5000     0.2252     7.8602     0.0174    72.2505     0.1851     2.3534    89.6366   -26.6434    29.9354    29.1445
  284.0000     0.2215     7.8762     0.0612    77.7517     0.1691     2.3910    83.9188   -27.0790    31.6570    30.1878
  284.5000     0.2209     7.9070     0.0734    81.4726     0.1236     2.4538    77.9767   -27.3898    34.1809    32.3700
  285.0000     0.2202     7.9082     0.0660    79.4071     0.0969     2.4932    74.8056   -27.6529    34.9156    34.2325
  285.5000     0.2193     7.8942     0.0346    74.2259     0.0834     2.5241    73.6630   -27.6401    36.6755    35.7043
  286.0000     0.2223     7.8957     0.0153    70.0832     0.0873     2.5429    75.3754   -27.4813    36.5698    35.9720
  286.5000     0.2283     7.8968     0.0064    70.5490     0.0970     2.5393    76.3365   -27.3225    31.4015    31.7736
  287.0000     0.2404     7.8980     0.0111    73.9406     0.1238     2.5121    79.1008   -27.1637    28.2224    29.4591
  287.5000     0.2506     7.8695     0.0175    76.3749     0.1461     2.4605    85.4714   -27.1535    26.7130    27.8866
  288.0000     0.2717     7.8410     0.0317    76.8093     0.1659     2.4013    89.7383   -27.2918    26.3547    26.9522
  288.5000     0.2690     7.8273     0.0583    77.2661     0.1770     2.3782    95.2073   -27.2816    26.3704    26.5858
  289.0000     0.2620     7.8285     0.0705    79.0582     0.1870     2.3662    96.6943   -27.4871    26.5664    26.2445
  289.5000     0.2592     7.8297     0.0647    78.1796     0.1927     2.3543    97.6554   -27.7069    26.5790    26.0811
  290.0000     0.2589     7.8160     0.0301    73.2951     0.1956     2.3484    97.8691   -27.6967    26.4049    26.0953
  290.5000     0.2515     7.8174     0.0169    73.4552     0.1914     2.3537    97.6994   -27.5374    26.0538    25.9258
  291.0000     0.2449     7.8779     0.0171    74.5054     0.1893     2.3613    97.4584   -27.3789    25.8889    25.7609
  291.5000     0.2561     7.9236     0.0157    75.5556     0.1886     2.3636    97.4428   -27.5175    25.5451    25.5970
  292.0000     0.2627     7.9693     0.0144    77.0509     0.1886     2.3629    97.5023   -27.6558    25.3715    25.6145
  292.5000     0.2569     8.0001     0.0311    78.6947     0.1868     2.3660    97.5620   -27.7942    25.0432    25.2759
  293.0000     0.2488     8.0161     0.0449    80.1900     0.1828     2.3713    97.6965   -27.6328    24.8821    25.1117
  293.5000     0.2478     7.9873     0.0511    78.6973     0.1777     2.3789    97.5259   -27.6226    24.7220    24.9520
  294.0000     0.2505     7.9588     0.0497    77.0268     0.1743     2.3865    97.0558   -27.4638    24.5659    24.9690
  294.5000     0.2559     7.9306     0.0439    74.5899     0.1722     2.3911    96.7482   -27.4536    24.5776    24.9826
  295.0000     0.2583     7.9021     0.0380    73.8597     0.1710     2.3934    97.0292   -27.5945    24.5893    25.1699
  295.5000     0.2583     7.8883     0.0322    73.2779     0.1739     2.3896    97.3893   -27.7329    24.7720    25.3652
  296.0000     0.2601     7.8736     0.0324    73.7346     0.1791     2.3813    98.0498   -27.8712    24.9562    25.5491
  296.5000     0.2631     7.8611     0.0341    76.7137     0.1793     2.3763    98.8607   -27.8584    24.7927    25.5633
  297.0000     0.2666     7.8474     0.0358    78.8025     0.1778     2.3794    98.7700   -27.9970    24.2960    25.7578
  297.5000     0.2627     7.8489     0.0405    79.8527     0.1771     2.3833    98.6792   -27.8380    24.1397    25.5905
  298.0000     0.2608     7.8349     0.0512    81.3480     0.1765     2.3848    98.4382   -27.8276    24.1541    25.2557
  298.5000     0.2632     7.8364     0.0604    81.8019     0.1759     2.3849    98.1221   -27.9658    23.8329    25.0917
  299.0000     0.2623     7.8375     0.0681    74.2493     0.1765     2.3850    97.6557   -28.1045    23.5160    24.5925
  299.5000     0.2577     7.8532     0.0698    75.5966     0.1782     2.3806    97.1142   -27.9431    23.2034    24.0967
  300.0000     0.2526     7.8396     0.0669    76.9436     0.1809     2.3769    96.5727   -27.9329    22.7367    23.9467
  300.5000     0.2510     7.8410     0.0265    77.5490     0.1812     2.3762    96.1814   -27.7741    22.4318    23.9597
  301.0000     0.2616     7.8422     0.0147    77.2798     0.1803     2.3778    95.8653   -27.7639    22.2896    23.8041
  301.5000     0.2658     7.8434     0.0028    75.8151     0.1778     2.3809    95.3989   -27.7537    22.4558    23.4927
  302.0000     0.2679     7.8445     0.0255    74.4985     0.1742     2.3884    95.1475   -27.7434    22.1572    23.3431
  302.5000     0.2635     7.8457     0.0468    76.1573     0.1723     2.3900    95.4429   -27.7848    21.7116    23.1921
  303.0000     0.2569     7.8320     0.0467    77.8269     0.1798     2.3854    96.1035   -27.8741    21.4016    22.8882
  303.5000     0.2524     7.8332     0.0274    77.6023     0.1937     2.3566    96.5387   -28.1585    21.2851    22.4298
  304.0000     0.2581     7.8346     0.0110    76.0630     0.1961     2.3474    96.5229   -28.1483    21.2978    21.8319
  304.5000     0.2556     7.8207     0.0187    74.8950     0.1927     2.3558    96.1185   -28.2867    21.1582    21.2605
  305.0000     0.2566     7.8220     0.0203    76.3977     0.1887     2.3626    95.5046   -28.4250    20.7352    20.8361
  305.5000     0.2676     7.8233     0.0220    78.3454     0.1850     2.3695    94.8843   -28.7120    20.1932    20.8489
  306.0000     0.2682     7.8243     0.0266    76.7323     0.1818     2.3755    94.5785   -29.0372    20.0620    21.0066
  306.5000     0.2567     7.8209     0.0388    75.4112     0.1769     2.3809    94.4878   -29.9373    19.9343    21.1656
  307.0000     0.2533     7.8117     0.0556    75.4349     0.1721     2.3899    94.5512   -30.4237    19.8075    21.3257
  307.5000     0.2557     7.8131     0.0648    75.1571     0.1684     2.3983    94.9114   -30.4072    19.8413    21.4870
  308.0000     0.2693     7.8143     0.0708    74.7310     0.1699     2.3984    95.3158   -30.3940    19.8316    21.3486
  308.5000     0.2756     7.8155     0.0635    74.6009     0.1702     2.3962    95.7531   -30.3808    19.7056    21.3649
  309.0000     0.2747     7.8315     0.0441    74.9173     0.1686     2.3985    95.9556   -30.3677    19.7165    21.2305
  309.5000     0.2765     7.8326     0.0247    74.6395     0.1674     2.4001    96.0174   -30.3545    19.5910    21.0969
