~VERSION INFORMATION
 VERS.                2.0:   CWLS LOG ASCII STANDARD - VERSION 2.0
 WRAP.                 NO:   ONE LINE PER DEPTH STEP
~WELL INFORMATION
#MNEM.UNIT      DATA TYPE    INFORMATION
#----------   ------------   ------------------------------
 STRT.F            8.5000:   START DEPTH
 STOP.F          509.0000:   STOP DEPTH
 STEP.F            0.5000:   STEP LENGTH
 NULL.          -999.2500:   NO VALUE
 COMP. LAWRENCE-ALLISON &AS:   COMPANY
 WELL. NPR 3 #68-26SX3LP2:   WELL
 FLD .             TEAPOT:   FIELD
 LOC .       S3 T38N R78W:   LOCATION
 CNTY.            NATRONA:   COUNTY
 STAT.            WYOMING:   STATE
 CTRY. UNITED STATES OF AMERICA:   COUNTRY
 SRVC.      Dresser Atlas:   SERVICE COMPANY
 DATE.        12-DEC-1984:   LOGDATE
 API .       490251099600:   API NUMBER
~CURVE INFORMATION
#MNEM.UNIT       API CODE    CURVE DESCRIPTION
#----------   ------------   ------------------------------
 DEPT.F                  :   
 CNC .DEC    42 890 03 00:   NEUTRON POROSITY SANDSTONE
 CALD.IN     45 280 60 00:   CALIPER FROM DENSITY LOG
 CORR.G/C3   45 356 01 00:   DENSITY CORRECTION
 GRD .GAPI   45 310 01 00:   GAMMA RAY FROM DENSITY LOG
 PORD.DEC    45 890 12 00:   POROSITY DENSITY SANDSTONE
 RHOB.G/C3   45 350 01 00:   BULK DENSITY
 DT  .US/F   60 520 00 00:   INTERVAL TRANSIT TIME
 SPR .MV     11 010 01 00:   SPONTANEOUS POTENTIAL FROM RES.
 RS  .OHMM   11 220 09 00:   RESISTIVITY SHALLOW
 RD  .OHMM   11 220 10 00:   RESISTIVITY DEEP
~PARAMETER INFORMATION
#MNEM.UNIT          VALUE    DESCRIPTION
#----------   ------------   ------------------------------
 PD  .                 GL:   PERMANENT DATUM
 EPD .F              5158:   ELEVATION PERMANENT DATUM
 LMF .                 GL:   LOG MEASURED FROM
 DMF .                 GL:   DRILLING MEASURED FROM
 EGL .F              5158:   GROUND LEVEL
 DATE.        12-DEC-1984:   RUN DATE
 RUN .                  1:   RUN NUMBER
 DD  .F               510:   DEPTH DRILLER
 DL  .F               510:   DEPTH LOGGER
 BLI .F               501:   BOTTOM LOG INTERVAL
 TLI .F                20:   TOP LOG INTERVAL
 CS  .IN            8.625:   CASING SIZE
 CBD .F                20:   CASING BOTTOM DRILLER
 CBL .F                20:   CASING BOTTOM LOGGER
 BS  .IN            7.875:   BIT SIZE
 BSD .F               510:   BIT SIZE AT DEPTH
 DFT .          KCL/WATER:   DRILLING FLUID TYPE
 MSS .            MUDTANK:   MUD SAMPLE SOURCE
 RMS .OHMM           0.21:   RESISTIVITY MUD SAMPLE
 MST .F                70:   MUD SAMPLE TEMPERATURE
 RMF .OHMM           0.16:   RESISTIVITY MUD FILTRATE SAMPLE
 MFST.F                70:   MUD FILTRATE SAMPLE TEMPERATURE
 RMC .OHMM           0.26:   RESISTIVITY MUD CAKE
 MCST.F                70:   MUD CAKE SAMPLE TEMPERATURE
 MFSS.               CALC:   MUD FILTRATE SAMPLE SOURCE
 MCSS.               CALC:   MUD CAKE SAMPLE SOURCE
 RMB .OHMM           0.17:   RESISTIVITY MUD AT BHT
 BHT .F                85:   BOTTOM HOLE TEMPERATURE
 TCS .HRS               6:   TIME CURCULATED STOPPED
 MRT .F               100:   MAXIMUM RECORDED TEMPERATURE
 LUN .               6270:   LOGGING UNIT NUMBER
 LUL .                 FM:   LOGGING UNIT LOCATION
 ENGI.           E.GOVETT:   RECORDING ENGINEER
 WITN.              LUERS:   WITNESSED BY
 CLNT.            A2DTECH:   CLIENT CODE
 ORIG.           5" PRINT:   ORIGIN OF DATA
 UWI .       490251099600:   UNIQUE WELL ID
 DICO. A2D Technologies, Inc.:   DIGITIZING COMPANY
~OTHER INFORMATION
~A    DEPT     CNC       CALD       CORR        GRD       PORD       RHOB          DT       SPR         RS         RD   
# ...
   75.5000     0.2678     7.7822     0.0223    82.6725     0.1310     2.4581    96.6347   -50.3591    23.4654   593.2003
   76.0000     0.2690     7.7840     0.0209    82.0950     0.1333     2.4551    97.6731   -50.4963    23.9665   577.7973
   76.5000     0.2729     7.7708     0.0241    84.3932     0.1345     2.4522    98.4862   -50.6329    24.4783   585.9388
   77.0000     0.2840     7.7878     0.0272    87.5934     0.1378     2.4486    98.9988   -50.6211    24.4867   578.1554
   77.5000     0.2831     7.8044     0.0303    91.0491     0.1404     2.4464    99.2108   -50.6092    24.4950   562.6288
   78.0000     0.2746     7.7909     0.0125    92.2521     0.1404     2.4442    99.3479   -50.5973    24.1660   543.7406
   78.5000     0.2652     7.7783    -0.0024    91.9674     0.1362     2.4498    99.5597   -50.5833    23.5133   525.4865
   79.0000     0.2640     7.7800    -0.0008    93.1743     0.1332     2.4572    99.6995   -50.1258    22.7202   504.3405
   79.5000     0.2700     7.7818     0.0128    94.5256     0.1326     2.4531   100.0651   -49.5198    22.4151   477.3876
   80.0000     0.2793     7.7682     0.0355    95.4319     0.1374     2.4492   101.0619   -49.3595    22.5788   471.0425
   80.5000     0.2739     7.7704     0.0431    91.5903     0.1415     2.4447   102.0872   -49.0507    22.7437   474.5461
   81.0000     0.2636     7.7722     0.0357    88.0455     0.1439     2.4388   102.4197   -49.0390    22.7531   485.1033
   81.5000     0.2557     7.7739     0.0025    84.9458     0.1461     2.4351   102.5599   -49.1788    22.9192   505.9513
   82.0000     0.2562     7.7757    -0.0062    83.1814     0.1466     2.4344   102.6217   -49.1642    22.9270   516.4163
   82.5000     0.2673     7.7774    -0.0043    82.3072     0.1355     2.4421   102.2293   -49.1525    22.7744   511.6450
   83.0000     0.2673     7.7643     0.0018    82.6202     0.1282     2.4542   101.5397   -49.1409    22.7841   509.7893
   83.5000     0.2694     7.7665     0.0079    82.8051     0.1231     2.4715   100.8502   -49.1293    22.4781   503.0175
   84.0000     0.2736     7.7682     0.0141    83.3978     0.1237     2.4738   100.1606   -49.1174    22.4858   496.3357
   84.5000     0.2660     7.7700     0.0382    86.5295     0.1297     2.4649    99.8467   -48.9569    22.4934   483.0640
   85.0000     0.2578     7.7717     0.0504    89.8097     0.1306     2.4620   100.0588   -48.9450    22.5011   473.3578
   85.5000     0.2545     7.7883     0.0340    91.6061     0.1321     2.4606   100.4211   -49.0825    22.5088   470.2595
   86.0000     0.2548     7.7751     0.0206    90.7319     0.1341     2.4583   101.1590   -49.2165    22.5164   467.2373
   86.5000     0.2689     7.7770     0.0192    90.1504     0.1344     2.4540   102.4229   -49.3534    22.5241   464.2345
   87.0000     0.2728     7.7787     0.0329    91.9509     0.1329     2.4586   103.1608   -49.3417    22.5319   464.5117
   87.5000     0.2762     7.7953     0.0346    93.8957     0.1310     2.4617   103.6734   -49.4799    22.6965   464.7336
   88.0000     0.2897     7.7971     0.0301    95.3954     0.1296     2.4633   104.0357   -49.7670    22.8637   468.1866
   88.5000     0.2906     7.7988     0.0228    96.1672     0.1292     2.4634   104.3228   -49.9039    22.8715   471.6653
   89.0000     0.2878     7.8006     0.0261    89.6410     0.1304     2.4627   104.0841   -50.0408    22.8793   478.5169
   89.5000     0.2809     7.8024     0.0396    87.4315     0.1316     2.4621   103.7701   -49.7291    22.8871   488.7538
   90.0000     0.2760     7.8045     0.0487    88.4174     0.1304     2.4606   103.8367   -49.4202    22.5797   492.3810
   90.5000     0.2705     7.7910     0.0548    89.6891     0.1229     2.4623   104.1272   -49.1114    22.4295   475.8511
   91.0000     0.2690     7.7779     0.0595    88.6705     0.1198     2.4729   104.3311   -49.0996    22.4390   472.7929
   91.5000     0.2662     7.7649     0.0656    87.6479     0.1207     2.4797   104.5398   -49.0877    22.6028   469.7544
   92.0000     0.2711     7.7816     0.0642    87.3632     0.1261     2.4753   104.7552   -49.3706    22.6105   470.0350
   92.5000     0.2703     7.7837     0.0494    88.2734     0.1331     2.4596   104.6633   -49.6590    22.6182   466.9584
   93.0000     0.2568     7.7855     0.0060    89.1797     0.1386     2.4513   104.1992   -49.6444    22.7832   470.4841
   93.5000     0.2553     7.7724    -0.0059    89.9372     0.1420     2.4454   104.1858   -49.6327    22.7911   470.7089
   94.0000     0.2692     7.7741     0.0003    91.2997     0.1423     2.4449   104.3978   -49.4725    22.7990   467.6622
   94.5000     0.2695     7.7759     0.0304    92.5376     0.1401     2.4487   104.5381   -49.1636    22.6490   467.9072
   95.0000     0.2628     7.7776     0.0575    94.1425     0.1395     2.4503   104.6716   -48.8548    22.6586   464.9001
   95.5000     0.2582     7.7794     0.0697    95.6422     0.1419     2.4436   104.8085   -48.8431    22.6663   465.1222
   96.0000     0.2642     7.7811     0.0648    96.1033     0.1515     2.4332   104.9454   -48.8314    22.6740   462.1248
   96.5000     0.2790     7.7829     0.0359    95.2291     0.1530     2.4288   105.0823   -48.9688    22.6817   468.8019
   97.0000     0.2899     7.7846     0.0146    92.5745     0.1524     2.4259   105.2192   -49.1055    22.5308   472.2852
   97.5000     0.2865     7.7715     0.0027    86.9526     0.1508     2.4282   105.3594   -49.0935    22.6972   475.7962
   98.0000     0.2780     7.7584     0.0029    86.3711     0.1523     2.4253   105.4936   -48.9331    22.7049   472.7365
   98.5000     0.2777     7.7454    -0.0045    86.3911     0.1544     2.4217   105.0288   -48.9212    22.7126   476.2577
   99.0000     0.2783     7.7323    -0.0104    86.4071     0.1541     2.4202   104.6398   -49.0585    22.6754   486.5370
   99.5000     0.2801     7.7493    -0.0087    86.2745     0.1532     2.4233   104.3259   -49.4897    22.4151   496.9880
  100.0000     0.2921     7.7659     0.0094    93.5608     0.1535     2.4242   103.9369   -50.0723    22.2680   487.0020
  100.5000     0.2906     7.7676     0.0245    95.2092     0.1525     2.4243   103.5442   -50.2122    22.4307   477.2166
  101.0000     0.2915     7.7694     0.0232    94.7349     0.1474     2.4298   103.8628   -50.0490    22.4384   461.1959
  101.5000     0.3020     7.7711     0.0173    93.6129     0.1438     2.4410   104.8189   -50.0373    22.2908   445.7129
  102.0000     0.3108     7.7877     0.0144    93.7773     0.1429     2.4418   105.4135   -50.0256    22.1225   427.7771
  102.5000     0.3092     7.8043     0.0221    94.2469     0.1435     2.4397   106.1207   -49.7168    21.9989   410.5630
  103.0000     0.2997     7.8060     0.0376    94.4313     0.1431     2.4412   106.7083   -49.5565    21.8544   402.2655
  103.5000     0.2922     7.7929     0.0493    94.2661     0.1422     2.4451   107.1458   -49.6934    21.7109   402.5058
  104.0000     0.2847     7.7947     0.0525    91.0482     0.1395     2.4497   107.2860   -49.6818    21.7201   399.9100
  104.5000     0.2968     7.7996     0.0369    90.0238     0.1370     2.4528   107.1190   -49.9672    21.7275   402.8904
  105.0000     0.2992     7.8047     0.0326    90.9377     0.1376     2.4522   106.5046   -50.0748    21.5829   405.8823
  105.5000     0.2873     7.8097     0.0433    91.8469     0.1397     2.4478   106.3410   -50.0594    21.5921   408.8994
  106.0000     0.2792     7.8147     0.0555    92.4593     0.1376     2.4479   106.7784   -50.3389    21.7497   414.8031
  106.5000     0.2773     7.8207     0.0556    92.9234     0.1355     2.4540   107.3363   -50.6251    21.7571   424.1775
  107.0000     0.2752     7.8226     0.0528    93.2391     0.1331     2.4578   107.5462   -50.9039    21.7645   432.8611
  107.5000     0.2682     7.8245     0.0323    93.2580     0.1309     2.4625   107.4555   -51.1864    21.7721   436.0772
  108.0000     0.2635     7.8111     0.0157    94.7607     0.1324     2.4585   107.0643   -51.3240    21.7796   439.3171
  108.5000     0.2751     7.8283    -0.0025    98.7855     0.1381     2.4446   106.5229   -51.4579    21.9401   442.5811
