~VERSION INFORMATION
 VERS.                2.0:   CWLS LOG ASCII STANDARD - VERSION 2.0
 WRAP.                 NO:   ONE LINE PER DEPTH STEP
~WELL INFORMATION
#MNEM.UNIT      DATA TYPE    INFORMATION
#----------   ------------   ------------------------------
 STRT.F           66.0000:   START DEPTH
 STOP.F          892.0000:   STOP DEPTH
 STEP.F            0.5000:   STEP LENGTH
 NULL.          -999.2500:   NO VALUE
 COMP. LAWRENCE/ALLISON INC:   COMPANY
 WELL. NPR #3 #31-11 SX 2:   WELL
 FLD .             TEAPOT:   FIELD
 LOC .       S2 T38N R78W:   LOCATION
 CNTY.            NATRONA:   COUNTY
 STAT.            WYOMING:   STATE
 CTRY. UNITED STATES OF AMERICA:   COUNTRY
 SRVC.      Dresser Atlas:   SERVICE COMPANY
 DATE.        10-AUG-1985:   LOGDATE
 API .       490251103900:   API NUMBER
~CURVE INFORMATION
#MNEM.UNIT       API CODE    CURVE DESCRIPTION
#----------   ------------   ------------------------------
 DEPT.F                  :   
 PORD.DEC    45 890 12 00:   POROSITY DENSITY SANDSTONE
 CNC .DEC    42 890 03 00:   NEUTRON POROSITY SANDSTONE
 CORR.G/C3   45 356 01 00:   DENSITY CORRECTION
 DEN .G/C3   45 350 01 00:   COMPENSATED BULK DENSTIY
 CALD.IN     45 280 60 00:   CALIPER FROM DENSITY LOG
 SPR .MV     07 010 01 00:   SPONTANEOUS POTENTIAL
 RILD.OHMM   07 120 46 00:   INDUCTION LOG DEEP RESISTIVITY
 RILM.OHMM   07 120 44 00:   INDUCTION LOG MEDIUM RESISTIVITY
 RFOC.OHMM   07 220 04 00:   RESISTIVITY FOCUSED LOG
~PARAMETER INFORMATION
#MNEM.UNIT          VALUE    DESCRIPTION
#----------   ------------   ------------------------------
 PD  .                 GL:   PERMANENT DATUM
 EPD .F              5110:   ELEVATION PERMANENT DATUM
 LMF .                 GL:   LOG MEASURED FROM
 DMF .                 GL:   DRILLING MEASURED FROM
 EKB .F              5115:   KELLING BUSHING
 EGL .F              5110:   GROUND LEVEL
 DATE.        10-AUG-1985:   RUN DATE
 RUN .                  1:   RUN NUMBER
 DD  .F               899:   DEPTH DRILLER
 DL  .F               895:   DEPTH LOGGER
 BLI .F               892:   BOTTOM LOG INTERVAL
 CS  .IN            8.625:   CASING SIZE
 CBD .F                75:   CASING BOTTOM DRILLER
 CBL .F                78:   CASING BOTTOM LOGGER
 BS  .IN            7.875:   BIT SIZE
 BSD .F               899:   BIT SIZE AT DEPTH
 DFT .                KCL:   DRILLING FLUID TYPE
 MSS .           FLOWLINE:   MUD SAMPLE SOURCE
 RMS .OHMM            .21:   RESISTIVITY MUD SAMPLE
 MST .F                75:   MUD SAMPLE TEMPERATURE
 TCS .HRS            0200:   TIME CURCULATED STOPPED
 MRT .F               100:   MAXIMUM RECORDED TEMPERATURE
 LUN .               6274:   LOGGING UNIT NUMBER
 LUL .               GLTE:   LOGGING UNIT LOCATION
 ENGI.             RAUTIO:   RECORDING ENGINEER
 WITN.        LINDA FIVAS:   WITNESSED BY
 CLNT.            A2DTECH:   CLIENT CODE
 ORIG.           5" PRINT:   ORIGIN OF DATA
 UWI .       490251103900:   UNIQUE WELL ID
 DICO. A2D Technologies, Inc.:   DIGITIZING COMPANY
~OTHER INFORMATION
~A   DEPT     PORD        CNC       CORR        DEN       CALD        SPR       RILD       RILM       RFOC   
# ...
  212.0000     0.1775     0.3646     0.0246     2.3811     8.0893   -52.9501     3.2919     3.2913     4.6648
  212.5000     0.1736     0.3652     0.0230     2.3826     8.0884   -52.9501     3.5344     3.4922     4.5320
  213.0000     0.1696     0.3643     0.0290     2.3841     8.0871   -52.7988     3.7337     3.7571     4.3469
  213.5000     0.1672     0.3574     0.0349     2.3901     8.0861   -52.6475     3.8401     3.8903     4.0831
  214.0000     0.1672     0.3393     0.0379     2.3954     8.0851   -52.6475     3.9221     3.9175     3.9437
  214.5000     0.1699     0.3338     0.0287     2.3991     8.0994   -52.8013     3.9298     3.9175     3.9993
  215.0000     0.1760     0.3480     0.0211     2.3968     8.0830   -52.9753     3.9236     3.6794     3.9968
  215.5000     0.1790     0.3935     0.0195     2.3893     8.0820   -53.4039     3.8973     3.5247     3.9172
  216.0000     0.1847     0.3950     0.0330     2.3818     8.0810   -54.0091     3.8981     3.5043     3.7835
  216.5000     0.1928     0.3884     0.0465     2.3705     8.0799   -54.4629     3.8182     3.5288     3.7055
  217.0000     0.2010     0.3829     0.0585     2.3611     8.0786   -54.7655     3.7399     3.4800     3.6545
  217.5000     0.2139     0.3790     0.0705     2.3351     8.0776   -54.7655     3.6619     3.2458     3.6042
  218.0000     0.2179     0.3787     0.0750     2.3170     8.0766   -54.7655     3.5881     2.9034     3.5765
  218.5000     0.2212     0.3802     0.0507     2.3125     8.0756   -54.7655     3.4903     2.7080     3.4573
  219.0000     0.2269     0.3790     0.0341     2.3109     8.0745   -54.7655     3.3950     2.5612     3.3393
  219.5000     0.2420     0.3705     0.0415     2.2966     8.0735   -54.7655     3.2339     2.4908     3.2029
  220.0000     0.2604     0.3573     0.0475     2.2673     8.0725   -54.6142     3.1237     2.4563     3.0085
  220.5000     0.2507     0.3518     0.0550     2.2439     8.0715   -54.4629     3.0167     2.4563     2.9261
  221.0000     0.2228     0.3488     0.0579     2.2499     8.0702   -54.3116     2.9351     2.5082     2.9732
  221.5000     0.1839     0.3403     0.0609     2.3011     8.0692   -54.1427     3.0187     2.6987     3.2261
  222.0000     0.1556     0.3301     0.0623     2.3545     8.0835   -53.8578     3.2828     3.0063     3.6826
  222.5000     0.1616     0.3261     0.0637     2.4163     8.0822   -53.5552     3.5205     3.2685     4.3526
  223.0000     0.1610     0.3168     0.0576     2.4132     8.0965   -53.8578     3.8019     3.5783     4.7652
  223.5000     0.1574     0.3107     0.0334     2.4094     8.0953   -54.1604     4.0498     3.8903     4.8327
  224.0000     0.1550     0.3077     0.0394     2.4139     8.0942   -54.3116     4.4034     4.2296     4.7659
  224.5000     0.1571     0.3318     0.0559     2.4184     8.0932   -54.3116     4.6569     4.6091     4.7663
  225.0000     0.1604     0.3391     0.0513     2.4184     8.0921   -54.3116     4.8231     4.6955     4.9012
  225.5000     0.1607     0.3340     0.0497     2.4123     8.1063   -54.4629     4.8241     4.7283     5.0050
  226.0000     0.1592     0.3288     0.0511     2.4108     8.1050   -54.7655     4.8588     4.8282     5.1466
  226.5000     0.1582     0.3246     0.0465     2.4153     8.1040   -55.2194     4.8938     4.8959     5.2931
  227.0000     0.1573     0.3318     0.0329     2.4160     8.1029   -55.5219     5.0332     5.1049     5.5185
  227.5000     0.1570     0.3399     0.0117     2.4175     8.1173   -55.9758     5.2863     5.3975     5.6747
  228.0000     0.1567     0.3442     0.0026     2.4183     8.1160   -56.5809     5.6297     5.5889     5.7547
  228.5000     0.1567     0.3342    -0.0081     2.4190     8.1301   -57.0348     5.8714     5.8682     5.9176
  229.0000     0.1582     0.3132    -0.0190     2.4167     8.1290   -57.0348     6.1235     6.1187     6.2135
  229.5000     0.1622     0.3058    -0.0309     2.4115     8.1278   -57.0348     6.2107     6.2479     6.3894
  230.0000     0.1715     0.3329    -0.0369     2.4039     8.1418   -57.0348     6.2555     6.2479     6.2578
  230.5000     0.1705     0.3372    -0.0069     2.3949     8.1408   -57.1861     6.2132     6.2479     6.2148
  231.0000     0.1666     0.3341     0.0293     2.4005     8.1398   -57.3374     6.1713     6.2045     6.1720
  231.5000     0.1621     0.3320     0.0458     2.4091     8.1388   -58.2804     6.1297     6.1615     6.1296
  232.0000     0.1581     0.3492     0.0366     2.4151     8.1528   -58.8502     6.1312     6.0762     6.1301
  232.5000     0.1636     0.3534     0.0124     2.4099     8.1518   -58.3964     6.1324     6.0340     6.0880
  233.0000     0.1666     0.3450    -0.0103     2.4008     8.1507   -57.7912     6.1337     6.0340     6.0885
  233.5000     0.1665     0.3368    -0.0224     2.4000     8.1495   -57.4887     6.1352     6.0340     6.0889
  234.0000     0.1633     0.3326    -0.0225     2.4106     8.1485   -57.3374     6.1794     6.0340     6.0893
  234.5000     0.1542     0.3323    -0.0132     2.4218     8.1324   -57.1861     6.1806     6.0340     6.0898
  235.0000     0.1454     0.3353     0.0151     2.4399     8.1313   -57.1861     6.1386     6.0762     6.0902
  235.5000     0.1375     0.3558     0.0497     2.4519     8.1303   -57.1861     6.1401     6.0762     6.0906
  236.0000     0.1327     0.3556     0.0722     2.4594     8.1293   -57.1861     6.1414     6.0762     6.0487
  236.5000     0.1315     0.3292     0.0782     2.4584     8.1282   -57.1861     6.1429     6.0762     6.0492
  237.0000     0.1351     0.3174     0.0661     2.4488     8.1272   -57.4887     6.1441     6.0340     6.0496
  237.5000     0.1451     0.3192     0.0464     2.4330     8.1259   -57.7912     6.1454     6.0340     5.9664
  238.0000     0.1499     0.3189     0.0312     2.4285     8.1249   -57.9526     6.1466     6.0340     5.9254
  238.5000     0.1493     0.3144     0.0236     2.4300     8.1239   -58.5477     6.0627     6.2916     5.8847
  239.0000     0.1483     0.3083     0.0190     2.4308     8.1229   -59.0015     6.0218     6.2916     5.9263
  239.5000     0.1471     0.3032     0.0219     2.4330     8.1218   -59.0015     6.1506     6.4694     6.1795
  240.0000     0.1468     0.3029     0.0281     2.4284     8.1057   -58.8502     6.2819     6.6987     6.4885
  240.5000     0.1483     0.3032     0.0369     2.4224     8.1047   -58.2451     6.5061     6.8880     6.6722
  241.0000     0.1513     0.3026     0.0247     2.4186     8.0885   -57.9425     6.9773     7.0335     6.6726
  241.5000     0.1559     0.3014     0.0081     2.4118     8.0873   -57.4887     7.0767     7.2323     6.7197
  242.0000     0.1595     0.3002    -0.0056     2.4088     8.0862   -57.1861     7.0781     7.4367     6.7672
  242.5000     0.1616     0.2971    -0.0041     2.4096     8.0852   -57.1861     7.0303     7.6557     6.9105
  243.0000     0.1613     0.2829     0.0158     2.4095     8.0842   -57.0348     7.0321     7.8083     7.0078
  243.5000     0.1609     0.2813     0.0243     2.4103     8.0832   -57.0348     7.1323     7.8629     7.0572
  244.0000     0.1637     0.2874     0.0137     2.4065     8.0821   -57.1861     7.3868     7.9179     7.1567
  244.5000     0.1694     0.2943    -0.0135     2.3974     8.0811   -57.1861     7.3949     7.9179     7.2072
  245.0000     0.1733     0.2992    -0.0168     2.3877     8.0650   -57.2113     7.1333     7.8629     7.0098
  245.5000     0.1769     0.3194    -0.0014     2.3794     8.0637   -57.4887     6.8456     7.8629     6.7705
  246.0000     0.1787     0.3158     0.0089     2.3778     8.0627   -57.4887     6.9920     7.7541     6.7238
  246.5000     0.1796     0.3145    -0.0002     2.3793     8.0616   -57.4887     7.0916     7.1821     6.7244
  247.0000     0.1799     0.3191    -0.0109     2.3733     8.0607   -57.4887     6.3887     6.0340     6.3605
  247.5000     0.1844     0.3396    -0.0170     2.3499     8.0749   -57.1861     4.6045     4.2408     6.4121
  248.0000     0.2022     0.3803    -0.0171     2.2800     8.0737   -56.8835     3.4335     3.2232     7.0127
