~VERSION INFORMATION
 VERS.                2.0:   CWLS LOG ASCII STANDARD - VERSION 2.0
 WRAP.                 NO:   ONE LINE PER DEPTH STEP
~WELL INFORMATION
#MNEM.UNIT      DATA TYPE    INFORMATION
#----------   ------------   ------------------------------
 STRT.F           38.0000:   START DEPTH
 STOP.F          846.0000:   STOP DEPTH
 STEP.F            0.5000:   STEP LENGTH
 NULL.          -999.2500:   NO VALUE
 COMP. FENIX & SCISSON INC:   COMPANY
 WELL.    NPR 3 #34-SX-14:   WELL
 FLD .        TEAPOT DOME:   FIELD
 LOC .      S14 T38N R78W:   LOCATION
 CNTY.            NATRONA:   COUNTY
 STAT.            WYOMING:   STATE
 CTRY. UNITED STATES OF AMERICA:   COUNTRY
 SRVC.           BIRDWELL:   SERVICE COMPANY
 DATE.        26-APR-1978:   LOGDATE
 API .       490251063500:   API NUMBER
~CURVE INFORMATION
#MNEM.UNIT       API CODE    CURVE DESCRIPTION
#----------   ------------   ------------------------------
 DEPT.F                  :   
 NEUT.CPS    81 330 30 00:   NEUTRON
 TT  .US/F   81 520 00 00:   TRANSIT TIME
 GRD .GAPI   45 310 01 00:   GAMMA RAY FROM DENSITY LOG
 RHOB.G/C3   45 350 01 00:   BULK DENSITY
 DPOR.DEC    45 890 10 00:   DENSITY POROSITY
 CALD.IN     45 280 60 00:   CALIPER FROM DENSITY LOG
 CORR.G/C3   45 356 01 00:   DENSITY CORRECTION
~PARAMETER INFORMATION
#MNEM.UNIT          VALUE    DESCRIPTION
#----------   ------------   ------------------------------
 PD  .                 GL:   PERMANENT DATUM
 EPD .F              5232:   ELEVATION PERMANENT DATUM
 LMF .                 KB:   LOG MEASURED FROM
 DMF .                 KB:   DRILLING MEASURED FROM
 EKB .F              5236:   KELLING BUSHING
 EGL .F              5232:   GROUND LEVEL
 DATE.          4-26-1978:   RUN DATE
 RUN .                  1:   RUN NUMBER
 DD  .F               855:   DEPTH DRILLER
 DL  .F               853:   DEPTH LOGGER
 BLI .F               846:   BOTTOM LOG INTERVAL
 TLI .F                40:   TOP LOG INTERVAL
 CS  .IN            8.625:   CASING SIZE
 CBD .F                40:   CASING BOTTOM DRILLER
 CBL .F                40:   CASING BOTTOM LOGGER
 BS  .IN            7.875:   BIT SIZE
 BSD .F               855:   BIT SIZE AT DEPTH
 DFT .                KCL:   DRILLING FLUID TYPE
 DFD .                8.5:   DRILLING FLUID DENSITY
 DFV .                 31:   DRILLING FLUID VISCOSITY
 DFPH.                 10:   DRILLING FLUID PH
 DFL .               10.4:   DRILLING FLUID LOSS
 MSS .          FLUID PIT:   MUD SAMPLE SOURCE
 RMS .OHMM            .36:   RESISTIVITY MUD SAMPLE
 MST .F                68:   MUD SAMPLE TEMPERATURE
 RMF .OHMM            .28:   RESISTIVITY MUD FILTRATE SAMPLE
 MFST.F                74:   MUD FILTRATE SAMPLE TEMPERATURE
 RMC .OHMM            .48:   RESISTIVITY MUD CAKE
 MCST.F                79:   MUD CAKE SAMPLE TEMPERATURE
 MFSS.               MEAS:   MUD FILTRATE SAMPLE SOURCE
 RMB .OHMM            .33:   RESISTIVITY MUD AT BHT
 BHT .F                75:   BOTTOM HOLE TEMPERATURE
 TCS .HRS               1:   TIME CURCULATED STOPPED
 MRT .F                75:   MAXIMUM RECORDED TEMPERATURE
 LUN .               3006:   LOGGING UNIT NUMBER
 LUL .              CASP.:   LOGGING UNIT LOCATION
 ENGI.             MILLER:   RECORDING ENGINEER
 WITN.           MCGINLEY:   WITNESSED BY
 CLNT.            A2DTECH:   CLIENT CODE
 ORIG.      2" , 5" PRINT:   ORIGIN OF DATA
 UWI .       490251063500:   UNIQUE WELL ID
 DICO. A2D Technologies, Inc.:   DIGITIZING COMPANY
~OTHER INFORMATION
~A   DEPT     NEUT         TT         GRD      RHOB       DPOR       CALD       CORR   
# ...
  811.5000  -999.2500  -999.2500   102.6502     2.5202     0.0703     8.3484     0.0635
  812.0000  -999.2500  -999.2500   105.1175     2.5247     0.0697     8.3780     0.0661
  812.5000  -999.2500  -999.2500   105.5052     2.5236     0.0689     8.4043     0.0648
  813.0000  -999.2500  -999.2500   104.6299     2.5217     0.0715     8.4019     0.0628
  813.5000  -999.2500  -999.2500   103.7027     2.5198     0.0725     8.3479     0.0609
  814.0000  -999.2500  -999.2500   102.8242     2.5178     0.0729     8.2905     0.0590
  814.5000  -999.2500  -999.2500   103.5782     2.5159     0.0766     8.3068     0.0571
  815.0000  -999.2500  -999.2500   105.7339     2.5125     0.0786     8.3347     0.0552
  815.5000  -999.2500  -999.2500   100.5352     2.5055     0.0786     8.3617     0.0533
  816.0000  -999.2500  -999.2500   100.6594     2.5033     0.0786     8.3338     0.0522
  816.5000  -999.2500  -999.2500   101.3576     2.5036     0.0786     8.3036     0.0526
  817.0000  -999.2500  -999.2500   102.0053     2.5048     0.0789     8.3082     0.0529
  817.5000  -999.2500  -999.2500   104.1805     2.5061     0.0781     8.3319     0.0532
  818.0000  -999.2500  -999.2500   106.2235     2.5074     0.0772     8.3517     0.0536
  818.5000  -999.2500  -999.2500   105.0265     2.5091     0.0763     8.3706     0.0539
  819.0000  -999.2500  -999.2500   103.7487     2.5125     0.0756     8.3898     0.0549
  819.5000  -999.2500  -999.2500   109.7371     2.5153     0.0754     8.4089     0.0570
  820.0000  -999.2500  -999.2500   107.6784     2.5135     0.0751     8.4231     0.0590
  820.5000  -999.2500  -999.2500   105.1156     2.5140     0.0742     8.4038     0.0611
  821.0000  -999.2500  -999.2500   104.4993     2.5170     0.0717     8.3630     0.0632
  821.5000  -999.2500  -999.2500   104.4926     2.5200     0.0691     8.3225     0.0635
  822.0000  -999.2500  -999.2500   104.4924     2.5230     0.0709     8.2818     0.0625
  822.5000  -999.2500  -999.2500   105.1910     2.5239     0.0733     8.2410     0.0614
  823.0000  -999.2500  -999.2500   106.2953     2.5244     0.0685     8.2000     0.0603
  823.5000  -999.2500  -999.2500   107.1159     2.5245     0.0782     8.1641     0.0593
  824.0000  -999.2500  -999.2500   107.5950     2.5145     0.0858     8.2224     0.0582
  824.5000  -999.2500  -999.2500   109.8533     2.5017     0.0833     8.2884     0.0581
  825.0000  -999.2500  -999.2500   109.8499     2.4968     0.0807     8.3542     0.0597
  825.5000  -999.2500  -999.2500   109.3544     2.5038     0.0781     8.4204     0.0617
  826.0000  -999.2500  -999.2500   110.1557     2.5112     0.0753     8.4421     0.0637
  826.5000  -999.2500  -999.2500   107.7745     2.5185     0.0719     8.4218     0.0658
  827.0000  -999.2500  -999.2500   104.6315     2.5250     0.0685     8.4076     0.0678
  827.5000  -999.2500  -999.2500   102.5031     2.5293     0.0651     8.3785     0.0698
  828.0000  -999.2500  -999.2500   100.6610     2.5337     0.0617     8.3489     0.0718
  828.5000  -999.2500  -999.2500    98.8372     2.5381     0.0597     8.3194     0.0740
  829.0000  -999.2500  -999.2500    97.3292     2.5395     0.0649     8.2899     0.0698
  829.5000  -999.2500  -999.2500    97.0821     2.5355     0.0721     8.2605     0.0645
  830.0000  -999.2500  -999.2500    97.3287     2.5272     0.0723     8.2310     0.0581
  830.5000  -999.2500  -999.2500    99.0456     2.5190     0.0724     8.2014     0.0541
  831.0000  -999.2500  -999.2500   101.1122     2.5146     0.0725     8.1717     0.0549
  831.5000  -999.2500  -999.2500   103.1835     2.5149     0.0761     8.1450     0.0567
  832.0000  -999.2500  -999.2500   105.2555     2.5152     0.0790     8.1664     0.0586
  832.5000  -999.2500  -999.2500   107.3309     2.5155     0.0708     8.1888     0.0605
  833.0000  -999.2500  -999.2500   109.3593     2.5150     0.0743     8.2109     0.0615
  833.5000  -999.2500  -999.2500   110.2722     2.5113     0.0802     8.2331     0.0562
  834.0000  -999.2500  -999.2500   106.4570     2.5076     0.0797     8.2552     0.0538
  834.5000  -999.2500  -999.2500   103.3552     2.5056     0.0785     8.2773     0.0531
  835.0000  -999.2500  -999.2500   102.4922     2.5059     0.0773     8.2996     0.0524
  835.5000  -999.2500  -999.2500   101.4699     2.5063     0.0765     8.3223     0.0549
  836.0000  -999.2500  -999.2500   101.5828     2.5065     0.0795     8.3157     0.0540
  836.5000  -999.2500  -999.2500   101.6904     2.5066     0.0837     8.3008     0.0495
  837.0000  -999.2500  -999.2500   101.6625     2.4981     0.0878     8.2860     0.0424
  837.5000  -999.2500  -999.2500   100.4945     2.4896     0.0920     8.2713     0.0353
  838.0000  -999.2500  -999.2500    99.3119     2.4810     0.0958     8.2634     0.0281
  838.5000  -999.2500  -999.2500    98.4386     2.4731     0.0958     8.2647     0.0243
  839.0000  -999.2500  -999.2500    98.2841     2.4725     0.0989     8.2691     0.0218
  839.5000  -999.2500  -999.2500    99.2398     2.4718     0.1023     8.2734     0.0193
  840.0000  -999.2500  -999.2500   100.4806     2.4628     0.1064     8.2777     0.0169
  840.5000  -999.2500  -999.2500   101.7273     2.4518     0.1133     8.2820     0.0144
  841.0000  -999.2500  -999.2500   102.9806     2.4410     0.1201     8.2820     0.0142
  841.5000  -999.2500  -999.2500   104.3191     2.4311     0.1269     8.2756     0.0145
  842.0000  -999.2500  -999.2500   100.7391     2.4241     0.1338     8.2696     0.0147
  842.5000  -999.2500  -999.2500    94.1162     2.4114     0.1406     8.2645     0.0150
  843.0000  -999.2500  -999.2500    92.9745     2.3971     0.1474     8.2845     0.0152
  843.5000  -999.2500  -999.2500  -999.2500     2.3800     0.1598     8.3138     0.0154
  844.0000  -999.2500  -999.2500  -999.2500     2.3512     0.1822     8.3603     0.0157
  844.5000  -999.2500  -999.2500  -999.2500     2.3231     0.1967     8.3986     0.0159
  845.0000  -999.2500  -999.2500  -999.2500     2.2951     0.2078     8.3983     0.0182
  845.5000  -999.2500  -999.2500  -999.2500     2.2668     0.2116     8.1261     0.0299
  846.0000  -999.2500  -999.2500  -999.2500     2.2566     0.2108     7.6824     0.0469
