~VERSION INFORMATION
 VERS.                2.0:   CWLS LOG ASCII STANDARD - VERSION 2.0
 WRAP.                 NO:   ONE LINE PER DEPTH STEP
~WELL INFORMATION
#MNEM.UNIT      DATA TYPE    INFORMATION
#----------   ------------   ------------------------------
 STRT.F           32.0000:   START DEPTH
 STOP.F          551.0000:   STOP DEPTH
 STEP.F            0.5000:   STEP LENGTH
 NULL.          -999.2500:   NO VALUE
 COMP.    FENIX & SCISSON:   COMPANY
 WELL.   NPR ##3 84-SX-10:   WELL
 FLD .              NPR 3:   FIELD
 LOC .      S10 T38N R78W:   LOCATION
 CNTY.            NATRONA:   COUNTY
 STAT.            WYOMING:   STATE
 CTRY. UNITED STATES OF AMERICA:   COUNTRY
 SRVC.              Welex:   SERVICE COMPANY
 DATE.        25-JAN-1978:   LOGDATE
 API .       490251033700:   API NUMBER
~CURVE INFORMATION
#MNEM.UNIT       API CODE    CURVE DESCRIPTION
#----------   ------------   ------------------------------
 DEPT.F                  :   
 SPR .MV     07 010 01 00:   SPONTANEOUS POTENTIAL FROM RES.
 ILD .OHMM   07 120 46 00:   INDUCTION LOG DEEP
 ILM .OHMM   07 120 44 00:   INDUCTION LOG MEDIUM
 SGRD.OHMM   07 220 05 00:   SHALLOW GUARD RESISTIVITY
 CALD.IN     45 280 60 00:   CALIPER FROM DENSITY LOG
 GRD .GAPI   45 310 01 00:   GAMMA RAY FROM DENSITY LOG
 CORR.G/C3   45 356 01 00:   DENSITY CORRECTION
 RHOB.G/C3   45 350 01 00:   BULK DENSITY
 DPHI.DEC    45 890 12 00:   DENSITY POROSITY SANDSTONE
~PARAMETER INFORMATION
#MNEM.UNIT          VALUE    DESCRIPTION
#----------   ------------   ------------------------------
 CLNT.            A2DTECH:   CLIENT CODE
 ORIG.           5" PRINT:   ORIGIN OF DATA
 UWI .       490251033700:   UNIQUE WELL ID
 DICO. A2D Technologies, Inc.:   DIGITIZING COMPANY
~OTHER INFORMATION
~A   DEPT      SPR        ILD        ILM       SGRD         CALD      GRD       CORR       RHOB       DPHI   
# ...
  214.5000   -45.8394     7.2826     7.4420    11.8421     8.3186   117.7365     0.0521     2.5060     0.0915
  215.0000   -45.6907     7.1760     7.2877    11.5163     8.3183   117.8823     0.0476     2.5083     0.0894
  215.5000   -45.5170     7.0840     7.2362    11.5148     8.3181   118.0292     0.0438     2.5075     0.0909
  216.0000   -45.3933     6.9386     7.1850    11.8376     8.3177   118.4753     0.0401     2.5038     0.0953
  216.5000   -45.2446     6.7492     7.0773    11.7539     8.3174   118.9205     0.0355     2.4947     0.1030
  217.0000   -45.0959     6.5650     6.8900    11.3502     8.3171   119.3665     0.0340     2.4842     0.1087
  217.5000   -44.9474     6.4660     6.7471    10.8121     8.3018   117.5592     0.0340     2.4722     0.1120
  218.0000   -44.7988     6.1687     6.5164    10.2273     8.3165   117.2557     0.0370     2.4677     0.1126
  218.5000   -44.6251     6.0420     6.2936     9.5408     8.3162   119.0521     0.0422     2.4767     0.1084
  219.0000   -44.3512     5.9591     6.1631     8.6568     8.3160   118.7474     0.0460     2.4858     0.1048
  219.5000   -44.2025     5.9181     6.2911     8.0757     8.3156   117.6920     0.0490     2.4985     0.1005
  220.0000   -44.0538     5.9183     6.6484    11.0320     8.3153   117.2372     0.0459     2.5090     0.0976
  220.5000   -44.0556     6.0427     6.8817    11.4997     8.3150   117.8559     0.0444     2.5113     0.0967
  221.0000   -44.0571     6.1698     6.9281    11.1832     8.3147   119.0293     0.0399     2.5060     0.0970
  221.5000   -44.0589     6.3432     7.0235    11.0278     8.3144   120.0760     0.0354     2.4992     0.0985
  222.0000   -44.0603     6.5216     7.0711    11.0264     8.3141   120.6722     0.0287     2.4940     0.1024
  222.5000   -44.0617     6.7515     7.1190    11.2564     8.3138   120.9693     0.0248     2.4872     0.1048
  223.0000   -44.0632     6.8935     7.1672    11.7332     8.3135   120.6636     0.0233     2.4786     0.1084
  223.5000   -44.2148     6.8937     7.2155    11.4107     8.3132   119.5932     0.0218     2.4699     0.1115
  224.0000   -44.5165     6.9900     7.2196    11.3303     8.3129   118.8520     0.0203     2.4632     0.1141
  224.5000   -44.8186     6.9902     7.2631    11.6476     8.3126   118.9989     0.0188     2.4602     0.1156
  225.0000   -44.9702     7.0389     7.3124    11.4853     8.2973   119.2937     0.0195     2.4684     0.1126
  225.5000   -44.9716     6.9906     7.3619    11.4838     8.3045   119.4406     0.0218     2.4692     0.1145
  226.0000   -44.9731     6.9908     7.3658    11.5623     8.3117   119.5864     0.0262     2.4631     0.1154
  226.5000   -44.9745     6.9427     7.2533    11.5608     8.3114   118.5300     0.0382     2.4761     0.1099
  227.0000   -44.8258     6.8474     7.0581    11.4001     8.3111   116.9938     0.0442     2.4940     0.1045
  227.5000   -44.8273     6.7534     6.9598    10.9986     8.3258   116.4181     0.0472     2.5045     0.0990
  228.0000   -44.8291     6.6996     6.8629    10.7816     8.3255   116.7151     0.0487     2.5023     0.0985
  228.5000   -44.9807     6.5693     6.8144    11.0073     8.3253   117.6106     0.0517     2.4977     0.1006
  229.0000   -44.9821     6.5241     6.7161    10.9294     8.3249   118.3570     0.0532     2.4947     0.1021
  229.5000   -45.2838     6.3461     6.4894    10.5556     8.3246   119.4037     0.0562     2.4932     0.1027
  230.0000   -45.2853     6.1729     6.2675    10.2559     8.3243   120.1501     0.0577     2.4925     0.1042
  230.5000   -45.4369     5.9526     6.0114     9.9140     8.3240   118.3440     0.0561     2.4871     0.1051
  231.0000   -45.4387     5.5642     5.7657     9.7086     8.3237   120.4418     0.0456     2.4774     0.1086
  231.5000   -45.5903     5.3379     5.4519     9.5074     8.3234   118.7847     0.0381     2.4647     0.1169
  232.0000   -45.5917     5.1208     5.1590     9.1822     8.3232   116.9785     0.0381     2.4496     0.1259
  232.5000   -45.7433     4.9810     4.9826     7.9477     8.3228   115.9231     0.0381     2.4451     0.1277
  233.0000   -45.8949     4.9467     5.0863     5.8891     8.3225   115.4684     0.0411     2.4481     0.1208
  233.5000   -45.8967     5.0508     5.3012     7.1010     8.3222   117.6034     0.0470     2.4669     0.1109
  234.0000   -45.8981     5.2652     5.5651    10.1834     8.3219   121.0141     0.0530     2.4929     0.0979
  234.5000   -45.8996     5.4887     5.7984    10.2530     8.3366   121.4613     0.0583     2.5271     0.0901
  235.0000   -45.7505     5.6822     6.0853    10.1807     8.3364   119.8043     0.0590     2.5331     0.0793
  235.5000   -45.6021     5.8851     6.3424    10.4655     8.3211   119.9501     0.0590     2.5353     0.0715
  236.0000   -45.4535     6.1324     6.6563    11.0611     8.3207   120.9968     0.0575     2.5376     0.0700
  236.5000   -45.3047     6.3486     6.9386    11.4500     8.3204   123.5450     0.0545     2.5383     0.0700
  237.0000   -45.0059     6.5725     7.1311    11.4485     8.3201   121.4234     0.0514     2.5368     0.0724
  237.5000   -44.8572     6.7572     7.2291    11.1984     8.3198   124.2860     0.0491     2.5323     0.0766
  238.0000   -44.7088     6.9472     7.4308    11.0554     8.3195   126.9843     0.0484     2.5231     0.0820
  238.5000   -44.7103     7.0933     7.5335    11.8475     8.3192   129.0821     0.0484     2.5150     0.0853
  239.0000   -44.7117     7.1924     7.5319    11.9284     8.3190   128.4771     0.0469     2.5113     0.0869
  239.5000   -44.7132     7.2929     7.5303    11.9269     8.3186   126.9713     0.0469     2.5105     0.0877
  240.0000   -44.7150     7.2931     7.5816    12.0084     8.3183   127.8679     0.0453     2.5105     0.0881
  240.5000   -44.7164     7.3440     7.5800    12.0904     8.3180   127.1951     0.0453     2.5105     0.0887
  241.0000   -44.5673     7.4467     7.6317    12.2577     8.3177   126.2064     0.0400     2.5068     0.0926
  241.5000   -44.4186     7.4986     7.6831    12.4273     8.3174   125.4514     0.0333     2.5015     0.0947
  242.0000   -44.4204     7.4988     7.7352    12.4253     8.3171   124.3960     0.0288     2.4947     0.0980
  242.5000   -44.4219     7.5511     7.7876    12.4237     8.3169   123.0403     0.0273     2.4842     0.0998
  243.0000   -44.4237     7.6038     7.8945    12.4217     8.3165   125.2882     0.0347     2.4820     0.1007
  243.5000   -44.4251     7.6569     8.0032    12.4201     8.3162   125.4340     0.0407     2.4947     0.0992
  244.0000   -44.2760     7.6571     8.0575    12.7679     8.3159   123.9271     0.0437     2.5008     0.0965
  244.5000   -44.2778     7.6573     8.1121    13.1254     8.3156   122.4212     0.0407     2.5030     0.0944
  245.0000   -44.2793     7.6575     8.1670    13.3070     8.3153   121.0655     0.0392     2.5030     0.0935
  245.5000   -44.2811     7.6577     8.2224    12.9408     8.3150   118.8089     0.0347     2.5014     0.0941
  246.0000   -44.2825     7.7112     8.2781    12.8497     8.3148   116.8526     0.0317     2.5000     0.0944
  246.5000   -44.2840     7.7114     8.2763    13.1186     8.3144   116.9984     0.0286     2.4992     0.0944
  247.0000   -44.2854     7.7116     8.2091    13.1165     8.3141   119.1111     0.0286     2.4992     0.0944
  247.5000   -44.2868     7.7118     8.0471    12.9342     8.3138   118.1899     0.0286     2.5030     0.0944
  248.0000   -44.2883     7.7120     7.9351    12.9321     8.3135   117.8863     0.0316     2.5105     0.0923
  248.5000   -44.2898     7.7123     7.9337    12.9304     8.3282   118.9319     0.0331     2.5120     0.0884
  249.0000   -44.4417     7.7125     7.8776    12.9288     8.3280   121.6303     0.0331     2.5120     0.0869
  249.5000   -44.4431     7.7127     7.8219    12.8378     8.3277   123.7281     0.0330     2.5113     0.0869
  250.0000   -44.6198     7.6324     7.7666    12.4849     8.3273   124.7748     0.0315     2.5111     0.0884
  250.5000   -44.7495     7.4795     7.7967    12.0529     8.3265   121.3921     0.0263     2.5087     0.0878
