~VERSION INFORMATION
 VERS.                2.0:   CWLS LOG ASCII STANDARD - VERSION 2.0
 WRAP.                 NO:   ONE LINE PER DEPTH STEP
~WELL INFORMATION
#MNEM.UNIT      DATA TYPE    INFORMATION
#----------   ------------   ------------------------------
 STRT.F           22.0000:   START DEPTH
 STOP.F          564.0000:   STOP DEPTH
 STEP.F            0.5000:   STEP LENGTH
 NULL.          -999.2500:   NO VALUE
 COMP.    FENIX & SCISSON:   COMPANY
 WELL. NPR # #3 12 - SX 11:   WELL
 FLD .             TEAPOT:   FIELD
 LOC .      S11 T38N R78W:   LOCATION
 CNTY.            NATRONA:   COUNTY
 STAT.            WYOMING:   STATE
 CTRY. UNITED STATES OF AMERICA:   COUNTRY
 SRVC.           BIRDWELL:   SERVICE COMPANY
 DATE.        29-NOV-1978:   LOGDATE
 API .       490251075500:   API NUMBER
~CURVE INFORMATION
#MNEM.UNIT       API CODE    CURVE DESCRIPTION
#----------   ------------   ------------------------------
 DEPT.F                  :   
 ILD .OHMM   05 120 46 00:   INDUCTION LOG DEEP
 SN  .OHMM   05 040 00 00:   SHORT NORMAL
 SPR .MV     05 010 01 00:   SPONTANEOUS POTENTIAL FROM RES.
 CALD.IN     45 280 60 00:   CALIPER FROM DENSITY LOG
 CORR.G/C3   45 356 01 00:   DENSITY CORRECTION
 DPHI.DEC    45 890 12 00:   DENSITY POROSITY SANDSTONE
 GRD .GAPI   45 310 01 00:   GAMMA RAY FROM DENSITY LOG
 RHOB.G/C3   45 350 01 00:   BULK DENSITY
~PARAMETER INFORMATION
#MNEM.UNIT          VALUE    DESCRIPTION
#----------   ------------   ------------------------------
 PD  .                 GL:   PERMANENT DATUM
 EPD .F              5143:   ELEVATION PERMANENT DATUM
 LMF .                 KB:   LOG MEASURED FROM
 DAPD.F                 4:   FEET ABOVE PERMANENT DATUM
 DMF .                 KB:   DRILLING MEASURED FROM
 EKB .F              5147:   KELLING BUSHING
 EGL .F              5143:   GROUND LEVEL
 DATE.        29-NOV-1978:   RUN DATE
 RUN .                  1:   RUN NUMBER
 DD  .F               562:   DEPTH DRILLER
 DL  .F               564:   DEPTH LOGGER
 BLI .F               564:   BOTTOM LOG INTERVAL
 TLI .F                30:   TOP LOG INTERVAL
 CS  .IN            8.625:   CASING SIZE
 CBL .F                48:   CASING BOTTOM LOGGER
 BS  .IN            7.875:   BIT SIZE
 BSD .F               562:   BIT SIZE AT DEPTH
 DFT .                KCL:   DRILLING FLUID TYPE
 DFD .                8.7:   DRILLING FLUID DENSITY
 DFV .                 36:   DRILLING FLUID VISCOSITY
 DFPH.               10.9:   DRILLING FLUID PH
 DFL .                 12:   DRILLING FLUID LOSS
 MSS .           FLOWLINE:   MUD SAMPLE SOURCE
 RMS .OHMM           0.34:   RESISTIVITY MUD SAMPLE
 MST .F                56:   MUD SAMPLE TEMPERATURE
 RMF .OHMM           0.32:   RESISTIVITY MUD FILTRATE SAMPLE
 MFST.F                59:   MUD FILTRATE SAMPLE TEMPERATURE
 RMC .OHMM            0.4:   RESISTIVITY MUD CAKE
 MCST.F                59:   MUD CAKE SAMPLE TEMPERATURE
 MFSS.               MEAS:   MUD FILTRATE SAMPLE SOURCE
 MCSS.               MEAS:   MUD CAKE SAMPLE SOURCE
 RMB .OHMM           0.33:   RESISTIVITY MUD AT BHT
 BHT .F                59:   BOTTOM HOLE TEMPERATURE
 TCS .HRS               1:   TIME CURCULATED STOPPED
 MRT .F                59:   MAXIMUM RECORDED TEMPERATURE
 LUN .               2958:   LOGGING UNIT NUMBER
 LUL .               CASP:   LOGGING UNIT LOCATION
 ENGI.             MILLER:   RECORDING ENGINEER
 WITN.           DINSMORE:   WITNESSED BY
 CLNT.            A2DTECH:   CLIENT CODE
 ORIG.           5" PRINT:   ORIGIN OF DATA
 UWI .       490251075500:   UNIQUE WELL ID
 DICO. A2D Technologies, Inc.:   DIGITIZING COMPANY
~OTHER INFORMATION
~A   DEPT      ILD         SN        SPR       CALD       CORR       DPHI         GRD      RHOB   
# ...
   62.5000     7.2084     8.4632   -14.1023     8.1717     0.0071     0.1671   104.0602     2.4065
   63.0000     7.1591     8.4578   -14.0994     8.1573     0.0041     0.1656   103.6090     2.4103
   63.5000     7.1102     8.3466   -14.2473     8.1127     0.0071     0.1638   103.7594     2.4141
   64.0000     7.0615     8.2317   -15.3001     8.1133     0.0071     0.1644   103.7594     2.4088
   64.5000     7.0132     8.2317   -15.5988     8.1440     0.0071     0.1770   103.9098     2.4013
   65.0000     6.9654     8.2317   -15.5958     8.2048     0.0056     0.1779   104.3609     2.3961
   65.5000     6.9176     8.1748   -15.5922     8.2658     0.0055     0.1767   105.5639     2.3939
   66.0000     6.8230     8.2317   -15.8916     8.2813     0.0070     0.1680   109.3233     2.4014
   66.5000     6.8235     8.2317   -16.1903     8.2669     0.0130     0.1599   107.9699     2.4172
   67.0000     6.8239     8.2317   -16.1867     8.2997     0.0250     0.1478   103.6090     2.4254
   67.5000     6.8244     8.1748   -16.4854     8.3640     0.0430     0.1373   101.8045     2.4352
   68.0000     6.8723     8.1733   -17.2366     8.3891     0.0415     0.1418    98.3459     2.4562
   68.5000     6.8728     8.1183   -18.1386     8.2994     0.0370     0.1481    99.1248     2.4458
   69.0000     6.8733     8.1183   -18.5882     8.2849     0.0355     0.1556   102.7007     2.4360
   69.5000     6.9215     8.0622   -18.5852     8.2704     0.0354     0.1589   109.5069     2.4284
   70.0000     6.9221     8.0622   -18.2805     8.2862     0.0369     0.1592   113.0827     2.4239
   70.5000     6.9226     8.0064   -17.6742     8.3019     0.0414     0.1589   112.7820     2.4216
   71.0000     6.9712     7.8962   -16.9165     8.2272     0.0474     0.1580   112.3308     2.4211
   71.5000     7.0201     7.7874   -17.0651     8.1523     0.0520     0.1577   111.5789     2.4241
   72.0000     7.0206     7.6801   -17.2130     8.2284     0.0517     0.1580   109.9248     2.4248
   72.5000     7.0699     7.6270   -17.3609     8.2742     0.0459     0.1577   109.7744     2.4249
   73.0000     7.1196     7.5743   -17.0555     8.2445     0.0413     0.1555   108.4211     2.4241
   73.5000     7.1200     7.5715   -16.6001     8.2151     0.0368     0.1531   104.5113     2.4256
   74.0000     7.1205     7.5220   -15.8430     8.0802     0.0353     0.1520   103.0075     2.4302
   74.5000     7.1210     7.5743   -16.2925     8.0505     0.0338     0.1532   102.8571     2.4339
   75.0000     7.1710     7.6270   -16.7421     8.0663     0.0293     0.1541   103.0075     2.4317
   75.5000     7.1716     7.6801   -17.3425     8.1121     0.0218     0.1543   103.4586     2.4294
   76.0000     7.2220     7.8416   -17.7920     8.1729     0.0172     0.1549   104.3609     2.4287
   76.5000     7.2225     8.0064   -17.9391     8.2639     0.0157     0.1528   108.7218     2.4287
   77.0000     7.2230     8.0622   -17.9362     8.2645     0.0157     0.1507   112.7820     2.4317
   77.5000     7.3243     8.1183   -17.9332     8.2651     0.0127     0.1543   114.1353     2.4333
   78.0000     7.4270     8.1183   -18.0819     8.2506     0.0097     0.1585   112.4812     2.4265
   78.5000     7.4792     8.1183   -18.2290     8.2512     0.0051     0.1615   112.3298     2.4212
   79.0000     7.6368     8.2936   -18.2261     8.2491     0.0036     0.1648   112.7820     2.4160
   79.5000     7.7439     8.4837   -18.0723     8.2373     0.0068     0.1639   112.9454     2.4168
   80.0000     7.8525     8.7619   -17.9185     8.2381     0.0160     0.1609   113.0827     2.4198
   80.5000     7.9627     8.7619   -17.7647     8.2537     0.0276     0.1594   113.2331     2.4198
   81.0000     7.9633     8.7013   -17.7436     8.2543     0.0336     0.1579   111.8797     2.4221
   81.5000     7.9639     8.7013   -17.3056     8.2549     0.0486     0.1520   110.8271     2.4274
   82.0000     8.0755     8.5814   -16.6993     8.2404     0.0561     0.1290   110.9774     2.4514
   82.5000     7.9648     8.6412   -15.4898     8.1657     0.0546     0.1242   104.3609     2.4755
   83.0000     7.9105     8.7013   -15.7892     7.9555     0.0501     0.1311   103.7594     2.4777
   83.5000     7.8563     8.7619   -16.3888     7.8806     0.0395     0.1380   105.4135     2.4620
   84.0000     7.7486     8.8228   -16.9899     8.0169     0.0320     0.1440   109.9248     2.4515
   84.5000     7.8575     8.8842   -17.1378     8.1982     0.0230     0.1458   115.0376     2.4470
   85.0000     7.9677     8.9461   -16.9833     8.2290     0.0215     0.1452   112.9323     2.4455
   85.5000     8.0826     8.9461   -16.9804     8.2296     0.0215     0.1434   110.2256     2.4455
   86.0000     8.2011     8.9461   -16.9774     8.2302     0.0229     0.1425   111.1278     2.4485
   86.5000     8.3078     9.0083   -16.9744     8.2157     0.0229     0.1410   111.4286     2.4500
   87.0000     8.4829     9.0710   -17.1223     8.2012     0.0214     0.1398   111.7293     2.4538
   87.5000     8.6019     9.2617   -17.1187     8.2018     0.0183     0.1422   111.1278     2.4531
   88.0000     8.7225     9.4565   -17.1157     8.2024     0.0152     0.1466   109.3233     2.4455
   88.5000     8.8449     9.4565   -17.2643     8.2030     0.0124     0.1531   101.8045     2.4349
   89.0000     9.0313     9.5223   -17.2607     8.2036     0.0108     0.1536   102.1053     2.4336
   89.5000     9.0947     9.5223   -17.2577     8.2193     0.0093     0.1524   105.8827     2.4336
   90.0000     9.2864     9.5311   -17.2548     8.2349     0.0108     0.1506   112.6617     2.4344
   90.5000     9.3516     9.5223   -17.2518     8.2355     0.0108     0.1470   112.5805     2.4367
   91.0000     9.5487     9.5223   -17.2489     8.2513     0.0108     0.1421   111.0556     2.4450
   91.5000     9.6158     9.5223   -17.0950     8.2519     0.0123     0.1394   108.5714     2.4532
   92.0000     9.6835     9.5885   -17.2430     8.2525     0.0123     0.1469   107.3684     2.4507
   92.5000     9.7515     9.5885   -17.5417     8.2531     0.0122     0.1496   107.9699     2.4397
   93.0000     9.6846     9.5223   -17.5380     8.2537     0.0122     0.1505   104.6617     2.4367
   93.5000     9.6186     9.5223   -17.3842     8.2844     0.0137     0.1511   102.2556     2.4367
   94.0000     9.6192     9.5223   -17.5328     8.3001     0.0152     0.1499   100.1504     2.4368
   94.5000     9.5533     9.5223   -17.5291     8.3007     0.0152     0.1478    99.8496     2.4383
   95.0000     9.4879     9.4565   -17.5262     8.2710     0.0167     0.1454   101.6541     2.4450
   95.5000     9.3581     9.3807   -17.5233     8.2567     0.0167     0.1418   105.2632     2.4503
   96.0000     9.2941     9.2617   -17.2186     8.2573     0.0181     0.1442   109.1729     2.4481
   96.5000     9.1012     9.1977   -17.0649     8.2427     0.0166     0.1466   113.5338     2.4466
   97.0000     8.9710     9.0710   -17.0618     8.2434     0.0151     0.1469   109.7744     2.4444
   97.5000     8.8558     8.9461   -17.5107     8.2591     0.0136     0.1457   107.9699     2.4429
   98.0000     8.7953     8.9461   -17.6593     8.3048     0.0136     0.1445   106.9173     2.4474
   98.5000     8.7960     8.8842   -17.8072     8.3054     0.0151     0.1445   106.4662     2.4474
   99.0000     8.6755     8.8228   -17.8035     8.2910     0.0150     0.1469   106.4662     2.4459
   99.5000     8.6761     8.7619   -17.9514     8.2765     0.0150     0.1481   107.8195     2.4444
  100.0000     8.5570     8.5810   -18.1000     8.2771     0.0120     0.1477   110.0752     2.4437
  100.5000     8.6156     8.5787   -18.2479     8.3072     0.0105     0.1477   109.9880     2.4430
  101.0000     8.6142     8.6968   -18.3950     8.3072     0.0105     0.1480   108.6226     2.4430
  101.5000     8.6732     8.8152   -18.3921     8.3072     0.0120     0.1477   110.3806     2.4430
  102.0000     8.6717     8.8128   -18.2383     8.3072     0.0195     0.1471   111.9633     2.4445
  102.5000     8.7915     8.9335   -17.9336     8.3072     0.0256     0.1456   112.6316     2.4460
