~VERSION INFORMATION
 VERS.                2.0:   CWLS LOG ASCII STANDARD - VERSION 2.0
 WRAP.                 NO:   ONE LINE PER DEPTH STEP
~WELL INFORMATION
#MNEM.UNIT      DATA TYPE    INFORMATION
#----------   ------------   ------------------------------
 STRT.F          748.0000:   START DEPTH
 STOP.F         2238.0000:   STOP DEPTH
 STEP.F            0.5000:   STEP LENGTH
 NULL.          -999.2500:   NO VALUE
 COMP. LAWRENCE/ALLISON INC:   COMPANY
 WELL. NPR 3 #36-2-SHX-10:   WELL
 FLD .             TEAPOT:   FIELD
 LOC .      S10 T38N R78W:   LOCATION
 CNTY.            NATRONA:   COUNTY
 STAT.            WYOMING:   STATE
 CTRY. UNITED STATES OF AMERICA:   COUNTRY
 SRVC.            Unknown:   SERVICE COMPANY
 DATE.        02-JUN-1984:   LOGDATE
 API .       490256012900:   API NUMBER
~CURVE INFORMATION
#MNEM.UNIT       API CODE    CURVE DESCRIPTION
#----------   ------------   ------------------------------
 DEPT.F                  :   
 ROP .MIN/FT 91 810 01 00:   RATE OF DRILLING PENETRATION
 TGAS.UNITS  91 830 01 00:   TOTAL GAS FROM HOTWIRE
~PARAMETER INFORMATION
#MNEM.UNIT          VALUE    DESCRIPTION
#----------   ------------   ------------------------------
 EKB .F              5223:   KELLING BUSHING
 EGL .F              5213:   GROUND LEVEL
 DATE.             6-2-84:   RUN DATE
 DD  .F              2238:   DEPTH DRILLER
 BLI .F              2238:   BOTTOM LOG INTERVAL
 TLI .F               740:   TOP LOG INTERVAL
 CS  .IN            8.625:   CASING SIZE
 CBD .F               717:   CASING BOTTOM DRILLER
 LUN .               T-83:   LOGGING UNIT NUMBER
 ENGI.            JOHNSON:   RECORDING ENGINEER
 WITN.           SCHERGER:   WITNESSED BY
 CLNT.            A2DTECH:   CLIENT CODE
 ORIG.           5" PRINT:   ORIGIN OF DATA
 UWI .       490256012900:   UNIQUE WELL ID
 DICO. A2D Technologies, Inc.:   DIGITIZING COMPANY
~OTHER INFORMATION
~A   DEPT        ROP     TGAS   
  748.0000     1.5025  -999.2500
  748.5000     1.6655  -999.2500
  749.0000     1.7879  -999.2500
  749.5000     1.9712  -999.2500
  750.0000     2.0732  -999.2500
  750.5000     2.1549  -999.2500
  751.0000     2.2366  -999.2500
  751.5000     2.2980  -999.2500
  752.0000     2.3594  -999.2500
  752.5000     2.4005  -999.2500
  753.0000     2.4618  -999.2500
  753.5000     2.5436  -999.2500
  754.0000     2.5846  -999.2500
  754.5000     2.6256  -999.2500
  755.0000     2.4635  -999.2500
  755.5000     2.3622  -999.2500
  756.0000     2.1391  -999.2500
  756.5000     1.9566  -999.2500
  757.0000     1.7334  -999.2500
  757.5000     1.5102  -999.2500
  758.0000     1.4089  -999.2500
  758.5000     1.3890  -999.2500
  759.0000     1.4098  -999.2500
  759.5000     1.4915  -999.2500
  760.0000     1.6545  -999.2500
  760.5000     1.8379  -999.2500
  761.0000     1.9805     5.9623
  761.5000     2.2045    24.1398
  762.0000     2.3066    42.3173
  762.5000     1.9953    60.4948
  763.0000     1.5460    54.2475
  763.5000     1.0967    22.9718
  764.0000     0.6821     0.0000
  764.5000     0.6882     0.0000
  765.0000     0.6939     0.0000
  765.5000     0.6995     0.0000
  766.0000     0.7245     0.0000
  766.5000     0.8671     0.0000
  767.0000     1.0911     0.0000
  767.5000     1.1932     0.0000
  768.0000     1.3155     0.0000
  768.5000     1.3566     0.0000
  769.0000     1.4179     0.0000
  769.5000     1.4184     0.0000
  770.0000     1.3781     0.0000
  770.5000     1.3378     0.0000
  771.0000     1.2772     0.0000
  771.5000     1.2370     0.0000
  772.0000     1.1764     0.0000
  772.5000     1.1768     0.0000
  773.0000     1.1689     0.0000
  773.5000     1.1612     0.0000
  774.0000     1.1536     0.0000
  774.5000     1.1460     0.0000
  775.0000     1.1384     0.0000
  775.5000     1.1307     0.0000
  776.0000     1.1231     0.0000
  776.5000     1.1155     0.0000
  777.0000     1.1079     0.0000
  777.5000     1.0996     0.0000
  778.0000     1.1001     0.0000
  778.5000     1.2021     0.0000
  779.0000     1.3244     0.0000
  779.5000     1.3655     0.0000
  780.0000     1.3862     0.0000
  780.5000     1.3459     0.0000
  781.0000     1.2853     0.0000
  781.5000     1.2045     0.0000
  782.0000     1.1845     0.0000
  782.5000     1.2053     0.0000
  783.0000     1.2667     0.0000
  783.5000     1.3281     0.0000
  784.0000     1.4302     0.0000
  784.5000     1.5322     0.0000
  785.0000     1.6749     0.0000
  785.5000     1.7362     0.0000
  786.0000     1.7367     0.0000
  786.5000     1.6760     0.0000
  787.0000     1.5138     0.0000
  787.5000     1.1891     0.0000
  788.0000     1.1081     0.0000
  788.5000     1.2482     0.0000
  789.0000     1.4101     0.0000
  789.5000     1.5719     0.0000
  790.0000     1.7195     0.0000
  790.5000     1.4186     0.0000
  791.0000     1.1422     0.0000
  791.5000     0.8658     0.0000
  792.0000     0.5423     1.1441
  792.5000     0.5425    10.0361
  793.0000     0.5427    18.9281
  793.5000     0.5429    27.8201
  794.0000     0.5431    14.4238
  794.5000     0.5433     0.0000
  795.0000     0.5435     0.0000
  795.5000     0.5437     0.0000
  796.0000     0.5439     0.0000
  796.5000     0.5441     0.0000
  797.0000     0.5444     0.0000
  797.5000     0.5446     0.0000
  798.0000     0.5448     0.0000
  798.5000     0.5450     0.0000
  799.0000     0.5452     0.0000
  799.5000     0.5454     0.0000
  800.0000     0.5456     0.0000
  800.5000     0.5458     0.0000
  801.0000     0.5460     0.0000
  801.5000     0.5462     0.0000
  802.0000     0.5464     0.0000
  802.5000     0.5466     0.0000
  803.0000     0.5468     0.0000
  803.5000     0.5470     0.0000
  804.0000     0.5472     0.0000
  804.5000     0.5474     0.0000
  805.0000     0.5476     0.0000
  805.5000     0.5478     0.0000
  806.0000     0.5480     0.0000
  806.5000     0.5482     0.0000
  807.0000     0.5484     0.0000
  807.5000     0.5486     0.0000
  808.0000     0.5488     0.0000
  808.5000     0.5490     0.0000
  809.0000     0.5492     0.0000
  809.5000     0.5495     0.0000
  810.0000     0.5497     0.0000
  810.5000     0.5499     0.0000
  811.0000     0.5501     0.0000
  811.5000     0.5503     0.0000
  812.0000     0.5505     0.0000
  812.5000     0.5507     0.0000
  813.0000     0.5509     0.0000
  813.5000     0.5511     0.0000
  814.0000     0.5513     0.0000
  814.5000     0.5515     0.0000
  815.0000     0.5517     0.0000
  815.5000     0.5519     0.0000
  816.0000     0.5521     0.0000
  816.5000     0.5523     0.0000
  817.0000     0.5525     0.0000
  817.5000     0.5527     0.0000
  818.0000     0.5529     0.0000
  818.5000     0.5531     0.0000
  819.0000     0.5533     0.0000
  819.5000     0.5535     0.0000
  820.0000     0.5537     0.0000
  820.5000     0.5539     0.0000
  821.0000     0.5541     0.0000
  821.5000     0.5543     0.0000
  822.0000     0.5545     0.0000
  822.5000     0.5548     0.0000
  823.0000     0.5550     0.0000
  823.5000     0.5552     0.0000
  824.0000     0.5554     3.2816
  824.5000     0.5556    15.1506
  825.0000     0.5558    27.0195
  825.5000     0.5560    38.8884
  826.0000     0.5562    24.5669
  826.5000     0.5564     0.0000
  827.0000     0.5566     0.0000
  827.5000     0.5568     0.0000
  828.0000     0.5570     0.0000
  828.5000     0.5572     0.0000
  829.0000     0.5574     0.0000
  829.5000     0.5576     0.0000
  830.0000     0.5578     0.0000
  830.5000     0.5580     0.0000
  831.0000     0.5582     0.0000
  831.5000     0.5584     0.0000
  832.0000     0.5586     0.0000
  832.5000     0.5588     0.0000
  833.0000     0.5590     0.0000
  833.5000     0.5592     0.0000
  834.0000     0.5594     0.0000
  834.5000     0.5596     0.0000
  835.0000     0.5599     0.0000
  835.5000     0.5601     0.0000
  836.0000     0.5603     0.0000
  836.5000     0.5605     0.0000
  837.0000     0.5607     0.0000
  837.5000     0.5609     0.0000
  838.0000     0.5611     0.0000
  838.5000     0.5613     0.0000
  839.0000     0.5615     0.0000
  839.5000     0.5617     0.0000
  840.0000     0.5619     0.0000
  840.5000     0.5621     0.0000
  841.0000     0.5623     0.0000
  841.5000     0.5625     0.0000
  842.0000     0.5627     0.0000
  842.5000     0.5628     0.0000
  843.0000     0.5627     0.0000
  843.5000     0.5625     0.0000
  844.0000     0.5624     0.0000
  844.5000     0.5623     0.0000
  845.0000     0.5622     0.0000
  845.5000     0.5621     0.0000
  846.0000     0.5620     0.0000
  846.5000     0.5619     0.0000
  847.0000     0.5617     0.0000
  847.5000     0.5616     0.0000
  848.0000     0.5615     0.0000
  848.5000     0.5614     0.0000
  849.0000     0.5613     0.0000
  849.5000     0.5612     0.0000
  850.0000     0.5611     0.0000
  850.5000     0.5609     0.0000
  851.0000     0.5608     0.0000
  851.5000     0.5607     0.0000
  852.0000     0.5606     0.0000
  852.5000     0.5605     0.0000
  853.0000     0.5604     0.0000
  853.5000     0.5603     0.0000
  854.0000     0.5601     0.0000
  854.5000     0.5600     0.0000
  855.0000     0.5599     0.0000
  855.5000     0.5598     8.0949
  856.0000     0.5597    18.3981
  856.5000     0.5596    28.8809
  857.0000     0.5595    35.0478
  857.5000     0.5593    25.5849
  858.0000     0.5592    10.8747
  858.5000     0.5591     0.0000
  859.0000     0.5590     0.0000
  859.5000     0.5589     0.0000
  860.0000     0.5588     0.0000
  860.5000     0.5587     0.0000
  861.0000     0.5585     0.0000
  861.5000     0.5584     0.0000
  862.0000     0.5583     0.0000
  862.5000     0.5582     0.0000
  863.0000     0.5581     0.0000
  863.5000     0.5580     0.0000
  864.0000     0.5579     0.0002
  864.5000     0.5578     0.0018
  865.0000     0.5576     0.0033
  865.5000     0.5575     0.0048
  866.0000     0.5574     0.0064
  866.5000     0.5573     0.0079
  867.0000     0.5572     0.0094
  867.5000     0.5571     0.0110
  868.0000     0.5570     0.0125
  868.5000     0.5568     0.0140
  869.0000     0.5567     0.0156
