~VERSION INFORMATION
 VERS.                2.0:   CWLS LOG ASCII STANDARD - VERSION 2.0
 WRAP.                 NO:   ONE LINE PER DEPTH STEP
~WELL INFORMATION
#MNEM.UNIT      DATA TYPE    INFORMATION
#----------   ------------   ------------------------------
 STRT.F           32.0000:   START DEPTH
 STOP.F          501.0000:   STOP DEPTH
 STEP.F            0.5000:   STEP LENGTH
 NULL.          -999.2500:   NO VALUE
 COMP.    FENIX & SCISSON:   COMPANY
 WELL.    NPR "SX" #75-10:   WELL
 FLD .             TEAPOT:   FIELD
 LOC .      S10 T38N R78W:   LOCATION
 CNTY.            NATRONA:   COUNTY
 STAT.            WYOMING:   STATE
 CTRY. UNITED STATES OF AMERICA:   COUNTRY
 SRVC.              Welex:   SERVICE COMPANY
 DATE.        08-MAR-1977:   LOGDATE
 API .       490251029200:   API NUMBER
~CURVE INFORMATION
#MNEM.UNIT       API CODE    CURVE DESCRIPTION
#----------   ------------   ------------------------------
 DEPT.F                  :   
 SPR .MV     07 010 01 00:   SPONTANEOUS POTENTIAL
 ILD .OHMM   07 120 46 00:   INDUCTION LOG DEEP
 ILM .OHMM   07 120 44 00:   INDUCTION LOG MEDIUM
 SGRD.OHMM   07 221 05 00:   SHALLOW SHORT GUARD RESISTIVITY
 GRD .GAPI   45 310 01 00:   GAMMA RAY FROM DENSITY LOG
 CALD.IN     45 280 60 00:   CALIPER FROM DENSITY LOG
 CORR.G/C3   45 356 01 00:   DENSITY CORRECTION
 RHOB.G/C3   45 350 01 00:   BULK DENSITY
 DPHI.DEC    45 890 12 00:   DENSITY POROSITY SANDSTONE
~PARAMETER INFORMATION
#MNEM.UNIT          VALUE    DESCRIPTION
#----------   ------------   ------------------------------
 PD  .                 GL:   PERMANENT DATUM
 EPD .F              5184:   ELEVATION PERMANENT DATUM
 LMF .                 GL:   LOG MEASURED FROM
 DAPD.F                GL:   FEET ABOVE PERMANENT DATUM
 EGL .F              5184:   GROUND LEVEL
 DATE.          03-8-1977:   RUN DATE
 RUN .                  1:   RUN NUMBER
 DD  .F               510:   DEPTH DRILLER
 DL  .F               505:   DEPTH LOGGER
 BLI .F               503:   BOTTOM LOG INTERVAL
 TLI .F                35:   TOP LOG INTERVAL
 CS  .IN            8.625:   CASING SIZE
 CBD .F                42:   CASING BOTTOM DRILLER
 CBL .F                43:   CASING BOTTOM LOGGER
 BS  .IN            7.875:   BIT SIZE
 BSD .F               510:   BIT SIZE AT DEPTH
 DFT .            KCL MUD:   DRILLING FLUID TYPE
 DFD .                8.6:   DRILLING FLUID DENSITY
 DFV .                 36:   DRILLING FLUID VISCOSITY
 DFPH.                9.5:   DRILLING FLUID PH
 DFL .                  2:   DRILLING FLUID LOSS
 MSS .           FLOWLINE:   MUD SAMPLE SOURCE
 RMS .OHMM            .49:   RESISTIVITY MUD SAMPLE
 MST .F                56:   MUD SAMPLE TEMPERATURE
 RMF .OHMM            .42:   RESISTIVITY MUD FILTRATE SAMPLE
 MFST.F                56:   MUD FILTRATE SAMPLE TEMPERATURE
 RMC .OHMM            .62:   RESISTIVITY MUD CAKE
 MCST.F                56:   MUD CAKE SAMPLE TEMPERATURE
 MFSS.               MEAS:   MUD FILTRATE SAMPLE SOURCE
 MCSS.               MEAS:   MUD CAKE SAMPLE SOURCE
 RMB .OHMM            .44:   RESISTIVITY MUD AT BHT
 BHT .F                62:   BOTTOM HOLE TEMPERATURE
 TCS .HRS               2:   TIME CURCULATED STOPPED
 MRT .F                62:   MAXIMUM RECORDED TEMPERATURE
 LUN .               8611:   LOGGING UNIT NUMBER
 LUL .           GILLETTE:   LOGGING UNIT LOCATION
 ENGI.            C. DOAK:   RECORDING ENGINEER
 WITN.           S. BURNE:   WITNESSED BY
 CLNT.            A2DTECH:   CLIENT CODE
 ORIG.        2" 5" PRINT:   ORIGIN OF DATA
 UWI .       490251029200:   UNIQUE WELL ID
 DICO. A2D Technologies, Inc.:   DIGITIZING COMPANY
~OTHER INFORMATION
~A   DEPT      SPR        ILD        ILM       SGRD         GRD        CALD      CORR        RHOB     DPHI   
# ...
  470.0000   -49.9701     6.1751     8.5305    10.9233   124.4668     7.8228     0.0753     2.4456     0.1200
  470.5000   -49.9881     6.0453     8.2385    10.8452   126.4140     7.8095     0.0740     2.4494     0.1190
  471.0000   -50.0093     5.9592     7.7935    10.6200   130.0007     7.7959     0.0711     2.4412     0.1214
  471.5000   -50.0267     5.9150     7.3219     9.1307   131.5008     7.7820     0.0637     2.4518     0.1184
  472.0000   -49.8905     5.8307     7.1202     6.5982   128.6791     7.7684     0.0563     2.4601     0.1100
  472.5000   -49.7587     5.8276     7.0688     7.7235   123.3238     7.7403     0.0505     2.4812     0.0979
  473.0000   -49.7804     5.8648     7.3645     9.4985   120.2040     7.7565     0.0446     2.4850     0.0961
  473.5000   -49.7978     5.9857     7.9425    10.2459   122.5984     7.8173     0.0432     2.4858     0.0961
  474.0000   -49.8152     6.1541     8.4485    10.1720   123.9495     7.8930     0.0464     2.4933     0.0928
  474.5000   -49.8326     6.4934     8.9249    10.1692   126.9400     7.9389     0.0480     2.4956     0.0906
  475.0000   -49.6766     6.6725     8.7391    10.5236   126.8008     7.9402     0.0467     2.4882     0.0947
  475.5000   -49.4197     7.0467     8.7967    11.0417   127.7353     7.9114     0.0438     2.4770     0.1012
  476.0000   -49.4414     7.1912     9.1023    11.4349   129.3540     7.8684     0.0395     2.4815     0.0990
  476.5000   -49.3052     7.3876     9.3543    11.9335   127.2775     7.8247     0.0380     2.4764     0.1017
  477.0000   -49.2087     7.5904     9.4807    12.4069   126.6320     7.8264     0.0352     2.4727     0.1037
  477.5000   -49.2177     7.6918     9.6757    12.3173   119.1499     7.8277     0.0357     2.4825     0.0992
  478.0000   -49.2249     7.7946     9.9423    11.9786    97.8013     7.8290     0.0446     2.4825     0.0968
  478.5000   -49.5306     7.8443    10.0770    11.8930  -999.2500     7.8303     0.0493     2.4851     0.0908
  479.0000   -49.8363     7.8944    10.2136    12.0559  -999.2500     7.8464     0.0524     2.4969     0.0892
  479.5000   -50.2913     7.8891    10.2102    12.2196  -999.2500     7.8477     0.0586     2.4924     0.0898
  480.0000   -50.8955     7.8848    10.2068    12.3009  -999.2500     7.8490     0.0633     2.5023     0.0868
  480.5000   -51.6915     7.9359     9.9943    12.1288  -999.2500     7.8503     0.0634     2.5046     0.0844
  481.0000   -53.6169     7.9869     9.8541    12.1383  -999.2500     7.8516     0.0606     2.4994     0.0861
  481.5000   -56.4413     7.9816    10.2162    12.3760  -999.2500     7.8529     0.0577     2.4882     0.0924
  482.0000   -62.4187     8.0336    10.8451    12.7183  -999.2500     7.8390     0.0624     2.4935     0.0939
  482.5000   -65.4110     8.0282    11.4567    13.0710  -999.2500     7.8406     0.0685     2.4928     0.0921
  483.0000   -67.6570     8.0239    11.3741    13.3409  -999.2500     7.8270     0.0717     2.4928     0.0900
  483.5000   -69.6045     8.0195    10.5393    12.9740  -999.2500     7.8135     0.0719     2.5012     0.0893
  484.0000   -71.2935     7.9599    10.1786    12.4442  -999.2500     7.7999     0.0720     2.5042     0.0872
  484.5000   -72.0070     7.9000    10.2464    12.2703  -999.2500     7.8012     0.0722     2.5013     0.0869
  485.0000   -70.6727     7.7875    10.3131    12.2669  -999.2500     7.8025     0.0723     2.4961     0.0893
  485.5000   -69.1874     7.6237    10.1683    12.1792  -999.2500     7.8038     0.0770     2.4901     0.0904
  486.0000   -68.1498     7.5151     9.9456    12.0914  -999.2500     7.7902     0.0831     2.4939     0.0895
  486.5000   -67.2615     7.3065    10.0908    11.9224  -999.2500     7.7766     0.0833     2.4917     0.0895
  487.0000   -66.3732     7.1036    10.2284    11.5945  -999.2500     7.7630     0.0834     2.4768     0.0975
  487.5000   -65.4290     6.9542    10.0840    11.0445  -999.2500     7.7495     0.0881     2.4716     0.1039
  488.0000   -62.5088     6.8080     9.3439    10.5935  -999.2500     7.7359     0.0973     2.4806     0.1003
  488.5000   -57.8891     6.7110     8.9004    10.1609  -999.2500     7.6925     0.1080     2.4837     0.0966
  489.0000   -56.1053     6.6153     8.6552     9.9499  -999.2500     7.6492     0.1142     2.4839     0.0957
  489.5000   -54.1722     6.6110     8.7725    10.6652  -999.2500     7.6207     0.1203     2.4688     0.1026
  490.0000   -50.4481     6.6993     9.8746    11.4382  -999.2500     7.5923     0.1265     2.4554     0.1124
  490.5000   -47.0224     6.7430    10.2742    11.3347  -999.2500     7.5338     0.1267     2.4494     0.1190
  491.0000   -44.5895     6.8795     9.9217    10.8719  -999.2500     7.4754     0.1268     2.4647     0.1097
  491.5000   -40.7700     7.3166     9.6484    10.5729  -999.2500     7.4473     0.1288     2.4713     0.1085
  492.0000   -35.7026     7.9443     9.7119    10.4973  -999.2500     7.4784     0.1363     2.4751     0.1025
  492.5000   -25.7098     9.1789    10.1190    10.7883  -999.2500     7.4956     0.1408     2.4766     0.0985
  493.0000   -10.3439    12.0087    11.2962    11.4769  -999.2500     7.5108     0.1410     2.4730     0.1066
  493.5000    -3.4854    14.8805    11.9333    11.9592  -999.2500     7.4823     0.1381     2.4565     0.1180
  494.0000    -1.1045    16.2541    11.0717    11.3093  -999.2500     7.4211     0.1308     2.4288     0.1285
  494.5000    -1.1119    10.6601  -999.2500    11.3493  -999.2500     7.2864     0.1264     2.3891     0.1459
  495.0000    -0.9715    12.1478  -999.2500    12.1996  -999.2500     7.1254     0.1295     2.3607     0.1614
  495.5000    -0.9787    15.6751  -999.2500    11.3819  -999.2500     6.9606     0.1327     2.3487     0.1791
  496.0000    -0.9859    19.8495  -999.2500    10.7673  -999.2500     6.0386     0.1298     2.3240     0.2070
  496.5000    -0.9931  -999.2500  -999.2500    11.2197  -999.2500     6.0006  -999.2500  -999.2500  -999.2500
  497.0000    -1.0003  -999.2500  -999.2500    10.9112  -999.2500     6.0000  -999.2500  -999.2500  -999.2500
  497.5000    -1.0075  -999.2500  -999.2500    10.6846  -999.2500  -999.2500  -999.2500  -999.2500  -999.2500
  498.0000    -1.0149  -999.2500  -999.2500    11.0570  -999.2500  -999.2500  -999.2500  -999.2500  -999.2500
  498.5000    -1.1730  -999.2500  -999.2500    11.6013  -999.2500  -999.2500  -999.2500  -999.2500  -999.2500
  499.0000    -1.1802  -999.2500  -999.2500    10.8994  -999.2500  -999.2500  -999.2500  -999.2500  -999.2500
  499.5000    -1.1874  -999.2500  -999.2500    11.7555  -999.2500  -999.2500  -999.2500  -999.2500  -999.2500
  500.0000    -1.1946  -999.2500  -999.2500    11.9166  -999.2500  -999.2500  -999.2500  -999.2500  -999.2500
  500.5000    -1.2018  -999.2500  -999.2500    11.5881  -999.2500  -999.2500  -999.2500  -999.2500  -999.2500
  501.0000    -1.2090  -999.2500  -999.2500    11.5056  -999.2500  -999.2500  -999.2500  -999.2500  -999.2500
