~VERSION INFORMATION
 VERS.                2.0:   CWLS LOG ASCII STANDARD - VERSION 2.0
 WRAP.                 NO:   ONE LINE PER DEPTH STEP
~WELL INFORMATION
#MNEM.UNIT      DATA TYPE    INFORMATION
#----------   ------------   ------------------------------
 STRT.F          420.0000:   START DEPTH
 STOP.F         1937.0000:   STOP DEPTH
 STEP.F            0.5000:   STEP LENGTH
 NULL.          -999.2500:   NO VALUE
 COMP. LAWRENCE/ALLISON INC:   COMPANY
 WELL.      85 "X" #85-29:   WELL
 FLD .             TEAPOT:   FIELD
 LOC .      S29 T39N R78W:   LOCATION
 CNTY.            NATRONA:   COUNTY
 STAT.            WYOMING:   STATE
 CTRY. UNITED STATES OF AMERICA:   COUNTRY
 SRVC.            Unknown:   SERVICE COMPANY
 DATE.        28-SEP-1987:   LOGDATE
 API .       490251119100:   API NUMBER
~CURVE INFORMATION
#MNEM.UNIT       API CODE    CURVE DESCRIPTION
#----------   ------------   ------------------------------
 DEPT.F                  :   
 ROP .FT/HR  91 810 01 00:   RAT OF DRILLING PENETRATION
 TGAS.TC/CC  91 830 01 00:   TOTAL GAS UNIT
~PARAMETER INFORMATION
#MNEM.UNIT          VALUE    DESCRIPTION
#----------   ------------   ------------------------------
 DATE.        28-SEP-1987:   RUN DATE
 BLI .F              1937:   BOTTOM LOG INTERVAL
 TLI .F               420:   TOP LOG INTERVAL
 LUN .              T-146:   LOGGING UNIT NUMBER
 CLNT.            A2DTECH:   CLIENT CODE
 ORIG.           5" PRINT:   ORIGIN OF DATA
 UWI .       490251119100:   UNIQUE WELL ID
 DICO. A2D Technologies, Inc.:   DIGITIZING COMPANY
~OTHER INFORMATION
~A   DEPT        ROP       TGAS 
# ...
 1635.0000     0.2697    20.7467
 1635.5000     0.2692    20.7629
 1636.0000     0.2687    20.7791
 1636.5000     0.2682    20.7953
 1637.0000     0.2677    20.8115
 1637.5000     0.2672    20.8277
 1638.0000     0.2667    20.8439
 1638.5000     0.2662    20.8601
 1639.0000     0.2657    20.8763
 1639.5000     0.2652    20.8924
 1640.0000     0.2648    20.8842
 1640.5000     0.2643    22.0047
 1641.0000     0.2638    25.7834
 1641.5000     0.2633    28.4229
 1642.0000     0.2628    30.3029
 1642.5000     0.2623    26.4867
 1643.0000     0.2619    23.8097
 1643.5000     0.2617    21.3280
 1644.0000     0.2615    20.7342
 1644.5000     0.2613    20.3358
 1645.0000     0.2611    20.6968
 1645.5000     0.2609    20.6772
 1646.0000     0.2606    20.6547
 1646.5000     0.2604    20.6359
 1647.0000     0.2602    20.9969
 1647.5000     0.2600    20.9782
 1648.0000     0.2598    20.8760
 1648.5000     0.2596    20.5610
 1649.0000     0.2594    20.5422
 1649.5000     0.2592    20.5235
 1650.0000     0.2590    20.5048
 1650.5000     0.2588    20.8671
 1651.0000     0.2586    21.2268
 1651.5000     0.2583    21.5886
 1652.0000     0.2581    21.5691
 1652.5000     0.2579    21.5503
 1653.0000     0.2577    21.1518
 1653.5000     0.2575    21.1329
 1654.0000     0.2573    21.1139
 1654.5000     0.2571    21.4754
 1655.0000     0.2569    21.4519
 1655.5000     0.2567    21.4332
 1656.0000     0.2565    21.4145
 1656.5000     0.2563    21.3987
 1657.0000     0.2560    21.3770
 1657.5000     0.2558    21.3583
 1658.0000     0.2556    20.9598
 1658.5000     0.2554    20.9410
 1659.0000     0.2552    20.9223
 1659.5000     0.2550    20.9036
 1660.0000     0.2548    20.8848
 1660.5000     0.2546    20.8661
 1661.0000     0.2548    20.8474
 1661.5000     0.2557    20.8286
 1662.0000     0.2566    20.8099
 1662.5000     0.2575    20.4114
 1663.0000     0.2583    20.4244
 1663.5000     0.2592    20.4479
 1664.0000     0.2601    20.4715
 1664.5000     0.2610    20.4950
 1665.0000     0.2618    20.5185
 1665.5000     0.2627    20.5420
 1666.0000     0.2636    20.5655
 1666.5000     0.2644    20.5891
 1667.0000     0.2653    20.6126
 1667.5000     0.2662    20.6361
 1668.0000     0.2671    20.6596
 1668.5000     0.2679    20.6831
 1669.0000     0.2688    20.7067
 1669.5000     0.2697    20.7302
 1670.0000     0.2705    20.7537
 1670.5000     0.2710    20.7772
 1671.0000     0.2716    20.8007
 1671.5000     0.2721    20.8243
 1672.0000     0.2727    20.8478
 1672.5000     0.2732    20.8713
 1673.0000     0.2737    20.8948
 1673.5000     0.2743    20.9183
 1674.0000     0.2748    20.9419
 1674.5000     0.2754    20.9654
 1675.0000     0.2759    20.9889
 1675.5000     0.2765    21.0124
 1676.0000     0.2770    21.0359
 1676.5000     0.2776    21.0639
 1677.0000     0.2781    21.0700
 1677.5000     0.2787    21.0775
 1678.0000     0.2792    21.0851
 1678.5000     0.2797    21.0926
 1679.0000     0.2803    21.1001
 1679.5000     0.2808    21.1077
 1680.0000     0.2814    21.1152
 1680.5000     0.2819    21.1228
 1681.0000     0.2825    21.1303
 1681.5000     0.2830    21.1378
 1682.0000     0.2836    21.1454
 1682.5000     0.2841    21.1529
 1683.0000     0.2847    21.1605
 1683.5000     0.2852    21.1680
 1684.0000     0.2857    21.1755
 1684.5000     0.2863    21.1831
 1685.0000     0.2868    21.1906
 1685.5000     0.2874    21.1982
 1686.0000     0.2879    21.2057
 1686.5000     0.2885    21.2132
 1687.0000     0.2890    21.2208
 1687.5000     0.2896    21.2283
 1688.0000     0.2901    21.2358
 1688.5000     0.2907    21.2434
 1689.0000     0.2912    21.2509
 1689.5000     0.2918    21.2585
 1690.0000     0.2923    21.2660
 1690.5000     0.2928    21.2735
 1691.0000     0.2934    21.2811
 1691.5000     0.2939    21.2886
 1692.0000     0.2945    21.2962
 1692.5000     0.2944    21.3037
 1693.0000     0.2943    21.3112
 1693.5000     0.2942    21.3155
 1694.0000     0.2941    21.3108
 1694.5000     0.2940    21.3071
 1695.0000     0.2940    21.3034
 1695.5000     0.2939    21.2996
 1696.0000     0.2938    21.2959
 1696.5000     0.2937    21.2922
 1697.0000     0.2936    21.2885
 1697.5000     0.2935    21.2847
 1698.0000     0.2934    21.2810
 1698.5000     0.2933    21.2772
 1699.0000     0.2932    21.2734
 1699.5000     0.2931    21.2689
 1700.0000     0.2930    21.2652
 1700.5000     0.2929    21.2615
 1701.0000     0.2928    20.8780
 1701.5000     0.2927    20.8752
 1702.0000     0.2926    20.8958
 1702.5000     0.2925    20.9138
 1703.0000     0.2924    20.9318
 1703.5000     0.2923    20.9498
 1704.0000     0.2922    20.9678
 1704.5000     0.2925    20.9858
 1705.0000     0.2931    21.0038
 1705.5000     0.2937    21.0218
 1706.0000     0.2943    21.0398
 1706.5000     0.2949    21.0578
 1707.0000     0.2955    21.0759
 1707.5000     0.2961    21.0939
 1708.0000     0.2967    21.1119
 1708.5000     0.2973    21.1299
 1709.0000     0.2979    21.1479
 1709.5000     0.2985    21.1659
 1710.0000     0.2991    21.1839
 1710.5000     0.2998    21.2019
 1711.0000     0.3004    21.2199
 1711.5000     0.3010    21.2379
 1712.0000     0.3016    21.2560
 1712.5000     0.3022    21.2740
 1713.0000     0.3028    21.2920
 1713.5000     0.3034    21.3100
 1714.0000     0.3040    21.3280
 1714.5000     0.3046    21.3460
 1715.0000     0.3053    21.3640
 1715.5000     0.3054    21.3820
 1716.0000     0.3149    21.4000
 1716.5000     0.3150    21.4180
 1717.0000     0.3151    21.4361
 1717.5000     0.2963    21.4541
 1718.0000     0.2586    21.4756
 1718.5000     0.2681    21.4847
 1719.0000     0.2682    21.4960
 1719.5000     0.2683    21.5073
 1720.0000     0.2779    21.5186
 1720.5000     0.2684    21.5300
 1721.0000     0.2683    21.5413
 1721.5000     0.2681    21.5526
 1722.0000     0.2679    21.5639
 1722.5000     0.2677    21.5753
 1723.0000     0.2675    21.5866
 1723.5000     0.2674    21.5979
 1724.0000     0.2672    21.6092
 1724.5000     0.2670    21.6205
 1725.0000     0.2668    21.6319
 1725.5000     0.2666    21.6432
 1726.0000     0.2665    21.6545
 1726.5000     0.2663    21.6658
 1727.0000     0.2661    21.6771
 1727.5000     0.2659    21.6885
 1728.0000     0.2657    21.6998
 1728.5000     0.2656    21.7111
 1729.0000     0.2654    21.7224
 1729.5000     0.2652    21.7337
 1730.0000     0.2650    21.7451
 1730.5000     0.2648    21.7564
 1731.0000     0.2647    21.7677
 1731.5000     0.2645    21.7790
 1732.0000     0.2643    21.7903
 1732.5000     0.2641    21.8017
 1733.0000     0.2639    21.8130
 1733.5000     0.2638    21.8243
 1734.0000     0.2636    21.8356
 1734.5000     0.2634    21.8469
 1735.0000     0.2632    21.8583
 1735.5000     0.2631    21.8696
 1736.0000     0.2629    21.8809
 1736.5000     0.2627    21.8922
 1737.0000     0.2625    21.9035
 1737.5000     0.2623    21.9149
 1738.0000     0.2624    21.9262
 1738.5000     0.2625    21.9375
 1739.0000     0.2626    21.9488
 1739.5000     0.2627    21.9620
 1740.0000     0.2628    21.9591
 1740.5000     0.2629    21.9555
 1741.0000     0.2629    21.9519
 1741.5000     0.2630    21.9483
 1742.0000     0.2631    21.9448
 1742.5000     0.2632    21.9412
 1743.0000     0.2633    21.9376
 1743.5000     0.2634    21.9341
 1744.0000     0.2635    21.9305
 1744.5000     0.2636    21.9269
 1745.0000     0.2637    21.9234
 1745.5000     0.2638    21.9198
 1746.0000     0.2639    21.9162
 1746.5000     0.2640    21.9126
 1747.0000     0.2641    21.9091
 1747.5000     0.2642    21.9055
 1748.0000     0.2643    21.9019
 1748.5000     0.2644    21.8984
 1749.0000     0.2645    21.8948
 1749.5000     0.1984    21.8912
 1750.0000     0.1701    21.8877
 1750.5000     0.2269    21.8841
 1751.0000     0.2554    21.8805
 1751.5000     0.1893    21.8769
 1752.0000     0.2272    21.8734
 1752.5000     0.2651    21.8698
 1753.0000     0.2558    21.8662
 1753.5000     0.2370    21.8627
 1754.0000     0.2278    21.8591
 1754.5000     0.2287    21.8555
 1755.0000     0.2295    21.8520
 1755.5000     0.2304    21.8484
 1756.0000     0.2313    21.8454
