~VERSION INFORMATION
 VERS.                2.0:   CWLS LOG ASCII STANDARD - VERSION 2.0
 WRAP.                 NO:   ONE LINE PER DEPTH STEP
~WELL INFORMATION
#MNEM.UNIT      DATA TYPE    INFORMATION
#----------   ------------   ------------------------------
 STRT.F           35.0000:   START DEPTH
 STOP.F          474.0000:   STOP DEPTH
 STEP.F            0.5000:   STEP LENGTH
 NULL.          -999.2500:   NO VALUE
 COMP.    FENIX & SCISSON:   COMPANY
 WELL.        NPR #53-S-3:   WELL
 FLD .             TEAPOT:   FIELD
 LOC .       S3 T38N R78W:   LOCATION
 CNTY.            NATRONA:   COUNTY
 STAT.            WYOMING:   STATE
 CTRY. UNITED STATES OF AMERICA:   COUNTRY
 SRVC.       Schlumberger:   SERVICE COMPANY
 DATE.        21-FEB-1977:   LOGDATE
 API .       490251027800:   API NUMBER
~CURVE INFORMATION
#MNEM.UNIT       API CODE    CURVE DESCRIPTION
#----------   ------------   ------------------------------
 DEPT.F                  :   
 SPR .MV     07 010 01 00:   SPONTANEOUS POTENTIAL
 ILD .OHMM   07 120 46 00:   INDUCTION LOG DEEP
 ILM .OHMM   07 120 44 00:   INDUCTION LOG MEDIUM
 LL8 .OHMM   07 220 08 00:   LATEROLOG-8 RES.
 CALD.IN     45 280 60 00:   CALIPER FROM DENSITY LOG
 CORR.G/C3   45 356 01 00:   DENSITY CORRECTION
 RHOB.G/C3   45 350 01 00:   BULK DENSITY
 DPHI.DEC    45 890 12 00:   DENSITY POROSITY SANDSTONE
 GRD .GAPI   45 310 01 00:   GAMMA RAY FROM DENSITY LOG
~PARAMETER INFORMATION
#MNEM.UNIT          VALUE    DESCRIPTION
#----------   ------------   ------------------------------
 PD  .                 GL:   PERMANENT DATUM
 EPD .F              5163:   ELEVATION PERMANENT DATUM
 LMF .                 GL:   LOG MEASURED FROM
 DMF .                 KB:   DRILLING MEASURED FROM
 EKB .F              5167:   KELLING BUSHING
 EGL .F              5163:   GROUND LEVEL
 DATE.        21-FEB-1977:   RUN DATE
 RUN .                  1:   RUN NUMBER
 DD  .F               480:   DEPTH DRILLER
 DL  .F               475:   DEPTH LOGGER
 BLI .F               474:   BOTTOM LOG INTERVAL
 TLI .F                39:   TOP LOG INTERVAL
 CS  .IN            8.625:   CASING SIZE
 CBD .F                40:   CASING BOTTOM DRILLER
 CBL .F                39:   CASING BOTTOM LOGGER
 BS  .IN            7.875:   BIT SIZE
 BSD .F               480:   BIT SIZE AT DEPTH
 DFT .            KCL MUD:   DRILLING FLUID TYPE
 DFD .                8.6:   DRILLING FLUID DENSITY
 DFV .                 35:   DRILLING FLUID VISCOSITY
 DFPH.                8.0:   DRILLING FLUID PH
 DFL .                6.8:   DRILLING FLUID LOSS
 MSS .           FLOWLINE:   MUD SAMPLE SOURCE
 RMS .OHMM            .41:   RESISTIVITY MUD SAMPLE
 MST .F                70:   MUD SAMPLE TEMPERATURE
 RMF .OHMM            .46:   RESISTIVITY MUD FILTRATE SAMPLE
 MFST.F                70:   MUD FILTRATE SAMPLE TEMPERATURE
 MFSS.               MEAS:   MUD FILTRATE SAMPLE SOURCE
 TCS .HRS               1:   TIME CURCULATED STOPPED
 LUN .               7680:   LOGGING UNIT NUMBER
 LUL .               CSPR:   LOGGING UNIT LOCATION
 ENGI.             TAYLOR:   RECORDING ENGINEER
 WITN.               JAPP:   WITNESSED BY
 CLNT.            A2DTECH:   CLIENT CODE
 ORIG.           5" PRINT:   ORIGIN OF DATA
 UWI .       490251027800:   UNIQUE WELL ID
 DICO. A2D Technologies, Inc.:   DIGITIZING COMPANY
~OTHER INFORMATION
~A   DEPT      SPR        ILD        ILM        LL8       CALD       CORR       RHOB       DPHI         GRD  
# ...
  436.5000   -39.6164    11.8712    13.5328    14.3896     8.1452     0.0164     2.4364     0.1286    74.9571
  437.0000   -39.7529    11.8768    13.6370    14.3955     8.1467     0.0157     2.4357     0.1273    75.8788
  437.5000   -39.7363    11.8824    13.6472    14.4013     8.1632     0.0225     2.4527     0.1179    77.9249
  438.0000   -39.7231    11.9706    13.7523    14.4072     8.1647     0.0394     2.4723     0.1104    77.9880
  438.5000   -39.7098    12.0595    13.7626    14.4130     8.1665     0.0587     2.4864     0.1058    75.2705
  439.0000   -39.8492    12.0652    13.7729    14.3194     8.1679     0.0422     2.4932     0.1034    78.8909
  439.5000   -39.8326    11.9876    13.6856    14.2267     8.1694     0.0392     2.4655     0.1145    82.2887
  440.0000   -39.8194    11.9934    13.6984    14.1344     8.1709     0.0386     2.4738     0.1106    84.1079
  440.5000   -39.8061    11.9163    13.6116    14.0427     8.1724     0.0288     2.4776     0.1093    82.1852
  441.0000   -39.7929    11.9222    13.6243    13.8554     8.1888     0.0319     2.4536     0.1217    79.8790
  441.5000   -39.7796    11.9290    13.5405    13.6721     8.1903     0.0208     2.4589     0.1138    81.2560
  442.0000   -39.9189    11.8510    13.4570    13.6777     8.1917     0.0231     2.4710     0.1201    79.7039
  442.5000   -39.9024    11.7749    13.4673    13.6832     8.1932     0.0261     2.4425     0.1231    77.6965
  443.0000   -39.8891    11.6992    13.4775    13.8794     8.1947     0.0224     2.4591     0.1164    79.0735
  443.5000   -40.0254    11.6241    13.3825    14.0784     8.1962     0.0157     2.4449     0.1224    80.2201
  444.0000   -40.0119    11.5494    13.2227    14.0842     8.1805     0.0113     2.4457     0.1206    81.3667
  444.5000   -39.9985    11.3974    13.1389    14.0899     8.1725     0.0144     2.4473     0.1211    82.0635
  445.0000   -39.9851    11.3239    12.9704    13.9018     8.1645     0.0092     2.4390     0.1259    82.3105
  445.5000   -39.8224    11.2514    12.8882    13.7166     8.1564     0.0047     2.4248     0.1249    82.1022
  446.0000   -39.9589    11.1791    12.8089    13.6277     8.1484     0.0318     2.4681     0.1042    81.0055
  446.5000   -39.9424    11.1844    12.6424    13.7280     8.1404     0.0461     2.5063     0.0987    78.7787
  447.0000   -39.7799    11.1126    12.5646    13.6402     8.1324     0.0409     2.4891     0.1116    80.1502
  447.5000   -39.7666    11.1192    12.4873    13.1820     8.1243     0.0140     2.4455     0.1219    81.2969
  448.0000   -39.9059    11.1244    12.4990    12.9153     8.1163     0.0043     2.4508     0.1200    80.6087
  448.5000   -39.8894    11.1297    12.5083    13.6568     8.1083     0.0114     2.4734     0.1128    80.2166
  449.0000   -39.8761    11.1350    12.5177    13.6624     8.1077     0.0224     2.4991     0.1034    81.1438
  449.5000   -40.0155    11.1403    12.4405    13.7614     8.1096     0.0262     2.4736     0.1082    80.0415
  450.0000   -39.9989    11.1501    12.4500    13.7806     8.1110     0.0182     2.4620     0.1160    81.2325
  450.5000   -40.0612    11.1862    12.5449    13.8703     8.0972     0.0106     2.4586     0.1154    84.8066
  451.0000   -40.1050    11.2223    12.5521    13.4982     8.0837     0.0219     2.4610     0.1141    85.5034
  451.5000   -39.9328    11.1567    12.5593    13.4098     8.0855     0.0377     2.4618     0.1159    86.4252
  452.0000   -39.9060    11.0836    12.4781    13.2317     8.0870     0.0235     2.4559     0.1171    89.1460
  452.5000   -39.8839    11.0110    12.3992    13.1465     8.0885     0.0138     2.4650     0.1137    88.2686
  453.0000   -39.8618    10.8634    12.3207    13.1541     8.0746     0.0267     2.4831     0.1095    86.4880
  453.5000   -39.6904    10.7922    12.2428    13.1602     8.0764     0.0305     2.4922     0.1028    84.6814
  454.0000   -39.6683    10.7218    12.1671    13.1662     8.0779     0.0244     2.4531     0.1151    82.7129
  454.5000   -39.6462    10.7252    12.1741    13.1723     8.0794     0.0156     2.4478     0.1217    85.6641
  455.0000   -39.6241    10.6549    12.0954    13.0860     8.0809     0.0104     2.4472     0.1184    87.4854
  455.5000   -39.7568    10.5851    12.1041    13.0038     8.0674     0.0135     2.4641     0.1149    85.7085
  456.0000   -39.7291    10.5158    11.9429    12.9181     8.0689     0.0270     2.4954     0.0949    79.6587
  456.5000   -39.7070    10.5194    11.7872    12.7478     8.0704     0.0526     2.5109     0.0833    75.6329
  457.0000   -39.6849    10.4505    11.7127    12.4921     8.0721     0.0452     2.4987     0.0953    73.6311
  457.5000   -39.9613    10.3820    11.6369    12.1569     8.0736     0.0317     2.4837     0.1050    64.4328
  458.0000   -40.0940    10.2429    11.4836    12.0784     8.0751     0.0309     2.4785     0.1110    20.3740
  458.5000   -40.0663    10.1758    11.3339    12.0842     8.0766     0.0226     2.4989     0.1028  -999.2500
  459.0000   -40.1940     9.9701    11.1829    12.0898     8.0780     0.0289     2.4899     0.0992  -999.2500
  459.5000   -40.4699     9.7687    11.0356    11.7654     8.0642     0.0309     2.4809     0.1067  -999.2500
  460.0000   -40.5970     9.6377    10.8901    11.4497     8.0614     0.0478     2.4893     0.1054  -999.2500
  460.5000   -40.5749     9.4430    10.6741    11.1425     8.0522     0.0336     2.5112     0.0876  -999.2500
  461.0000   -41.0149     9.1884    10.3886    10.9945     8.0540     0.0502     2.5218     0.0764  -999.2500
  461.5000   -41.1493     8.9406    10.1796    10.7737     8.0401     0.0367     2.5151     0.0942  -999.2500
  462.0000   -41.4041     8.5208     9.9776    10.5574     8.0420     0.0128     2.4685     0.1135  -999.2500
  462.5000   -41.6805     8.1207     9.7108    10.2741     8.0434     0.0061     2.4527     0.1183  -999.2500
  463.0000   -41.8021     7.7394     9.3860     9.8611     8.0449     0.0099     2.4445     0.1225  -999.2500
  463.5000   -42.0785     7.3252     8.8856     9.4647     8.0464     0.0227     2.4607     0.1131  -999.2500
  464.0000   -42.2112     6.7438     8.1258     9.2107     8.0479     0.0445     2.4819     0.1046  -999.2500
  464.5000   -42.3383     6.0810     7.3289     9.0884     8.0494     0.0506     2.4877     0.1058  -999.2500
  465.0000   -42.4655     5.7955     6.5193     8.0285     8.0512     0.0272     2.4576     0.1163  -999.2500
  465.5000   -42.2886  -999.2500     5.8799     4.8779     8.0527     0.0140     2.4336     0.1286  -999.2500
  466.0000   -42.1172  -999.2500     5.5664     3.8081     8.0541     0.0193     2.4193     0.1367  -999.2500
  466.5000   -41.4981  -999.2500     5.7260     4.8447     8.0556     0.0306     2.4111     0.1464  -999.2500
  467.0000   -40.8789  -999.2500     5.9721    10.0181     8.0571     0.0337     2.4089     0.1436  -999.2500
  467.5000   -40.5583  -999.2500     6.3596    11.6894     8.0432     0.0247     2.4421     0.1276  -999.2500
  468.0000   -40.3870  -999.2500     6.8665    11.2196     8.0451     0.0173     2.4881     0.1065  -999.2500
  468.5000   -40.5141  -999.2500     7.4653    11.2248     8.0312     0.0196     2.5244     0.0970  -999.2500
  469.0000   -40.3433  -999.2500     7.9225    11.2299     8.0330     0.0136     2.4973     0.1088  -999.2500
  469.5000  -999.2500  -999.2500  -999.2500  -999.2500     8.0192     0.0077     2.4650     0.1118  -999.2500
  470.0000  -999.2500  -999.2500  -999.2500  -999.2500     8.0210     0.0184     2.4869     0.1070  -999.2500
  470.5000  -999.2500  -999.2500  -999.2500  -999.2500     8.0075     0.0289     2.4977     0.1000  -999.2500
  471.0000  -999.2500  -999.2500  -999.2500  -999.2500     7.9940     0.0304     2.4780     0.1078  -999.2500
  471.5000  -999.2500  -999.2500  -999.2500  -999.2500     7.9647     0.0222     2.4697     0.1117  -999.2500
  472.0000  -999.2500  -999.2500  -999.2500  -999.2500     7.9353     0.0365     2.4702     0.1129  -999.2500
  472.5000  -999.2500  -999.2500  -999.2500  -999.2500     7.8910     0.0449     2.4782     0.1074  -999.2500
