~VERSION INFORMATION
 VERS.                2.0:   CWLS LOG ASCII STANDARD - VERSION 2.0
 WRAP.                 NO:   ONE LINE PER DEPTH STEP
~WELL INFORMATION
#MNEM.UNIT      DATA TYPE    INFORMATION
#----------   ------------   ------------------------------
 STRT.F           20.0000:   START DEPTH
 STOP.F          677.0000:   STOP DEPTH
 STEP.F            0.5000:   STEP LENGTH
 NULL.          -999.2500:   NO VALUE
 COMP. FENIX & SCISSON INC:   COMPANY
 WELL. 11 WI NPR 3 #36-26 SX:   WELL
 FLD .             TEAPOT:   FIELD
 LOC .      S11 T38N R78W:   LOCATION
 CNTY.            NATRONA:   COUNTY
 STAT.            WYOMING:   STATE
 CTRY. UNITED STATES OF AMERICA:   COUNTRY
 SRVC.      Dresser Atlas:   SERVICE COMPANY
 DATE.        06-AUG-1980:   LOGDATE
 API .       490251084100:   API NUMBER
~CURVE INFORMATION
#MNEM.UNIT       API CODE    CURVE DESCRIPTION
#----------   ------------   ------------------------------
 DEPT.F                  :   
 SPR .MV     07 010 01 00:   SPONTANEOUS POTENTIAL
 SFL .OHMM   07 220 01 00:   SHALLOW FOCUSED LOG RESISTIVITY
 ILD .OHMM   07 120 46 00:   INDUCTION LOG DEEP
 ILM .OHMM   07 120 44 00:   INDUCTION LOG MEDIUM
 GRD .GAPI   45 310 01 00:   GAMMA RAY FROM DENSITY LOG
 RHOB.G/C3   45 350 01 00:   BULK DENSITY
 CALD.IN     45 280 60 00:   CALIPER
 CORR.G/C3   45 356 01 00:   DENSITY CORRECTION
 DPOR.DEC    45 890 12 00:   DENSITY POROSITY SANDSTONE
 NPOR.DEC    42 890 03 00:   NEUTRON POROSITY SANDSTONE
~PARAMETER INFORMATION
#MNEM.UNIT          VALUE    DESCRIPTION
#----------   ------------   ------------------------------
 PD  .                 GL:   PERMANENT DATUM
 EPD .F              5191:   ELEVATION PERMANENT DATUM
 LMF .                 KB:   LOG MEASURED FROM
 DAPD.F                 5:   FEET ABOVE PERMANENT DATUM
 DMF .                 KB:   DRILLING MEASURED FROM
 EKB .F              5196:   KELLING BUSHING
 EGL .F              5191:   GROUND LEVEL
 DATE.             8-6-80:   RUN DATE
 RUN .                  1:   RUN NUMBER
 DD  .F               680:   DEPTH DRILLER
 DL  .F               679:   DEPTH LOGGER
 BLI .F               676:   BOTTOM LOG INTERVAL
 TLI .F                20:   TOP LOG INTERVAL
 BS  .IN            7.875:   BIT SIZE
 BSD .F               680:   BIT SIZE AT DEPTH
 DFT .                KCL:   DRILLING FLUID TYPE
 DFD .                9.4:   DRILLING FLUID DENSITY
 DFV .                 45:   DRILLING FLUID VISCOSITY
 DFPH.                 12:   DRILLING FLUID PH
 MSS .           FLOWLINE:   MUD SAMPLE SOURCE
 RMS .OHMM            .11:   RESISTIVITY MUD SAMPLE
 MST .F                65:   MUD SAMPLE TEMPERATURE
 RMF .OHMM             .1:   RESISTIVITY MUD FILTRATE SAMPLE
 MFST.F                60:   MUD FILTRATE SAMPLE TEMPERATURE
 RMC .OHMM            .17:   RESISTIVITY MUD CAKE
 MCST.F                65:   MUD CAKE SAMPLE TEMPERATURE
 MFSS.               MEAS:   MUD FILTRATE SAMPLE SOURCE
 MCSS.              CHART:   MUD CAKE SAMPLE SOURCE
 TCS .HRS              .5:   TIME CURCULATED STOPPED
 MRT .F               100:   MAXIMUM RECORDED TEMPERATURE
 LUN .               6240:   LOGGING UNIT NUMBER
 LUL .               RVTN:   LOGGING UNIT LOCATION
 ENGI.            K. RALL:   RECORDING ENGINEER
 WITN.     AMAND/MCINTYRE:   WITNESSED BY
 CLNT.            A2DTECH:   CLIENT CODE
 ORIG.        2" 5" PRINT:   ORIGIN OF DATA
 UWI .       490251084100:   UNIQUE WELL ID
 DICO. A2D Technologies, Inc.:   DIGITIZING COMPANY
~OTHER INFORMATION
~A   DEPT       SPR       SFL         ILD         ILM      GRD       RHOB       CALD       CORR       DPOR       NPOR   
# ...
  623.0000   -55.8245    12.8197    12.4562    12.5093    97.7670     2.3814     7.8932     0.0390     0.1809     0.2263
  623.5000   -55.7652    12.7483    12.4000    12.3715    96.3589     2.3761     7.8979     0.0317     0.1802     0.2212
  624.0000   -55.8097    12.6771    12.3439    12.2546    94.9922     2.3799     7.9025     0.0284     0.1763     0.2347
  624.5000   -56.0871    12.6138    12.2888    12.1388    93.6292     2.3888     7.9072     0.0272     0.1725     0.2551
  625.0000   -56.3605    12.5711    12.2261    12.0241    93.7645     2.3911     7.9118     0.0265     0.1703     0.2523
  625.5000   -56.6345    12.5286    12.1638    11.9104    94.6594     2.3924     7.9165     0.0255     0.1663     0.2482
  626.0000   -56.9083    12.4862    12.1015    11.7979    95.5033     2.4022     7.9211     0.0336     0.1605     0.2459
  626.5000   -57.1819    12.4439    12.0395    11.6864    95.1211     2.4158     7.9242     0.0458     0.1547     0.2495
  627.0000   -57.4668    12.4017    11.9779    11.6083    92.1702     2.4237     7.9217     0.0522     0.1506     0.2461
  627.5000   -57.4936    12.3598    11.9166    11.5483    93.8191     2.4276     7.9192     0.0538     0.1489     0.2404
  628.0000   -57.4439    12.3179    11.8556    11.4887    96.9743     2.4317     7.9168     0.0573     0.1472     0.2347
  628.5000   -57.3926    12.2812    11.7949    11.4293    99.5303     2.4237     7.9144     0.0480     0.1603     0.2303
  629.0000   -57.3420    12.1939    11.7345    11.3703    97.5644     2.4069     7.9120     0.0273     0.1725     0.2369
  629.5000   -57.2916    12.1004    11.6744    11.3115    95.1680     2.3892     7.9095     0.0150     0.1606     0.2459
  630.0000   -57.2411    12.0076    11.6147    11.2531    95.2292     2.4032     7.9071     0.0243     0.1483     0.2499
  630.5000   -57.1903    11.9155    11.5552    11.1950    97.2925     2.4317     7.9047     0.0350     0.1437     0.2359
  631.0000   -57.1355    11.8241    11.4960    11.1371   101.2824     2.4374     7.9043     0.0332     0.1556     0.2222
  631.5000   -57.2436    11.7335    11.4372    11.0796   103.2098     2.4183     7.9043     0.0263     0.1569     0.2168
  632.0000   -57.5171    11.6216    11.4086    10.9974   104.8168     2.4141     7.9043     0.0212     0.1531     0.2210
  632.5000   -57.9852    11.7414    11.5341    11.0847   106.4297     2.4186     7.9043     0.0246     0.1571     0.2339
  633.0000   -58.4489    11.9017    11.6442    11.2417   106.2692     2.4232     7.9043     0.0307     0.1696     0.2398
  633.5000   -58.9151    12.0643    11.7554    11.4010   104.3669     2.4059     7.9043     0.0253     0.1791     0.2458
  634.0000   -59.0721    12.2290    11.8675    11.5625   102.9183     2.3842     7.9043     0.0060     0.1590     0.2578
  634.5000   -58.9625    12.2812    11.9469    11.7263   103.5023     2.3778     7.9043     0.0069     0.1353     0.2685
  635.0000   -58.8488    12.0656    11.9469    11.8374   104.1050     2.4227     7.9043     0.0310     0.1285     0.2715
  635.5000   -58.7237    11.9469    11.9469    11.6473   101.3866     2.4646     7.9047     0.0363     0.1469     0.2666
  636.0000   -58.3381    12.2041    11.9469    11.3119    99.7272     2.4408     7.9091     0.0342     0.1608     0.2544
  636.5000   -58.1312    12.4290    11.9469    10.9974    99.4421     2.4181     7.9134     0.0212     0.1665     0.2421
  637.0000   -58.1601    12.5093    11.9472    10.9974   102.1476     2.4004     7.9178     0.0089     0.1577     0.2299
  637.5000   -58.3975    12.4019    11.9476    11.1429   102.4897     2.4043     7.9222    -0.0007     0.1482     0.2244
  638.0000   -58.6391    12.1840    11.8203    11.2441   102.8809     2.4277     7.9265     0.0070     0.1457     0.2282
  638.5000   -58.7695    11.9456    11.7060    11.3463   103.5989     2.4354     7.9309     0.0124     0.1553     0.2356
  639.0000   -58.8665    11.9478    11.5929    11.4097   105.7661     2.4185     7.9352     0.0026     0.1550     0.2430
  639.5000   -59.0237    11.8610    11.4809    11.2243   105.7133     2.4197     7.9396    -0.0063     0.1539     0.2459
  640.0000   -59.4126    11.6824    11.3699    11.0911   104.1737     2.4232     7.9441    -0.0033     0.1651     0.2350
  640.5000   -59.7428    11.4989    11.2600    10.9616   103.1770     2.4029     7.9433     0.0010     0.1788     0.2239
  641.0000   -59.6845    11.3184    11.1512    10.8724   105.1961     2.3809     7.9411    -0.0094     0.1684     0.2239
  641.5000   -59.6341    11.2016    10.9974    10.7998   108.0749     2.4142     7.9388    -0.0025     0.1478     0.2583
  642.0000   -59.5835    11.3175    11.0337    10.7268   109.7745     2.4480     7.9365     0.0043     0.1385     0.2647
  642.5000   -59.5459    11.4055    11.0978    10.6976   110.0209     2.4239     7.9342    -0.0146     0.1523     0.2651
  643.0000   -59.7149    11.4939    11.1622    10.7661   111.0964     2.4014     7.9320    -0.0339     0.1640     0.2447
  643.5000   -59.8221    11.5827    11.2271    10.8150   114.8566     2.4291     7.9297    -0.0148     0.1649     0.2371
  644.0000   -59.9163    11.6723    11.2923    10.8641   117.5198     2.4696     7.9274     0.0056     0.1222     0.2388
  644.5000   -60.0099    11.7622    11.3578    10.9133   117.1521     2.4971     7.9250     0.0293     0.1086     0.2412
  645.0000   -60.1056    11.8374    11.4238    10.9628   115.0622     2.4804     7.9277     0.0215     0.1202     0.2419
  645.5000   -60.0392    11.8374    11.5162    11.0124   112.9808     2.4630     7.9315     0.0135     0.1303     0.2385
  646.0000   -59.8778    11.8374    11.4609    11.0621   110.8973     2.4502     7.9354     0.0162     0.1352     0.2371
  646.5000   -59.7119    11.6324    11.3365    11.0986   109.6054     2.4547     7.9393     0.0183     0.1347     0.2492
  647.0000   -59.5465    11.4391    11.2127    10.9852   108.9303     2.4596     7.9432     0.0166     0.1305     0.2617
  647.5000   -59.7462    11.2490    11.0904    10.8965   108.9777     2.4544     7.9471     0.0157     0.1308     0.2602
  648.0000   -60.0521    11.2016    10.9696    10.8083   111.5950     2.4469     7.9510     0.0230     0.1385     0.2348
  648.5000   -60.7556    11.2016    10.8891    10.7209   114.1249     2.4491     7.9549     0.0295     0.1386     0.2224
  649.0000   -61.7973    11.2016    10.8698    10.6341   113.9107     2.4427     7.9587     0.0188     0.1373     0.2309
  649.5000   -62.8475    11.2016    10.8505    10.5481   112.0369     2.4036     7.9626     0.0007     0.1627     0.2416
  650.0000   -63.8940    11.2016    10.8313    10.4627   110.8453     2.3749     7.9650    -0.0166     0.1804     0.2522
  650.5000   -64.9456    11.2019    10.8121    10.3822   113.4027     2.3752     7.9630    -0.0350     0.1721     0.2611
  651.0000   -65.6833    11.2016    10.7736    10.3101   114.6720     2.4212     7.9611    -0.0169     0.1504     0.2591
  651.5000   -66.1875    11.2016    10.6617    10.2386   114.9445     2.4562     7.9592     0.0062     0.1287     0.2572
  652.0000   -66.2359    10.9532    10.5509    10.1676   115.1910     2.4790     7.9574     0.0134     0.1186     0.2579
  652.5000   -66.2977    10.7268    10.4413    10.1234   115.4120     2.4475     7.9555     0.0031     0.1407     0.2611
  653.0000   -66.3609    10.5051    10.3328     9.9913   114.2640     2.4314     7.9536    -0.0016     0.1505     0.2627
  653.5000   -66.4240    10.2879    10.2181     9.8133   113.0158     2.4199     7.9518    -0.0014     0.1533     0.2595
  654.0000   -66.4867    10.0753     9.8984     9.4036   112.3857     2.4210     7.9499     0.0045     0.1485     0.2520
  654.5000   -66.5464     9.8670     9.5648     9.0110   113.5169     2.4421     7.9481     0.0287     0.1348     0.2446
  655.0000   -66.8022     9.7445     9.2404     8.6348   116.1301     2.4637     7.9461     0.0378     0.1258     0.2411
  655.5000   -67.3122     9.7166     9.1396     8.2743   119.5090     2.4726     7.9404     0.0363     0.1215     0.2439
  656.0000   -68.0910     9.6888     9.1118     8.1925   121.3430     2.4757     7.9274     0.0344     0.1171     0.2576
