~VERSION INFORMATION
 VERS.                2.0:   CWLS LOG ASCII STANDARD - VERSION 2.0
 WRAP.                 NO:   ONE LINE PER DEPTH STEP
~WELL INFORMATION
#MNEM.UNIT      DATA TYPE    INFORMATION
#----------   ------------   ------------------------------
 STRT.F           48.0000:   START DEPTH
 STOP.F          539.0000:   STOP DEPTH
 STEP.F            0.5000:   STEP LENGTH
 NULL.          -999.2500:   NO VALUE
 COMP. LAWRENCE/ALLISON INC:   COMPANY
 WELL.   57-21 SHX #10-10:   WELL
 FLD .             TEAPOT:   FIELD
 LOC .      S10 T38N R78W:   LOCATION
 CNTY.            NATRONA:   COUNTY
 STAT.            WYOMING:   STATE
 CTRY. UNITED STATES OF AMERICA:   COUNTRY
 SRVC.           Gearhart:   SERVICE COMPANY
 DATE.        12-JUN-1986:   LOGDATE
 API .       490251108700:   API NUMBER
~CURVE INFORMATION
#MNEM.UNIT       API CODE    CURVE DESCRIPTION
#----------   ------------   ------------------------------
 DEPT.F                  :   
 GRR .GAPI   11 310 01 00:   GAMMA RAY FROM RES.
 LLA .OHMM   11 220 00 00:   LATEROLOG AVERAGE RES.
 RILD.OHMM   07 120 46 00:   INDUCTION LOG DEEP RESISTIVITY
 RILM.OHMM   07 120 44 00:   INDUCTION LOG MEDIUM RESISTIVITY
~PARAMETER INFORMATION
#MNEM.UNIT          VALUE    DESCRIPTION
#----------   ------------   ------------------------------
 PD  .                 GL:   PERMANENT DATUM
 EPD .F              5196:   ELEVATION PERMANENT DATUM
 LMF .                 KB:   LOG MEASURED FROM
 DAPD.F                 5:   FEET ABOVE PERMANENT DATUM
 DMF .                 KB:   DRILLING MEASURED FROM
 EKB .F              5201:   KELLING BUSHING
 EGL .F              5196:   GROUND LEVEL
 DATE.           61-12-86:   RUN DATE
 RUN .                  1:   RUN NUMBER
 DD  .F               545:   DEPTH DRILLER
 DL  .F             543.5:   DEPTH LOGGER
 BLI .F             539.5:   BOTTOM LOG INTERVAL
 TLI .F                48:   TOP LOG INTERVAL
 CS  .IN            8.625:   CASING SIZE
 CBD .F                47:   CASING BOTTOM DRILLER
 BS  .IN            7.875:   BIT SIZE
 BSD .F               545:   BIT SIZE AT DEPTH
 DFT .          FRESH-MUD:   DRILLING FLUID TYPE
 DFD .                9.3:   DRILLING FLUID DENSITY
 DFV .                 38:   DRILLING FLUID VISCOSITY
 MSS .           FLOWLINE:   MUD SAMPLE SOURCE
 RMS .OHMM            .51:   RESISTIVITY MUD SAMPLE
 MST .F                82:   MUD SAMPLE TEMPERATURE
 RMF .OHMM            .38:   RESISTIVITY MUD FILTRATE SAMPLE
 MFST.F                78:   MUD FILTRATE SAMPLE TEMPERATURE
 RMC .OHMM            .65:   RESISTIVITY MUD CAKE
 MCST.F                79:   MUD CAKE SAMPLE TEMPERATURE
 MFSS.                  M:   MUD FILTRATE SAMPLE SOURCE
 MCSS.                  M:   MUD CAKE SAMPLE SOURCE
 RMB .OHMM            .49:   RESISTIVITY MUD AT BHT
 BHT .F                85:   BOTTOM HOLE TEMPERATURE
 TCS .HRS            1800:   TIME CURCULATED STOPPED
 TLAB.HRS            2000:   TIME LOGGER AT BOTTOM
 MRT .F                85:   MAXIMUM RECORDED TEMPERATURE
 LUN .               7609:   LOGGING UNIT NUMBER
 LUL .           GILLETTE:   LOGGING UNIT LOCATION
 ENGI.              BAUER:   RECORDING ENGINEER
 WITN.              FIVAS:   WITNESSED BY
 CLNT.            A2DTECH:   CLIENT CODE
 ORIG.       2", 5" PRINT:   ORIGIN OF DATA
 UWI .       490251108700:   UNIQUE WELL ID
 DICO. A2D Technologies, Inc.:   DIGITIZING COMPANY
~OTHER INFORMATION
~A   DEPT       GRR       LLA       RILD       RILM   
# ...
  413.0000    77.5734    14.9188    21.4002    20.7861
  413.5000    76.3230    14.5090    20.9212    20.3368
  414.0000    75.0370    13.9872    20.4529    19.8974
  414.5000    74.7485    13.4605    19.9951    19.4673
  415.0000    76.5688    12.9536    19.5475    19.0465
  415.5000    78.3584    12.7371    19.1415    18.6350
  416.0000    80.2250    12.6244    18.9050    18.2323
  416.5000    79.8860    12.5023    18.6715    18.0356
  417.0000    77.8028    12.6389    18.4786    17.9016
  417.5000    75.2936    12.7371    18.3061    17.7686
  418.0000    72.7101    12.4510    18.0828    17.6365
  418.5000    70.1573    12.2115    17.8617    17.5055
  419.0000    71.5481    12.1002    17.6394    17.3754
  419.5000    73.4532    12.0247    17.5441    17.2463
  420.0000    75.4192    11.9499    17.4471    17.1182
  420.5000    74.4872    11.9051    17.3505    16.9910
  421.0000    72.8570    11.8682    17.2545    16.8648
  421.5000    73.2976    11.8314    17.1590    16.7395
  422.0000    75.3585    11.7157    17.0641    16.6151
  422.5000    74.7198    11.6056    16.9695    16.4917
  423.0000    71.9893    11.6056    16.8769    16.3691
  423.5000    69.4053    11.5846    16.7750    16.2475
  424.0000    71.0894    11.4771    16.6164    16.1378
  424.5000    75.8169    11.3707    16.4594    15.9961
  425.0000    80.5481    11.2652    16.3039    15.8556
  425.5000    81.5783    11.1606    16.1498    15.7164
  426.0000    79.0855    11.0256    15.9972    15.5785
  426.5000    78.8744    10.9382    15.8460    15.4417
  427.0000    78.3170    10.8919    15.6963    15.3061
  427.5000    77.2468    10.8458    15.5480    15.0590
  428.0000    76.1683    10.8000    15.4010    14.9883
  428.5000    76.4714    10.7123    15.2555    14.9186
  429.0000    80.2620    10.5665    15.1377    14.8493
  429.5000    83.9865    10.4226    15.0372    14.7802
  430.0000    84.0354    10.2835    14.9375    14.7115
  430.5000    81.5341    10.3097    14.8816    14.6431
  431.0000    79.5990    10.3418    14.8205    14.5750
  431.5000    77.9685    10.3796    14.7597    14.5072
  432.0000    76.3463    10.3132    14.6991    14.4397
  432.5000    76.4950    10.2707    14.6388    14.3746
  433.0000    80.1846    10.2408    14.5787    14.3746
  433.5000    83.2664    10.2110    14.5188    14.3746
  434.0000    84.1491    10.1883    14.5090    14.3746
  434.5000    81.6027    10.5746    14.5088    14.3746
  435.0000    80.1775    10.2835    14.5090    14.3746
  435.5000    79.4937    10.4186    14.5092    14.3747
  436.0000    77.8817    10.5746    14.5078    14.3742
  436.5000    78.0087    10.1883    14.4737    14.3758
  437.0000    80.6424    10.1777    14.4400    14.2943
  437.5000    84.3009    10.1652    14.4066    14.2188
  438.0000    87.1185    10.1528    14.3761    14.1433
  438.5000    86.6768    10.1403    14.2966    14.0681
  439.0000    85.7301    10.1279    14.2065    13.9934
  439.5000    84.7813    10.1153    14.1164    13.9190
  440.0000    84.9218    10.1030    14.0269    13.8495
  440.5000    85.5322    10.0939    13.9380    13.7359
  441.0000    85.6082     9.9596    13.8497    13.6296
  441.5000    83.1066     9.8061    13.7620    13.5242
  442.0000    81.0752     9.6551    13.6746    13.4195
  442.5000    80.1396     9.5698    13.5943    13.3431
  443.0000    81.4499     9.4954    13.5798    13.3246
  443.5000    80.4514     9.4560    13.5639    13.3069
  444.0000    78.9980     9.5758    13.5476    13.2891
  444.5000    80.4180     9.6889    13.5315    13.2715
  445.0000    83.0316     9.8024    13.5153    13.2538
  445.5000    85.3992     9.8353    13.4991    13.2364
  446.0000    84.8530     9.8572    13.4827    13.2196
  446.5000    85.2259     9.8792    13.4673    13.1629
  447.0000    86.5424     9.9098    13.4100    13.1104
  447.5000    88.7581     9.8264    13.3566    13.0581
  448.0000    90.1878     9.6653    13.3033    13.0061
  448.5000    87.3888     9.5057    13.2502    12.9543
  449.0000    85.3132     9.4575    13.1974    12.9023
  449.5000    86.0481     9.4566    13.1448    12.8578
  450.0000    88.0891     9.4585    13.0976    12.7223
  450.5000    87.9510     9.2795    12.9458    12.5749
  451.0000    85.7258     9.2539    12.7793    12.4292
  451.5000    84.8953     9.2265    12.6149    12.2852
  452.0000    85.3588     9.1972    12.4594    12.1429
  452.5000    87.8995     9.0258    12.3208    12.0022
  453.0000    90.5273     8.8510    12.1837    11.8632
  453.5000    90.5269     8.7779    12.0482    11.7033
  454.0000    88.7585     8.6983    11.9142    11.5367
  454.5000    87.0082     8.7552    11.7662    11.3724
  455.0000    85.6866     8.8182    11.5852    11.2105
  455.5000    84.6799     8.8612    11.3710    11.0508
  456.0000    83.7684     8.5445    11.1338    10.8933
  456.5000    86.2074     8.3124    10.9006    10.7355
  457.0000    88.7023     8.0866    10.6729    10.5811
  457.5000    87.0200     7.8518    10.3930    10.6692
  458.0000    85.2913     7.7690     9.7706    10.3681
  458.5000    83.5725     7.6040     9.1854     9.9908
  459.0000    82.0428     7.4411     8.6353     9.4124
  459.5000    81.6216     7.2976     8.1181     8.7018
  460.0000    85.4146     6.7084     7.6320     8.0448
  460.5000    90.5279     6.0587     7.1749     7.4375
  461.0000    95.6673     5.4714     6.7452     7.0809
  461.5000   100.4648     5.1181     6.3985     6.7136
  462.0000   104.2311     5.2040     6.7096     6.2806
  462.5000   107.9396     5.8245     6.9251     6.4583
  463.0000   106.8770     6.5189     7.0224     6.9100
  463.5000   101.3834     7.0281     7.5335     7.3964
  464.0000    96.7609     7.4922     8.1105     7.8554
  464.5000    92.5512     8.0039     8.7317     8.3428
  465.0000    88.9533     8.0015     9.4005     8.8606
  465.5000    87.4127     8.0499    10.0404     9.4104
  466.0000    87.0267     8.1005    10.2913     9.7240
  466.5000    88.5954     8.2639    10.5484     9.9625
  467.0000    90.3092     8.3300    10.8119    10.2070
  467.5000    92.5245     8.3802    10.9717    10.4574
  468.0000    95.8770     8.5616    11.1003    10.7139
  468.5000    99.2202     8.7527    11.2304    10.9557
  469.0000   101.1633     8.9481    11.3620    11.1966
  469.5000    97.7338     9.1120    11.5547    11.4428
  470.0000    94.0312     9.2643    11.7683    11.6135
  470.5000    92.1494     9.4227    11.9857    11.8200
  471.0000    94.2632     9.5838    12.2072    12.0283
  471.5000    95.4579     9.7476    12.4327    12.2403
  472.0000    95.0974     9.9142    12.6696    12.4562
  472.5000    91.7802    10.0837    12.9415    12.6756
  473.0000    88.1567    10.2564    13.2194    12.8945
  473.5000    89.0991    10.4310    13.3085    13.0964
  474.0000    91.8191    10.5739    13.3967    13.3014
  474.5000    93.2435    10.4963    13.4860    13.4683
  475.0000    91.4168    10.4312    13.5761    13.5031
  475.5000    91.4539    10.3796    13.6486    13.5382
  476.0000    93.2651    10.4859    13.7170    13.5733
  476.5000    93.7972    10.5751    13.7857    13.6085
  477.0000    90.8296    10.6651    13.8548    13.6438
  477.5000    87.9561    10.7559    13.9239    13.6791
  478.0000    87.2805    10.8738    13.9788    13.7209
  478.5000    88.4392    10.8738    13.9587    13.6995
  479.0000    87.8392    10.8243    13.9419    13.6641
  479.5000    83.9263    10.5974    13.9254    13.6287
  480.0000    80.3794    10.3796    13.9088    13.5942
  480.5000    78.6691    10.4137    13.8921    13.5726
  481.0000    80.7387    10.4470    13.8754    13.5516
  481.5000    82.7763    10.4809    13.8594    13.5306
  482.0000    84.3699    10.5147    13.8305    13.5095
  482.5000    84.7614    10.5485    13.7368    13.4891
  483.0000    85.1754    10.5746    13.6456    13.4678
  483.5000    86.2162    10.4912    13.5550    13.3399
  484.0000    88.9901    10.4240    13.4651    13.2157
  484.5000    93.4578    10.3572    13.3757    13.0931
  485.0000    95.9651    10.2909    13.2157    12.9722
  485.5000    96.7625    10.2240    13.0179    12.8561
