~VERSION INFORMATION
 VERS.                2.0:   CWLS LOG ASCII STANDARD - VERSION 2.0
 WRAP.                 NO:   ONE LINE PER DEPTH STEP
~WELL INFORMATION
#MNEM.UNIT      DATA TYPE    INFORMATION
#----------   ------------   ------------------------------
 STRT.F           38.0000:   START DEPTH
 STOP.F          663.5000:   STOP DEPTH
 STEP.F            0.5000:   STEP LENGTH
 NULL.          -999.2500:   NO VALUE
 COMP. FENIX & SCISSON INC:   COMPANY
 WELL.   NPR SX #3 #35-34:   WELL
 FLD .             TEAPOT:   FIELD
 LOC .      S34 T39N R78W:   LOCATION
 CNTY.            NATRONA:   COUNTY
 STAT.            WYOMING:   STATE
 CTRY. UNITED STATES OF AMERICA:   COUNTRY
 SRVC.       Schlumberger:   SERVICE COMPANY
 DATE.        21-MAR-1977:   LOGDATE
 API .       490251031500:   API NUMBER
~CURVE INFORMATION
#MNEM.UNIT       API CODE    CURVE DESCRIPTION
#----------   ------------   ------------------------------
 DEPT.F                  :   
 SPR .MV     07 010 01 00:   SPONTANEOUS POTENTIAL
 LL8 .OHMM   07 220 08 00:   LATEROLOG-8 RES.
 ILD .OHMM   07 120 46 00:   INDUCTION LOG DEEP
 ILM .OHMM   07 120 44 00:   INDUCTION LOG MEDIUM
 CALD.IN     45 280 60 00:   CALIPER
 RHOB.G/C3   45 350 01 00:   BULK DENSITY
 DPHI.DEC    45 890 12 00:   DENSITY POROSITY SANDSTONE
 CORR.G/C3   45 356 01 00:   DENSITY CORRECTION
 GRD .GAPI   45 310 01 00:   GAMMA RAY FROM DENSITY LOG
~PARAMETER INFORMATION
#MNEM.UNIT          VALUE    DESCRIPTION
#----------   ------------   ------------------------------
 PD  .                 GL:   PERMANENT DATUM
 EPD .F              5081:   ELEVATION PERMANENT DATUM
 LMF .                 GL:   LOG MEASURED FROM
 DMF .                 KB:   DRILLING MEASURED FROM
 EKB .F              5086:   KELLING BUSHING
 EGL .F              5081:   GROUND LEVEL
 DATE.          3-21-1977:   RUN DATE
 RUN .                  1:   RUN NUMBER
 DD  .F               670:   DEPTH DRILLER
 DL  .F               665:   DEPTH LOGGER
 BLI .F               659:   BOTTOM LOG INTERVAL
 TLI .F                40:   TOP LOG INTERVAL
 CS  .IN            8.625:   CASING SIZE
 CBD .F                40:   CASING BOTTOM DRILLER
 CBL .F                40:   CASING BOTTOM LOGGER
 BS  .IN            7.875:   BIT SIZE
 BSD .F               670:   BIT SIZE AT DEPTH
 DFT .           CHEM GEL:   DRILLING FLUID TYPE
 DFV .                 33:   DRILLING FLUID VISCOSITY
 MSS .           MUD TANK:   MUD SAMPLE SOURCE
 RMS .OHMM           4.98:   RESISTIVITY MUD SAMPLE
 MST .F                53:   MUD SAMPLE TEMPERATURE
 RMF .OHMM           4.94:   RESISTIVITY MUD FILTRATE SAMPLE
 MFST.F                53:   MUD FILTRATE SAMPLE TEMPERATURE
 RMC .OHMM            2.5:   RESISTIVITY MUD CAKE
 MCST.F                53:   MUD CAKE SAMPLE TEMPERATURE
 MFSS.                  M:   MUD FILTRATE SAMPLE SOURCE
 MCSS.                  C:   MUD CAKE SAMPLE SOURCE
 RMB .OHMM              4:   RESISTIVITY MUD AT BHT
 BHT .F                65:   BOTTOM HOLE TEMPERATURE
 TCS .HRS            1000:   TIME CURCULATED STOPPED
 TLAB.HRS            1400:   TIME LOGGER AT BOTTOM
 MRT .F                65:   MAXIMUM RECORDED TEMPERATURE
 LUN .               7742:   LOGGING UNIT NUMBER
 LUL .                GLT:   LOGGING UNIT LOCATION
 ENGI.               LANE:   RECORDING ENGINEER
 WITN.              BURKE:   WITNESSED BY
 CLNT.            A2DTECH:   CLIENT CODE
 ORIG.       2", 5" PRINT:   ORIGIN OF DATA
 UWI .       490251031500:   UNIQUE WELL ID
 DICO. A2D Technologies, Inc.:   DIGITIZING COMPANY
~OTHER INFORMATION
~A   DEPT      SPR        LL8        ILD        ILM       CALD       RHOB       DPHI       CORR         GRD  
# ...
  147.5000   -67.2951     8.4898     7.4150     6.5497     8.1241     2.4502     0.1259     0.0152   119.1014
  148.0000   -67.2761     8.6676     7.5245     6.6367     8.1251     2.4495     0.1210     0.0214   116.5016
  148.5000   -67.2569     8.8491     7.6356     6.6354     8.1260     2.4533     0.1235     0.0285   114.2962
  149.0000   -67.2382     9.0351     7.7483     6.6358     8.1270     2.4542     0.1207     0.0339   113.2844
  149.5000   -67.1879     9.2523     7.8626     6.6358     8.1279     2.4539     0.1208     0.0261   113.6684
  150.0000   -67.1149     9.1429     7.9784     6.7000     8.1288     2.4504     0.1229     0.0192   115.5002
  150.5000   -67.0411     8.9811     8.0988     6.8361     8.1298     2.4483     0.1241     0.0218   117.9585
  151.0000   -66.9672     8.8233     8.2083     6.9759     8.1307     2.4558     0.1203     0.0245   119.4289
  151.5000   -66.8936     8.7523     8.2091     7.1184     8.1317     2.4651     0.1164     0.0270   120.8790
  152.0000   -66.8320     9.1520     8.2219     7.2633     8.1326     2.4699     0.1169     0.0227   122.3590
  152.5000   -66.8335     9.4623     8.2291     7.4129     8.1336     2.4565     0.1235     0.0139   122.4763
  153.0000   -66.8336     9.7761     8.2364     7.3853     8.1345     2.4486     0.1236     0.0153   120.6429
  153.5000   -66.8336     9.6458     8.2437     7.3507     8.1355     2.4483     0.1238     0.0145   117.3335
  154.0000   -66.8340     9.5172     8.2510     7.3162     8.1364     2.4511     0.1220     0.0120   114.0637
  154.5000   -66.8522     9.4229     8.2583     7.2819     8.1374     2.4617     0.1198     0.0168   112.3467
  155.0000   -66.8901     9.5190     8.2657     7.2478     8.1383     2.4482     0.1259     0.0228   115.6429
  155.5000   -66.9280     9.6874     8.2730     7.2139     8.1393     2.4344     0.1329     0.0185   120.0078
  156.0000   -66.9659     9.6023     8.2809     7.1409     8.1402     2.4208     0.1400     0.0121   122.1444
  156.5000   -67.0039     9.4367     8.1833     7.0643     8.1412     2.4142     0.1455     0.0068   123.5378
  157.0000   -67.0418     9.2740     8.0783     6.9886     8.1421     2.4181     0.1367     0.0087   126.0859
  157.5000   -67.0797     9.1140     7.9746     6.9136     8.1431     2.4410     0.1281     0.0244   127.2140
  158.0000   -67.1176     8.9569     7.8723     6.8395     8.1440     2.4596     0.1208     0.0308   128.2609
  158.5000   -67.1556     8.8334     7.7713     6.7662     8.1449     2.4495     0.1226     0.0161   128.5151
  159.0000   -67.1940     8.9044     7.6715     6.6936     8.1459     2.4526     0.1238     0.0186   126.4024
  159.5000   -67.2324     8.9929     7.5731     6.6219     8.1468     2.4714     0.1199     0.0238   123.4660
  160.0000   -67.2019     9.0830     7.4816     6.5509     8.1478     2.4790     0.1160     0.0200   119.9115
  160.5000   -67.1656     9.1651     7.4954     6.4806     8.1487     2.4683     0.1134     0.0216   118.0307
  161.0000   -67.1296     9.0632     7.5114     6.4111     8.1497     2.4676     0.1155     0.0272   119.7259
  161.5000   -67.0936     8.9691     7.5275     6.3370     8.1497     2.4623     0.1177     0.0271   121.3598
  162.0000   -67.0577     8.8334     7.5435     6.3583     8.1494     2.4571     0.1199     0.0244   123.0656
  162.5000   -67.0218     8.8709     7.5597     6.3829     8.1490     2.4526     0.1206     0.0211   123.3420
  163.0000   -66.9858     8.9405     7.5758     6.4074     8.1487     2.4566     0.1191     0.0178   123.1558
  163.5000   -66.9499     9.0108     7.5920     6.4318     8.1483     2.4606     0.1175     0.0187   123.7484
  164.0000   -66.9140     9.0818     7.6082     6.4563     8.1479     2.4666     0.1161     0.0232   130.0616
  164.5000   -66.8781     9.1531     7.6245     6.4810     8.1476     2.4713     0.1142     0.0276   135.8519
  165.0000   -66.8419     9.2506     7.6408     6.5057     8.1472     2.4660     0.1156     0.0253   138.7429
  165.5000   -66.7963     9.1972     7.6571     6.5526     8.1468     2.4607     0.1177     0.0154   138.0564
  166.0000   -66.7476     9.1153     7.6735     6.6121     8.1465     2.4574     0.1191     0.0115   135.4428
  166.5000   -66.6988     9.0341     7.6899     6.6721     8.1461     2.4514     0.1246     0.0119   132.7904
  167.0000   -66.6501     8.9153     7.7063     6.7326     8.1457     2.4387     0.1309     0.0080   131.3347
  167.5000   -66.6013     8.9372     7.7228     6.7937     8.1454     2.4269     0.1397     0.0040   132.0408
  168.0000   -66.5526     8.9792     7.7393     6.8326     8.1450     2.4295     0.1333    -0.0002   132.9783
  168.5000   -66.5038     9.0215     7.7558     6.8632     8.1446     2.4341     0.1367     0.0023   133.9277
  169.0000   -66.4553     9.0639     7.7752     6.8939     8.1443     2.4385     0.1284     0.0067   134.7859
  169.5000   -66.3640     9.1832     7.8436     6.9248     8.1439     2.4469     0.1251     0.0111   133.4330
  170.0000   -66.2377     9.4402     7.9126     6.9593     8.1435     2.4534     0.1211     0.0155   131.9847
  170.5000   -66.1115     9.6874     7.9822     7.0061     8.1432     2.4506     0.1232     0.0201   130.9478
  171.0000   -65.9852     9.5562     8.0524     7.0533     8.1428     2.4484     0.1246     0.0226   131.0501
  171.5000   -65.8589     9.4511     8.1232     7.1144     8.1425     2.4518     0.1191     0.0230   131.1299
  172.0000   -65.7327     9.3363     8.1946     7.1920     8.1421     2.4551     0.1233     0.0129   131.1871
  172.5000   -65.6064     9.6206     8.2667     7.2703     8.1417     2.4425     0.1283     0.0025   130.4545
  173.0000   -65.4802     9.9488     8.3394     7.3496     8.1414     2.4450     0.1264     0.0045   128.4489
  173.5000   -65.3539    10.2388     8.4128     7.4297     8.1410     2.4487     0.1243     0.0128   131.6264
  174.0000   -65.2277    10.2155     8.4868     7.4816     8.1406     2.4472     0.1243     0.0071   136.4116
  174.5000   -65.1014    10.1909     8.5614     7.4476     8.1403     2.4436     0.1264     0.0114   138.1147
  175.0000   -64.9751    10.1664     8.5995     7.4226     8.1399     2.4424     0.1274     0.0091   135.5196
  175.5000   -64.8484    10.1420     8.6179     7.3978     8.1395     2.4423     0.1272     0.0087   131.0400
  176.0000   -64.7226    10.1176     8.6363     7.3730     8.1392     2.4425     0.1291     0.0117   126.9925
  176.5000   -64.6428    10.0932     8.6547     7.3483     8.1388     2.4516     0.1228     0.0120   125.8802
  177.0000   -64.7166    10.0689     8.6719     7.3235     8.1384     2.4620     0.1148     0.0104   125.7908
  177.5000   -64.7861    10.0516     8.7523     7.2991     8.1381     2.4724     0.1068     0.0184   122.0543
  178.0000   -64.8556    10.2559     8.9153     7.2772     8.1377     2.4778     0.1038     0.0266   117.9508
  178.5000   -64.9250    10.5876     9.0367     7.4458     8.1373     2.4685     0.1111     0.0246   114.9241
  179.0000   -64.9945    10.9341     9.1720     7.6018     8.1370     2.4569     0.1173     0.0152   119.0905
  179.5000   -65.0639    11.1477     9.3094     7.7611     8.1366     2.4513     0.1230     0.0104   124.2213
  180.0000   -65.1333    11.3652     9.4488     7.9236     8.1362     2.4670     0.1123     0.0231   127.7541
  180.5000   -65.2027    11.5652     9.5903     8.0895     8.1359     2.4763     0.1047     0.0224   128.0398
  181.0000   -65.2723    11.6698     9.7339     8.2589     8.1355     2.4859     0.0993     0.0315   127.9659
  181.5000   -65.3417    11.7764     9.8796     8.3577     8.1351     2.4935     0.0942     0.0403   124.4219
  182.0000   -65.4141    11.8840    10.0276     8.3577     8.1348     2.4802     0.1027     0.0253   116.7608
  182.5000   -65.3245    11.9925    10.1777     8.3577     8.1344     2.4687     0.1102     0.0170   112.3053
  183.0000   -65.1201    12.1020    10.3301     8.3570     8.1341     2.4724     0.1081     0.0170   111.8431
  183.5000   -64.9155    12.2408    10.4848     8.4361     8.1337     2.4756     0.1062     0.0170   115.6228
