~VERSION INFORMATION
 VERS.                2.0:   CWLS LOG ASCII STANDARD - VERSION 2.0
 WRAP.                 NO:   ONE LINE PER DEPTH STEP
~WELL INFORMATION
#MNEM.UNIT      DATA TYPE    INFORMATION
#----------   ------------   ------------------------------
 STRT.F           42.0000:   START DEPTH
 STOP.F          533.0000:   STOP DEPTH
 STEP.F            0.5000:   STEP LENGTH
 NULL.          -999.2500:   NO VALUE
 COMP.    FENIX & SCISSON:   COMPANY
 WELL.      NPR-3 #38S3-3:   WELL
 FLD .             TEAPOT:   FIELD
 LOC .       S3 T38N R78W:   LOCATION
 CNTY.            NATRONA:   COUNTY
 STAT.            WYOMING:   STATE
 CTRY. UNITED STATES OF AMERICA:   COUNTRY
 SRVC.           BIRDWELL:   SERVICE COMPANY
 DATE.        29-JUN-1978:   LOGDATE
 API .       490251066300:   API NUMBER
~CURVE INFORMATION
#MNEM.UNIT       API CODE    CURVE DESCRIPTION
#----------   ------------   ------------------------------
 DEPT.F                  :   
 ILD .OHMM   05 120 46 00:   INDUCTION LOG DEEP
 SN  .OHMM   05 040 16 00:   SHORT NORMAL 16"
 SPR .MV     05 010 01 00:   SPONTANEOUS POTENTIAL FROM RES.
 CALD.IN     45 280 60 00:   CALIPER FROM DENSITY LOG
 CORR.G/C3   45 356 01 00:   DENSITY CORRECTION
 DPHI.DEC    45 890 12 00:   DENSITY POROSITY SANDSTONE
 GRD .GAPI   45 310 01 00:   GAMMA RAY FROM DENSITY LOG
 RHOB.G/C3   45 350 01 00:   BULK DENSITY
~PARAMETER INFORMATION
#MNEM.UNIT          VALUE    DESCRIPTION
#----------   ------------   ------------------------------
 PD  .                 GL:   PERMANENT DATUM
 EPD .F              5238:   ELEVATION PERMANENT DATUM
 LMF .                 KB:   LOG MEASURED FROM
 DAPD.F                 4:   FEET ABOVE PERMANENT DATUM
 DMF .                 KB:   DRILLING MEASURED FROM
 EKB .F              5242:   KELLING BUSHING
 EGL .F              5238:   GROUND LEVEL
 DATE.        29-JUN-1978:   RUN DATE
 RUN .                  1:   RUN NUMBER
 DD  .F               530:   DEPTH DRILLER
 DL  .F               540:   DEPTH LOGGER
 BLI .F               533:   BOTTOM LOG INTERVAL
 TLI .F                40:   TOP LOG INTERVAL
 CS  .IN            8.625:   CASING SIZE
 CBD .F                40:   CASING BOTTOM DRILLER
 BS  .IN            7.875:   BIT SIZE
 BSD .F               530:   BIT SIZE AT DEPTH
 DFT .                KCL:   DRILLING FLUID TYPE
 DFD .                8.7:   DRILLING FLUID DENSITY
 DFV .                 34:   DRILLING FLUID VISCOSITY
 DFPH.                9.5:   DRILLING FLUID PH
 MSS .           FLOWLINE:   MUD SAMPLE SOURCE
 RMS .OHMM            0.2:   RESISTIVITY MUD SAMPLE
 MST .F                82:   MUD SAMPLE TEMPERATURE
 RMF .OHMM           0.18:   RESISTIVITY MUD FILTRATE SAMPLE
 MFST.F                82:   MUD FILTRATE SAMPLE TEMPERATURE
 RMC .OHMM           0.14:   RESISTIVITY MUD CAKE
 MCST.F                82:   MUD CAKE SAMPLE TEMPERATURE
 MFSS.               MEAS:   MUD FILTRATE SAMPLE SOURCE
 TCS .HRS               1:   TIME CURCULATED STOPPED
 LUN .               2958:   LOGGING UNIT NUMBER
 LUL .             CASPER:   LOGGING UNIT LOCATION
 ENGI.             MILLER:   RECORDING ENGINEER
 WITN.         ZARGARNIAN:   WITNESSED BY
 CLNT.            A2DTECH:   CLIENT CODE
 ORIG.           5" PRINT:   ORIGIN OF DATA
 UWI .       490251066300:   UNIQUE WELL ID
 DICO. A2D Technologies, Inc.:   DIGITIZING COMPANY
~OTHER INFORMATION
~A   DEPT      ILD         SN        SPR       CALD       CORR       DPHI         GRD      RHOB   
# ...
  285.0000     4.6404     5.4277   -19.2030     7.3278     0.0307     0.1589    83.7449     2.4367
  285.5000     4.6607     5.5082   -19.0544     7.2678     0.0381     0.1562    78.1054     2.4300
  286.0000     4.7751     5.7385   -18.9051     7.2826     0.0455     0.1520    75.5598     2.4210
  286.5000     4.9060     5.9412   -18.4558     7.3588     0.0484     0.1460    74.6609     2.4824
  287.0000     5.0790     6.1511   -18.1845     7.4470     0.0305     0.1406    75.1123     2.5056
  287.5000     5.2581     6.3246   -17.7820     7.5217     0.0140     0.1358    81.5455     2.4757
  288.0000     5.4812     6.4583   -17.4078     7.5515     0.0109     0.1415    86.9340     2.4599
  288.5000     5.6385     6.5950   -17.2589     7.5513    -0.0040     0.1478    86.1848     2.4502
  289.0000     5.8747     6.6420   -17.1099     7.5212     0.0004     0.1433    86.1811     2.4419
  289.5000     5.9572     6.7526   -17.1114     7.4462     0.0048     0.1289    87.0815     2.4816
  290.0000     6.1248     6.8307   -17.1128     7.3263     0.0063     0.1246    88.5778     2.4974
  290.5000     6.2538     6.8321   -17.1143     7.2364     0.0062     0.1268    89.7747     2.4869
  291.0000     6.3856     6.8811   -17.1160     7.2512     0.0047     0.1325    90.6721     2.4794
  291.5000     6.4752     6.8824   -17.1175     7.2810     0.0031     0.1373    91.2702     2.4727
  292.0000     6.4763     6.8361   -17.1189     7.3108     0.0105     0.1419    88.2753     2.4643
  292.5000     6.4771     6.8851   -17.2707     7.4009     0.0135     0.1364    85.2806     2.4674
  293.0000     6.4780     6.8865   -17.2722     7.5649     0.0104     0.1286    85.1302     2.4779
  293.5000     6.4586     6.8405   -17.4243     7.6696     0.0058     0.1349    86.9258     2.4816
  294.0000     6.4310     6.7947   -17.7265     7.7144     0.0043     0.1505    88.8712     2.4567
  294.5000     6.3917     6.7029   -17.7280     7.7142     0.0103     0.1445    91.5651     2.4517
  295.0000     6.3048     6.6126   -17.7294     7.6691     0.0147     0.1415    92.7620     2.4577
  295.5000     6.2192     6.4340   -17.7308     7.6091     0.0207     0.1373    92.9110     2.4652
  296.0000     5.9678     6.2600   -18.0334     7.5341     0.0295     0.1401    88.2693     2.4689
  296.5000     5.8452     6.0488   -18.3356     7.4292     0.0369     0.1493    87.0710     2.4517
  297.0000     5.6488     5.8447   -18.7881     7.2943     0.0488     0.1409    86.1721     2.4434
  297.5000     5.4578     5.6866   -19.2407     7.1594     0.0532     0.1262    84.9039     2.4532
  298.0000     5.2733     5.5328   -19.5429     7.0695     0.0517     0.1178    82.5777     2.4966
  298.5000     5.0252     5.3832   -19.3939     7.0394     0.0457     0.1415    81.8287     2.4727
  299.0000     4.6906     5.2018   -19.2450     7.0242     0.0352     0.1682    83.7739     2.4689
  299.5000     4.6269     5.1667   -18.9461     7.0540     0.0306     0.1867    89.1204     2.4554
  300.0000     4.6597     5.2399   -18.4964     7.0928     0.0291     0.2035    92.6712     2.4060
  300.5000     4.7251     5.5388   -18.0046     7.1133     0.0290     0.1912    93.0507     2.3820
  301.0000     4.8580     5.9567   -17.5032     7.0829     0.0290     0.1786    91.2499     2.3955
  301.5000     4.9262     6.5779   -17.1334     7.0618     0.0260     0.1631    88.9479     2.4277
  302.0000     5.1381     6.9987   -16.8298     7.0445     0.0214     0.1535    87.0503     2.4464
  302.5000     5.4654     7.1935   -16.5262     7.0216     0.0184     0.1532    86.5986     2.4464
  303.0000     5.8166     7.3431   -16.3155     7.0212     0.0183     0.1541    86.8945     2.4456
  303.5000     6.3198     7.3422   -16.2195     7.0508     0.0183     0.1538    87.0397     2.4463
  304.0000     6.7725     7.3536   -16.0659     7.0956     0.0197     0.1520    86.8857     2.4501
  304.5000     6.9158     7.3911   -15.9127     7.1845     0.0197     0.1493    87.4809     2.4560
  305.0000     7.0124     7.3899   -15.9098     7.2739     0.0181     0.1445    88.3756     2.4643
  305.5000     7.0713     7.3381   -15.9063     7.3783     0.0166     0.1374    89.3007     2.4717
  306.0000     7.1434     7.3371   -15.9035     7.4683     0.0136     0.1344    90.0144     2.4710
  306.5000     7.2117     7.3361   -15.9008     7.5420     0.0150     0.1347    90.0109     2.4627
  307.0000     7.2626     7.3350   -15.8977     7.5865     0.0179     0.1365    89.4086     2.4597
  307.5000     7.2136     7.3340   -16.0447     7.6161     0.0223     0.1350    88.3408     2.4837
  308.0000     7.1158     7.3331   -16.0418     7.6455     0.0253     0.1290    88.8018     2.4911
  308.5000     7.0191     7.3321   -16.0390     7.6601     0.0312     0.1209    91.0438     2.4829
  309.0000     6.8762     7.3311   -16.0361     7.6446     0.0356     0.1233    93.1361     2.4821
  309.5000     6.7827     7.3300   -16.0326     7.5992     0.0415     0.1251    95.4297     2.4911
  310.0000     6.7837     7.3290   -15.8794     7.5379     0.0460     0.1209    97.1701     2.4881
  310.5000     6.6915     7.3278   -15.8766     7.4486     0.0429     0.1135    94.9211     2.5105
  311.0000     6.6008     7.2264   -15.8737     7.3583     0.0369     0.1117    91.6241     2.5150
  311.5000     6.6017     7.2255   -15.8702     7.2831     0.0324     0.1126    89.0027     2.5090
  312.0000     6.5118     7.2746   -15.8674     7.1904     0.0278     0.1171    90.7180     2.5008
  312.5000     6.5129     7.3240   -15.8645     7.1025     0.0278     0.1270    91.7624     2.4925
  313.0000     6.5140     7.3228   -15.8617     7.0422     0.0292     0.1204    91.3098     2.4843
  313.5000     6.5148     7.3219   -16.0093     6.9968     0.0292     0.1135    90.7074     2.5052
  314.0000     6.5200     7.2205   -16.1568     6.9515     0.0276     0.1222    92.2001     2.5022
  314.5000     6.5538     7.2194   -16.6044     6.9959     0.0231     0.1318    93.2444     2.4910
  315.0000     6.5807     7.2184   -16.7519     7.0553     0.0231     0.1408    93.0912     2.4797
  315.5000     6.5807     7.1678   -16.7489     7.1148     0.0260     0.1447    90.1019     2.4632
  316.0000     6.6263     7.1176   -16.7456     7.1908     0.0289     0.1480    86.4968     2.4535
  316.5000     6.5807     6.9228   -16.7427     7.2785     0.0304     0.1522    90.5352     2.4497
  317.0000     6.4458     6.7798   -16.7398     7.3380     0.0318     0.1540    91.1296     2.4452
  317.5000     6.4014     6.6859   -17.0378     7.3675     0.0317     0.1564    94.1200     2.4362
  318.0000     6.1842     6.5934   -17.3357     7.4120     0.0302     0.1612    98.7572     2.4294
  318.5000     5.9333     6.4574   -17.5424     7.4265     0.0272     0.1648   102.6459     2.4257
  319.0000     5.7319     6.3678   -17.7805     7.4411     0.0211     0.1600   100.5457     2.4279
  319.5000     5.5364     6.2797   -17.9280     7.4256     0.0136     0.1561    98.2967     2.4384
  320.0000     5.3866     6.1927   -18.2252     7.3952     0.0046     0.1541    97.2453     2.4428
  320.5000     5.2762     6.1823   -18.3728     7.3798     0.0031     0.1522    97.2418     2.4436
  321.0000     5.1325     6.0640   -18.3699     7.3943     0.0120     0.1552    97.0876     2.4451
  321.5000     4.9927     6.0632   -18.2160     7.4237     0.0194     0.1564    95.7368     2.4406
  322.0000     4.9242     6.1045   -18.0628     7.4683     0.0283     0.1633    95.7333     2.4278
  322.5000     4.9242     6.1885   -17.9096     7.5426     0.0372     0.1747    95.8795     2.4173
  323.0000     4.9583     6.2306   -17.6060     7.5871     0.0448     0.1798    95.1266     2.3963
  323.5000     4.9927     6.3599   -17.1514     7.6316     0.0431     0.1663    87.7877     2.4360
  324.0000     5.0621     6.4922   -16.9981     7.6161     0.0236     0.1528    84.4917     2.4457
  324.5000     5.1680     6.6272   -16.6946     7.6007     0.0042     0.1436    88.5292     2.4674
  325.0000     5.3866     6.8117   -16.6917     7.5704     0.0088     0.1394    87.0278     2.4659
