~VERSION INFORMATION
 VERS.                2.0:   CWLS LOG ASCII STANDARD - VERSION 2.0
 WRAP.                 NO:   ONE LINE PER DEPTH STEP
~WELL INFORMATION
#MNEM.UNIT      DATA TYPE    INFORMATION
#----------   ------------   ------------------------------
 STRT.F           20.0000:   START DEPTH
 STOP.F          744.0000:   STOP DEPTH
 STEP.F            0.5000:   STEP LENGTH
 NULL.          -999.2500:   NO VALUE
 COMP. FENIX & SCISSON INCORP.:   COMPANY
 WELL.          SX #53-15:   WELL
 FLD .             TEAPOT:   FIELD
 LOC .      S15 T38N R78W:   LOCATION
 CNTY.            NATRONA:   COUNTY
 STAT.            WYOMING:   STATE
 CTRY. UNITED STATES OF AMERICA:   COUNTRY
 SRVC.              Welex:   SERVICE COMPANY
 DATE.        02-MAR-1977:   LOGDATE
 API .       490251030000:   API NUMBER
~CURVE INFORMATION
#MNEM.UNIT       API CODE    CURVE DESCRIPTION
#----------   ------------   ------------------------------
 DEPT.F                  :   
 SGRD.OHMM   07 220 05 00:   SHALLOW RESISTIVITY
 ILD .OHMM   07 120 46 00:   INDUCTION LOG DEEP
 ILM .OHMM   07 120 44 00:   INDUCTION LOG MEDIUM
 SPR .MV     07 010 01 00:   SPONTANEOUS POTENTIAL
 GRD .GAPI   45 310 01 00:   GAMMA RAY FROM DENSITY LOG
 CALD.IN     45 280 60 00:   CALIPER
 RHOB.G/C3   45 350 01 00:   BULK DENSITY
 DPHI.DEC    45 890 10 00:   DENSITY POROSITY SANDSTONE
 CORR.G/C3   45 356 01 00:   DENSITY CORRECTION
~PARAMETER INFORMATION
#MNEM.UNIT          VALUE    DESCRIPTION
#----------   ------------   ------------------------------
 PD  .                 GL:   PERMANENT DATUM
 EPD .F              5253:   ELEVATION PERMANENT DATUM
 LMF .                 GL:   LOG MEASURED FROM
 DMF .                 GL:   DRILLING MEASURED FROM
 EGL .F              5253:   GROUND LEVEL
 DATE.             3-2-77:   RUN DATE
 RUN .                  1:   RUN NUMBER
 DD  .F               750:   DEPTH DRILLER
 DL  .F               747:   DEPTH LOGGER
 BLI .F               745:   BOTTOM LOG INTERVAL
 TLI .F                44:   TOP LOG INTERVAL
 CS  .IN            8.625:   CASING SIZE
 CBD .F                40:   CASING BOTTOM DRILLER
 CBL .F                44:   CASING BOTTOM LOGGER
 BS  .IN            7.875:   BIT SIZE
 BSD .F               750:   BIT SIZE AT DEPTH
 DFT .           CHEM-GEL:   DRILLING FLUID TYPE
 MSS .          FLOW LINE:   MUD SAMPLE SOURCE
 RMS .OHMM           .425:   RESISTIVITY MUD SAMPLE
 MST .F                56:   MUD SAMPLE TEMPERATURE
 RMF .OHMM           .436:   RESISTIVITY MUD FILTRATE SAMPLE
 MFST.F                56:   MUD FILTRATE SAMPLE TEMPERATURE
 RMC .OHMM           .712:   RESISTIVITY MUD CAKE
 MCST.F                56:   MUD CAKE SAMPLE TEMPERATURE
 MFSS.           MEASURED:   MUD FILTRATE SAMPLE SOURCE
 MCSS.           MEASURED:   MUD CAKE SAMPLE SOURCE
 RMB .OHMM            .35:   RESISTIVITY MUD AT BHT
 BHT .F                68:   BOTTOM HOLE TEMPERATURE
 TCS .HRS               2:   TIME CURCULATED STOPPED
 MRT .F                68:   MAXIMUM RECORDED TEMPERATURE
 LUN .               8611:   LOGGING UNIT NUMBER
 LUL .           GILLETTE:   LOGGING UNIT LOCATION
 ENGI.          D. LAWSON:   RECORDING ENGINEER
 WITN.           S. BURKE:   WITNESSED BY
 CLNT.            A2DTECH:   CLIENT CODE
 ORIG.        2" 5" PRINT:   ORIGIN OF DATA
 UWI .       490251030000:   UNIQUE WELL ID
 DICO. A2D Technologies, Inc.:   DIGITIZING COMPANY
~OTHER INFORMATION
~A   DEPT     SGRD        ILD        ILM        SPR         GRD      CALD         RHOB       DPHI      CORR  
# ...
  166.0000    10.2092     7.7041     8.1656   -23.8525   112.3563     8.4307     2.4904     0.0953     0.0510
  166.5000    10.0781     7.2578     7.7143   -23.8466   115.5916     8.4331     2.4912     0.0934     0.0533
  167.0000     9.9475     6.8374     7.2879   -23.8407   115.7480     8.4353     2.4911     0.0935     0.0547
  167.5000     9.8208     6.4414     7.0312   -23.8348   115.2723     8.4375     2.4911     0.0937     0.0558
  168.0000     9.6929     6.3509     7.0602   -23.8289   116.3875     8.4397     2.4909     0.0938     0.0555
  168.5000     9.6175     6.3458     7.0815   -23.8230   117.7930     8.4419     2.4880     0.0952     0.0550
  169.0000     9.9550     6.3408     7.1029   -23.8172   119.9287     8.4441     2.4849     0.0965     0.0545
  169.5000    10.2087     6.3357     7.1243   -23.8142   122.1465     8.4463     2.4853     0.0974     0.0541
  170.0000    10.4689     6.3307     7.1457   -23.8142   123.2928     8.4485     2.4870     0.0965     0.0536
  170.5000    10.7406     6.3257     7.1673   -23.8139   121.1052     8.4500     2.4888     0.0957     0.0531
  171.0000    10.6509     6.3206     7.1889   -23.8145   118.9668     8.4514     2.4853     0.0962     0.0527
  171.5000    10.5603     6.3156     7.2105   -23.8733   116.0647     8.4613     2.4813     0.0980     0.0522
  172.0000    10.4703     6.3106     7.2276   -23.9395   119.0710     8.4658     2.4810     0.0990     0.0518
  172.5000    10.3811     6.3055     7.2170   -24.0050   122.2014     8.4329     2.4830     0.0974     0.0513
  173.0000    10.2932     6.3002     7.2076   -24.0264   123.0727     8.3996     2.4850     0.0965     0.0508
  173.5000    10.2566     6.2956     7.1983   -24.0424   125.0788     8.3655     2.4870     0.0974     0.0503
  174.0000    10.2572     6.3411     7.1890   -24.0583   127.1028     8.3339     2.4892     0.0954     0.0499
  174.5000    10.2573     6.3876     7.1796   -24.0744   127.7401     8.3294     2.4952     0.0919     0.0508
  175.0000    10.2572     6.4343     7.1703   -24.0904   124.2339     8.3291     2.5031     0.0874     0.0516
  175.5000    10.2494     6.4814     7.1610   -24.1064   122.7043     8.3336     2.5141     0.0790     0.0555
  176.0000    10.2058     6.5288     7.1517   -24.1224   123.0676     8.4166     2.5312     0.0706     0.0599
  176.5000    10.1629     6.5765     7.1424   -24.1385   122.5568     8.4972     2.5351     0.0671     0.0644
  177.0000    10.1204     6.6246     7.1331   -24.1545   121.1534     8.5693     2.5265     0.0729     0.0690
  177.5000    10.0700     6.6731     7.1238   -24.1705   118.7643     8.5710     2.5180     0.0789     0.0690
  178.0000    10.6306     6.7218     7.1145   -24.1865   116.4546     8.5487     2.5107     0.0803     0.0680
  178.5000    11.4541     6.7710     7.1047   -24.2025   115.4044     8.5092     2.5128     0.0799     0.0670
  179.0000    11.1997     6.8205     7.0967   -24.2186   116.7066     8.4709     2.5147     0.0789     0.0659
  179.5000    10.8954     6.8704     7.2331   -24.2346   120.2524     8.4594     2.5152     0.0787     0.0649
  180.0000    10.5952     6.9206     7.3704   -24.2506   123.1227     8.4793     2.5101     0.0802     0.0638
  180.5000    10.1672     6.9712     7.5102   -24.2666   122.9064     8.4991     2.5100     0.0818     0.0628
  181.0000    10.3643     7.0222     7.6528   -24.2827   122.4815     8.5190     2.5163     0.0791     0.0622
  181.5000    10.6955     7.0736     7.7980   -24.2987   123.4656     8.5390     2.5231     0.0743     0.0643
  182.0000    11.0374     7.1253     7.8624   -24.3147   124.5907     8.5589     2.5260     0.0717     0.0664
  182.5000    11.3902     7.1774     7.8775   -24.3307   123.6275     8.5788     2.5184     0.0772     0.0665
  183.0000    11.6689     7.2282     7.8927   -24.3468   122.7730     8.5988     2.5095     0.0826     0.0614
  183.5000    11.5574     7.2863     7.9078   -24.3628   122.7215     8.6186     2.5009     0.0881     0.0564
  184.0000    11.4248     7.3566     7.9231   -24.3788   122.3132     8.6383     2.4923     0.0932     0.0513
  184.5000    11.3509     7.4278     7.9383   -24.3948   121.1104     8.6444     2.4866     0.0945     0.0494
  185.0000    11.6513     7.5002     7.9536   -24.4109   119.1679     8.6313     2.4895     0.0957     0.0487
  185.5000    11.9958     7.5684     7.9688   -24.4269   119.0714     8.6183     2.4807     0.0971     0.0479
  186.0000    11.9441     7.4669     7.9842   -24.4429   120.0553     8.6053     2.4655     0.1063     0.0432
  186.5000    11.8858     7.3704     7.9989   -24.4589   121.0434     8.5922     2.4520     0.1150     0.0334
  187.0000    11.3509     7.2751     7.8597   -24.4750   122.9995     8.5791     2.4585     0.1154     0.0296
  187.5000    11.2598     7.1810     7.7291   -24.4910   125.3533     8.5661     2.4672     0.1096     0.0329
  188.0000    10.6334     7.0881     7.6003   -24.5070   126.5474     8.5530     2.4757     0.1041     0.0363
  188.5000    10.5984     6.9965     7.4738   -24.5230   126.4333     8.5399     2.4803     0.0997     0.0397
  189.0000    10.5635     6.9060     7.3495   -24.5390   124.2262     8.5268     2.4841     0.0968     0.0432
  189.5000    10.4183     6.8396     7.2272   -24.5551   122.2587     8.5137     2.4879     0.0939     0.0466
  190.0000    10.1632     6.8673     7.1619   -24.5711   119.8008     8.5008     2.4941     0.0899     0.0499
  190.5000    10.2464     6.8895     7.2081   -24.5870   117.0314     8.4966     2.5036     0.0843     0.0518
  191.0000    10.7406     6.9117     7.2453   -24.6033   114.1923     8.5381     2.5130     0.0788     0.0538
  191.5000    15.6686     6.9340     7.2826   -24.6503   114.0788     8.5794     2.5178     0.0771     0.0557
  192.0000    14.1981     6.9563     7.3201   -24.7010   116.7246     8.6222     2.5060     0.0870     0.0576
  192.5000    11.2727     6.9788     7.3577   -24.7518   119.5458     8.5916     2.4968     0.0934     0.0595
  193.0000    10.4479     7.0013     7.3955   -24.8025   122.3839     8.5426     2.4974     0.0921     0.0584
  193.5000    10.6087     7.0312     7.4320   -24.8532   124.2820     8.5052     2.5004     0.0899     0.0559
  194.0000    10.7194     6.9586     7.3311   -24.9039   125.2044     8.4928     2.4989     0.0904     0.0535
  194.5000    10.8313     6.8524     7.2196   -24.9546   124.0329     8.4846     2.4963     0.0918     0.0510
  195.0000    10.9444     6.7147     7.1094   -25.0053   121.1505     8.4746     2.4945     0.0916     0.0499
  195.5000    11.0586     6.7370     7.0312   -25.0560   119.9869     8.4786     2.4978     0.0888     0.0499
  196.0000    11.1740     6.7698     7.0664   -25.1067   120.9865     8.4942     2.5011     0.0858     0.0499
  196.5000    11.2906     6.8028     7.0991   -25.1574   122.3271     8.5099     2.5044     0.0850     0.0499
  197.0000    11.3509     6.8360     7.1320   -25.2081   123.1604     8.5256     2.5048     0.0860     0.0499
  197.5000    10.5446     6.8693     7.1650   -25.2588   120.3621     8.5414     2.5028     0.0877     0.0499
  198.0000    10.6950     6.9028     7.1981   -25.3095   120.2533     8.5571     2.5007     0.0894     0.0499
  198.5000    10.9403     6.9364     7.2314   -25.3602   120.8278     8.5730     2.4985     0.0902     0.0499
  199.0000    10.8627     6.9702     7.2649   -25.4109   120.2473     8.5892     2.4995     0.0902     0.0499
  199.5000    10.7406     7.0042     7.2985   -25.4616   120.0522     8.5801     2.5015     0.0881     0.0503
  200.0000    11.0735     7.0384     7.3323   -25.5123   122.3334     8.5689     2.5035     0.0863     0.0520
  200.5000    11.4563     7.0732     7.3626   -25.5630   124.9222     8.5579     2.5052     0.0846     0.0536
  201.0000    11.8858     7.0962     7.3164   -25.6137   125.7619     8.5499     2.5058     0.0852     0.0552
  201.5000    11.8858     6.9971     7.2659   -25.6644   123.3039     8.5531     2.5077     0.0834     0.0567
  202.0000    11.2786     6.9226     7.2157   -25.7151   121.5363     8.5560     2.5103     0.0806     0.0577
