~VERSION INFORMATION
 VERS.                2.0:   CWLS LOG ASCII STANDARD - VERSION 2.0
 WRAP.                 NO:   ONE LINE PER DEPTH STEP
~WELL INFORMATION
#MNEM.UNIT      DATA TYPE    INFORMATION
#----------   ------------   ------------------------------
 STRT.F           36.0000:   START DEPTH
 STOP.F         3160.0000:   STOP DEPTH
 STEP.F            0.5000:   STEP LENGTH
 NULL.          -999.2500:   NO VALUE
 COMP.    FENIX & SCISSON:   COMPANY
 WELL.        NPR-3 #28-3:   WELL
 FLD .             TEAPOT:   FIELD
 LOC .       S3 T38N R78W:   LOCATION
 CNTY.            NATRONA:   COUNTY
 STAT.            WYOMING:   STATE
 CTRY. UNITED STATES OF AMERICA:   COUNTRY
 SRVC.            Unknown:   SERVICE COMPANY
 DATE.        01-JUL-1978:   LOGDATE
 API .       490251066500:   API NUMBER
~CURVE INFORMATION
#MNEM.UNIT       API CODE    CURVE DESCRIPTION
#----------   ------------   ------------------------------
 DEPT.F                  :   
 ILD .OHMM   05 120 46 00:   INDUCTION LOG DEEP
 SN  .OHMM   05 040 16 00:   SHORT NORMAL 16"
 SPR .MV     05 010 01 00:   SPONTANEOUS POTENTIAL FROM RES.
 CALD.IN     45 280 60 00:   CALIPER FROM DENSITY LOG
 CORR.G/C3   45 356 01 00:   DENSITY CORRECTION
 DPHI.DEC    45 890 12 00:   DENSITY POROSITY SANDSTONE
 GRD .GAPI   45 310 01 00:   GAMMA RAY FROM DENSITY LOG
 RHOB.G/C3   45 350 01 00:   BULK DENSITY
 GR  .GAPI   30 310 01 00:   GAMMA RAY
~PARAMETER INFORMATION
#MNEM.UNIT          VALUE    DESCRIPTION
#----------   ------------   ------------------------------
 PD  .                 GL:   PERMANENT DATUM
 EPD .F              5264:   ELEVATION PERMANENT DATUM
 LMF .                 KB:   LOG MEASURED FROM
 DAPD.F                 4:   FEET ABOVE PERMANENT DATUM
 DMF .                 KB:   DRILLING MEASURED FROM
 EKB .F              5268:   KELLING BUSHING
 EGL .F              5264:   GROUND LEVEL
 DATE.        01-JUL-1978:   RUN DATE
 RUN .                  1:   RUN NUMBER
 DD  .F               630:   DEPTH DRILLER
 DL  .F               636:   DEPTH LOGGER
 BLI .F               630:   BOTTOM LOG INTERVAL
 TLI .F                50:   TOP LOG INTERVAL
 CS  .IN            8.625:   CASING SIZE
 CBD .F                40:   CASING BOTTOM DRILLER
 BS  .IN            7.875:   BIT SIZE
 BSD .F               630:   BIT SIZE AT DEPTH
 DFT .                KCL:   DRILLING FLUID TYPE
 DFD .                8.6:   DRILLING FLUID DENSITY
 DFV .                 32:   DRILLING FLUID VISCOSITY
 DFPH.                9.5:   DRILLING FLUID PH
 MSS .           FLOWLINE:   MUD SAMPLE SOURCE
 BHT .F                74:   BOTTOM HOLE TEMPERATURE
 TCS .HRS               1:   TIME CURCULATED STOPPED
 MRT .F                74:   MAXIMUM RECORDED TEMPERATURE
 LUN .               2958:   LOGGING UNIT NUMBER
 LUL .               CASP:   LOGGING UNIT LOCATION
 ENGI.             MILLER:   RECORDING ENGINEER
 WITN.           MCGINLEY:   WITNESSED BY
 CLNT.            A2DTECH:   CLIENT CODE
 ORIG.        2" 5" PRINT:   ORIGIN OF DATA
 UWI .       490251066500:   UNIQUE WELL ID
 DICO. A2D Technologies, Inc.:   DIGITIZING COMPANY
~OTHER INFORMATION
~A   DEPT      ILD         SN        SPR       CALD       CORR       DPHI         GRD      RHOB         GR   
# ...
  109.0000     6.9681     7.0700   -41.5766     7.6130    -0.0038     0.1534    82.5320     2.4169  -999.2500
  109.5000     6.9709     7.0700   -41.4333     7.6144    -0.0097     0.1498    83.7423     2.4277  -999.2500
  110.0000     6.9729     7.0700   -41.6659     7.6011    -0.0140     0.1531    83.7538     2.4357  -999.2500
  110.5000     7.0200     7.1190   -41.8990     7.6026    -0.0139     0.1572    84.2137     2.4305  -999.2500
  111.0000     7.0780     7.0972   -41.7560     7.6040    -0.0123     0.1608    85.1221     2.4209  -999.2500
  111.5000     7.1644     7.0963   -41.7648     7.6204    -0.0077     0.1617    86.0305     2.4165  -999.2500
  112.0000     7.2625     7.0954   -41.6216     7.6219    -0.0031     0.1634    86.0420     2.4143  -999.2500
  112.5000     7.3166     7.1437   -41.4788     7.6233     0.0002     0.1610    86.2282     2.4121  -999.2500
  113.0000     7.4119     7.1923   -41.4876     7.6248     0.0046     0.1562    87.2638     2.4148  -999.2500
  113.5000     7.4619     7.1911   -41.4947     7.6266     0.0062     0.1524    87.5714     2.4279  -999.2500
  114.0000     7.5640     7.1902   -41.5019     7.6127     0.0048     0.1491    84.8952     2.4317  -999.2500
  114.5000     7.6151     7.1890   -41.5128     7.6145     0.0035     0.1466    84.6049     2.4355  -999.2500
  115.0000     7.6665     7.1880   -41.6680     7.6160    -0.0009     0.1508    84.9183     2.4393  -999.2500
  115.5000     7.7714     7.1871   -41.6751     7.6174    -0.0023     0.1526    84.9298     2.4289  -999.2500
  116.0000     7.8242     7.1862   -41.6822     7.6189    -0.0022     0.1511    84.6228     2.4283  -999.2500
  116.5000     7.8767     7.1357   -41.6893     7.6054    -0.0035     0.1484    83.4610     2.4298  -999.2500
  117.0000     7.8752     7.1346   -41.6742     7.6068    -0.0034     0.1469    81.9777     2.4329  -999.2500
  117.5000     7.9284     7.0845   -41.5534     7.5784    -0.0003     0.1522    80.3450     2.4359  -999.2500
  118.0000     8.0926     7.0836   -41.5623     7.5649     0.0043     0.1516    80.2042     2.4308  -999.2500
  118.5000     8.0911     7.0827   -41.5694     7.5667     0.0074     0.1510    80.9660     2.4316  -999.2500
  119.0000     8.0897     7.1309   -41.5766     7.5682     0.0105     0.1489    81.4310     2.4339  -999.2500
  119.5000     7.9768     7.1297   -41.5854     7.5696     0.0106     0.1465    81.7393     2.4363  -999.2500
  120.0000     7.8659     7.1288   -41.5925     7.5711     0.0092     0.1411    81.7508     2.4408  -999.2500
  120.5000     7.7032     7.1278   -41.4477     7.5725     0.0049     0.1381    82.2108     2.4475  -999.2500
  121.0000     7.6487     7.1267   -41.3063     7.5740     0.0035     0.1419    82.5184     2.4536  -999.2500
  121.5000     7.5947     7.1754   -41.1637     7.5160     0.0037     0.1482    81.6359     2.4410  -999.2500
  122.0000     7.4887     7.1743   -41.0203     7.4576     0.0023     0.1494    81.7969     2.4365  -999.2500
  122.5000     7.3846     7.2731   -41.0292     7.4591     0.0024     0.1499    83.9138     2.4344  -999.2500
  123.0000     7.3324     7.3731   -41.0363     7.4755     0.0040     0.1517    84.3611     2.4336  -999.2500
  123.5000     7.2806     7.4750   -41.0435     7.4919     0.0056     0.1496    80.4891     2.4315  -999.2500
  124.0000     7.3298     7.5778   -41.0523     7.5083     0.0072     0.1514    79.6009     2.4286  -999.2500
  124.5000     7.4301     7.6822   -41.0594     7.5097     0.0074     0.1535    83.5017     2.4249  -999.2500
  125.0000     7.4802     7.7879   -40.9164     7.5125     0.0060     0.1558    85.6059     2.4235  -999.2500
  125.5000     7.5833     7.8411   -40.7733     7.5279     0.0031     0.1547    84.1226     2.4258  -999.2500
  126.0000     7.6898     7.8944   -40.6303     7.5294    -0.0012     0.1462    84.1943     2.4311  -999.2500
  126.5000     7.8463     7.9479   -40.4872     7.5607    -0.0056     0.1447    84.7465     2.4366  -999.2500
  127.0000     7.8992     7.9466   -40.3460     7.5921    -0.0070     0.1554    83.7116     2.4417  -999.2500
  127.5000     7.9529     7.8908   -40.3531     7.6085    -0.0054     0.1614    83.1224     2.4246  -999.2500
  128.0000     8.0618     7.9448   -40.2100     7.6099    -0.0038     0.1554    83.4357     2.4172  -999.2500
  128.5000     8.0602     7.7773   -40.2189     7.6114    -0.0021     0.1503    84.0452     2.4247  -999.2500
  129.0000     8.0585     7.6041   -40.2260     7.5979    -0.0005     0.1473    84.5102     2.4315  -999.2500
  129.5000     8.0570     7.4110   -40.2331     7.5997    -0.0004     0.1515    84.6690     2.4361  -999.2500
  130.0000     7.8903     7.3083   -40.3904     7.6011    -0.0003     0.1524    84.5282     2.4315  -999.2500
  130.5000     7.6719     7.2570   -40.5494     7.6026     0.0013     0.1488    83.7952     2.4332  -999.2500
  131.0000     7.4629     7.2559   -40.5565     7.6040    -0.0030     0.1478    83.0594     2.4363  -999.2500
  131.5000     7.3592     7.2549   -40.5636     7.6055    -0.0074     0.1493    81.5761     2.4378  -999.2500
  132.0000     7.3071     7.2540   -40.5708     7.6069    -0.0119     0.1574    79.6442     2.4259  -999.2500
  132.5000     7.3058     7.3033   -40.7282     7.6084    -0.0146     0.1526    83.0319     2.4251  -999.2500
  133.0000     7.3551     7.3529   -40.7369     7.6099    -0.0115     0.1520    85.9484     2.4298  -999.2500
  133.5000     7.3628     7.4225   -40.5921     7.6116    -0.0084     0.1603    86.8568     2.4268  -999.2500
  134.0000     7.4034     7.5048   -40.6010     7.6131    -0.0053     0.1552    86.5694     2.4217  -999.2500
  134.5000     7.4018     7.6352   -40.6081     7.6145    -0.0007     0.1480    84.4882     2.4300  -999.2500
  135.0000     7.5034     7.7202   -40.6170     7.6160    -0.0006     0.1447    83.6029     2.4375  -999.2500
  135.5000     7.6588     7.8194   -40.4739     7.6174    -0.0035     0.1423    82.2691     2.4428  -999.2500
  136.0000     7.7643     7.8964   -40.3291     7.6189    -0.0125     0.1417    81.3642     2.4459  -999.2500
  136.5000     7.9251     7.9259   -40.1877     7.6203    -0.0167     0.1420    80.9469     2.4459  -999.2500
  137.0000     8.0340     7.9798   -39.8946     7.6218    -0.0180     0.1479    85.5951     2.4453  -999.2500
  137.5000     8.0882     7.9787   -39.6032     7.6236    -0.0179     0.1524    87.2508     2.4364  -999.2500
  138.0000     8.1428     7.9226   -39.6103     7.6251    -0.0163     0.1488    85.1697     2.4312  -999.2500
  138.5000     8.1977     7.9215   -39.4673     7.6265    -0.0162     0.1488    82.3411     2.4320  -999.2500
  139.0000     8.1959     7.9202   -39.4745     7.6280    -0.0175     0.1496    80.6986     2.4321  -999.2500
  139.5000     8.1944     7.8647   -39.4833     7.6294    -0.0174     0.1496    80.4210     2.4314  -999.2500
  140.0000     8.1925     7.8637   -39.4904     7.6309    -0.0173     0.1502    81.9302     2.4307  -999.2500
  140.5000     8.1348     7.8626   -39.4975     7.6323    -0.0172     0.1514    82.5396     2.4308  -999.2500
  141.0000     8.1332     7.8074   -39.3544     7.6338    -0.0171     0.1511    83.4480     2.4316  -999.2500
  141.5000     8.0757     7.7525   -39.3633     7.6203    -0.0169     0.1457    85.1038     2.4347  -999.2500
  142.0000     8.0186     7.7515   -39.3694     7.6221    -0.0153     0.1451    86.6101     2.4400  -999.2500
  142.5000     7.9616     7.6971   -39.3775     7.6235    -0.0122     0.1453    85.0274     2.4430  -999.2500
  143.0000     7.9601     7.6958   -39.3847     7.6097    -0.0091     0.1537    81.7033     2.4319  -999.2500
  143.5000     7.9039     7.6420   -39.3919     7.6115    -0.0045     0.1528    80.5190     2.4267  -999.2500
  144.0000     7.8480     7.6408   -39.5508     7.6129    -0.0014     0.1507    80.8295     2.4298  -999.2500
  144.5000     7.8463     7.6399   -39.4060     7.6144    -0.0028     0.1492    82.7842     2.4321  -999.2500
  145.0000     7.7908     7.6386   -39.4149     7.6308    -0.0057     0.1476    85.4863     2.4344  -999.2500
