~VERSION INFORMATION
 VERS.                2.0:   CWLS LOG ASCII STANDARD - VERSION 2.0
 WRAP.                 NO:   ONE LINE PER DEPTH STEP
~WELL INFORMATION
#MNEM.UNIT      DATA TYPE    INFORMATION
#----------   ------------   ------------------------------
 STRT.F           24.0000:   START DEPTH
 STOP.F          609.0000:   STOP DEPTH
 STEP.F            0.5000:   STEP LENGTH
 NULL.          -999.2500:   NO VALUE
 COMP. FENIX & SCISSON INC:   COMPANY
 WELL.        S 34 #48-34:   WELL
 FLD .            NPR - 3:   FIELD
 LOC .      S34 T39N R78W:   LOCATION
 CNTY.            NATRONA:   COUNTY
 STAT.            WYOMING:   STATE
 CTRY. UNITED STATES OF AMERICA:   COUNTRY
 SRVC.              Welex:   SERVICE COMPANY
 DATE.        03-MAY-1977:   LOGDATE
 API .       490251035700:   API NUMBER
~CURVE INFORMATION
#MNEM.UNIT       API CODE    CURVE DESCRIPTION
#----------   ------------   ------------------------------
 DEPT.F                  :   
 CALD.IN     45 280 60 00:   CALIPER FROM DENSITY LOG
 CORR.G/C3   45 356 01 00:   DENSITY CORRECTION
 DPHI.DEC    45 890 12 00:   DENSITY POROSITY SANDSTONE
 GRD .GAPI   45 310 01 00:   GAMMA RAY FROM DENSITY LOG
 RHOB.G/C3   45 350 01 00:   BULK DENSITY
 GURD.OHMM   07 220 05 00:   SHALLOW GUARD RESISTIVITY
 ILD .OHMM   07 120 46 00:   INDUCTION LOG DEEP
 ILM .OHMM   07 120 44 00:   INDUCTION LOG MEDIUM
 SPR .MV     07 010 01 00:   SPONTANEOUS POTENTIAL FROM RES.
~PARAMETER INFORMATION
#MNEM.UNIT          VALUE    DESCRIPTION
#----------   ------------   ------------------------------
 PD  .                 GL:   PERMANENT DATUM
 EPD .F              5160:   ELEVATION PERMANENT DATUM
 LMF .                 GL:   LOG MEASURED FROM
 DMF .                 GL:   DRILLING MEASURED FROM
 EGL .F              5160:   GROUND LEVEL
 DATE.        03-MAY-1977:   RUN DATE
 RUN .                  1:   RUN NUMBER
 DD  .F               610:   DEPTH DRILLER
 DL  .F               611:   DEPTH LOGGER
 BLI .F               609:   BOTTOM LOG INTERVAL
 TLI .F                30:   TOP LOG INTERVAL
 CS  .IN            8.625:   CASING SIZE
 CBD .F                40:   CASING BOTTOM DRILLER
 CBL .F                32:   CASING BOTTOM LOGGER
 BS  .IN            7.875:   BIT SIZE
 BSD .F               610:   BIT SIZE AT DEPTH
 DFT .            KCL GEL:   DRILLING FLUID TYPE
 DFD .                8.9:   DRILLING FLUID DENSITY
 DFV .                 33:   DRILLING FLUID VISCOSITY
 DFPH.                8.0:   DRILLING FLUID PH
 DFL .                7.2:   DRILLING FLUID LOSS
 MSS .            MUD PIT:   MUD SAMPLE SOURCE
 RMS .OHMM           0.19:   RESISTIVITY MUD SAMPLE
 MST .F                65:   MUD SAMPLE TEMPERATURE
 RMF .OHMM           0.16:   RESISTIVITY MUD FILTRATE SAMPLE
 MFST.F                65:   MUD FILTRATE SAMPLE TEMPERATURE
 RMC .OHMM           0.24:   RESISTIVITY MUD CAKE
 MCST.F                65:   MUD CAKE SAMPLE TEMPERATURE
 MFSS.               MEAS:   MUD FILTRATE SAMPLE SOURCE
 MCSS.               MEAS:   MUD CAKE SAMPLE SOURCE
 RMB .OHMM           0.17:   RESISTIVITY MUD AT BHT
 BHT .F                72:   BOTTOM HOLE TEMPERATURE
 TCS .HRS               2:   TIME CURCULATED STOPPED
 MRT .F                72:   MAXIMUM RECORDED TEMPERATURE
 LUN .               8766:   LOGGING UNIT NUMBER
 LUL .             CASPER:   LOGGING UNIT LOCATION
 ENGI.          T. JOYNER:   RECORDING ENGINEER
 WITN.           ROB LYON:   WITNESSED BY
 CLNT.            A2DTECH:   CLIENT CODE
 ORIG.           5" PRINT:   ORIGIN OF DATA
 UWI .       490251035700:   UNIQUE WELL ID
 DICO. A2D Technologies, Inc.:   DIGITIZING COMPANY
~OTHER INFORMATION
~A   DEPT       CALD      CORR        DPHI      GRD         RHOB     GURD        ILD        ILM        SPR   
# ...
  279.5000     7.8532     0.0159     0.1247   115.5647     2.4765     8.5283     5.4142     7.4885   -31.5149
  280.0000     7.8843     0.0160     0.1286   118.2497     2.4713     7.9630     5.3444     7.7024   -31.2171
  280.5000     7.9003     0.0102     0.1318   117.3739     2.4647     7.7494     5.3122     8.0330   -30.9021
  281.0000     7.9164     0.0103     0.1339   115.0839     2.4588     9.7472     5.4296     8.1488   -30.5872
  281.5000     7.9175     0.0044     0.1333   113.2484     2.4558    10.4513     5.5100     8.0964   -30.1235
  282.0000     7.9187     0.0031     0.1345   113.8599     2.4574    10.0344     5.6305     8.0442   -30.1062
  282.5000     7.8901    -0.0012     0.1380   116.8381     2.4500     9.9718     5.7536     8.1040   -30.0889
  283.0000     7.8764    -0.0027     0.1422   113.8887     2.4418    10.2590     5.8806     8.1643   -30.0714
  283.5000     7.8627    -0.0070     0.1446   109.7488     2.4367    10.6291     5.9731     8.3404   -30.0536
  284.0000     7.8639    -0.0038     0.1470   106.7952     2.4337    10.7846     6.0984     8.4023   -30.0326
  284.5000     7.8651    -0.0006     0.1456   108.5907     2.4383    10.7918     6.2750     8.2334   -30.0153
  285.0000     7.8664    -0.0005     0.1432   110.2473     2.4399    10.7227     6.3680     8.2945   -29.9980
  285.5000     7.8526     0.0042     0.1423   110.9970     2.4400    10.7317     6.4624     8.6505   -29.9807
  286.0000     7.8539     0.0058     0.1441   113.0886     2.4378    10.5911     6.5129     9.0217   -29.9634
  286.5000     7.8550     0.0060     0.1456   115.7700     2.4364    10.5984     6.5186     8.9555   -30.2440
  287.0000     7.8413     0.0061     0.1473   114.3043     2.4350    10.5340     6.5244     8.3688   -30.8274
  287.5000     7.8425     0.0062     0.1491   114.0184     2.4328    10.3960     6.4850     7.9756   -31.2748
  288.0000     7.8288     0.0064     0.1509   117.0037     2.4314    10.0490     6.3134     7.9803   -31.6798
  288.5000     7.8151     0.0066     0.1526   113.4573     2.4292     9.9157     6.1054     7.7659   -31.9558
  289.0000     7.8163     0.0067     0.1541   114.6746     2.4278     9.9240     5.9029     7.6098   -31.9385
  289.5000     7.8175     0.0069     0.1550   117.1345     2.4257    10.0692     5.6678     7.3543   -32.0743
  290.0000     7.8188     0.0070     0.1544   122.2578     2.4242    10.0759     5.4420     7.1073   -32.0527
  290.5000     7.8349     0.0072     0.1501   120.0467     2.4299     9.3262     5.0826     6.8151   -32.0354
  291.0000     7.8360     0.0073     0.1396   116.9454     2.4544     8.6053     4.8131     6.5023   -32.0099
  291.5000     7.8223     0.0075     0.1348   114.7343     2.4597     7.4456     5.0226     5.9453   -31.6988
  292.0000     7.8235     0.0076     0.1327   120.5350     2.4613     5.8876     5.0608     5.7450   -31.5327
  292.5000     7.8249     0.0077     0.1320   118.9174     2.4606     5.6901     4.6950     6.1605   -31.0690
  293.0000     7.8259     0.0079     0.1323   116.5579     2.4577     7.8312     4.5698     6.8381   -30.6052
  293.5000     7.8272     0.0080     0.1338   115.9789     2.4548     9.4476     4.7032     6.8952   -30.2903
  294.0000     7.8282     0.0082     0.1356   118.3707     2.4527     9.9924     4.8394     7.5251   -29.9754
  294.5000     7.8444     0.0084     0.1373   120.0136     2.4520     9.7260     5.0141     8.2556   -29.8093
  295.0000     7.8604     0.0085     0.1372   117.0642     2.4536     9.8699     5.1238     7.7613   -29.6429
  295.5000     7.8764     0.0087     0.1357   116.6299     2.4544    10.4391     5.2452     7.5519   -29.6215
  296.0000     7.8776     0.0088     0.1357   118.1316     2.4545    10.6654     5.4457     7.8226   -29.6042
  296.5000     7.8788     0.0090     0.1357   118.7395     2.4538    10.4513     5.6579     8.1583   -29.5912
  297.0000     7.8801     0.0091     0.1347   118.4572     2.4539    10.1041     5.8223     7.9391   -29.7910
  297.5000     7.8664     0.0093     0.1281   118.4718     2.4652     9.9030     5.9914     7.9429   -29.9713
  298.0000     7.8676     0.0079     0.1239   122.0504     2.4750    10.3690     6.2948     8.0650   -30.1515
  298.5000     7.8536     0.0065     0.1221   123.2518     2.4781    10.7773     6.5227     8.5806   -30.4119
  299.0000     7.8399     0.0037     0.1262   122.0792     2.4730    10.8595     6.6200     8.8871   -30.6902
  299.5000     7.8413     0.0039     0.1292   119.1263     2.4640    10.8668     6.4454     8.8913   -30.6709
  300.0000     7.8425     0.0040     0.1310   116.1733     2.4611    10.9496     6.5870     8.8330   -30.6515
  300.5000     7.8437     0.0042     0.1291   114.8524     2.4650    10.9262     6.9206     8.7166   -30.4834
  301.0000     7.8154     0.0043     0.1255   113.2348     2.4689    10.8963     6.9273     8.6605   -30.1665
  301.5000     7.7865     0.0105     0.1198   112.0584     2.4768    11.2912     6.8385     8.6647   -29.9984
  302.0000     7.7282     0.0107     0.1132   112.0771     2.4882    11.5394     6.7510     8.6697   -29.9791
  302.5000     7.7297     0.0228     0.1109   113.8728     2.4983    11.3889     6.8520     8.6737   -29.9597
  303.0000     7.7903     0.0229     0.1164   115.0741     2.4894    11.3213     6.9555     8.6778   -29.9404
  303.5000     7.8509     0.0170     0.1188   114.1800     2.4834    11.2541     6.9622     8.6220   -29.6235
  304.0000     7.8520     0.0157     0.1184   118.2223     2.4865    11.5842     6.8715     8.5074   -29.6042
  304.5000     7.8532     0.0113     0.1188   119.8652     2.4851    11.9212     6.8307     8.2217   -29.8873
  305.0000     7.8546     0.0115     0.1212   118.1028     2.4815    12.0156     6.8864     8.2256   -30.1656
  305.5000     7.8558     0.0117     0.1249   117.3718     2.4778    12.0273     6.9408     8.2867   -30.5879
  306.0000     7.8569     0.0118     0.1276   124.6599     2.4726    11.9559     6.9957     8.4071   -31.0150
  306.5000     7.8581     0.0120     0.1303   123.4873     2.4660    11.9675     7.0025     8.4695   -31.4421
  307.0000     7.8592     0.0121     0.1330   121.7214     2.4593    11.7328     7.0092     8.5314   -31.7253
  307.5000     7.8627     0.0153     0.1350   119.3423     2.4541    11.3445     7.0159     8.3031   -32.0036
  308.0000     7.8640     0.0184     0.1374   116.3660     2.4520    11.1193     6.9262     8.2093   -32.2771
  308.5000     7.8653     0.0186     0.1395   118.2074     2.4498    10.9797     6.9328     8.1071   -32.7042
  309.0000     7.8666     0.0217     0.1412   120.0023     2.4454    10.9118     6.8900     7.9713   -32.9825
  309.5000     7.8530     0.0249     0.1442   119.7200     2.4402    10.8470     6.8490     7.8123   -33.2656
  310.0000     7.8543     0.0295     0.1469   118.8442     2.4358    10.7826     6.8083     7.9295   -33.6879
  310.5000     7.8113     0.0312     0.1498   118.2615     2.4314    10.4283     6.7228     7.7729   -34.1150
  311.0000     7.8126     0.0358     0.1531   116.9442     2.4270    10.0832     6.5910     7.4627   -34.3982
  311.5000     7.8138     0.0375     0.1567   114.1397     2.4203     9.8172     6.3730     6.8733   -34.8204
  312.0000     7.8098     0.0376     0.1626   117.7309     2.4105     9.5582     5.9526     6.6911   -35.0987
  312.5000     7.8016     0.0378     0.1689   117.2107     2.3976     9.2419     5.6766     6.6502   -35.5259
  313.0000     7.7881     0.0364     0.1763   114.3349     2.3842     8.8131     5.3390     6.4741   -36.1018
  313.5000     7.8043     0.0320     0.1915   111.8271     2.3706     8.0066     4.8172     6.0880   -36.3849
  314.0000     7.8056     0.0313     0.1993   110.0611     2.3588     7.3753     4.1410     5.6072   -36.6632
  314.5000     7.8072     0.0225     0.2005   108.8886     2.3461     6.7937     3.7363     5.0232   -36.6391
  315.0000     7.8234     0.0091     0.1998   107.7161     2.3439     6.2149     3.3019     4.0003   -36.6198
  315.5000     7.8247     0.0062     0.1962   106.9887     2.3613     5.5300     2.9979     3.6086   -36.6005
