~VERSION INFORMATION
 VERS.                2.0:   CWLS LOG ASCII STANDARD - VERSION 2.0
 WRAP.                 NO:   ONE LINE PER DEPTH STEP
~WELL INFORMATION
#MNEM.UNIT      DATA TYPE    INFORMATION
#----------   ------------   ------------------------------
 STRT.F            0.0000:   START DEPTH
 STOP.F          978.0000:   STOP DEPTH
 STEP.F            0.5000:   STEP LENGTH
 NULL.          -999.2500:   NO VALUE
 COMP. FENIX & SCISSON INC:   COMPANY
 WELL. N.P.R #3 SX-14 #53:   WELL
 FLD .             TEAPOT:   FIELD
 LOC .      S14 T38N R78W:   LOCATION
 CNTY.            NATRONA:   COUNTY
 STAT.            WYOMING:   STATE
 CTRY. UNITED STATES OF AMERICA:   COUNTRY
 SRVC.              Welex:   SERVICE COMPANY
 DATE.        06-MAR-1977:   LOGDATE
 API .       490251029800:   API NUMBER
~CURVE INFORMATION
#MNEM.UNIT       API CODE    CURVE DESCRIPTION
#----------   ------------   ------------------------------
 DEPT.F                  :   
 SPR .MV     07 010 01 00:   SPONTANEOUS POTENTIAL
 SGRD.OHMM   07 220 05 00:   SHALLOW RESISTIVITY
 ILD .OHMM   07 120 46 00:   INDUCTION LOG DEEP
 ILM .OHMM   07 120 44 00:   INDUCTION LOG MEDIUM
 GRD .GAPI   45 310 01 00:   GAMMA RAY FROM DENSITY LOG
 CALD.IN     45 280 60 00:   CALIPER
 RHOB.G/C3   45 350 01 00:   BULK DENSITY
 DPHI.DEC    45 890 12 00:   DENSITY POROSITY SANDSTONE
 CORR.G/C3   45 356 01 00:   DENSITY CORRECTION
~PARAMETER INFORMATION
#MNEM.UNIT          VALUE    DESCRIPTION
#----------   ------------   ------------------------------
 PD  .                 GL:   PERMANENT DATUM
 EPD .F              5230:   ELEVATION PERMANENT DATUM
 LMF .                 GL:   LOG MEASURED FROM
 DMF .                 GL:   DRILLING MEASURED FROM
 EGL .F              5230:   GROUND LEVEL
 DATE.             3-6-77:   RUN DATE
 RUN .                  1:   RUN NUMBER
 DD  .F               989:   DEPTH DRILLER
 DL  .F               980:   DEPTH LOGGER
 BLI .F               978:   BOTTOM LOG INTERVAL
 TLI .F                50:   TOP LOG INTERVAL
 CS  .IN            8.625:   CASING SIZE
 CBD .F                42:   CASING BOTTOM DRILLER
 CBL .F                42:   CASING BOTTOM LOGGER
 BS  .IN            7.875:   BIT SIZE
 BSD .F               989:   BIT SIZE AT DEPTH
 DFT .            KCL MUD:   DRILLING FLUID TYPE
 DFD .                8.4:   DRILLING FLUID DENSITY
 DFV .                 30:   DRILLING FLUID VISCOSITY
 DFPH.                7.2:   DRILLING FLUID PH
 DFL .               14.4:   DRILLING FLUID LOSS
 MSS .            MUD PIT:   MUD SAMPLE SOURCE
 RMS .OHMM            .41:   RESISTIVITY MUD SAMPLE
 MST .F                48:   MUD SAMPLE TEMPERATURE
 RMF .OHMM            .39:   RESISTIVITY MUD FILTRATE SAMPLE
 MFST.F                48:   MUD FILTRATE SAMPLE TEMPERATURE
 RMC .OHMM            .55:   RESISTIVITY MUD CAKE
 MCST.F                48:   MUD CAKE SAMPLE TEMPERATURE
 MFSS.           FANN KIT:   MUD FILTRATE SAMPLE SOURCE
 MCSS.           FANN KIT:   MUD CAKE SAMPLE SOURCE
 RMB .OHMM            .34:   RESISTIVITY MUD AT BHT
 BHT .F                58:   BOTTOM HOLE TEMPERATURE
 TCS .HRS               2:   TIME CURCULATED STOPPED
 MRT .F                58:   MAXIMUM RECORDED TEMPERATURE
 LUN .               8611:   LOGGING UNIT NUMBER
 LUL .           GILLETTE:   LOGGING UNIT LOCATION
 ENGI.            C. DOAK:   RECORDING ENGINEER
 WITN.           S. BURKE:   WITNESSED BY
 CLNT.            A2DTECH:   CLIENT CODE
 ORIG.        2" 5" PRINT:   ORIGIN OF DATA
 UWI .       490251029800:   UNIQUE WELL ID
 DICO. A2D Technologies, Inc.:   DIGITIZING COMPANY
~OTHER INFORMATION
~A    DEPT     SPR       SGRD        ILD        ILM        GRD       CALD       RHOB       DPHI       CORR   
# ...
  584.0000   -44.3219    13.3008     9.3592    13.5456   111.7253     7.8227     2.4794     0.1013     0.0536
  584.5000   -44.3264    14.3913     9.4472    13.9647   107.3766     7.8227     2.4764     0.1031     0.0539
  585.0000   -44.3309    15.5712     9.5361    14.3644   103.9619     7.8227     2.4733     0.1048     0.0543
  585.5000   -44.3355    16.4923     9.6257    13.2338   106.4502     7.8227     2.4703     0.1065     0.0523
  586.0000   -44.3399    12.1808     9.7163    13.3663   107.8251     7.8227     2.4672     0.1082     0.0495
  586.5000   -44.3451    13.2588     9.8076    13.5645   102.4032     7.8227     2.4620     0.1112     0.0466
  587.0000   -44.3025    16.4439     9.8999    13.7253   100.8544     7.8227     2.4557     0.1164     0.0438
  587.5000   -44.2366    18.5834     9.9527    12.8118   101.1267     7.8227     2.4494     0.1169     0.0410
  588.0000   -44.1699    13.2303     9.6939    12.1808   102.8271     7.8227     2.4499     0.1174     0.0404
  588.5000   -44.1033    12.8531     9.5171    11.8940   106.7872     7.8227     2.4507     0.1179     0.0404
  589.0000   -44.0367    12.5134     9.3436    11.5821   109.9503     7.8227     2.4498     0.1183     0.0404
  589.5000   -43.9702    12.1873     9.1732    11.2783   111.7834     7.8227     2.4468     0.1176     0.0404
  590.0000   -43.9036    11.8655     9.0060    10.9825   113.6365     7.8227     2.4498     0.1168     0.0404
  590.5000   -43.8371    11.5296     8.8418    10.6944   114.1491     7.8227     2.4564     0.1142     0.0427
  591.0000   -43.7705    11.6600     8.6806    10.5575   111.5431     7.8227     2.4630     0.1109     0.0466
  591.5000   -43.7039    11.8115     8.5223    10.4766   111.2811     7.8227     2.4662     0.1086     0.0505
  592.0000   -43.6374    11.9610     8.3669    10.3985   110.8048     7.8227     2.4686     0.1073     0.0526
  592.5000   -43.5680    11.7638     8.2733    10.3250   109.8900     7.8227     2.4723     0.1061     0.0531
  593.0000   -43.5496    11.5343     8.2365    10.1904   110.5081     7.8227     2.4784     0.1025     0.0537
  593.5000   -43.5455    11.3100     8.2000    10.0658   112.0926     7.8227     2.4844     0.0975     0.0542
  594.0000   -43.5418    11.2146     8.1636     9.9427   113.6058     7.8227     2.4905     0.0940     0.0556
  594.5000   -43.5379    11.4225     8.1273     9.8211   113.4822     7.8227     2.4966     0.0910     0.0573
  595.0000   -43.5340    11.2958     8.0912     9.7010   113.1448     7.8227     2.4989     0.0892     0.0573
  595.5000   -43.5301    11.1044     8.0553     9.5824   112.4867     7.8227     2.4922     0.0929     0.0547
  596.0000   -43.5262    10.9099     8.0195     9.5031   111.7533     7.8227     2.4849     0.0995     0.0523
  596.5000   -43.5223    11.0165     7.9841     9.4949   110.6050     7.8227     2.4777     0.1041     0.0513
  597.0000   -43.5185    11.1280     7.9915     9.4865   108.1705     7.8227     2.4719     0.1049     0.0504
  597.5000   -43.5146    11.2407     7.9991     9.4784   107.3557     7.8227     2.4686     0.1056     0.0494
  598.0000   -43.5107    11.3181     8.0066     9.4701   108.4041     7.8227     2.4653     0.1085     0.0485
  598.5000   -43.5068    11.1243     8.0142     9.4619   109.4442     7.8227     2.4620     0.1112     0.0496
  599.0000   -43.5029    11.0066     8.0217     9.4537   110.4160     7.8227     2.4659     0.1079     0.0514
  599.5000   -43.4990    11.5544     8.0292     9.4454   108.4621     7.8227     2.4726     0.1048     0.0532
  600.0000   -43.4951    13.5863     8.0367     9.4372   104.3784     7.8227     2.4782     0.1018     0.0550
  600.5000   -43.4912    12.4355     8.0443     9.4289   101.1490     7.8227     2.4774     0.1022     0.0558
  601.0000   -43.4873    11.1408     8.0519     9.4166   103.9478     7.8227     2.4743     0.1035     0.0530
  601.5000   -43.4835    10.7046     8.0590     9.4754   106.6609     7.8227     2.4710     0.1048     0.0503
  602.0000   -43.4796    10.7131     8.0015     9.6144   108.8383     7.8227     2.4678     0.1071     0.0475
  602.5000   -43.4757    10.6090     7.8360     9.7554   109.3974     7.8227     2.4657     0.1087     0.0464
  603.0000   -43.4718    10.9280     7.6235     9.9003   108.0803     7.8227     2.4700     0.1061     0.0464
  603.5000   -43.4679    11.1769     7.4169    10.0435   105.1596     7.8227     2.4729     0.1035     0.0464
  604.0000   -43.4640    11.4225     7.2158     9.7554   103.3826     7.8227     2.4681     0.1067     0.0463
  604.5000   -43.4601    10.7522     7.0202     9.4700   106.2535     7.8227     2.4630     0.1116     0.0464
  605.0000   -43.4562    10.0077     6.8299     9.1939   109.0337     7.8227     2.4672     0.1080     0.0489
  605.5000   -43.4523     9.3146     6.6447     8.9262   111.7314     7.8227     2.4740     0.1029     0.0516
  606.0000   -43.4484     8.6696     6.4646     8.6663   110.4898     7.8227     2.4809     0.0989     0.0543
  606.5000   -43.4445     8.0692     6.2893     8.4121   108.2191     7.8227     2.4831     0.0976     0.0570
  607.0000   -43.4407     7.7672     6.1739     8.2833   104.8238     7.8227     2.4813     0.0989     0.0570
  607.5000   -43.4368     8.9838     6.2575     8.4781   101.7787     7.8227     2.4770     0.1010     0.0544
  608.0000   -43.4329    10.1371     6.3356     8.6154   101.9819     7.8227     2.4714     0.1044     0.0518
  608.5000   -43.4290    10.0054     6.4147     8.7539   102.8432     7.8227     2.4659     0.1079     0.0492
  609.0000   -43.4251     9.8392     6.4948     8.8946   103.5167     7.8227     2.4603     0.1113     0.0466
  609.5000   -43.4212     9.6759     6.5758     9.0376   102.1522     7.8227     2.4548     0.1148     0.0441
  610.0000   -43.4173     9.5060     6.6579     9.1828   100.2166     7.8227     2.4516     0.1183     0.0415
  610.5000   -43.4134     9.8415     6.7410     9.3305   102.5808     7.8227     2.4532     0.1162     0.0413
  611.0000   -43.4095    10.2104     6.8251     9.4574   106.2475     7.8227     2.4548     0.1140     0.0427
  611.5000   -43.4057    10.4203     6.9103     9.5523   104.2769     7.8227     2.4560     0.1118     0.0442
  612.0000   -43.4018    10.2510     6.9966     9.6479   102.4469     7.8227     2.4531     0.1170     0.0457
  612.5000   -43.3979    10.1381     7.0839     9.7445   104.4475     7.8227     2.4501     0.1216     0.0457
  613.0000   -43.3940    10.3923     7.1723     9.8421   103.1913     7.8227     2.4472     0.1228     0.0444
  613.5000   -43.3901    10.6209     7.2618     9.9407   101.8790     7.8219     2.4444     0.1240     0.0431
  614.0000   -43.3862    10.8560     7.3527    10.0403   106.8454     7.8210     2.4415     0.1252     0.0426
  614.5000   -43.3823    11.1148     7.4437    10.1411   111.0794     7.8201     2.4386     0.1265     0.0432
  615.0000   -43.3784    11.0653     7.4880    10.2427   115.3520     7.8193     2.4357     0.1277     0.0438
  615.5000   -43.3745    10.9978     7.4876    10.3256   118.1944     7.8184     2.4326     0.1287     0.0444
  616.0000   -43.3707    10.9322     7.4870    10.2207   119.0501     7.8176     2.4363     0.1267     0.0449
  616.5000   -43.3668    10.8038     7.4870    10.1169   118.1951     7.8167     2.4415     0.1246     0.0455
  617.0000   -43.3629    10.6445     7.4797    10.0143   116.6786     7.8159     2.4466     0.1225     0.0461
  617.5000   -43.3590    10.4876     7.4203     9.9129   115.1443     7.8150     2.4474     0.1225     0.0455
  618.0000   -43.3551    10.3329     7.3614     9.8125   113.6739     7.8142     2.4419     0.1245     0.0437
  618.5000   -43.3570    10.1808     7.3029     9.7131   113.3786     7.8133     2.4363     0.1265     0.0420
  619.0000   -43.3646    10.0445     7.2449     9.6147   113.4142     7.8125     2.4324     0.1283     0.0405
  619.5000   -43.3721    10.0445     7.1874     9.5174   113.7625     7.8116     2.4406     0.1240     0.0430
  620.0000   -43.3797    10.0447     7.1303     9.4191   113.8349     7.8108     2.4488     0.1198     0.0455
