~VERSION INFORMATION
 VERS.                2.0:   CWLS LOG ASCII STANDARD - VERSION 2.0
 WRAP.                 NO:   ONE LINE PER DEPTH STEP
~WELL INFORMATION
#MNEM.UNIT      DATA TYPE    INFORMATION
#----------   ------------   ------------------------------
 STRT.F           26.0000:   START DEPTH
 STOP.F          533.5000:   STOP DEPTH
 STEP.F            0.5000:   STEP LENGTH
 NULL.          -999.2500:   NO VALUE
 COMP. BROWN JOHN E&C INC:   COMPANY
 WELL.  NPR 3 #76-531-X-3:   WELL
 FLD .             TEAPOT:   FIELD
 LOC .       S3 T38N R78W:   LOCATION
 CNTY.            NATRONA:   COUNTY
 STAT.            WYOMING:   STATE
 CTRY. UNITED STATES OF AMERICA:   COUNTRY
 SRVC.       Schlumberger:   SERVICE COMPANY
 DATE.        20-SEP-1990:   LOGDATE
 API .       490251130500:   API NUMBER
~CURVE INFORMATION
#MNEM.UNIT       API CODE    CURVE DESCRIPTION
#----------   ------------   ------------------------------
 DEPT.F                  :   
 ILM .OHMM   07 120 44 00:   INDUCTION LOG MEDIUM
 ILD .OHMM   07 120 46 00:   INDUCTION LOG DEEP
 CALD.IN     45 280 60 00:   CALIPER FROM DENSITY LOG
 GRD .GAPI   45 310 01 00:   GAMMA RAY FROM DENSITY LOG
 DPHI.DEC    45 890 12 00:   DENSITY POROSITY SANDSTONE
 RHOB.G/C3   45 350 01 00:   BULK DENSITY
 DRHO.G/C3   45 356 01 00:   DENSITY CORRECTION
~PARAMETER INFORMATION
#MNEM.UNIT          VALUE    DESCRIPTION
#----------   ------------   ------------------------------
 PD  .                 GL:   PERMANENT DATUM
 EPD .F              5148:   ELEVATION PERMANENT DATUM
 LMF .                 KB:   LOG MEASURED FROM
 DAPD.F                10:   FEET ABOVE PERMANENT DATUM
 DMF .                 KB:   DRILLING MEASURED FROM
 EKB .F              5158:   KELLING BUSHING
 EDF .F              5157:   DRILLING FLOOR
 EGL .F              5148:   GROUND LEVEL
 DATE.            9-20-90:   RUN DATE
 RUN .                  1:   RUN NUMBER
 DD  .F               535:   DEPTH DRILLER
 DL  .F               536:   DEPTH LOGGER
 BLI .F               530:   BOTTOM LOG INTERVAL
 TLI .F                49:   TOP LOG INTERVAL
 CBD .F                40:   CASING BOTTOM DRILLER
 CBL .F                49:   CASING BOTTOM LOGGER
 BS  .IN            7.875:   BIT SIZE
 BSD .F               535:   BIT SIZE AT DEPTH
 DFT .                AIR:   DRILLING FLUID TYPE
 TCS .HRS            0315:   TIME CURCULATED STOPPED
 TLAB.HRS            0409:   TIME LOGGER AT BOTTOM
 LUN .               6882:   LOGGING UNIT NUMBER
 LUL .               CODY:   LOGGING UNIT LOCATION
 ENGI.          M. FISHER:   RECORDING ENGINEER
 WITN.          G. STRONG:   WITNESSED BY
 CLNT.            A2DTECH:   CLIENT CODE
 ORIG.   2" 2.5" 5" PRINT:   ORIGIN OF DATA
 UWI .       490251130500:   UNIQUE WELL ID
 DICO. A2D Technologies, Inc.:   DIGITIZING COMPANY
~OTHER INFORMATION
~A   DEPT      ILM        ILD       CALD         GRD      DPHI       RHOB       DRHO   
# ...
  299.0000     4.9629     5.5835     7.8804   151.1921     0.1496     2.3504    -0.0015
  299.5000     4.8045     5.5267     7.9296   147.0469     0.1598     2.3016     0.0032
  300.0000     5.0320     5.4650     7.8739   142.7174     0.1622     2.2851     0.0067
  300.5000     5.3055     5.5336     7.8063   141.1271     0.1383     2.4142     0.0095
  301.0000     5.5964     5.6670     7.7617   140.3365     0.1195     2.4544     0.0090
  301.5000     5.8535     5.9477     7.7643   139.5658     0.1081     2.4854     0.0086
  302.0000     6.2281     6.3880     7.7781   138.7823     0.1046     2.5085     0.0074
  302.5000     6.6283     6.8275     7.7920   138.0845     0.1001     2.5184     0.0061
  303.0000     7.0692     7.2396     7.7973   138.4462     0.1007     2.5192     0.0035
  303.5000     7.2922     7.6815     7.8013   139.7162     0.1034     2.5093    -0.0004
  304.0000     7.5284     7.8965     7.8054   140.9956     0.1061     2.4996    -0.0036
  304.5000     7.6111     7.7501     7.8095   142.3134     0.1075     2.4948    -0.0033
  305.0000     7.3312     7.5303     7.8135   143.3313     0.1080     2.4913    -0.0026
  305.5000     7.0710     7.1172     7.8176   143.9481     0.1084     2.4908    -0.0006
  306.0000     6.4931     6.6588     7.8217   144.9060     0.1110     2.4679     0.0019
  306.5000     5.9436     6.2299     7.8258   147.7359     0.1251     2.4278     0.0028
  307.0000     5.5566     5.9159     7.8299   150.5720     0.1393     2.3876     0.0010
  307.5000     5.3162     5.8408     7.8334   152.0044     0.1463     2.3419    -0.0004
  308.0000     5.3162     5.7666     7.8274   149.3535     0.1432     2.3780     0.0018
  308.5000     5.4417     5.7223     7.8214   146.7007     0.1308     2.4358     0.0030
  309.0000     5.5737     5.7923     7.8154   143.9810     0.1180     2.4533    -0.0004
  309.5000     5.8013     5.8621     7.8095   141.3051     0.1125     2.4717    -0.0038
  310.0000     6.0471     6.2118     7.8035   139.1357     0.1091     2.4891    -0.0072
  310.5000     6.5503     6.7070     7.7977   138.8889     0.1057     2.5038    -0.0095
  311.0000     7.1301     7.2417     7.7956   139.0857     0.1019     2.5179    -0.0094
  311.5000     7.6766     7.5910     7.8022   139.0417     0.0979     2.5320    -0.0070
  312.0000     7.9386     7.9094     7.8087   137.4614     0.0938     2.5463    -0.0049
  312.5000     8.1549     8.2168     7.8152   135.9364     0.0897     2.5603    -0.0019
  313.0000     8.2674     8.3874     7.8217   133.8892     0.0854     2.5754     0.0005
  313.5000     8.3814     8.5407     7.8282   131.8320     0.0850     2.5777    -0.0003
  314.0000     8.4979     8.6401     7.8338   130.4381     0.0902     2.5619    -0.0010
  314.5000     8.6017     8.7407     7.8337   131.1441     0.0955     2.5409    -0.0016
  315.0000     8.6827     8.8424     7.8337   132.3145     0.0983     2.5287    -0.0023
  315.5000     8.7637     8.9453     7.8337   131.7391     0.0989     2.5265    -0.0019
  316.0000     8.8454     9.0494     7.8337   130.8682     0.0984     2.5287    -0.0010
  316.5000     8.9278     9.0806     7.8337   130.7149     0.0980     2.5311    -0.0005
  317.0000     9.0117     9.0988     7.8337   131.1581     0.0976     2.5311    -0.0012
  317.5000     9.0659     9.1169     7.8337   132.0307     0.0976     2.5293    -0.0028
  318.0000     9.0654     9.1351     7.8336   132.9900     0.0984     2.5276    -0.0044
  318.5000     9.0652     9.1491     7.8348   133.6523     0.0990     2.5273    -0.0043
  319.0000     9.0651     9.1482     7.8451   133.3787     0.0990     2.5271    -0.0039
  319.5000     9.0641     9.1466     7.8555   131.2139     0.0990     2.5269    -0.0036
  320.0000     9.0651     9.3569     7.8659   128.4935     0.0990     2.5266    -0.0019
  320.5000     9.1489     9.5847     7.8747   126.1771     0.0987     2.5269    -0.0005
  321.0000     9.4445     9.8175     7.8780   126.5069     0.0966     2.5326    -0.0017
  321.5000     9.8478    10.1262     7.8813   128.4408     0.0946     2.5417    -0.0025
  322.0000     9.8478    10.1297     7.8846   129.6732     0.0926     2.5494    -0.0029
  322.5000     8.7035     9.4960     7.8878   129.6469     0.0926     2.5481    -0.0034
  323.0000     8.1150     8.4700     7.8918   129.5273     0.0956     2.5404    -0.0033
  323.5000     7.1398     7.5585     7.9091   134.0556     0.1033     2.5033    -0.0029
  324.0000     6.3046     7.1364     7.9144   141.2717     0.1223     2.4430    -0.0026
  324.5000     5.6601     7.1197     7.9137   148.4333     0.1427     2.3820     0.0003
  325.0000     5.8838     7.0888     7.9006   151.1889     0.1566     2.3195     0.0038
  325.5000     6.5637     7.0514     7.8655   147.0545     0.1566     2.2970     0.0102
  326.0000     7.1749     6.9421     7.8348   138.5301     0.1393     2.4089     0.0193
  326.5000     7.7662     7.2689     7.8512   130.0194     0.1087     2.4932     0.0258
  327.0000     8.4205     8.1250     7.8681   121.5252     0.0904     2.5576     0.0186
  327.5000     9.2740     9.1489     7.8848   119.5302     0.0882     2.5655     0.0124
  328.0000    10.2403     9.9978     7.9014   119.5950     0.0905     2.5594     0.0059
  328.5000    11.1072    10.9162     7.9160   120.9458     0.0926     2.5509     0.0036
  329.0000    11.0963    11.2016     7.9247   124.7316     0.0942     2.5427     0.0023
  329.5000    11.0069    11.2313     7.9334   127.5523     0.0943     2.5426     0.0011
  330.0000    10.9260    11.2631     7.9420   129.5759     0.0945     2.5431     0.0005
  330.5000    10.8967    11.2900     7.9508   129.8386     0.0953     2.5411     0.0005
  331.0000    11.2890    11.3123     7.9539   129.2301     0.0967     2.5324     0.0005
  331.5000    12.7443    12.9982     7.9539   127.4779     0.0970     2.5317     0.0007
  332.0000    14.3872    14.4934     7.9549   123.0759     0.0979     2.5322     0.0026
  332.5000    16.1853    16.4326     7.9625   113.9457     0.1014     2.4895     0.0058
  333.0000    17.9481    18.6585     7.9701    98.7504     0.1267     2.4263     0.0114
  333.5000    19.7744    21.1859     7.9777    83.1465     0.1502     2.3627     0.0204
  334.0000    22.9426    23.9702     7.9853    71.3243     0.1587     2.3017     0.0294
  334.5000    26.2891    26.5774     7.9929    64.9475     0.1575     2.3019     0.0383
  335.0000    28.5668    29.4682     8.0005    67.9295     0.1558     2.3096     0.0384
  335.5000    31.0688    30.7306     8.0081    72.6066     0.1602     2.2987     0.0338
  336.0000    32.8445    31.0267     8.0198    73.3621     0.1716     2.2549     0.0293
  336.5000    32.8469    31.3256     8.0484    73.9409     0.1829     2.1994     0.0248
  337.0000    33.1749    31.6274     8.0764    75.0486     0.1922     2.1695     0.0213
  337.5000    33.1749    32.5201     8.1044    75.5142     0.1950     2.1630     0.0265
  338.0000    33.4816    33.5762     8.1325    73.4089     0.2021     2.1308     0.0250
  338.5000    34.6036    34.7305     8.1572    71.1485     0.2120     2.0920     0.0217
  339.0000    35.6677    34.8990     8.1710    69.6577     0.2190     2.0763     0.0237
  339.5000    36.7692    35.0613     8.1224    68.7080     0.2191     2.0723     0.0251
  340.0000    37.3902    35.2277     8.0476    68.7885     0.2162     2.0813     0.0231
  340.5000    37.1755    35.3804     8.0143    71.3861     0.2043     2.1375     0.0213
  341.0000    37.0478    36.1570     8.0499    73.8349     0.1933     2.1909     0.0285
  341.5000    37.7989    37.0359     8.1098    75.6956     0.1806     2.2136     0.0380
  342.0000    39.1908    38.0715     8.1707    76.5509     0.1885     2.1774     0.0374
  342.5000    40.4933    39.2295     8.2318    77.1513     0.1998     2.1453     0.0341
  343.0000    41.4795    40.4153     8.2282    74.8798     0.2042     2.1270     0.0289
  343.5000    42.4857    41.6890     8.2202    72.4238     0.2098     2.1081     0.0220
  344.0000    43.5163    43.0087     8.2056    69.9745     0.2142     2.0902     0.0155
