~VERSION INFORMATION
 VERS.                2.0:   CWLS LOG ASCII STANDARD - VERSION 2.0
 WRAP.                 NO:   ONE LINE PER DEPTH STEP
~WELL INFORMATION
#MNEM.UNIT      DATA TYPE    INFORMATION
#----------   ------------   ------------------------------
 STRT.F           34.0000:   START DEPTH
 STOP.F          662.0000:   STOP DEPTH
 STEP.F            0.5000:   STEP LENGTH
 NULL.          -999.2500:   NO VALUE
 COMP. LAWRENCE/ALLISON INC:   COMPANY
 WELL.   68-66 STX #34-34:   WELL
 FLD .             TEAPOT:   FIELD
 LOC .      S34 T39N R78W:   LOCATION
 CNTY.            NATRONA:   COUNTY
 STAT.            WYOMING:   STATE
 CTRY. UNITED STATES OF AMERICA:   COUNTRY
 SRVC.           Gearhart:   SERVICE COMPANY
 DATE.        24-AUG-1987:   LOGDATE
 API .       490251115000:   API NUMBER
~CURVE INFORMATION
#MNEM.UNIT       API CODE    CURVE DESCRIPTION
#----------   ------------   ------------------------------
 DEPT.F                  :   
 GRR .GAPI   07 310 01 00:   GAMMA RAY FROM RES. LOG
 ILD .OHMM   07 120 46 00:   INDUCTION LOG DEEP
 ILM .OHMM   07 120 44 00:   INDUCTION LOG MEDIUM
~PARAMETER INFORMATION
#MNEM.UNIT          VALUE    DESCRIPTION
#----------   ------------   ------------------------------
 PD  .                 GL:   PERMANENT DATUM
 EPD .F              5089:   ELEVATION PERMANENT DATUM
 LMF .                 KB:   LOG MEASURED FROM
 DAPD.F                 8:   FEET ABOVE PERMANENT DATUM
 DMF .                 KB:   DRILLING MEASURED FROM
 EKB .F              5097:   KELLING BUSHING
 EDF .F              5095:   DRILLING FLOOR
 EGL .F              5089:   GROUND LEVEL
 DATE.            8-24-87:   RUN DATE
 RUN .                  1:   RUN NUMBER
 DD  .F               675:   DEPTH DRILLER
 DL  .F               670:   DEPTH LOGGER
 BLI .F               662:   BOTTOM LOG INTERVAL
 TLI .F                30:   TOP LOG INTERVAL
 CS  .IN            8.625:   CASING SIZE
 CBD .F                48:   CASING BOTTOM DRILLER
 CBL .F                48:   CASING BOTTOM LOGGER
 BS  .IN            7.875:   BIT SIZE
 BSD .F               675:   BIT SIZE AT DEPTH
 DFT .                AIR:   DRILLING FLUID TYPE
 TCS .HRS            1300:   TIME CURCULATED STOPPED
 TLAB.HRS            1712:   TIME LOGGER AT BOTTOM
 MRT .F                80:   MAXIMUM RECORDED TEMPERATURE
 LUN .               7597:   LOGGING UNIT NUMBER
 LUL .           GILLETTE:   LOGGING UNIT LOCATION
 ENGI.         WEATHERMON:   RECORDING ENGINEER
 WITN.             STRONG:   WITNESSED BY
 CLNT.            A2DTECH:   CLIENT CODE
 ORIG.       2", 5" PRINT:   ORIGIN OF DATA
 UWI .       490251115000:   UNIQUE WELL ID
 DICO. A2D Technologies, Inc.:   DIGITIZING COMPANY
~OTHER INFORMATION
~A   DEPT       GRR       ILD        ILM   
# ...
  489.0000    82.8979    23.3152    25.6751
  489.5000    86.9283    21.9903    23.4550
  490.0000    91.0233    20.7407    21.8106
  490.5000    95.0148    19.6324    20.3677
  491.0000    95.7489    18.7131    19.4205
  491.5000    95.8122    17.8863    18.5623
  492.0000    93.3225    17.2416    17.8934
  492.5000    92.3588    17.0618    17.7216
  493.0000    91.7328    16.8832    17.5645
  493.5000    92.5702    16.7064    17.2910
  494.0000    93.6442    16.5315    17.0749
  494.5000    95.3046    16.4607    17.0290
  495.0000    96.9466    16.4601    16.9833
  495.5000    98.6218    16.4602    16.9248
  496.0000    98.1100    16.4925    17.0517
  496.5000    95.6287    16.5541    17.2304
  497.0000    93.3283    16.6157    17.4111
  497.5000    92.6075    16.8055    17.5936
  498.0000    94.6562    16.9930    17.7780
  498.5000    97.6748    17.1826    17.9644
  499.0000   100.5406    17.3743    18.1527
  499.5000   100.0791    17.5681    18.3430
  500.0000    97.4854    17.7642    18.5353
  500.5000    95.1729    17.9624    18.7298
  501.0000    94.5942    18.1628    18.9265
  501.5000    96.1286    18.3654    19.1236
  502.0000    97.7648    18.3982    19.2701
  502.5000    97.4643    18.1569    18.8998
  503.0000    95.2180    17.8868    18.6109
  503.5000    92.9812    17.6207    18.3264
  504.0000    91.4486    17.3586    18.0462
  504.5000    91.8688    17.1004    17.7704
  505.0000    93.9287    16.8460    17.4987
  505.5000    96.5201    16.5955    17.2312
  506.0000    98.8408    16.3486    16.9678
  506.5000    96.1917    16.1642    16.7752
  507.0000    95.3669    15.9933    16.5978
  507.5000    96.8175    15.8242    16.4224
  508.0000    98.4432    15.6569    16.2488
  508.5000   100.0801    15.4914    16.0770
  509.0000   100.6198    15.3275    15.9068
  509.5000    99.6894    15.1647    15.7379
  510.0000    98.4000    15.0022    15.5693
  510.5000    97.2397    15.0398    15.6082
  511.0000    97.2214    15.0781    15.6481
  511.5000    98.5856    15.1166    15.6880
  512.0000   101.0789    15.1552    15.7280
  512.5000   102.9782    15.1939    15.7682
  513.0000    99.1284    15.2327    15.8084
  513.5000    95.2193    15.2717    15.8487
  514.0000    92.5309    15.2840    15.8608
  514.5000    94.4834    15.2167    15.7918
  515.0000    96.5949    15.0336    15.6018
  515.5000    98.7309    14.8527    15.4141
  516.0000   100.9213    14.7265    15.2831
  516.5000   100.4931    14.9094    15.4706
  517.0000    99.7341    15.2265    15.7837
  517.5000    98.9759    15.5505    16.1031
  518.0000    98.0939    15.8811    16.4294
  518.5000    97.0347    16.3114    16.7632
  519.0000    96.2034    16.3090    17.0987
  519.5000    95.5351    15.9752    17.2416
  520.0000    94.8692    15.5588    16.4422
  520.5000    94.3809    15.1533    15.8079
  521.0000    94.3417    14.7583    15.2245
  521.5000    95.9793    14.3737    14.8510
  522.0000    97.6276    13.9990    14.4807
  522.5000    98.0319    13.6342    14.1209
  523.0000    97.8101    13.2788    13.7676
  523.5000    98.4741    13.0537    13.4818
  524.0000    99.4211    12.9332    13.2981
  524.5000   100.3828    12.9332    13.3111
  525.0000   101.3708    12.9332    13.3240
  525.5000   101.4359    12.9332    13.3369
  526.0000   101.3781    12.9332    13.3498
  526.5000    99.8007    12.9332    13.3628
  527.0000    98.1513    12.9332    13.3757
  527.5000    96.5043    12.9333    13.3888
  528.0000    95.9305    12.9334    13.4020
  528.5000    96.4192    12.9332    13.4146
  529.0000    96.9268    12.8626    13.4220
  529.5000    97.3037    12.7012    13.1813
  530.0000    96.1054    12.5418    13.0158
  530.5000    95.4547    12.3840    12.8521
  531.0000    96.2132    12.2331    12.6955
  531.5000    96.9510    12.1959    12.6569
  532.0000    97.6944    12.1604    12.6201
  532.5000    98.7341    12.1249    12.5832
  533.0000   100.4030    12.0894    12.5463
  533.5000   100.7247    12.0540    12.5096
  534.0000   100.2944    12.0186    12.4729
  534.5000    99.8411    11.9834    12.4364
  535.0000    99.4192    11.9483    12.3999
  535.5000    99.9269    11.9133    12.3636
  536.0000   100.4829    11.8784    12.3274
  536.5000   101.0361    11.8436    12.2912
  537.0000   101.5826    11.8088    12.2551
  537.5000   102.7621    11.7872    12.2327
  538.0000   104.3884    11.7875    12.2331
  538.5000   105.8624    11.9257    12.3765
  539.0000   105.7282    12.0389    12.4940
  539.5000   105.1589    12.1532    12.6125
  540.0000   103.2148    12.2685    12.7323
  540.5000   101.4429    12.3850    12.8531
  541.0000   101.4110    12.5026    12.9751
  541.5000   101.4062    12.6212    13.0983
  542.0000   100.6924    12.6955    13.1753
  542.5000    98.7341    12.5493    13.0246
  543.0000    96.9795    12.4044    12.8735
  543.5000    97.6237    12.2611    12.7245
  544.0000    98.9517    12.1194    12.5775
  544.5000   100.2690    11.9794    12.4322
  545.0000   101.0819    11.8410    12.2886
  545.5000   101.2270    11.7043    12.1467
  546.0000   101.3461    11.5692    12.0065
  546.5000   103.1375    11.4320    11.8641
  547.0000   105.4073    11.2534    11.6838
  547.5000   107.5086    11.2065    11.6279
  548.0000   106.1649    11.1614    11.5836
  548.5000   105.7522    11.1164    11.5374
  549.0000   107.5357    11.0716    11.4913
  549.5000   109.3414    11.0465    11.4453
  550.0000   109.5810    11.3379    11.3995
  550.5000   108.8661    11.7417    11.3538
  551.0000   108.8644    12.1598    11.3084
  551.5000   109.0968    12.6340    11.2534
  552.0000   107.6901    13.2891    11.8638
  552.5000   104.2982    14.5387    12.6910
  553.0000   100.9618    15.9060    13.8906
  553.5000    97.4532    17.4018    15.6453
  554.0000    89.5502    19.0385    17.6216
  554.5000    83.5132    20.8298    19.8475
  555.0000    82.2162    22.7848    22.3547
  555.5000    80.8879    24.7745    25.1785
  556.0000    80.6507    26.1153    28.3591
  556.5000    81.1296    26.9111    30.6697
  557.0000    81.5090    26.4991    31.4081
  557.5000    79.8492    26.2141    32.3964
  558.0000    78.1330    25.9321    31.8736
  558.5000    76.4041    25.5966    29.9617
  559.0000    77.0635    24.9206    28.1645
  559.5000    79.5409    24.2625    26.4625
  560.0000    81.9691    23.6340    24.7759
  560.5000    84.4740    22.6977    23.9477
  561.0000    88.7678    21.8153    23.0281
  561.5000    93.1410    20.9672    22.1329
  562.0000    92.7625    20.5331    21.5130
  562.5000    90.3406    20.4722    21.4260
  563.0000    87.9728    20.4114    21.3394
  563.5000    85.5994    20.3507    21.2532
  564.0000    83.2826    20.2903    21.1673
  564.5000    83.5542    20.2301    21.0818
  565.0000    84.5568    20.1700    20.9965
  565.5000    85.5450    20.1100    20.9117
  566.0000    86.5116    20.0506    20.8272
  566.5000    88.4016    19.9588    20.7125
  567.0000    90.7324    19.6887    20.4329
  567.5000    92.0809    19.4228    20.1549
  568.0000    93.1723    19.2716    20.0008
  568.5000    94.2532    19.4356    20.1693
  569.0000    95.3458    19.5515    20.2906
  569.5000    95.5153    19.6682    20.4116
  570.0000    92.8199    19.7855    20.5334
  570.5000    89.7741    19.8153    20.5643
  571.0000    88.3862    19.4125    20.2507
  571.5000    87.4405    19.1208    20.0225
  572.0000    89.3609    18.8335    19.7970
  572.5000    91.9955    18.5697    19.5210
  573.0000    92.8108    18.2296    19.1033
  573.5000    90.8961    17.8953    18.7302
  574.0000    88.5019    17.8424    18.6257
  574.5000    88.4724    17.7910    18.5217
  575.0000    86.9286    17.7284    18.3982
  575.5000    84.7466    17.7769    18.4487
  576.0000    82.5582    17.8371    18.5115
  576.5000    81.8834    17.8980    18.5745
  577.0000    86.5379    17.9589    18.6377
  577.5000    90.2616    18.0201    18.7012
  578.0000    92.4852    18.0601    18.7427
  578.5000    92.9185    17.6790    18.3473
  579.0000    93.2243    17.4004    18.0581
  579.5000    93.9482    17.1264    17.7737
