~VERSION INFORMATION
 VERS.                2.0:   CWLS LOG ASCII STANDARD - VERSION 2.0
 WRAP.                 NO:   ONE LINE PER DEPTH STEP
~WELL INFORMATION
#MNEM.UNIT      DATA TYPE    INFORMATION
#----------   ------------   ------------------------------
 STRT.F           36.0000:   START DEPTH
 STOP.F          518.0000:   STOP DEPTH
 STEP.F            0.5000:   STEP LENGTH
 NULL.          -999.2500:   NO VALUE
 COMP.    FENIX & SCISSON:   COMPANY
 WELL.        NPR #57S-10:   WELL
 FLD .             TEAPOT:   FIELD
 LOC .      S10 T38N R78W:   LOCATION
 CNTY.            NATRONA:   COUNTY
 STAT.            WYOMING:   STATE
 CTRY. UNITED STATES OF AMERICA:   COUNTRY
 SRVC.              Welex:   SERVICE COMPANY
 DATE.        11-MAR-1977:   LOGDATE
 API .       490251029100:   API NUMBER
~CURVE INFORMATION
#MNEM.UNIT       API CODE    CURVE DESCRIPTION
#----------   ------------   ------------------------------
 DEPT.F                  :   
 SPR .MV     07 010 01 00:   SPONTANEOUS POTENTIAL
 ILD .OHMM   07 120 46 00:   INDUCTION LOG DEEP
 ILM .OHMM   07 120 44 00:   INDUCTION LOG MEDIUM
 SGUR.OHMM   07 220 01 00:   SHORT GUARD RESISITIVITY
 CORR.G/C3   45 356 01 00:   DENSITY CORRECTION
 CALD.IN     45 280 60 00:   CALIPER
 GRD .GAPI   45 310 01 00:   GAMMA RAY FROM DENSITY LOG
 RHOB.G/C3   45 350 01 00:   BULK DENSITY
 DPOR.DEC    45 890 12 00:   DENSITY POROSITY SANDSTONE
~PARAMETER INFORMATION
#MNEM.UNIT          VALUE    DESCRIPTION
#----------   ------------   ------------------------------
 PD  .                 GL:   PERMANENT DATUM
 EPD .F              5244:   ELEVATION PERMANENT DATUM
 LMF .                 GL:   LOG MEASURED FROM
 DMF .                 GL:   DRILLING MEASURED FROM
 EGL .F              5244:   GROUND LEVEL
 DATE.          3-11-1977:   RUN DATE
 RUN .                  1:   RUN NUMBER
 DD  .F               530:   DEPTH DRILLER
 DL  .F               522:   DEPTH LOGGER
 BLI .F               520:   BOTTOM LOG INTERVAL
 TLI .F                35:   TOP LOG INTERVAL
 CS  .IN            8.625:   CASING SIZE
 CBD .F                40:   CASING BOTTOM DRILLER
 CBL .F                44:   CASING BOTTOM LOGGER
 BS  .IN            7.875:   BIT SIZE
 BSD .F               530:   BIT SIZE AT DEPTH
 DFT .            KCL MUD:   DRILLING FLUID TYPE
 DFD .                8.8:   DRILLING FLUID DENSITY
 DFV .                  8:   DRILLING FLUID VISCOSITY
 DFPH.                 10:   DRILLING FLUID PH
 DFL .               12.4:   DRILLING FLUID LOSS
 MSS .           FLOWLINE:   MUD SAMPLE SOURCE
 RMS .OHMM           .398:   RESISTIVITY MUD SAMPLE
 MST .F                50:   MUD SAMPLE TEMPERATURE
 RMF .OHMM           .276:   RESISTIVITY MUD FILTRATE SAMPLE
 MFST.F                60:   MUD FILTRATE SAMPLE TEMPERATURE
 RMC .OHMM            .42:   RESISTIVITY MUD CAKE
 MCST.F                60:   MUD CAKE SAMPLE TEMPERATURE
 MFSS.           MEASURED:   MUD FILTRATE SAMPLE SOURCE
 RMB .OHMM            .31:   RESISTIVITY MUD AT BHT
 BHT .F                64:   BOTTOM HOLE TEMPERATURE
 TCS .HRS             2.5:   TIME CURCULATED STOPPED
 MRT .F                64:   MAXIMUM RECORDED TEMPERATURE
 LUN .               8611:   LOGGING UNIT NUMBER
 LUL .           GILLETTE:   LOGGING UNIT LOCATION
 ENGI.               DOAK:   RECORDING ENGINEER
 WITN.         STUEBINGER:   WITNESSED BY
 CLNT.            A2DTECH:   CLIENT CODE
 ORIG.      2" & 5" PRINT:   ORIGIN OF DATA
 UWI .       490251029100:   UNIQUE WELL ID
 DICO. A2D Technologies, Inc.:   DIGITIZING COMPANY
~OTHER INFORMATION
~A   DEPT      SPR        ILD        ILM       SGUR        CORR        CALD      GRD       RHOB       DPOR   
# ...
  218.5000   -30.3384     7.1941     8.9573    10.5905     0.0588     7.9271   114.1874     2.4688     0.1030
  219.0000   -30.3954     7.1118     8.8753    10.4788     0.0568     7.9254   116.7418     2.4599     0.1069
  219.5000   -30.4523     6.9368     8.7940    10.2287     0.0548     7.9237   119.4421     2.4511     0.1108
  220.0000   -30.5092     6.6758     8.6429    10.2996     0.0528     7.9224   117.8680     2.4423     0.1129
  220.5000   -30.5661     6.4252     8.3346     9.8549     0.0526     7.9233   116.3405     2.4336     0.1168
  221.0000   -30.6231     6.1835     8.0373     9.4575     0.0539     7.9242   117.6644     2.4288     0.1214
  221.5000   -30.6800     5.8289     7.7506     9.0761     0.0553     7.9251   120.3113     2.4328     0.1261
  222.0000   -30.7369     5.4734     7.4810     8.6518     0.0566     7.9260   119.9487     2.4349     0.1349
  222.5000   -30.7938     5.0694     7.2272     8.1193     0.0579     7.9269   118.1827     2.4169     0.1436
  223.0000   -30.8507     4.6953     6.9821     7.6195     0.0592     7.9278   116.8430     2.3925     0.1524
  223.5000   -30.9077     4.2657     6.6223     7.1509     0.0575     7.9287   116.8086     2.3680     0.1612
  224.0000   -30.9646     3.8431     6.0171     6.6832     0.0531     7.9296   117.6075     2.3435     0.1737
  224.5000   -31.0215     3.4623     5.4671     6.0162     0.0486     7.9305   118.6902     2.3191     0.1943
  225.0000   -31.0784     3.1845     5.1040     5.4150     0.0442     7.9314   119.7783     2.2994     0.2105
  225.5000   -31.1353     2.9551     4.7169     4.8149     0.0397     7.9323   120.8738     2.2845     0.2164
  226.0000   -31.1923     2.7421     4.3023     4.1603     0.0352     7.9332   121.3616     2.2691     0.2222
  226.5000   -31.2492     2.5813     3.9324     3.5947     0.0308     7.9341   119.1362     2.2637     0.2283
  227.0000   -31.3061     2.5397     3.9828     3.0703     0.0263     7.9349   116.7227     2.2748     0.2221
  227.5000   -31.3630     2.5231     4.0683     3.4340     0.0233     7.9358   115.9036     2.2950     0.2091
  228.0000   -31.4199     2.6257     4.1604     4.7387     0.0220     7.9367   117.7419     2.3201     0.1951
  228.5000   -31.5002     2.7522     4.2989     6.4815     0.0238     7.9376   121.3355     2.3452     0.1809
  229.0000   -31.6039     2.9332     4.5592     5.4615     0.0276     7.9385   124.9223     2.3703     0.1667
  229.5000   -31.7075     3.1262     4.8894     3.7272     0.0314     7.9394   128.4947     2.4018     0.1526
  230.0000   -31.8112     3.4480     5.2434     3.8473     0.0352     7.9403   129.2173     2.4410     0.1384
  230.5000   -31.9148     3.8173     5.6228     8.9761     0.0391     7.9412   128.0226     2.4702     0.1242
  231.0000   -32.0185     4.2262     6.0296     8.9248     0.0429     7.9421   126.2573     2.4695     0.1115
  231.5000   -32.1221     4.6492     6.4262     8.8214     0.0467     7.9391   124.4732     2.4644     0.1087
  232.0000   -32.2258     4.8362     6.7509     8.7019     0.0506     7.9354   123.2253     2.4594     0.1082
  232.5000   -32.3294     5.0307     7.0920     8.3532     0.0519     7.9318   124.5358     2.4556     0.1092
  233.0000   -32.4331     5.2041     7.3453     8.1165     0.0519     7.9281   124.3155     2.4532     0.1111
  233.5000   -32.5367     5.3140     7.5005     8.3169     0.0519     7.9244   123.7417     2.4508     0.1142
  234.0000   -32.6405     5.4037     7.6638     8.5036     0.0530     7.9207   123.2939     2.4485     0.1147
  234.5000   -32.7443     5.2410     7.8062     8.6945     0.0548     7.9171   125.7084     2.4477     0.1132
  235.0000   -32.8405     5.0878     7.6287     8.8892     0.0565     7.9134   128.1891     2.4473     0.1155
  235.5000   -32.8766     4.9390     7.3241     9.1287     0.0574     7.9097   130.6349     2.4380     0.1186
  236.0000   -32.9118     4.7945     7.0178     7.4509     0.0546     7.9060   132.6500     2.4284     0.1218
  236.5000   -32.9471     4.6543     6.7531     5.4650     0.0520     7.9024   132.2179     2.4236     0.1249
  237.0000   -32.9826     4.5182     6.8469     5.9369     0.0493     7.8987   131.2930     2.4250     0.1273
  237.5000   -33.0180     4.4672     6.9421     7.1145     0.0466     7.8950   126.8980     2.4313     0.1221
  238.0000   -33.0534     4.4262     6.9421     6.5592     0.0439     7.8913   121.9376     2.4401     0.1177
  238.5000   -33.0889     4.5383     6.9421     5.8555     0.0449     7.8877   117.7647     2.4506     0.1134
  239.0000   -33.1243     4.6707     6.9421     7.1364     0.0461     7.8840   120.4722     2.4610     0.1090
  239.5000   -33.1597     4.8070     7.2262     8.6178     0.0474     7.8803   124.4914     2.4668     0.1046
  240.0000   -33.1951     5.0074     7.5555     8.1175     0.0486     7.8766   128.4394     2.4656     0.1026
  240.5000   -33.2306     5.2433     7.8999     7.8242     0.0499     7.8730   126.6920     2.4740     0.1018
  241.0000   -33.2751     5.4902     8.2599     8.7798     0.0511     7.8693   123.4723     2.4824     0.0987
  241.5000   -33.3206     5.7488     8.6364     9.4450     0.0516     7.8656   121.6260     2.4895     0.0947
  242.0000   -33.3662     6.0195     9.0300    10.0787     0.0508     7.8626   123.1168     2.4867     0.0940
  242.5000   -33.4118     6.2767     9.2200    10.4082     0.0500     7.8637   124.5772     2.4817     0.0978
  243.0000   -33.4573     6.5421     9.0330    10.4075     0.0492     7.8647   126.0796     2.4772     0.0999
  243.5000   -33.5028     6.7414     8.9017    10.4070     0.0483     7.8657   125.8463     2.4802     0.0981
  244.0000   -33.5484     6.9381     8.7723    10.4067     0.0475     7.8667   125.4218     2.4820     0.0966
  244.5000   -33.5939     7.1941     8.6480    10.4067     0.0467     7.8677   126.8760     2.4797     0.0978
  245.0000   -33.6395     7.1446     8.5538    10.4067     0.0459     7.8686   128.4344     2.4745     0.1024
  245.5000   -33.6850     7.0629     8.4607    10.2759     0.0451     7.8696   129.6576     2.4694     0.1058
  246.0000   -33.7305     6.9821     8.3685     9.8515     0.0443     7.8706   128.7920     2.4642     0.1058
  246.5000   -33.7761     6.9023     8.2773     9.4447     0.0446     7.8716   128.2686     2.4591     0.1067
  247.0000   -33.8216     6.7050     8.1804     9.4050     0.0457     7.8726   130.2232     2.4574     0.1078
  247.5000   -33.8672     6.4648     8.0838     9.4050     0.0469     7.8736   132.2364     2.4562     0.1109
  248.0000   -33.9127     6.2332     7.9884     9.1489     0.0476     7.8746   132.6208     2.4499     0.1142
  248.5000   -33.9583     6.0098     7.8941     8.9101     0.0452     7.8756   129.2259     2.4421     0.1176
  249.0000   -34.0038     5.7945     7.8010     9.0131     0.0427     7.8766   131.4931     2.4342     0.1210
  249.5000   -34.0494     5.5869     7.7089     9.1384     0.0403     7.8775   133.9152     2.4263     0.1243
  250.0000   -34.0949     5.3678     7.5082     8.8581     0.0379     7.8785   132.4883     2.4185     0.1281
  250.5000   -34.1405     5.1554     7.2675     8.4587     0.0354     7.8795   130.6019     2.4106     0.1358
  251.0000   -34.1861     4.9513     7.0344     8.0933     0.0330     7.8805   128.6670     2.4027     0.1435
  251.5000   -34.2295     4.7562     6.8089     7.7683     0.0305     7.8815   128.2242     2.3946     0.1517
  252.0000   -34.2466     4.5830     6.5903     6.7082     0.0281     7.8825   129.1876     2.3907     0.1521
  252.5000   -34.2646     4.5460     6.3775     5.7928     0.0296     7.8835   130.1491     2.3922     0.1432
  253.0000   -34.2828     4.5971     6.1601     4.8064     0.0315     7.8844   129.1941     2.3993     0.1323
  253.5000   -34.3009     4.6683     6.2255     5.0222     0.0334     7.8854   125.7608     2.4319     0.1214
  254.0000   -34.3190     4.7406     6.4774     6.7003     0.0352     7.8864   123.7997     2.4646     0.1105
  254.5000   -34.3372     4.8377     7.1342     8.6582     0.0371     7.8874   127.4970     2.4806     0.1021
