~VERSION INFORMATION
 VERS.                2.0:   CWLS LOG ASCII STANDARD - VERSION 2.0
 WRAP.                 NO:   ONE LINE PER DEPTH STEP
~WELL INFORMATION
#MNEM.UNIT      DATA TYPE    INFORMATION
#----------   ------------   ------------------------------
 STRT.F           30.0000:   START DEPTH
 STOP.F         2423.0000:   STOP DEPTH
 STEP.F            0.5000:   STEP LENGTH
 NULL.          -999.2500:   NO VALUE
 COMP. DEPARTMENT OF ENERGY:   COMPANY
 WELL.   NPR-3 #35-1 X 10:   WELL
 FLD .        TEAPOT DOME:   FIELD
 LOC .      S10 T38N R78W:   LOCATION
 CNTY.            NATRONA:   COUNTY
 STAT.            WYOMING:   STATE
 CTRY. UNITED STATES OF AMERICA:   COUNTRY
 SRVC.       Schlumberger:   SERVICE COMPANY
 DATE.        15-JAN-1999:   LOGDATE
 API .       490252282200:   API NUMBER
~CURVE INFORMATION
#MNEM.UNIT       API CODE    CURVE DESCRIPTION
#----------   ------------   ------------------------------
 DEPT.F                  :   
 GRR .GAPI   06 310 01 00:   GAMMA RAY FROM RESISTIVITY
 SPR .MV     06 010 01 00:   SPONTANEOUS POTENTIAL FROM RES.
 HD  .IN     06 280 01 00:   HOLE DIAMETER
 AT90.OHMM   06 120 90 00:   90-IN. RESISTIVITY, 2-FT RESOLUTION
 AT30.OHMM   06 120 30 00:   30-IN. RESISTIVITY, 2-FT RESOLUTION
 AT10.OHMM   06 120 10 00:   10-IN. RESISTIVITY, 2-FT RESOLUTION
~PARAMETER INFORMATION
#MNEM.UNIT          VALUE    DESCRIPTION
#----------   ------------   ------------------------------
 PD  .                 GL:   PERMANENT DATUM
 EPD .F              5228:   ELEVATION PERMANENT DATUM
 LMF .                 KB:   LOG MEASURED FROM
 DAPD.F                10:   FEET ABOVE PERMANENT DATUM
 DMF .                 KB:   DRILLING MEASURED FROM
 EKB .F              5238:   KELLING BUSHING
 EDF .F              5237:   DRILLING FLOOR
 EGL .F              5228:   GROUND LEVEL
 DATE.        15-JAN-1999:   RUN DATE
 RUN .                  1:   RUN NUMBER
 DD  .F              2400:   DEPTH DRILLER
 DL  .F              2421:   DEPTH LOGGER
 BLI .F              2393:   BOTTOM LOG INTERVAL
 TLI .F                30:   TOP LOG INTERVAL
 CS  .IN            9.625:   CASING SIZE
 CBD .F               778:   CASING BOTTOM DRILLER
 CBL .F               773:   CASING BOTTOM LOGGER
 BS  .IN              8.5:   BIT SIZE
 BSD .F              2400:   BIT SIZE AT DEPTH
 DFT .            GEL/KCL:   DRILLING FLUID TYPE
 DFD .                8.9:   DRILLING FLUID DENSITY
 DFV .                 39:   DRILLING FLUID VISCOSITY
 DFPH.                  9:   DRILLING FLUID PH
 DFL .                8.8:   DRILLING FLUID LOSS
 MSS .            MUD PIT:   MUD SAMPLE SOURCE
 RMS .OHMM            .29:   RESISTIVITY MUD SAMPLE
 MST .F                65:   MUD SAMPLE TEMPERATURE
 RMF .OHMM            .22:   RESISTIVITY MUD FILTRATE SAMPLE
 MFST.F                65:   MUD FILTRATE SAMPLE TEMPERATURE
 RMC .OHMM            .43:   RESISTIVITY MUD CAKE
 MCST.F                65:   MUD CAKE SAMPLE TEMPERATURE
 MFSS.          MUD PRESS:   MUD FILTRATE SAMPLE SOURCE
 MCSS.         CALCULATED:   MUD CAKE SAMPLE SOURCE
 RMB .OHMM           .195:   RESISTIVITY MUD AT BHT
 BHT .F               100:   BOTTOM HOLE TEMPERATURE
 TCS .HRS            2015:   TIME CURCULATED STOPPED
 TLAB.HRS            2315:   TIME LOGGER AT BOTTOM
 MRT .F               100:   MAXIMUM RECORDED TEMPERATURE
 LUN .               2102:   LOGGING UNIT NUMBER
 LUL .             CASPER:   LOGGING UNIT LOCATION
 ENGI.    TISOVEC/PIERSON:   RECORDING ENGINEER
 WITN.           ESMERSON:   WITNESSED BY
 CLNT.            A2DTECH:   CLIENT CODE
 ORIG.       2", 5" PRINT:   ORIGIN OF DATA
 UWI .       490252282200:   UNIQUE WELL ID
 DICO. A2D Technologies, Inc.:   DIGITIZING COMPANY
~OTHER INFORMATION
~A   DEPT       GRR       SPR         HD       AT90       AT30       AT10   
# ...
 2058.0000   171.1531   -11.9157     8.4046     9.1355     8.9112     8.6404
 2058.5000   170.3183   -11.8074     8.4059     9.1498     8.9392     8.7068
 2059.0000   168.7321   -11.8214     8.4072     9.1642     8.9673     8.7737
 2059.5000   168.4361   -11.8143     8.4085     9.1762     8.9954     8.8430
 2060.0000   166.5743   -11.8185     8.4098     9.4786     9.1091     9.0937
 2060.5000   163.8537   -11.8163     8.4111     9.7465     9.3858     9.3597
 2061.0000   160.8050   -11.8175     8.4124    10.0219     9.6709     9.6345
 2061.5000   157.8719   -11.8205     8.4137    10.3051     9.9647     9.9174
 2062.0000   154.9640   -11.8742     8.4142    10.6442    10.2565    10.2565
 2062.5000   151.6466   -11.9427     8.4141    10.7708    10.2982    10.2565
 2063.0000   148.8420   -12.0077     8.4142    10.9445    10.3386    10.0998
 2063.5000   148.2879   -12.0755     8.4141    10.7400    10.0287     9.8651
 2064.0000   149.0721   -12.1404     8.4142    10.4386     9.7917     9.7013
 2064.5000   151.7679   -12.2134     8.4141    10.3463    10.0680     9.7917
 2065.0000   153.7772   -12.1981     8.4141    10.3612     9.6296     9.5380
 2065.5000   153.3611   -12.1594     8.4141     9.4484     8.8288     8.7765
 2066.0000   151.9404   -12.1252     8.4141     8.3603     8.0587     7.9106
 2066.5000   152.7981   -12.0892     8.4142     8.5624     8.4029     8.1195
 2067.0000   157.4542   -12.0538     8.4142     9.1500     8.7817     8.5105
 2067.5000   160.6828   -12.0191     8.4142     9.5305     9.2617     8.9243
 2068.0000   159.6346   -11.9798     8.4141     9.5203     9.3061     9.0075
 2068.5000   154.8996   -11.9419     8.4142     9.5461     9.3623     9.0075
 2069.0000   152.7163   -11.9034     8.4141     9.5844     9.4190     9.0075
 2069.5000   154.8142   -11.8659     8.4144     9.6082     9.4759     9.0075
 2070.0000   162.5151   -11.8282     8.4115     9.7119     9.5332     9.0075
 2070.5000   165.6134   -11.8262     8.4055     9.7690     9.5909     9.0251
 2071.0000   158.1731   -11.8414     8.4001     9.8271     9.6489     9.0907
 2071.5000   150.1023   -11.8537     8.3946     9.8807     9.7013     9.1762
 2072.0000   137.9467   -11.8674     8.3888     9.6632     9.4004     9.0191
 2072.5000   132.2066   -11.8804     8.3837     9.4256     9.1352     8.8012
 2073.0000   130.7472   -11.8937     8.3772     9.1938     8.8774     8.5886
 2073.5000   135.9115   -11.9068     8.3776     8.9960     8.6269     8.3811
 2074.0000   143.0611   -11.9201     8.3904     8.9635     8.4636     8.1338
 2074.5000   147.6682   -11.9340     8.4058     8.9243     8.3647     8.1153
 2075.0000   148.6985   -11.9469     8.4141     8.9626     8.2669     8.0915
 2075.5000   148.6454   -11.9623     8.4096     9.0114     8.1338     8.0587
 2076.0000   148.1918   -11.9725     8.4071     9.0604     8.2772     8.1840
 2076.5000   147.7902   -11.9923     8.4035     9.1097     8.5141     8.3903
 2077.0000   145.8987   -11.9932     8.4005     9.1593     8.7577     8.6018
 2077.5000   141.4699   -12.0321     8.3971     9.5581     9.1413     8.8451
 2078.0000   135.1262   -11.8555     8.3943    10.1666     9.6137     9.1709
 2078.5000   128.9328   -11.3953     8.3950    11.1495    10.1618     9.6117
 2079.0000   124.2218   -10.9554     8.3962     9.7108     8.1450     7.8065
 2079.5000   123.0076   -10.5040     8.3973     6.1968     5.4335     5.8049
 2080.0000   125.3463   -10.0520     8.3984     6.6731     5.8926     4.8836
 2080.5000   128.7274   -10.0754     8.3996     8.7132     7.7669     6.5442
 2081.0000   130.8928   -10.1915     8.4007    12.1192    10.2343     8.9323
 2081.5000   133.1918   -10.2892     8.4018    12.8750    12.4945    11.0465
 2082.0000   133.5204   -10.4001     8.4030    12.8679    13.0147    11.0465
 2082.5000   132.3305   -10.5278     8.4041    13.0180    13.6956    11.3744
 2083.0000   130.8830   -10.6663     8.4052    13.4457    14.4137    12.2278
 2083.5000   130.9736   -10.8036     8.4063    14.1534    15.1420    13.2981
 2084.0000   132.8732   -10.9411     8.4075    15.1596    14.8107    13.9293
 2084.5000   134.9805   -11.0782     8.4086    15.1403    14.4257    13.8693
 2085.0000   135.7118   -11.2168     8.4097    15.1573    14.0508    13.5571
 2085.5000   135.2115   -11.3984     8.4109    14.4389    13.6856    13.0566
 2086.0000   134.3099   -11.5771     8.4120    13.8244    13.2981    12.3471
 2086.5000   137.4027   -11.7610     8.4132    13.5522    13.3499    12.3803
 2087.0000   143.4494   -11.8254     8.4140    13.5865    13.4071    12.4452
 2087.5000   147.7514   -11.8174     8.4129    13.6201    13.4645    12.5104
 2088.0000   147.9806   -11.8201     8.4117    13.6492    13.5471    12.5782
 2088.5000   146.3843   -11.8192     8.4106    13.6733    13.4635    12.4840
 2089.0000   145.0383   -11.8180     8.4094    13.4732    13.2419    12.3623
 2089.5000   143.6409   -11.8166     8.4082    13.3053    13.0239    12.2418
 2090.0000   142.2471   -11.7155     8.4071    13.1753    12.8138    12.1225
 2090.5000   149.6491   -11.5761     8.4059    13.2821    12.8908    12.0082
 2091.0000   165.2040   -11.4334     8.4047    13.2218    12.9332    12.0082
 2091.5000   184.1171   -11.5037     8.4036    12.8146    12.6772    12.0082
 2092.0000   182.4381   -11.6182     8.4024    12.9226    12.3471    12.0596
 2092.5000   172.8496   -11.7482     8.4012    13.1732    12.7711    12.2501
 2093.0000   166.6922   -11.8021     8.4001    13.4275    13.2721    12.4621
 2093.5000   160.1641   -11.7103     8.3989    13.6551    13.4220    12.2972
 2094.0000   153.0352   -11.6324     8.3977    13.5528    13.4220    12.0082
 2094.5000   149.5184   -11.5508     8.3965    14.1201    13.4220    12.5640
 2095.0000   140.9037   -11.4597     8.3954    15.3200    14.9452    13.3630
 2095.5000   131.4834   -11.4171     8.3941    16.3083    16.8018    14.4459
 2096.0000   126.1091   -11.5025     8.3939    15.9401    16.6450    14.3918
 2096.5000   123.7845   -11.5737     8.3939    15.5693    16.4321    14.1732
 2097.0000   127.7958   -11.6515     8.3939    15.3890    15.7471    13.9574
 2097.5000   136.5447   -11.7254     8.3939    15.1680    15.1121    13.4918
 2098.0000   145.2791   -11.8018     8.3939    15.0022    13.8204    12.4548
 2098.5000   142.6859   -11.8760     8.3939    12.5782    12.1360    11.3502
 2099.0000   134.4620   -11.9539     8.3939    12.8590    12.4515    11.6378
 2099.5000   123.5555   -12.0120     8.3939    14.3224    13.6782    12.1229
 2100.0000   125.9872   -11.9676     8.3939    13.9888    13.5302    12.0668
 2100.5000   131.7047   -11.9176     8.3939    13.4220    13.2644    12.0008
 2101.0000   137.2379   -11.8672     8.3939    13.4900    13.1840    12.0163
 2101.5000   139.0826   -11.8204     8.3939    13.5471    13.3416    12.1196
 2102.0000   140.9429   -11.7950     8.3939    13.1570    11.5242    10.3011
 2102.5000   142.8966   -11.7722     8.3939    12.9332    12.2485    11.2572
 2103.0000   145.9279   -11.7490     8.3939    14.4558    14.2816    13.0658
 2103.5000   149.2226   -11.7259     8.3939    17.0825    16.6137    14.7265
 2104.0000   150.3598   -11.7031     8.3940    16.5759    16.0135    14.2073
 2104.5000   145.8544   -11.6794     8.3951    16.0086    15.1602    13.6733
 2105.0000   137.3659   -11.6583     8.3964    14.5598    13.6285    12.8793
 2105.5000   133.4059   -11.6303     8.3976    13.0482    12.2515    11.5270
 2106.0000   132.8573   -11.6376     8.3988    11.6935    11.0137    10.3166
 2106.5000   133.6777   -11.8392     8.4000    10.0449     9.5230     8.6795
 2107.0000   134.5954   -12.0322     8.4013    10.0878     9.6403     9.0238
 2107.5000   138.0396   -12.2292     8.4025    10.2846    10.2684     9.8533
 2108.0000   141.2423   -12.4220     8.4037    12.7705    11.1728    10.7592
 2108.5000   139.6834   -12.6172     8.4049    12.6369    11.7875    11.5709
 2109.0000   135.9483   -12.7025     8.4061    12.2497    11.6293    11.5709
 2109.5000   133.2291   -12.7924     8.4073    11.6735    11.4701    11.1722
