~VERSION INFORMATION
 VERS.                2.0:   CWLS LOG ASCII STANDARD - VERSION 2.0
 WRAP.                 NO:   ONE LINE PER DEPTH STEP
~WELL INFORMATION
#MNEM.UNIT      DATA TYPE    INFORMATION
#----------   ------------   ------------------------------
 STRT.F           36.0000:   START DEPTH
 STOP.F          521.0000:   STOP DEPTH
 STEP.F            0.5000:   STEP LENGTH
 NULL.          -999.2500:   NO VALUE
 COMP. FENIX & SCISSON INC:   COMPANY
 WELL.        NPR-3 #36-3:   WELL
 FLD .             TEAPOT:   FIELD
 LOC .       S3 T38N R78W:   LOCATION
 CNTY.            NATRONA:   COUNTY
 STAT.            WYOMING:   STATE
 CTRY. UNITED STATES OF AMERICA:   COUNTRY
 SRVC.            Unknown:   SERVICE COMPANY
 DATE.        09-JUL-1978:   LOGDATE
 API .       490251066200:   API NUMBER
~CURVE INFORMATION
#MNEM.UNIT       API CODE    CURVE DESCRIPTION
#----------   ------------   ------------------------------
 DEPT.F                  :   
 CALD.IN     45 280 60 00:   CALIPER FROM DENSITY LOG
 GRD .GAPI   45 310 01 00:   GAMMA RAY FROM DENSITY LOG
 CORR.G/C3   45 356 01 00:   DENSITY CORRECTION
 DPHI.DEC    45 890 12 00:   DENSITY POROSITY SANDSTONE
 RHOB.G/C3   45 350 01 00:   BULK DENSITY
 SPR .MV     07 010 01 00:   SPONTANEOUS POTENTIAL
 ILD .OHMM   07 120 46 00:   INDUCTION LOG DEEP
 SN  .OHMM   07 040 16 00:   SHORT NORMAL 16"
~PARAMETER INFORMATION
#MNEM.UNIT          VALUE    DESCRIPTION
#----------   ------------   ------------------------------
 PD  .                 GL:   PERMANENT DATUM
 EPD .F              5216:   ELEVATION PERMANENT DATUM
 LMF .                 KB:   LOG MEASURED FROM
 DAPD.F                 4:   FEET ABOVE PERMANENT DATUM
 DMF .                 KB:   DRILLING MEASURED FROM
 EKB .F              5220:   KELLING BUSHING
 EGL .F              5216:   GROUND LEVEL
 DATE.        09-JUL-1978:   RUN DATE
 RUN .                  1:   RUN NUMBER
 DD  .F               520:   DEPTH DRILLER
 DL  .F               524:   DEPTH LOGGER
 BLI .F               519:   BOTTOM LOG INTERVAL
 TLI .F                50:   TOP LOG INTERVAL
 CS  .IN            8.625:   CASING SIZE
 CBD .F                40:   CASING BOTTOM DRILLER
 BS  .IN            7.875:   BIT SIZE
 BSD .F               520:   BIT SIZE AT DEPTH
 DFT .                KCL:   DRILLING FLUID TYPE
 DFD .                8.6:   DRILLING FLUID DENSITY
 DFV .                 32:   DRILLING FLUID VISCOSITY
 DFPH.                9.5:   DRILLING FLUID PH
 DFL .               14.4:   DRILLING FLUID LOSS
 MSS .           FLOWLINE:   MUD SAMPLE SOURCE
 RMS .OHMM           0.24:   RESISTIVITY MUD SAMPLE
 MST .F                70:   MUD SAMPLE TEMPERATURE
 RMF .OHMM           0.24:   RESISTIVITY MUD FILTRATE SAMPLE
 MFST.F                70:   MUD FILTRATE SAMPLE TEMPERATURE
 RMC .OHMM           0.42:   RESISTIVITY MUD CAKE
 MCST.F                72:   MUD CAKE SAMPLE TEMPERATURE
 MFSS.               MEAS:   MUD FILTRATE SAMPLE SOURCE
 BHT .F                80:   BOTTOM HOLE TEMPERATURE
 TCS .HRS               3:   TIME CURCULATED STOPPED
 MRT .F                80:   MAXIMUM RECORDED TEMPERATURE
 LUN .               2958:   LOGGING UNIT NUMBER
 LUL .               CASP:   LOGGING UNIT LOCATION
 ENGI.             MILLER:   RECORDING ENGINEER
 WITN.           MCGINLEY:   WITNESSED BY
 CLNT.            A2DTECH:   CLIENT CODE
 ORIG.           5" PRINT:   ORIGIN OF DATA
 UWI .       490251066200:   UNIQUE WELL ID
 DICO. A2D Technologies, Inc.:   DIGITIZING COMPANY
~OTHER INFORMATION
~A   DEPT     CALD        GRD       CORR       DPHI       RHOB        SPR        ILD         SN   
# ...
   76.5000     7.4733    84.3704     0.0310     0.1368     2.4549   -13.9660     8.5129     8.4504
   77.0000     7.3882    83.0350     0.0311     0.1425     2.4430   -13.9704     8.5101     8.4504
   77.5000     7.3441    82.5923     0.0282     0.1404     2.4520   -15.0305     8.5078     8.4504
   78.0000     7.7625    82.5996     0.0358     0.1388     2.4453   -15.9399     8.5651     8.4504
   78.5000     6.8394    83.4996     0.0419     0.1484     2.4423   -16.3967     8.5623     8.5681
   79.0000     6.8999    85.4429     0.0435     0.1481     2.4424   -16.4012     8.6194     8.6875
   79.5000     7.1094    88.5784     0.0376     0.1465     2.4344   -16.4065     8.6768     8.8086
   80.0000     7.8147    94.0984     0.0467     0.1420     2.4215   -16.4108     8.7346     8.8698
   80.5000     7.9360    93.9552     0.0483     0.1378     2.4492   -16.4152     8.8538     8.9934
   81.0000     8.0362    93.9613     0.0439     0.1384     2.4627   -16.4195     8.9126     9.0558
   81.5000     8.1116    93.9683     0.0425     0.1369     2.4605   -16.4239     8.9096     9.1187
   82.0000     8.1721    94.5703     0.0471     0.1507     2.4456   -16.4283     8.9073     9.1187
   82.5000     8.0984    96.6626     0.0626     0.1542     2.4329   -16.7353     8.9049     9.1187
   83.0000     7.9652    98.6058     0.0967     0.1547     2.4322   -17.0413     8.8412     9.0558
   83.5000     7.7872    96.8233     0.1418     0.1445     2.4465   -17.0457     8.4799     9.0558
   84.0000     7.5645    92.8038     0.1568     0.1173     2.5018   -17.0500     8.3613     8.9934
   84.5000     7.3403    93.5563     0.1240     0.1149     2.4921   -17.0544     8.3014     8.9314
   85.0000     6.8956    95.6485     0.0687     0.1358     2.4480   -17.0588     8.2988     8.8698
   85.5000     6.9116    95.2073     0.0718     0.1630     2.4219   -17.0641     8.3546     8.8086
   86.0000     6.9721    95.0641     0.0674     0.1477     2.4489   -17.0685     8.4103     8.8698
   86.5000     7.3754    96.3368     0.0436     0.1357     2.4519   -17.2237     8.4664     8.8698
   87.0000     7.6743   100.4908     0.0317     0.1384     2.4572   -17.2280     8.6410     8.9314
   87.5000     7.8689   100.1501     0.0318     0.1362     2.4610   -17.3832     8.5786     8.9314
   88.0000     8.0486   101.1992     0.0379     0.1319     2.4662   -17.3876     8.5173     8.9314
   88.5000     8.1091   101.5031     0.0501     0.1285     2.4722   -17.5438     8.5150     8.9314
   89.0000     8.0802   100.1676     0.0516     0.1335     2.4700   -17.5482     8.5128     8.8698
   89.5000     7.9456    95.8516     0.0607     0.1395     2.4521   -17.5525     8.4519     8.6875
   90.0000     7.8139    93.1749     0.0728     0.1305     2.4738   -17.5569     8.0433     8.6276
   90.5000     7.7253    91.9884     0.0803     0.1194     2.4888   -17.4103     7.5628     8.4504
   91.0000     7.6962    91.9692     0.0655     0.1212     2.4777   -17.2639     7.2537     8.4504
   91.5000     7.6526    92.2982     0.0626     0.1188     2.4874   -17.2693     7.1030     8.4504
   92.0000     7.5640    89.4724     0.0552     0.1325     2.4785   -17.2737     7.1504     8.4504
   92.5000     7.4308    89.5032     0.0463     0.1286     2.4688   -17.2780     7.2479     8.6276
   93.0000     7.4614    89.9312     0.0390     0.1348     2.4651   -17.2824     7.4491     8.6875
   93.5000     7.4921    84.1263     0.0316     0.1315     2.4674   -17.2867     7.6607     8.8086
   94.0000     7.3706    79.6612     0.0272     0.1273     2.4749   -17.1402     8.0325     8.9314
   94.5000     7.2554    80.4122     0.0213     0.1380     2.4652   -17.1457     8.0865     9.0558
   95.0000     7.2714    84.7399     0.0214     0.1568     2.4451   -17.1500     7.9734     9.1187
   95.5000     7.2723    85.7875     0.0395     0.1637     2.4167   -17.1544     8.5410     9.1187
   96.0000     7.2731    83.5593     0.0576     0.1437     2.4608   -17.1587     8.9001     9.1187
   96.5000     7.3783    82.2225     0.0502     0.1251     2.4781   -17.1631     9.0841     9.1820
   97.0000     7.7071    84.3162     0.0263     0.1349     2.4624   -17.1674     9.0816     9.1820
   97.5000     7.8272    85.2162     0.0234     0.1358     2.4617   -17.1728     9.0787     9.1820
   98.0000     7.9026    84.7750     0.0265     0.1361     2.4595   -17.1772     9.0763     9.1820
   98.5000     7.9634    85.2777     0.0341     0.1248     2.4685   -17.1815     9.0738     9.1820
   99.0000     8.0849    87.0472     0.0462     0.1186     2.4910   -17.1859     9.0714     9.2458
   99.5000     8.0991    86.7313     0.0463     0.1145     2.4940   -17.1902     9.0690     9.3100
  100.0000     8.1148    86.4377     0.0554     0.1178     2.4925   -17.1946     9.0666     9.4358
  100.5000     8.1156    89.0164     0.0525     0.1195     2.4896   -17.1991     9.1915     9.8180
  101.0000     8.1163    91.9821     0.0660     0.1049     2.5083   -17.2044     9.1267    10.1293
  101.5000     8.1019    92.2725     0.0750     0.0956     2.5323   -17.2087     9.1255    10.1894
  102.0000     8.0880    88.1069     0.0631     0.1001     2.5375   -17.2130     9.1243    10.2571
  102.5000     7.8950    88.4142     0.0527     0.1093     2.5099   -17.2174     9.1231    10.1388
  103.0000     7.6572    85.7390     0.0557     0.1108     2.4988   -17.2217     9.1219    10.1375
  103.5000     7.6133    83.6581     0.0528     0.1125     2.4981   -17.2358     9.1204     9.9237
  104.0000     7.5842    85.3066     0.0439     0.1146     2.4951   -17.3242     9.1192     9.5883
  104.5000     7.5253    85.9101     0.0348     0.1165     2.4877   -17.4127     9.1180     9.3899
  105.0000     7.4814    85.9175     0.0272     0.1319     2.4683   -17.5011     9.1168     9.3239
  105.5000     7.4374    85.3269     0.0216     0.1402     2.4489   -17.5895     9.1156     9.3226
  106.0000     7.3891    85.7831     0.0277     0.1432     2.4512   -17.5600     9.0516     9.2571
  106.5000     7.2302    86.8337     0.0292     0.1434     2.4490   -17.7244     9.0501     9.1285
  107.0000     7.2311    88.1824     0.0278     0.1482     2.4393   -17.7358     9.0489     9.1270
  107.5000     7.2319    89.9781     0.0279     0.1556     2.4311   -17.7500     9.0477     9.1258
  108.0000     7.2475    92.0719     0.0294     0.1398     2.4338   -17.6113     9.0465     9.1246
  108.5000     7.3973    90.8870     0.0355     0.1440     2.4567   -17.6227     9.0453     9.1871
  109.0000     7.5023    85.3814     0.0355     0.1233     2.4831   -17.6341     9.0438     9.1855
  109.5000     7.6819    83.3024     0.0326     0.1081     2.4889   -17.6456     9.0426     9.1843
  110.0000     7.8466    85.9923     0.0296     0.1036     2.5099   -17.6597     9.0414     9.1828
  110.5000     7.8473    88.9803     0.0282     0.1065     2.5024   -17.6712     9.0403     9.1816
  111.0000     7.8481    92.7134     0.0328     0.1155     2.4846   -17.6826     9.0391     9.1804
  111.5000     7.8488    92.5717     0.0433     0.1256     2.4764   -17.6940     9.0379     9.2429
  112.0000     7.8495    90.3436     0.0568     0.1265     2.4749   -17.5376     9.0364     9.2417
  112.5000     7.6118    90.7981     0.0734     0.1270     2.4765   -17.2692     9.0352     9.1764
  113.0000     7.2698    91.6996     0.1064     0.1216     2.4825   -17.1276     8.6671     9.1752
  113.5000     7.2555    91.4089     0.1393     0.1109     2.5446   -17.1418     8.4882     9.1107
  114.0000     7.2564    87.8395     0.1184     0.0989     2.5312   -17.3034     8.4871     9.0466
  114.5000     7.2720    86.6546     0.0646     0.1168     2.4886   -17.3176     8.5445     8.9830
  115.0000     7.4814    85.3207     0.0437     0.1213     2.4797   -17.3290     8.6029     8.9198
  115.5000     7.8398    83.8378     0.0423     0.1242     2.4767   -17.3404     8.7212     8.9183
  116.0000     8.2131    83.6960     0.0484     0.1119     2.4999   -17.5020     8.8413     8.9171
  116.5000     8.1990    84.8957     0.0544     0.1107     2.5022   -17.5135     8.9015     8.8544
