~VERSION INFORMATION
 VERS.                2.0:   CWLS LOG ASCII STANDARD - VERSION 2.0
 WRAP.                 NO:   ONE LINE PER DEPTH STEP
~WELL INFORMATION
#MNEM.UNIT      DATA TYPE    INFORMATION
#----------   ------------   ------------------------------
 STRT.F           40.0000:   START DEPTH
 STOP.F          490.0000:   STOP DEPTH
 STEP.F            0.5000:   STEP LENGTH
 NULL.          -999.2500:   NO VALUE
 COMP.    FENIX & SCISSON:   COMPANY
 WELL. RES 3 TEAPOT DOM #76-10:   WELL
 FLD .        TEAPOT DOME:   FIELD
 LOC .      S10 T38N R78W:   LOCATION
 CNTY.            NATRONA:   COUNTY
 STAT.            WYOMING:   STATE
 CTRY. UNITED STATES OF AMERICA:   COUNTRY
 SRVC.           BIRDWELL:   SERVICE COMPANY
 DATE.        19-JUN-1978:   LOGDATE
 API .       490251065100:   API NUMBER
~CURVE INFORMATION
#MNEM.UNIT       API CODE    CURVE DESCRIPTION
#----------   ------------   ------------------------------
 DEPT.F                  :   
 CALD.IN     45 280 60 00:   CALIPER FROM DENSITY LOG
 CORR.G/C3   45 356 01 00:   DENSITY CORRECTION
 DPHI.DEC    45 890 12 00:   DENSITY POROSITY SANDSTONE
 GRD .GAPI   45 310 01 00:   GAMMA RAY FROM DENSITY LOG
 RHOB.G/C3   45 350 01 00:   BULK DENSITY
 ILD .OHMM   05 120 46 00:   INDUCTION LOG DEEP
 SN  .OHMM   05 040 16 00:   SHORT NORMAL 16"
 SPR .MV     05 010 01 00:   SPONTANEOUS POTENTIAL FROM RES.
~PARAMETER INFORMATION
#MNEM.UNIT          VALUE    DESCRIPTION
#----------   ------------   ------------------------------
 PD  .                 GL:   PERMANENT DATUM
 EPD .F              5185:   ELEVATION PERMANENT DATUM
 LMF .                 KB:   LOG MEASURED FROM
 DAPD.F                 4:   FEET ABOVE PERMANENT DATUM
 DMF .                 KB:   DRILLING MEASURED FROM
 EKB .F              5189:   KELLING BUSHING
 EGL .F              5185:   GROUND LEVEL
 DATE.        19-JUN-1978:   RUN DATE
 RUN .                  1:   RUN NUMBER
 DD  .F               485:   DEPTH DRILLER
 DL  .F               490:   DEPTH LOGGER
 BLI .F               490:   BOTTOM LOG INTERVAL
 TLI .F                50:   TOP LOG INTERVAL
 CS  .IN            8.625:   CASING SIZE
 CBD .F                30:   CASING BOTTOM DRILLER
 CBL .F                30:   CASING BOTTOM LOGGER
 BS  .IN            7.875:   BIT SIZE
 BSD .F               485:   BIT SIZE AT DEPTH
 DFT .                KCL:   DRILLING FLUID TYPE
 DFD .                8.7:   DRILLING FLUID DENSITY
 DFV .                 34:   DRILLING FLUID VISCOSITY
 DFPH.               10.5:   DRILLING FLUID PH
 MSS .           FLOWLINE:   MUD SAMPLE SOURCE
 RMS .OHMM           0.24:   RESISTIVITY MUD SAMPLE
 MST .F                70:   MUD SAMPLE TEMPERATURE
 RMF .OHMM           0.24:   RESISTIVITY MUD FILTRATE SAMPLE
 MFST.F                72:   MUD FILTRATE SAMPLE TEMPERATURE
 RMC .OHMM           0.28:   RESISTIVITY MUD CAKE
 MCST.F                78:   MUD CAKE SAMPLE TEMPERATURE
 MFSS.               MEAS:   MUD FILTRATE SAMPLE SOURCE
 MCSS.               MEAS:   MUD CAKE SAMPLE SOURCE
 RMB .OHMM           0.27:   RESISTIVITY MUD AT BHT
 BHT .F                74:   BOTTOM HOLE TEMPERATURE
 TCS .HRS               1:   TIME CURCULATED STOPPED
 MRT .F                74:   MAXIMUM RECORDED TEMPERATURE
 LUN .               2958:   LOGGING UNIT NUMBER
 LUL .               CASP:   LOGGING UNIT LOCATION
 ENGI.           REYNOLDS:   RECORDING ENGINEER
 WITN.           MCGINLEY:   WITNESSED BY
 CLNT.            A2DTECH:   CLIENT CODE
 ORIG.           5" PRINT:   ORIGIN OF DATA
 UWI .       490251065100:   UNIQUE WELL ID
 DICO. A2D Technologies, Inc.:   DIGITIZING COMPANY
~OTHER INFORMATION
~A   DEPT     CALD       CORR       DPHI        GRD       RHOB        ILD         SN        SPR   
# ...
  283.0000     7.3835     0.0192     0.0993   114.6988     2.5032     6.3394     7.4718   -43.9209
  283.5000     7.3990     0.0192     0.0992   114.6988     2.5048     6.4713     7.4718   -43.7731
  284.0000     7.3984     0.0192     0.0996   114.5482     2.5055     6.5609     7.3692   -43.7761
  284.5000     7.3848     0.0193     0.1004   114.2234     2.5063     6.0812     7.3046   -43.7795
  285.0000     7.3853     0.0208     0.1016   114.0964     2.5049     5.4760     7.1683   -43.9338
  285.5000     7.3858     0.0208     0.1043   115.0000     2.4937     5.0130     6.9673   -43.9365
  286.0000     7.3712     0.0223     0.1088   116.3554     2.4765     4.8763     6.6898   -44.0912
  286.5000     7.3567     0.0269     0.1176   115.9036     2.4630     4.8760     6.3300   -44.2453
  287.0000     7.3572     0.0538     0.1325   112.7410     2.4548     4.9094     6.0311   -44.2481
  287.5000     7.3425     0.0703     0.1370   110.6325     2.4646     4.9430     5.9074   -43.6465
  288.0000     7.3730     0.0686     0.1283   110.9056     2.4819     5.0113     5.9074   -42.8929
  288.5000     7.5089     0.0270     0.1067   111.0843     2.4987     5.0482     6.0311   -42.5924
  289.0000     7.4939     0.0061     0.1025   111.0843     2.4969     5.2947     6.2908   -42.5961
  289.5000     7.3594     0.0061     0.1115   111.0843     2.4940     5.6722     7.0213   -42.5995
  290.0000     7.3148     0.0061     0.1052   113.3434     2.4966     6.1187     7.8420   -42.4987
  290.5000     7.2853     0.0047     0.1009   115.7530     2.4982     6.8317     8.5790   -42.4538
  291.0000     7.3172     0.0017     0.1018   116.6566     2.4986     7.5755     9.2565   -42.1548
  291.5000     7.3762     0.0002     0.1033   113.5718     2.4949     7.7334     9.4504   -42.0056
  292.0000     7.3917    -0.0012     0.1045   111.6867     2.4904     7.4667     9.5159   -41.8578
  292.5000     7.3621    -0.0027     0.1063   111.2349     2.4852     7.3679     9.4504   -41.4068
  293.0000     7.3325    -0.0042     0.1081   109.8795     2.4785     7.4697     9.3853   -40.8052
  293.5000     7.3481    -0.0056     0.1099   109.4277     2.4718     7.5729     9.3853   -40.5054
  294.0000     7.3935    -0.0056     0.1123   109.7289     2.4643     7.8379     9.4504   -40.2057
  294.5000     7.4689    -0.0041     0.1174   109.2771     2.4584     8.1122     9.5819   -39.6041
  295.0000     7.4993     0.0005     0.1240   108.6747     2.4492     8.5128     9.9187   -39.3043
  295.5000     7.4997     0.0050     0.1267   108.0723     2.4374     9.0111    10.3385   -38.8533
  296.0000     7.5152     0.0110     0.1357   107.1687     2.4270     9.5699    10.7912   -38.2516
  296.5000     7.5456     0.0186     0.1444    99.2522     2.4135     9.9734    11.5470   -37.6493
  297.0000     7.5760     0.0305     0.1552    85.1768     2.4001    10.1112    12.2879   -37.0470
  297.5000     7.5165     0.0395     0.1681    79.4578     2.3821    10.4650    12.9862   -36.4454
  298.0000     7.4100     0.0425     0.1786    79.4578     2.3754    11.2111    13.7243   -35.6917
  298.5000     7.3076     0.0410     0.1804    79.3072     2.3710    12.4317    14.1089   -35.0894
  299.0000     7.2480     0.0396     0.1807    79.7590     2.3725    13.2438    14.4044   -34.0000
  299.5000     7.2784     0.0366     0.1813    83.9759     2.3809    13.5954    14.5042   -32.8265
  300.0000     7.3688     0.0172     0.1645    86.3855     2.3913    13.6885    14.9107   -32.3747
  300.5000     7.3993     0.0143     0.1693    86.9880     2.3943    14.4619    15.4384   -31.6242
  301.0000     7.2948     0.0144     0.1777    86.6867     2.3659    14.6598    15.8725   -31.6285
  301.5000     7.2053     0.0130     0.1816    85.1807     2.3644    14.8604    15.9774   -31.6329
  302.0000     7.1607     0.0101     0.1819    84.2771     2.3645    14.8567    15.8674   -31.7885
  302.5000     7.1612     0.0072     0.1821    85.7982     2.3630    14.6504    15.8674   -31.4902
  303.0000     7.1684     0.0058     0.1839    86.6867     2.3518    14.5388    15.9774   -31.0407
  303.5000     7.1776     0.0133     0.1990    85.4819     2.3149    14.4433    15.9774   -30.4410
  304.0000     7.1867     0.0164     0.2256    82.7711     2.3060    14.4405    16.0882   -29.6889
  304.5000     7.1959     0.0195     0.2256    77.6783     2.3112    14.6380    15.9774   -29.0881
  305.0000     7.2039     0.0196     0.2246    74.8196     2.3180    14.7364    15.9774   -28.4873
  305.5000     7.1289     0.0227     0.2180    72.5634     2.3188    15.0414    16.0882   -28.0378
  306.0000     7.1305     0.0243     0.2012    71.3614     2.3435    15.1567    16.1424   -27.8908
  306.5000     7.2189     0.0258     0.1997    71.2136     2.3473    15.4558    16.1997   -28.0475
  307.0000     7.2789     0.0259     0.1981    71.0658     2.3525    15.5586    16.1997   -28.6570
  307.5000     7.3238     0.0260     0.1939    74.2320     2.3660    15.6642    16.1997   -29.2665
  308.0000     7.3388     0.0156     0.1786    80.7114     2.3758    15.7687    16.1997   -29.5734
  308.5000     7.3388     0.0023     0.1728    84.6299     2.3818    15.9311    16.3120   -29.7301
  309.0000     7.2789     0.0024     0.1698    87.6447     2.3751    15.9812    16.4251   -29.7344
  309.5000     7.2155     0.0027     0.1875    89.3117     2.3511    16.0886    16.4251   -29.5870
  310.0000     7.0990     0.0040     0.2019    88.4041     2.3361    16.1962    16.4251   -29.5918
  310.5000     7.0240     0.0056     0.2073    84.6418     2.3331    16.3055    16.4251   -29.5962
  311.0000     7.0090     0.0057     0.2034    81.0302     2.3227    16.3015    16.4251   -29.7519
  311.5000     7.0540     0.0073     0.2112    78.7740     2.3212    16.2981    16.4251   -29.7786
  312.0000     7.1030     0.0104     0.2139    79.0787     2.3242    16.2948    16.5390   -29.9128
  312.5000     7.1414     0.0149     0.2090    78.9302     2.3205    16.2910    16.5390   -29.9172
  313.0000     7.2057     0.0210     0.2144    79.0894     2.3145    16.2880    16.5390   -30.0721
  313.5000     7.2789     0.0271     0.2165    81.7987     2.3122    16.2847    16.5390   -29.9258
  314.0000     7.3238     0.0302     0.2168    82.5545     2.3130    16.2231    16.6537   -29.9312
  314.5000     7.3238     0.0317     0.2101    83.1597     2.3243    16.1655    16.7691   -29.9356
  315.0000     7.2639     0.0259     0.1907    85.8741     2.3670    16.0512    16.7691   -30.0912
  315.5000     7.2489     0.0215     0.1776    87.9853     2.3761    15.8283    16.7691   -30.0955
  316.0000     7.2489     0.0201     0.1770    88.5905     2.3745    15.8252    16.7691   -30.2512
  316.5000     7.2639     0.0202     0.1757    87.5316     2.3686    15.6054    16.7691   -30.2678
  317.0000     7.2639     0.0202     0.1716    86.3371     2.3656    15.3885    16.8600   -30.5635
  317.5000     7.2639     0.0218     0.1778    87.2443     2.3633    15.1742    17.0025   -30.8704
  318.0000     7.2789     0.0219     0.1799    87.5483     2.3604    14.8606    16.7691   -31.3286
  318.5000     7.2789     0.0220     0.1826    87.4005     2.3604    14.5535    16.6537   -31.7868
  319.0000     7.2789     0.0206     0.1889    87.7052     2.3728    14.1549    16.3120   -31.7912
  319.5000     7.2789     0.0162     0.1763    87.7080     2.3844    13.8624    16.1397   -31.7965
  320.0000     7.2789     0.0101     0.1708    86.2048     2.3837    13.5753    15.8528   -32.1035
  320.5000     7.2789     0.0044     0.1705    85.3040     2.3807    13.3868    15.7087   -32.5616
  321.0000     7.2639     0.0015     0.1723    85.6087     2.3777    13.1101    15.4348   -32.7173
  321.5000     7.2789    -0.0014     0.1735    87.2682     2.3755    13.0175    15.3286   -32.8729
  322.0000     7.3088    -0.0028     0.1744    90.2329     2.3732    12.9255    15.3286   -33.0296
  322.5000     7.3297    -0.0012     0.1750    93.4492     2.3709    12.9229    15.2230   -33.1852
  323.0000     7.3538     0.0004     0.1757    94.2043     2.3680    13.0098    15.1182   -33.1896
