~VERSION INFORMATION
 VERS.                2.0:   CWLS LOG ASCII STANDARD - VERSION 2.0
 WRAP.                 NO:   ONE LINE PER DEPTH STEP
~WELL INFORMATION
#MNEM.UNIT      DATA TYPE    INFORMATION
#----------   ------------   ------------------------------
 STRT.F            8.5000:   START DEPTH
 STOP.F          509.0000:   STOP DEPTH
 STEP.F            0.5000:   STEP LENGTH
 NULL.          -999.2500:   NO VALUE
 COMP. LAWRENCE-ALLISON &AS:   COMPANY
 WELL. NPR 3 #68-26SX3LP2:   WELL
 FLD .             TEAPOT:   FIELD
 LOC .       S3 T38N R78W:   LOCATION
 CNTY.            NATRONA:   COUNTY
 STAT.            WYOMING:   STATE
 CTRY. UNITED STATES OF AMERICA:   COUNTRY
 SRVC.      Dresser Atlas:   SERVICE COMPANY
 DATE.        12-DEC-1984:   LOGDATE
 API .       490251099600:   API NUMBER
~CURVE INFORMATION
#MNEM.UNIT       API CODE    CURVE DESCRIPTION
#----------   ------------   ------------------------------
 DEPT.F                  :   
 CNC .DEC    42 890 03 00:   NEUTRON POROSITY SANDSTONE
 CALD.IN     45 280 60 00:   CALIPER FROM DENSITY LOG
 CORR.G/C3   45 356 01 00:   DENSITY CORRECTION
 GRD .GAPI   45 310 01 00:   GAMMA RAY FROM DENSITY LOG
 PORD.DEC    45 890 12 00:   POROSITY DENSITY SANDSTONE
 RHOB.G/C3   45 350 01 00:   BULK DENSITY
 DT  .US/F   60 520 00 00:   INTERVAL TRANSIT TIME
 SPR .MV     11 010 01 00:   SPONTANEOUS POTENTIAL FROM RES.
 RS  .OHMM   11 220 09 00:   RESISTIVITY SHALLOW
 RD  .OHMM   11 220 10 00:   RESISTIVITY DEEP
~PARAMETER INFORMATION
#MNEM.UNIT          VALUE    DESCRIPTION
#----------   ------------   ------------------------------
 PD  .                 GL:   PERMANENT DATUM
 EPD .F              5158:   ELEVATION PERMANENT DATUM
 LMF .                 GL:   LOG MEASURED FROM
 DMF .                 GL:   DRILLING MEASURED FROM
 EGL .F              5158:   GROUND LEVEL
 DATE.        12-DEC-1984:   RUN DATE
 RUN .                  1:   RUN NUMBER
 DD  .F               510:   DEPTH DRILLER
 DL  .F               510:   DEPTH LOGGER
 BLI .F               501:   BOTTOM LOG INTERVAL
 TLI .F                20:   TOP LOG INTERVAL
 CS  .IN            8.625:   CASING SIZE
 CBD .F                20:   CASING BOTTOM DRILLER
 CBL .F                20:   CASING BOTTOM LOGGER
 BS  .IN            7.875:   BIT SIZE
 BSD .F               510:   BIT SIZE AT DEPTH
 DFT .          KCL/WATER:   DRILLING FLUID TYPE
 MSS .            MUDTANK:   MUD SAMPLE SOURCE
 RMS .OHMM           0.21:   RESISTIVITY MUD SAMPLE
 MST .F                70:   MUD SAMPLE TEMPERATURE
 RMF .OHMM           0.16:   RESISTIVITY MUD FILTRATE SAMPLE
 MFST.F                70:   MUD FILTRATE SAMPLE TEMPERATURE
 RMC .OHMM           0.26:   RESISTIVITY MUD CAKE
 MCST.F                70:   MUD CAKE SAMPLE TEMPERATURE
 MFSS.               CALC:   MUD FILTRATE SAMPLE SOURCE
 MCSS.               CALC:   MUD CAKE SAMPLE SOURCE
 RMB .OHMM           0.17:   RESISTIVITY MUD AT BHT
 BHT .F                85:   BOTTOM HOLE TEMPERATURE
 TCS .HRS               6:   TIME CURCULATED STOPPED
 MRT .F               100:   MAXIMUM RECORDED TEMPERATURE
 LUN .               6270:   LOGGING UNIT NUMBER
 LUL .                 FM:   LOGGING UNIT LOCATION
 ENGI.           E.GOVETT:   RECORDING ENGINEER
 WITN.              LUERS:   WITNESSED BY
 CLNT.            A2DTECH:   CLIENT CODE
 ORIG.           5" PRINT:   ORIGIN OF DATA
 UWI .       490251099600:   UNIQUE WELL ID
 DICO. A2D Technologies, Inc.:   DIGITIZING COMPANY
~OTHER INFORMATION
~A    DEPT     CNC       CALD       CORR        GRD       PORD       RHOB          DT       SPR         RS         RD   
# ...
  410.5000     0.2611     7.6666     0.0551    94.0234     0.1063     2.5010    94.4432   -38.8592    13.1751    13.2444
  411.0000     0.2675     7.6682     0.0567    94.9282     0.1129     2.4936    94.3561   -38.7004    13.3644    13.3503
  411.5000     0.2728     7.6698     0.0599    95.8329     0.1138     2.4891    94.3441   -38.2445    13.6507    13.5506
  412.0000     0.2700     7.6714     0.0510    94.2154     0.1122     2.4907    94.2570   -37.7886    13.9432    13.9224
  412.5000     0.2597     7.6730     0.0271    90.2241     0.1128     2.4916    94.1698   -37.3326    14.3410    14.3203
  413.0000     0.2528     7.6746     0.0122    88.4546     0.1194     2.4751    94.0803   -37.0243    14.7501    14.6279
  413.5000     0.2515     7.6762     0.0033    89.0662     0.1267     2.4677    93.8430   -36.5691    15.1376    14.8389
  414.0000     0.2578     7.6778     0.0035    93.9769     0.1281     2.4670    93.2301   -36.1109    15.3127    15.1156
  414.5000     0.2606     7.6794     0.0104    96.0015     0.1245     2.4709    92.6172   -35.8035    15.4878    15.4316
  415.0000     0.2548     7.6810     0.0294    92.9675     0.1229     2.4755    92.0042   -35.4962    15.7750    15.7476
  415.5000     0.2496     7.6678     0.0430    92.3823     0.1220     2.4763    91.3913   -35.3374    16.0033    16.0635
  416.0000     0.2469     7.6694     0.0552    93.9940     0.1259     2.4711    91.0038   -35.1786    16.1228    16.4260
  416.5000     0.2616     7.6714     0.0388    96.7240     0.1304     2.4642    90.6162   -35.1685    16.3562    16.6641
  417.0000     0.2695     7.6730     0.0269    97.0353     0.1331     2.4555    90.4541   -35.0097    16.3645    16.9057
  417.5000     0.2688     7.6746     0.0225    96.3080     0.1328     2.4564    90.4422   -34.9995    16.3729    17.0325
  418.0000     0.2552     7.6762     0.0393    92.0199     0.1309     2.4604    90.2800   -34.8408    16.2681    17.0417
  418.5000     0.2398     7.6926     0.0514    86.6932     0.1265     2.4704    90.0428   -34.8306    16.2766    17.0510
  419.0000     0.2437     7.6943     0.0516    85.6655     0.1194     2.4821    89.8055   -34.8202    16.4192    17.0603
  419.5000     0.2524     7.6806     0.0440    87.4642     0.1101     2.4920    89.3428   -34.6612    17.1051    17.4279
  420.0000     0.2527     7.6825     0.0308    90.2977     0.1064     2.4988    88.7299   -34.5004    17.5949    17.6806
  420.5000     0.2305     7.6842     0.0385    90.0155     0.1064     2.5004    89.1688   -34.3416    17.9737    17.9371
  421.0000     0.2191     7.6706     0.0447    88.1013     0.1079     2.4922    89.9834   -34.3314    17.7353    17.8047
  421.5000     0.2309     7.6578     0.0418    82.0328     0.1178     2.4818    90.7243   -34.1727    17.5001    17.4658
  422.0000     0.2465     7.6594     0.0104    80.2669     0.1250     2.4669    91.1617   -34.0139    17.3859    17.1184
  422.5000     0.2752     7.6461    -0.0045    81.5381     0.1283     2.4564    90.8415   -33.8551    17.2746    16.8921
  423.0000     0.2818     7.6329     0.0002    85.7893     0.1316     2.4520    90.5144   -33.8450    16.9300    16.7824
  423.5000     0.2782     7.6494     0.0304    86.9908     0.1346     2.4483    89.9961   -33.8348    16.5901    16.7938
  424.0000     0.2697     7.6662     0.0576    87.7472     0.1397     2.4477    90.3599   -33.9732    16.5986    16.6847
  424.5000     0.2577     7.7123     0.0761    90.4324     0.1318     2.4571    91.0993   -33.9629    16.6071    16.5785
  425.0000     0.2499     7.7436     0.0624    91.0368     0.1228     2.4726    91.6133   -33.9525    16.5008    16.4731
  425.5000     0.2448     7.7452     0.0534    87.7909     0.1098     2.4922    91.9771   -34.0913    16.5095    16.3701
  426.0000     0.2478     7.7468     0.0424    87.3567     0.1055     2.5013    92.1185   -34.0786    16.6346    16.3794
  426.5000     0.2538     7.7332     0.0283    87.6716     0.1076     2.4984    92.1036   -34.0698    16.6431    16.2752
  427.0000     0.2541     7.7352     0.0254    87.6862     0.1103     2.4932    92.0917   -33.9122    16.6516    16.2842
  427.5000     0.2544     7.7368     0.0226    87.5519     0.1124     2.4895    92.0799   -34.0506    16.5439    16.1805
  428.0000     0.2589     7.7447     0.0363    87.7153     0.1139     2.4881    91.9958   -34.0379    16.2129    15.9688
  428.5000     0.2598     7.7547     0.0409    89.2135     0.1093     2.4935    92.2815   -34.0277    15.7776    15.7577
  429.0000     0.2527     7.7457     0.0426    88.9150     0.1072     2.4973    92.7204   -34.0175    15.4609    15.5473
  429.5000     0.2501     7.7432     0.0442    88.7975     0.1081     2.4975    93.3642   -34.0074    15.2558    15.2360
  430.0000     0.2579     7.7448     0.0308    90.7445     0.1087     2.4974    94.0583   -34.1458    14.5408    14.7274
  430.5000     0.2636     7.7316     0.0280    95.1591     0.1083     2.4960    94.9377   -34.2842    14.1503    14.2340
  431.0000     0.2612     7.7183     0.0342    98.3367     0.1068     2.5007    95.8274   -34.2715    13.9628    13.9470
  431.5000     0.2521     7.7204     0.0328    97.7578     0.1046     2.5069    96.1160   -34.2613    13.8735    13.8583
  432.0000     0.2490     7.7220     0.0269   100.0016     0.1020     2.5106    96.2574   -34.2511    13.7847    13.8677
  432.5000     0.2478     7.7083     0.0346   101.6482     0.0998     2.5114    96.4679   -34.2410    13.6036    13.7792
  433.0000     0.2474     7.7252     0.0438   102.5493     0.1043     2.5085    96.6093   -34.2308    13.6106    13.6917
  433.5000     0.2499     7.7268     0.0439   100.0452     0.1070     2.5010    96.7447   -34.2206    13.5235    13.5108
  434.0000     0.2619     7.7131     0.0260    99.6142     0.1100     2.4951    97.0333   -34.2105    13.4369    13.3323
  434.5000     0.2640     7.7151     0.0382    99.4809     0.1063     2.4967    97.2472   -34.2003    13.2587    13.1560
  435.0000     0.2600     7.7015     0.0474    96.9487     0.1018     2.5035    97.4604   -34.3388    13.0829    12.9821
  435.5000     0.2621     7.6887     0.0493    94.7300     0.0990     2.5089    97.7490   -34.3284    12.9094    12.8123
  436.0000     0.2802     7.6903     0.0417    96.8576     0.1009     2.5090    97.9625   -34.3180    12.6502    12.6412
  436.5000     0.2726     7.6770     0.0358   101.0264     0.1005     2.5098    98.1009   -34.3056    12.4809    12.5608
  437.0000     0.2663     7.6935     0.0391   103.4149     0.0956     2.5136    98.1641   -34.2955    12.4888    12.5693
  437.5000     0.2602     7.6877     0.0514   103.5778     0.0932     2.5183    98.1393   -34.2853    12.4952    12.6636
  438.0000     0.2668     7.6967     0.0603   103.8891     0.0920     2.5252    97.9871   -34.2751    12.6761    12.7585
  438.5000     0.2655     7.6984     0.0545   104.0520     0.1040     2.5109    97.8250   -34.2649    12.8597    12.8541
  439.0000     0.2637     7.7003     0.0426   104.2149     0.1076     2.5012    97.6629   -34.2548    12.7773    12.7721
  439.5000     0.2652     7.6867     0.0307   103.4876     0.1112     2.4930    97.6510   -34.2446    12.7854    12.6910
  440.0000     0.2721     7.6887     0.0248   101.4251     0.1136     2.4893    97.7142   -34.2344    12.3563    12.4370
  440.5000     0.2706     7.6903     0.0234    99.5108     0.1133     2.4872    98.1531   -34.5214    11.9415    12.2726
  441.0000     0.2730     7.6917     0.0281    98.6352     0.1126     2.4895    98.7423   -34.8084    11.7627    12.0981
  441.5000     0.2754     7.6933     0.0328    99.4006     0.1135     2.4896    99.1812   -34.9668    11.5466    11.6254
  442.0000     0.2751     7.6799     0.0330   100.6251     0.1159     2.4882    99.7704   -35.3799    11.4712    11.3925
  442.5000     0.2690     7.6818     0.0331   101.4045     0.1147     2.4853   100.3595   -35.5209    11.3978    11.2419
  443.0000     0.2683     7.6683     0.0411   102.1095     0.1128     2.4861   100.6482   -35.6593    11.4051    11.1689
  443.5000     0.2677     7.6703     0.0575   103.0143     0.1104     2.4914   100.7144   -35.7977    11.3319    11.0228
