~VERSION INFORMATION
 VERS.                2.0:   CWLS LOG ASCII STANDARD - VERSION 2.0
 WRAP.                 NO:   ONE LINE PER DEPTH STEP
~WELL INFORMATION
#MNEM.UNIT      DATA TYPE    INFORMATION
#----------   ------------   ------------------------------
 STRT.F           35.0000:   START DEPTH
 STOP.F          484.0000:   STOP DEPTH
 STEP.F            0.5000:   STEP LENGTH
 NULL.          -999.2500:   NO VALUE
 COMP. LAWRENCE/ALLISON INC:   COMPANY
 WELL.     73-1 STX #1-10:   WELL
 FLD .              NPR-3:   FIELD
 LOC .      S10 T38N R78W:   LOCATION
 CNTY.            NATRONA:   COUNTY
 STAT.            WYOMING:   STATE
 CTRY. UNITED STATES OF AMERICA:   COUNTRY
 SRVC.              Welex:   SERVICE COMPANY
 DATE.        04-APR-1977:   LOGDATE
 API .       490251032400:   API NUMBER
~CURVE INFORMATION
#MNEM.UNIT       API CODE    CURVE DESCRIPTION
#----------   ------------   ------------------------------
 DEPT.F                  :   
 CALD.IN     45 280 60 00:   CALIPER
 GRD .GAPI   45 310 01 00:   GAMMA RAY FROM DENSITY LOG
 RHOB.G/C3   45 350 01 00:   BULK DENSITY
 DPHI.DEC    45 890 12 00:   DENSITY POROSITY SANDSTONE
 CORR.G/C3   45 356 01 00:   DENSITY CORRECTION
 SPR .MV     07 010 01 00:   SPONTANEOUS POTENTIAL
 SGRD.OHMM   07 220 05 00:   SHALLOW RESISTIVITY
 ILD .OHMM   07 120 46 00:   INDUCTION LOG DEEP
 ILM .OHMM   07 120 44 00:   INDUCTION LOG MEDIUM
~PARAMETER INFORMATION
#MNEM.UNIT          VALUE    DESCRIPTION
#----------   ------------   ------------------------------
 PD  .                 GL:   PERMANENT DATUM
 EPD .F              5170:   ELEVATION PERMANENT DATUM
 LMF .                 GL:   LOG MEASURED FROM
 DMF .                 GL:   DRILLING MEASURED FROM
 EGL .F              5170:   GROUND LEVEL
 DATE.             4-4-77:   RUN DATE
 RUN .                  1:   RUN NUMBER
 DD  .F               490:   DEPTH DRILLER
 DL  .F               487:   DEPTH LOGGER
 BLI .F               485:   BOTTOM LOG INTERVAL
 TLI .F                35:   TOP LOG INTERVAL
 CS  .IN            8.625:   CASING SIZE
 CBD .F                42:   CASING BOTTOM DRILLER
 CBL .F                42:   CASING BOTTOM LOGGER
 BS  .IN            7.875:   BIT SIZE
 BSD .F               490:   BIT SIZE AT DEPTH
 DFT .            KCL MUD:   DRILLING FLUID TYPE
 DFD .                8.4:   DRILLING FLUID DENSITY
 DFV .                 32:   DRILLING FLUID VISCOSITY
 DFPH.                8.5:   DRILLING FLUID PH
 DFL .                 17:   DRILLING FLUID LOSS
 RMS .OHMM            .48:   RESISTIVITY MUD SAMPLE
 MST .F                48:   MUD SAMPLE TEMPERATURE
 RMF .OHMM            .44:   RESISTIVITY MUD FILTRATE SAMPLE
 MFST.F                48:   MUD FILTRATE SAMPLE TEMPERATURE
 RMC .OHMM            .62:   RESISTIVITY MUD CAKE
 MCST.F                48:   MUD CAKE SAMPLE TEMPERATURE
 MFSS.          FANN TEST:   MUD FILTRATE SAMPLE SOURCE
 MCSS.          FANN TEST:   MUD CAKE SAMPLE SOURCE
 BHT .F                58:   BOTTOM HOLE TEMPERATURE
 TCS .HRS               2:   TIME CURCULATED STOPPED
 MRT .F                58:   MAXIMUM RECORDED TEMPERATURE
 LUN .               8611:   LOGGING UNIT NUMBER
 LUL .           GILLETTE:   LOGGING UNIT LOCATION
 ENGI.               DOAK:   RECORDING ENGINEER
 WITN.      B. HARRINGTON:   WITNESSED BY
 CLNT.            A2DTECH:   CLIENT CODE
 ORIG.        2" 5" PRINT:   ORIGIN OF DATA
 UWI .       490251032400:   UNIQUE WELL ID
 DICO. A2D Technologies, Inc.:   DIGITIZING COMPANY
~OTHER INFORMATION
~A   DEPT     CALD        GRD       RHOB       DPHI       CORR        SPR       SGRD        ILD        ILM   
# ...
  181.0000     8.0522   101.8585     2.4216     0.1376    -0.0032   -51.4473     9.9238     5.8147     6.7459
  181.5000     8.0488   102.9635     2.4210     0.1358     0.0035   -51.6343     9.3103     5.5101     6.3793
  182.0000     8.0453   104.0494     2.4244     0.1312     0.0094   -51.7785     8.8035     5.0971     5.9766
  182.5000     8.0418   104.2479     2.4125     0.1403     0.0096   -51.9239     8.4081     4.7152     5.5993
  183.0000     8.0384   102.0983     2.3871     0.1584     0.0074   -52.0694     7.8561     4.3618     5.2459
  183.5000     8.0349    99.9838     2.3667     0.1694     0.0044   -52.2149     7.2502     4.1088     4.9147
  184.0000     8.0314    97.8681     2.3588     0.1735     0.0015   -52.3604     6.6600     3.7233     4.5468
  184.5000     8.0279    95.7511     2.3396     0.1848    -0.0015   -52.5061     6.0214     3.3843     4.0315
  185.0000     8.0245    93.6216     2.3159     0.1972    -0.0045   -52.6530     5.3637     3.0762     3.5746
  185.5000     8.0210    93.1802     2.2915     0.2097    -0.0075   -52.7951     4.5342     2.7943     3.1695
  186.0000     8.0175    96.2519     2.2819     0.2235    -0.0104   -52.7807     3.9112     2.5761     2.8103
  186.5000     8.0140    99.5676     2.2771     0.2213    -0.0134   -52.2489     3.4720     2.5206     2.5937
  187.0000     8.0106   102.9236     2.2868     0.2167    -0.0164   -51.6964     3.2346     2.5680     2.6177
  187.5000     8.0071   106.2626     2.3208     0.1965    -0.0177   -51.6377     3.6793     2.6220     2.7846
  188.0000     8.0036   109.6012     2.3529     0.1742    -0.0146   -51.6844     3.7823     2.7409     3.1026
  188.5000     8.0001   113.0371     2.3855     0.1496    -0.0116   -51.7362     6.9421     3.0094     3.4570
  189.0000     7.9967   117.5451     2.4038     0.1424    -0.0086   -51.8014     6.2738     3.3054     3.8518
  189.5000     7.9932   117.3202     2.4180     0.1344    -0.0056   -51.3554     6.9053     3.6305     4.2916
  190.0000     7.9897   116.9038     2.4312     0.1264    -0.0026   -50.7968     8.8998     3.9877     4.7981
  190.5000     7.9863   116.5423     2.4455     0.1184     0.0015   -50.2317     9.4919     4.3247     5.3942
  191.0000     7.9827   116.8575     2.4547     0.1163     0.0089   -49.3662     9.4240     4.6757     5.8120
  191.5000     7.9790   117.2725     2.4509     0.1177     0.0161   -48.2916     9.3070     5.0356     6.0654
  192.0000     7.9602   117.4712     2.4470     0.1154     0.0233   -47.2854     9.1914     5.3257     6.3298
  192.5000     7.9219   117.4162     2.4592     0.1094     0.0305   -46.4077     9.0773     5.5692     6.4509
  193.0000     7.8836   117.3537     2.4773     0.1034     0.0378   -45.9464     8.9821     5.5680     6.3928
  193.5000     7.8451   117.3120     2.4864     0.0956     0.0450   -45.5975     8.9821     5.5688     6.3348
  194.0000     7.8066   119.4298     2.4789     0.1070     0.0514   -45.2517     8.9821     5.4719     6.2778
  194.5000     7.7812   121.8697     2.4695     0.1158     0.0511   -44.9075     9.2563     5.3978     6.2224
  195.0000     7.8440   124.3936     2.4601     0.1195     0.0507   -44.6295     9.5516     5.2634     6.2164
  195.5000     7.8949   125.2425     2.4507     0.1236     0.0503   -44.7521     9.7754     5.0803     5.9804
  196.0000     7.8188   123.9877     2.4413     0.1295     0.0499   -45.6193     8.2814     4.9035     5.6753
  196.5000     7.7427   122.6982     2.4320     0.1355     0.0494   -46.7106     6.2210     4.7330     5.3857
  197.0000     7.6689   121.4150     2.4259     0.1290     0.0420   -47.8089     5.6699     4.5885     4.9846
  197.5000     7.7095   120.1333     2.4444     0.1217     0.0337   -48.9077     7.8965     4.5333     4.9996
  198.0000     7.7655   118.8506     2.4645     0.1114     0.0308   -50.0144     7.9695     4.5048     5.0307
  198.5000     7.8217   117.7362     2.4844     0.1012     0.0332   -51.1556     6.5090     4.5048     5.2129
  199.0000     7.8778   118.2733     2.5002     0.0910     0.0354   -51.5079     7.2951     4.6086     5.4194
  199.5000     7.9335   118.8149     2.5045     0.0797     0.0352   -51.8300     8.5640     4.7253     5.6341
  200.0000     7.9888   117.7768     2.5036     0.0796     0.0349   -51.8266     9.0651     4.8863     5.8573
  200.5000     8.0209   115.1543     2.5028     0.0823     0.0346   -51.4962     8.0431     5.0711     6.0893
  201.0000     8.0407   112.4626     2.4939     0.0899     0.0344   -51.1664     8.7347     5.2628     6.4360
  201.5000     8.0572   110.6888     2.4816     0.0975     0.0341   -50.8061     9.8384     5.4618     6.8496
  202.0000     8.0576   109.1781     2.4692     0.1051     0.0338   -49.7661    10.2446     5.6683     7.2898
  202.5000     8.0434   107.6870     2.4583     0.1127     0.0335   -48.6190    10.5460     5.8826     7.7575
  203.0000     7.9837   106.2045     2.4625     0.1140     0.0357   -47.4603    10.8560     6.1050     8.1731
  203.5000     7.9255   105.0956     2.4705     0.1062     0.0405   -46.2539    11.2046     6.3359     8.0173
  204.0000     7.8674   106.3441     2.4753     0.0992     0.0469   -45.6692    11.2001     6.5754     7.8242
  204.5000     7.8340   108.2299     2.4696     0.1046     0.0535   -45.0916    11.2016     6.8236     7.8951
  205.0000     7.8047   109.3943     2.4641     0.1123     0.0549   -44.5071    11.2016     6.9434     7.9930
  205.5000     7.7756   109.6342     2.4664     0.1037     0.0541   -44.1676    10.9927     6.9419     8.1175
  206.0000     7.7464   109.8744     2.4704     0.0988     0.0533   -44.0770    10.7170     6.9426     7.8204
  206.5000     7.7172   110.0882     2.4671     0.1067     0.0495   -44.0378    10.4482     6.9088     7.4387
  207.0000     7.6880   109.4789     2.4524     0.1142     0.0423   -44.1474    10.1861     6.6928     7.1905
  207.5000     7.6588   107.9935     2.4496     0.1176     0.0305   -44.2549    10.1026     6.4836     7.1574
  208.0000     7.6292   106.5424     2.4532     0.1124     0.0188   -44.3619    10.0752     6.2738     6.9947
  208.5000     7.6019   108.0854     2.4446     0.1196     0.0077   -44.8899    10.0480     6.0006     6.5454
  209.0000     7.6328   112.3236     2.4342     0.1266     0.0066   -45.8395     9.9244     5.7297     6.1249
  209.5000     7.6784   117.0660     2.4314     0.1300     0.0058   -46.7896     9.6419     5.4711     5.7223
  210.0000     7.7775   120.0895     2.4329     0.1312     0.0074   -47.7325     9.3672     5.2241     5.9719
  210.5000     7.8769   122.5901     2.4346     0.1325     0.0104   -48.3290     9.1006     4.9883     6.6299
  211.0000     7.9764   124.3702     2.4198     0.1400     0.0081   -47.9623     8.8417     4.7605     6.4031
  211.5000     7.9348   122.2125     2.4031     0.1490     0.0026   -47.6241     8.5028     4.6746     5.8516
  212.0000     7.8888   118.2636     2.3868     0.1580    -0.0028   -48.4111     8.1190     4.5678     5.3476
  212.5000     7.8715   114.2722     2.3720     0.1619    -0.0083   -49.3728     6.8155     4.5256     4.8870
  213.0000     7.9108   111.5445     2.3983     0.1507    -0.0077   -50.9053     4.3822     4.4995     4.6309
  213.5000     7.9492   110.4162     2.4390     0.1233    -0.0031   -52.3889     5.1779     4.4672     4.9810
  214.0000     7.9886   110.5612     2.4589     0.1139     0.0013   -52.5378     7.4612     4.5617     5.3559
  214.5000     7.9997   111.7520     2.4653     0.1092    -0.0011   -52.6583     9.9388     4.7275     5.7592
  215.0000     8.0034   113.9306     2.4622     0.1090    -0.0038   -52.7823    10.2170     4.8993     6.1927
  215.5000     8.0068   116.4541     2.4569     0.1126    -0.0064   -52.9067    10.4984     5.0773     6.6589
  216.0000     8.0103   118.9845     2.4516     0.1163    -0.0076   -53.0315    10.8993     5.3114     6.9838
  216.5000     8.0137   121.5184     2.4436     0.1199    -0.0087   -53.1566    10.8994     5.7364     7.1706
  217.0000     8.0172   124.0170     2.4350     0.1235    -0.0098   -53.2819    10.6313     6.0589     7.3624
