~VERSION INFORMATION
 VERS.                2.0:   CWLS LOG ASCII STANDARD - VERSION 2.0
 WRAP.                 NO:   ONE LINE PER DEPTH STEP
~WELL INFORMATION
#MNEM.UNIT      DATA TYPE    INFORMATION
#----------   ------------   ------------------------------
 STRT.F           88.0000:   START DEPTH
 STOP.F          991.0000:   STOP DEPTH
 STEP.F            0.5000:   STEP LENGTH
 NULL.          -999.2500:   NO VALUE
 COMP. US NAVY /INTEX OIL CO.:   COMPANY
 WELL.    NPR #3 #S-11 63:   WELL
 FLD .             TEAPOT:   FIELD
 LOC .      S11 T38N R78W:   LOCATION
 CNTY.            NATRONA:   COUNTY
 STAT.            WYOMING:   STATE
 CTRY. UNITED STATES OF AMERICA:   COUNTRY
 SRVC.       Schlumberger:   SERVICE COMPANY
 DATE.        24-JUL-1964:   LOGDATE
 API .       490250636200:   API NUMBER
~CURVE INFORMATION
#MNEM.UNIT       API CODE    CURVE DESCRIPTION
#----------   ------------   ------------------------------
 DEPT.F                  :   
 SPR .MV     05 010 01 00:   SPONTANEOUS POTENTIAL FROM RES.
 ASN .OHMM   05 041 16 00:   AMPLIFIED SHORT NORMAL 16"
 ILD .OHMM   05 120 46 00:   INDUCTION LOG DEEP
 CILD.MMHO   05 110 46 00:   CONDUCTIVITY INDUCTION LOG DEEP
 CALS.IN     60 280 50 00:   CALIPER FROM SONIC LOG
 DT  .US/F   60 520 33 00:   INTERVAL TRANSIT TIME
 GR  .GAPI   30 310 01 00:   GAMMA RAY
~PARAMETER INFORMATION
#MNEM.UNIT          VALUE    DESCRIPTION
#----------   ------------   ------------------------------
 PD  .                 GL:   PERMANENT DATUM
 LMF .                 KB:   LOG MEASURED FROM
 DAPD.F                 5:   FEET ABOVE PERMANENT DATUM
 DMF .                 KB:   DRILLING MEASURED FROM
 EKB .F              5914:   KELLING BUSHING
 DATE.          7-24-1964:   RUN DATE
 RUN .                  1:   RUN NUMBER
 DD  .F               990:   DEPTH DRILLER
 DL  .F               992:   DEPTH LOGGER
 BLI .F               991:   BOTTOM LOG INTERVAL
 TLI .F               990:   TOP LOG INTERVAL
 CS  .IN            8.625:   CASING SIZE
 CBD .F                15:   CASING BOTTOM DRILLER
 BS  .IN             6.75:   BIT SIZE
 BSD .F               990:   BIT SIZE AT DEPTH
 DFT .            GEL OIL:   DRILLING FLUID TYPE
 DFD .                9.2:   DRILLING FLUID DENSITY
 DFV .                 47:   DRILLING FLUID VISCOSITY
 MSS .            MUD PIT:   MUD SAMPLE SOURCE
 RMS .OHMM           1.24:   RESISTIVITY MUD SAMPLE
 MST .F                75:   MUD SAMPLE TEMPERATURE
 RMF .OHMM           .801:   RESISTIVITY MUD FILTRATE SAMPLE
 MFST.F                80:   MUD FILTRATE SAMPLE TEMPERATURE
 MFSS.                 FP:   MUD FILTRATE SAMPLE SOURCE
 RMB .OHMM           1.09:   RESISTIVITY MUD AT BHT
 BHT .F                85:   BOTTOM HOLE TEMPERATURE
 TCS .HRS              .5:   TIME CURCULATED STOPPED
 MRT .F                85:   MAXIMUM RECORDED TEMPERATURE
 LUN .               2572:   LOGGING UNIT NUMBER
 LUL .                 MC:   LOGGING UNIT LOCATION
 ENGI.             BOWLER:   RECORDING ENGINEER
 WITN.          JORGENSEN:   WITNESSED BY
 CLNT.            A2DTECH:   CLIENT CODE
 ORIG.      2" & 5" PRINT:   ORIGIN OF DATA
 UWI .       490250636200:   UNIQUE WELL ID
 DICO. A2D Technologies, Inc.:   DIGITIZING COMPANY
~OTHER INFORMATION
~A   DEPT      SPR          ASN        ILD      CILD      CALS         DT         GR   
   88.0000   -46.2489     6.4210     5.2856   172.9246  -999.2500  -999.2500  -999.2500
   88.5000   -46.3871     6.4532     5.2893   168.4251  -999.2500  -999.2500  -999.2500
   89.0000   -46.3801     6.6644     5.2922   165.4179  -999.2500  -999.2500  -999.2500
   89.5000   -46.5201     6.6323     5.2951   165.3955  -999.2500  -999.2500  -999.2500
   90.0000   -46.5113     6.5128     5.2980   166.8617  -999.2500  -999.2500  -999.2500
   90.5000   -46.5042     6.4832     5.3009   168.3324  -999.2500  -999.2500  -999.2500
   91.0000   -46.6425     6.5437     5.3782   172.0419  -999.2500  -999.2500  -999.2500
   91.5000   -46.6352     6.5740     5.3811   175.7514  -999.2500  -999.2500  -999.2500
   92.0000   -46.7719     6.4546     5.3840   178.7147  -999.2500  -999.2500  -999.2500
   92.5000   -46.7648     6.2901     5.3869   181.6779  -999.2500  -999.2500  -999.2500
   93.0000   -46.7578     6.1682     5.3899   184.6412  -999.2500  -999.2500  -999.2500
   93.5000   -46.7507     6.0512     5.3934   187.6044  -999.2500  -999.2500  -999.2500
   94.0000   -46.8907     6.0365     5.3963   188.3289  -999.2500  -999.2500  -999.2500
   94.5000   -47.0290     6.0521     5.3992   186.8091  -999.2500  -999.2500  -999.2500
   95.0000   -47.1657     6.1125     5.3269   183.0559  -999.2500  -999.2500  -999.2500
   95.5000   -47.1584     6.2029     5.3306   178.5565  -999.2500  -999.2500  -999.2500
   96.0000   -47.2967     6.3233     5.3335   173.3107  -999.2500  -999.2500  -999.2500
   96.5000   -47.1425     6.5186     5.3364   168.8113  -999.2500  -999.2500  -999.2500
   97.0000   -47.1355     6.7589     5.3393   164.3119  -999.2500  -999.2500  -999.2500
   97.5000   -47.1284     6.9738     5.3423   158.3199  -999.2500  -999.2500  -999.2500
   98.0000   -47.1213     7.0598     5.3458   154.5667  -999.2500  -999.2500  -999.2500
   98.5000   -47.1142     7.0452     5.2736   150.7963  -999.2500  -999.2500  -999.2500
   99.0000   -47.1072     7.0007     5.1284   149.2985  -999.2500  -999.2500  -999.2500
   99.5000   -47.1001     6.9711     5.0569   151.5107  -999.2500  -999.2500  -999.2500
  100.0000   -47.0930     6.8816     5.0598   160.4441  -999.2500  -999.2500  -999.2500
  100.5000   -46.9404     6.7321     4.8387   173.8551  -999.2500  -999.2500  -999.2500
  101.0000   -46.9318     6.5227     4.7678   186.5199  -999.2500  -999.2500  -999.2500
  101.5000   -47.0718     6.2529     4.6964   193.9607  -999.2500  -999.2500  -999.2500
  102.0000   -46.9176     5.9916     4.6249   199.9091  -999.2500  -999.2500  -999.2500
  102.5000   -46.9105     5.7744     4.6286   203.6186  -999.2500  -999.2500  -999.2500
  103.0000   -46.9035     5.6400     4.6315   204.3433  -999.2500  -999.2500  -999.2500
  103.5000   -46.8964     5.5803     4.7088   203.5324  -999.2500  -999.2500  -999.2500
  104.0000   -46.8893     5.6858     4.7861   201.9403  -999.2500  -999.2500  -999.2500
  104.5000   -46.7369     5.8062     4.7890   199.0482  -999.2500  -999.2500  -999.2500
  105.0000   -46.7296     5.9416     5.0151   194.5488  -999.2500  -999.2500  -999.2500
  105.5000   -46.7210     6.0919     5.0924   190.0493  -999.2500  -999.2500  -999.2500
  106.0000   -46.7139     6.2277     5.0953   184.8036  -999.2500  -999.2500  -999.2500
  106.5000   -46.7068     6.3348     5.1766   178.8117  -999.2500  -999.2500  -999.2500
  107.0000   -46.6998     6.4681     5.3363   174.3122  -999.2500  -999.2500  -999.2500
  107.5000   -46.6927     6.5585     5.4023   167.5740  -999.2500  -999.2500  -999.2500
  108.0000   -46.8327     6.6639     5.4796   163.8208  -999.2500  -999.2500  -999.2500
  108.5000   -46.8239     6.7843     5.7057   158.5073  -999.2500  -999.2500  -999.2500
  109.0000   -46.8168     6.8447     5.7086   154.8165  -999.2500  -999.2500  -999.2500
  109.5000   -46.8096     6.9051     5.8603   153.3021  -999.2500  -999.2500  -999.2500
  110.0000   -46.8009     6.9805     5.9376   152.5395  -999.2500  -999.2500  -999.2500
  110.5000   -46.9410     7.0566     5.9405   156.9898  -999.2500  -999.2500  -999.2500
  111.0000   -46.9321     7.1037     5.8690   161.4456  -999.2500  -999.2500  -999.2500
  111.5000   -46.9250     7.0719     5.7887   166.6477  -999.2500  -999.2500  -999.2500
  112.0000   -46.9180     6.9524     5.6516   171.8497  -999.2500  -999.2500  -999.2500
  112.5000   -46.9109     6.8479     5.5057   177.7981  -999.2500  -999.2500  -999.2500
  113.0000   -46.9038     6.7134     5.4342   183.0294  -999.2500  -999.2500  -999.2500
  113.5000   -46.8967     6.5789     5.2139   187.4559  -999.2500  -999.2500  -999.2500
  114.0000   -46.8896     6.3544     5.1424   191.1600  -999.2500  -999.2500  -999.2500
  114.5000   -46.8808     6.4298     5.0709   194.8695  -999.2500  -999.2500  -999.2500
  115.0000   -46.8738     6.8431     4.8513   198.5790  -999.2500  -999.2500  -999.2500
  115.5000   -47.0138     7.4053     4.8542   201.5422  -999.2500  -999.2500  -999.2500
  116.0000   -47.0050     7.4506     4.7827   202.2722  -999.2500  -999.2500  -999.2500
  116.5000   -46.8525     7.2563     4.8607   201.4986  -999.2500  -999.2500  -999.2500
  117.0000   -46.8455     6.6120     4.8636   199.2380  -999.2500  -999.2500  -999.2500
  117.5000   -46.6930     6.1327     5.0153   196.2311  -999.2500  -999.2500  -999.2500
  118.0000   -46.6860     5.8933     5.1670   190.9453  -999.2500  -999.2500  -999.2500
  118.5000   -46.8242     5.9987     5.3187   186.1343  -999.2500  -999.2500  -999.2500
  119.0000   -46.8154     6.1490     5.4704   180.4885  -999.2500  -999.2500  -999.2500
  119.5000   -46.8083     6.4258     5.7710   175.9891  -999.2500  -999.2500  -999.2500
  120.0000   -46.8013     6.7197     5.8483   171.4896  -999.2500  -999.2500  -999.2500
  120.5000   -46.7942     6.9001     5.9256   166.2439  -999.2500  -999.2500  -999.2500
  121.0000   -46.7871     7.0205     6.0030   162.4908  -999.2500  -999.2500  -999.2500
  121.5000   -46.7800     7.0359     6.0065   160.2301  -999.2500  -999.2500  -999.2500
  122.0000   -46.7730     6.9464     6.0838   158.7158  -999.2500  -999.2500  -999.2500
  122.5000   -46.7659     6.7969     6.0867   159.4402  -999.2500  -999.2500  -999.2500
  123.0000   -46.6134     6.7823     6.1640   162.4679  -999.2500  -999.2500  -999.2500
  123.5000   -46.7518     6.7378     6.2413   166.8538  -999.2500  -999.2500  -999.2500
  124.0000   -46.7429     6.6333     6.2442   169.8170  -999.2500  -999.2500  -999.2500
  124.5000   -46.5905     6.7238     6.2471   171.2932  -999.2500  -999.2500  -999.2500
  125.0000   -46.5834     6.7842     6.1756   171.2659  -999.2500  -999.2500  -999.2500
  125.5000   -46.4310     6.8596     6.0962   169.7516  -999.2500  -999.2500  -999.2500
  126.0000   -46.2786     6.9349     5.8838   168.2372  -999.2500  -999.2500  -999.2500
  126.5000   -46.2715     6.9053     5.8874   165.9766  -999.2500  -999.2500  -999.2500
  127.0000   -45.9737     6.9958     5.9647   162.9697  -999.2500  -999.2500  -999.2500
  127.5000   -45.9666     7.1012     6.0420   159.9627  -999.2500  -999.2500  -999.2500
  128.0000   -45.9593     7.2072     6.1193   157.6120  -999.2500  -999.2500  -999.2500
  128.5000   -46.0979     7.3777     6.1966   155.4361  -999.2500  -999.2500  -999.2500
  129.0000   -46.2361     7.5374     6.3483   153.1754  -999.2500  -999.2500  -999.2500
  129.5000   -46.2273     7.6428     6.4256   150.9148  -999.2500  -999.2500  -999.2500
  130.0000   -46.3673     7.6882     6.5030   147.9079  -999.2500  -999.2500  -999.2500
  130.5000   -46.6510     7.5837     6.6676   147.1398  -999.2500  -999.2500  -999.2500
  131.0000   -46.6421     7.5242     6.8071   144.8792  -999.2500  -999.2500  -999.2500
  131.5000   -46.6350     7.5246     6.8844   144.1111  -999.2500  -999.2500  -999.2500
  132.0000   -46.6279     7.6000     7.0361   142.5967  -999.2500  -999.2500  -999.2500
  132.5000   -46.6206     7.6909     7.1134   141.0821  -999.2500  -999.2500  -999.2500
  133.0000   -46.6121     7.8002     7.1163   138.8209  -999.2500  -999.2500  -999.2500
