~VERSION INFORMATION
 VERS.                2.0:   CWLS LOG ASCII STANDARD - VERSION 2.0
 WRAP.                 NO:   ONE LINE PER DEPTH STEP
~WELL INFORMATION
#MNEM.UNIT      DATA TYPE    INFORMATION
#----------   ------------   ------------------------------
 STRT.F           30.0000:   START DEPTH
 STOP.F          715.0000:   STOP DEPTH
 STEP.F            0.5000:   STEP LENGTH
 NULL.          -999.2500:   NO VALUE
 COMP. FENIX & SCISSON INC:   COMPANY
 WELL.   NPR-3 #84SX15-15:   WELL
 FLD .             TEAPOT:   FIELD
 LOC .      S15 T38N R78W:   LOCATION
 CNTY.            NATRONA:   COUNTY
 STAT.            WYOMING:   STATE
 CTRY. UNITED STATES OF AMERICA:   COUNTRY
 SRVC.            Unknown:   SERVICE COMPANY
 DATE.        15-MAY-1978:   LOGDATE
 API .       490251064000:   API NUMBER
~CURVE INFORMATION
#MNEM.UNIT       API CODE    CURVE DESCRIPTION
#----------   ------------   ------------------------------
 DEPT.F                  :   
 SPR .MV     05 010 01 00:   SPONTANEOUS POTENTIAL FROM RES.
 SN  .OHMM   05 040 16 00:   SHORT NORMAL 16"
 ILD .OHMM   05 120 46 00:   INDUCTION LOG DEEP
 CALD.IN     45 280 60 00:   CALIPER FROM DENSITY LOG
 GRD .GAPI   45 310 01 00:   GAMMA RAY FROM DENSITY LOG
 CORR.G/C3   45 356 01 00:   DENSITY CORRECTION
 DPHI.DEC    45 890 12 00:   DENSITY POROSITY SANDSTONE
 DEN .G/C3   45 350 01 00:   COMPENSATED BULK DENSITY
~PARAMETER INFORMATION
#MNEM.UNIT          VALUE    DESCRIPTION
#----------   ------------   ------------------------------
 PD  .                 GL:   PERMANENT DATUM
 EPD .F              5247:   ELEVATION PERMANENT DATUM
 LMF .                 KB:   LOG MEASURED FROM
 DMF .                 KB:   DRILLING MEASURED FROM
 EKB .F              5251:   KELLING BUSHING
 EGL .F              5247:   GROUND LEVEL
 DATE.        15-MAY-1978:   RUN DATE
 RUN .                  1:   RUN NUMBER
 DD  .F               725:   DEPTH DRILLER
 DL  .F               720:   DEPTH LOGGER
 BLI .F               713:   BOTTOM LOG INTERVAL
 TLI .F                40:   TOP LOG INTERVAL
 CS  .IN            8.625:   CASING SIZE
 CBD .F                40:   CASING BOTTOM DRILLER
 CBL .F                40:   CASING BOTTOM LOGGER
 BS  .IN            7.875:   BIT SIZE
 BSD .F               725:   BIT SIZE AT DEPTH
 DFT .                KCL:   DRILLING FLUID TYPE
 DFD .                8.6:   DRILLING FLUID DENSITY
 DFV .                 33:   DRILLING FLUID VISCOSITY
 DFPH.                9.5:   DRILLING FLUID PH
 DFL .                 12:   DRILLING FLUID LOSS
 MSS .           FLOWLINE:   MUD SAMPLE SOURCE
 RMS .OHMM             .2:   RESISTIVITY MUD SAMPLE
 MST .F                80:   MUD SAMPLE TEMPERATURE
 RMF .OHMM            .18:   RESISTIVITY MUD FILTRATE SAMPLE
 MFST.F                83:   MUD FILTRATE SAMPLE TEMPERATURE
 RMC .OHMM            .26:   RESISTIVITY MUD CAKE
 MCST.F                83:   MUD CAKE SAMPLE TEMPERATURE
 MFSS.               MEAS:   MUD FILTRATE SAMPLE SOURCE
 RMB .OHMM             .2:   RESISTIVITY MUD AT BHT
 BHT .F                80:   BOTTOM HOLE TEMPERATURE
 TCS .HRS            0200:   TIME CURCULATED STOPPED
 MRT .F                80:   MAXIMUM RECORDED TEMPERATURE
 LUN .               3006:   LOGGING UNIT NUMBER
 LUL .               CASP:   LOGGING UNIT LOCATION
 ENGI.             MILLER:   RECORDING ENGINEER
 WITN.           MCGINLEY:   WITNESSED BY
 CLNT.            A2DTECH:   CLIENT CODE
 ORIG.           5" PRINT:   ORIGIN OF DATA
 UWI .       490251064000:   UNIQUE WELL ID
 DICO. A2D Technologies, Inc.:   DIGITIZING COMPANY
~OTHER INFORMATION
~A   DEPT      SPR         SN        ILD       CALD         GRD      CORR       DPHI        DEN   
# ...
  192.0000   -42.0849     6.6760     6.5697     7.3885    80.4808     0.0270     0.1123     2.4883
  192.5000   -42.0658     6.7214     6.6153     7.3874    79.4191     0.0270     0.1157     2.4898
  193.0000   -42.0467     6.7204     6.6153     7.4015    77.9057     0.0269     0.1253     2.4755
  193.5000   -42.0277     6.7195     6.6153     7.4307    77.5989     0.0269     0.1230     2.4709
  194.0000   -42.0086     6.6723     6.6612     7.4141    78.6439     0.0268     0.1228     2.4686
  194.5000   -41.9896     6.6714     6.7074     7.3821    79.9919     0.0268     0.1292     2.4678
  195.0000   -41.9705     6.6704     6.7540     7.3218    82.6953     0.0268     0.1385     2.4670
  195.5000   -41.9549     6.6236     6.8008     7.3207    84.9469     0.0237     0.1373     2.4587
  196.0000   -41.9549     6.6201     6.8008     7.3801    85.2410     0.0207     0.1352     2.4489
  196.5000   -41.8045     6.5761     6.7074     7.4997    84.6309     0.0206     0.1409     2.4496
  197.0000   -41.8045     6.5299     6.5697     7.5442    84.0210     0.0191     0.1422     2.4465
  197.5000   -41.6541     6.3920     6.4348     7.5429    85.2786     0.0190     0.1289     2.4458
  198.0000   -41.5038     6.1342     6.2593     7.5267    89.8797     0.0205     0.1326     2.4555
  198.5000   -41.3534     6.1333     6.2162     7.5411    87.7181     0.0204     0.1383     2.4577
  199.0000   -41.2030     6.1325     6.1308     7.5551    83.3871     0.0264     0.1335     2.4546
  199.5000   -41.2030     6.1316     6.0885     7.6145    84.5845     0.0339     0.1254     2.4583
  200.0000   -41.0294     6.1308     6.0886     7.7054    86.5368     0.0368     0.1227     2.4696
  200.5000   -40.8903     6.0933     6.0890     7.8968    84.6577     0.0330     0.1298     2.4678
  201.0000   -40.7519     6.0557     6.0894     7.8840    83.2048     0.0307     0.1368     2.4666
  201.5000   -40.9023     6.0466     6.0898     7.7776    82.4397     0.0187     0.1399     2.4643
  202.0000   -40.9023     6.0466     6.0903     7.7768    82.4338     0.0111     0.1414     2.4478
  202.5000   -40.9023     6.0466     6.0907     7.7915    84.3826     0.0261     0.1255     2.4425
  203.0000   -40.9023     6.0466     6.0491     7.8211    82.8614     0.0291     0.1297     2.4598
  203.5000   -40.7519     6.0466     6.0915     7.8054    82.4032     0.0290     0.1246     2.4643
  204.0000   -40.7640     6.0885     6.0919     7.7293    82.0925     0.0290     0.1378     2.4605
  204.5000   -40.9023     6.1124     6.0924     7.6532    80.5493     0.0289     0.1402     2.4545
  205.0000   -40.9023     6.1576     6.2636     7.6375    78.1474     0.0289     0.1333     2.4545
  205.5000   -40.9023     6.2028     6.3075     7.5764    77.7018     0.0288     0.1309     2.4605
  206.0000   -40.9023     6.2162     6.3080     7.4701    78.1506     0.0258     0.1258     2.4665
  206.5000   -40.9023     6.2162     6.3084     7.4091    78.4497     0.0242     0.1337     2.4620
  207.0000   -40.9023     6.3027     6.3526     7.4085    78.9005     0.0242     0.1262     2.4635
  207.5000   -40.9023     6.6153     6.4862     7.4078    79.9248     0.0226     0.1202     2.4725
  208.0000   -40.9023     6.6098     6.6226     7.4072    79.2890     0.0181     0.1238     2.4755
  208.5000   -40.9023     6.6612     6.7619     7.4066    77.0024     0.0165     0.1211     2.4634
  209.0000   -40.9023     6.6612     6.8093     7.4060    74.9096     0.0120     0.1370     2.4544
  209.5000   -40.9023     6.6153     6.7628     7.4054    74.0055     0.0119     0.1391     2.4514
  210.0000   -40.9023     6.5697     6.5788     7.3897    72.6205     0.0119     0.1369     2.4506
  210.5000   -40.9023     6.5244     6.3998     7.3891    70.4807     0.0118     0.1344     2.4514
  211.0000   -40.7519     6.5244     6.3123     7.3885    68.5662     0.0118     0.1348     2.4544
  211.5000   -40.7519     6.3905     6.2693     7.3879    69.7503     0.0117     0.1372     2.4514
  212.0000   -40.7519     6.2162     6.2697     7.3571    75.6386     0.0102     0.1383     2.4469
  212.5000   -40.7519     6.1308     6.2701     7.3414    76.2201     0.0104     0.1371     2.4483
  213.0000   -40.9023     6.1308     6.2706     7.3257    76.8263     0.0183     0.1304     2.4574
  213.5000   -40.9023     6.1308     6.2710     7.2193    80.0074     0.0283     0.1284     2.4634
  214.0000   -40.9023     6.1308     6.2714     7.2036    79.9437     0.0356     0.1305     2.4664
  214.5000   -40.9023     6.1756     6.2719     7.2181    78.0248     0.0422     0.1267     2.4633
  215.0000   -40.7519     6.2622     6.3158     7.2779    74.9247     0.0475     0.1234     2.4724
  215.5000   -40.7519     6.4456     6.3601     7.3680    73.8911     0.0475     0.1237     2.4761
  216.0000   -40.9023     6.6612     6.4491     7.1408    73.2791     0.0474     0.1228     2.4723
  216.5000   -40.9023     6.6612     6.5442     6.9740    73.1356     0.0474     0.1216     2.4753
  217.0000   -40.7519     6.7130     6.6825     6.9734    73.3282     0.0473     0.1177     2.4806
  217.5000   -40.7519     6.8480     6.8173     6.9879    74.6764     0.0473     0.1165     2.4791
  218.0000   -40.7519     6.9505     6.9127     7.0326    75.0665     0.0472     0.1225     2.4753
  218.5000   -40.7519     7.0401     6.9611     7.0773    73.2500     0.0517     0.1141     2.4776
  219.0000   -40.7519     6.9916     6.9616     7.1371    76.5577     0.0532     0.1168     2.4806
  219.5000   -40.7519     6.9344     6.9621     7.1516    82.9486     0.0591     0.1214     2.4836
  220.0000   -40.7519     6.8008     6.8671     7.1359    83.4642     0.0516     0.1280     2.4693
  220.5000   -40.7519     6.7540     6.7732     7.0900    78.9430     0.0410     0.1322     2.4595
  221.0000   -40.9023     6.5697     6.6346     7.0290    77.3584     0.0410     0.1310     2.4602
  221.5000   -40.9023     6.5697     6.5440     7.0133    76.3369     0.0424     0.1274     2.4632
  222.0000   -40.9023     6.4348     6.4545     6.9673    76.1988     0.0469     0.1250     2.4640
  222.5000   -40.9023     6.1733     6.3663     7.0121    75.9715     0.0468     0.1241     2.4662
  223.0000   -40.9023     6.0885     6.3228     7.0568    75.4281     0.0453     0.1272     2.4662
  223.5000   -40.9023     6.1308     6.2796     7.1317    76.0447     0.0332     0.1311     2.4655
  224.0000   -40.9023     6.1733     6.2802     7.2066    77.1145     0.0287     0.1323     2.4632
  224.5000   -40.9023     6.1733     6.2806     7.3269    79.0642     0.0301     0.1287     2.4632
  225.0000   -40.9023     6.1733     6.3246     7.4471    80.7128     0.0406     0.1179     2.4722
  225.5000   -40.9023     6.1733     6.4576     7.4918    82.8643     0.0511     0.1143     2.4842
  226.0000   -40.9023     6.2593     6.5935     7.5063    84.9137     0.0405     0.1179     2.4842
  226.5000   -40.9023     6.5244     6.6857     7.5057    85.1540     0.0329     0.1179     2.4834
  227.0000   -40.9023     6.6612     6.7793     7.5202    84.9940     0.0329     0.1155     2.4834
  227.5000   -40.9023     6.7074     6.8268     7.5498    84.9850     0.0298     0.1119     2.4842
  228.0000   -40.9023     6.7540     6.8273     7.5492    86.4718     0.0283     0.1095     2.4909
  228.5000   -40.9023     6.8008     6.8277     7.5486    87.0757     0.0282     0.1211     2.4842
  229.0000   -40.9023     6.8955     6.8282     7.5480    85.8324     0.0162     0.1339     2.4721
  229.5000   -40.9023     6.8955     6.8287     7.5474    86.1541     0.0041     0.1375     2.4518
  230.0000   -40.9023     6.8955     6.8292     7.5619    80.2700     0.0101     0.1264     2.4571
  230.5000   -40.9023     6.8480     6.8296     7.5613    77.7008     0.0160     0.1276     2.4669
  231.0000   -40.9000     6.8480     6.8301     7.5607    74.9809     0.0160     0.1273     2.4706
  231.5000   -40.8961     6.8480     6.8306     7.5601    77.3815     0.0159     0.1237     2.4721
  232.0000   -40.8921     6.8480     6.8310     7.5595    80.8363     0.0219     0.1205     2.4751
