~VERSION INFORMATION
 VERS.                2.0:   CWLS LOG ASCII STANDARD - VERSION 2.0
 WRAP.                 NO:   ONE LINE PER DEPTH STEP
~WELL INFORMATION
#MNEM.UNIT      DATA TYPE    INFORMATION
#----------   ------------   ------------------------------
 STRT.F          714.0000:   START DEPTH
 STOP.F         1640.0000:   STOP DEPTH
 STEP.F            0.5000:   STEP LENGTH
 NULL.          -999.2500:   NO VALUE
 COMP. BROWN JOHN E&C INC:   COMPANY
 WELL. NPR 3 STX-15 #83-15:   WELL
 FLD .             TEAPOT:   FIELD
 LOC .      S15 T38N R78W:   LOCATION
 CNTY.            NATRONA:   COUNTY
 STAT.            WYOMING:   STATE
 CTRY. UNITED STATES OF AMERICA:   COUNTRY
 SRVC.            Unknown:   SERVICE COMPANY
 DATE.        30-AUG-1991:   LOGDATE
 API .       490251111300:   API NUMBER
~CURVE INFORMATION
#MNEM.UNIT       API CODE    CURVE DESCRIPTION
#----------   ------------   ------------------------------
 DEPT.F                  :   
 TGAS.UNITS  91 830 01 00:   TOTAL GAS FROM HOTWIRE
 C1  .VF     91 831 01 00:   METHANE
 C2  .VF     91 832 01 00:   ETHANE
 C3  .VF     91 833 01 00:   PROPANE
 C4  .VF     91 834 01 00:   BUTANE
 ROP .MIN/FT 91 810 01 00:   RAT OF DRILLING PENETRATION
~PARAMETER INFORMATION
#MNEM.UNIT          VALUE    DESCRIPTION
#----------   ------------   ------------------------------
 EKB .F              5265:   KELLING BUSHING
 EGL .F              5255:   GROUND LEVEL
 DATE.            5-30-91:   RUN DATE
 DD  .F              1626:   DEPTH DRILLER
 TCS .HRS            1200:   TIME CURCULATED STOPPED
 TLAB.HRS            1815:   TIME LOGGER AT BOTTOM
 ENGI.               HUSK:   RECORDING ENGINEER
 WITN.              TOWER:   WITNESSED BY
 CLNT.            A2DTECH:   CLIENT CODE
 ORIG.           5" PRINT:   ORIGIN OF DATA
 UWI .       490251111300:   UNIQUE WELL ID
 DICO. A2D Technologies, Inc.:   DIGITIZING COMPANY
~OTHER INFORMATION
~A   DEPT     TGAS         C1         C2         C3         C4          ROP 
# ...
  818.0000   107.6784    86.1302  -999.2500     5.0000     3.5498     0.5281
  818.5000   107.2267    85.8274  -999.2500     5.0000     3.5398     0.5276
  819.0000   106.7751    85.5247  -999.2500     5.0000     3.5298     0.5271
  819.5000   106.3234    85.2219  -999.2500     5.0000     3.5197     0.5266
  820.0000   105.8717    84.9191  -999.2500     5.0000     3.5097     0.5260
  820.5000   105.4201    84.6163  -999.2500     5.0000     3.4997     0.5255
  821.0000   104.9684    84.3136  -999.2500     5.0000     3.4896     0.5250
  821.5000   104.5167    84.0108  -999.2500     5.0000     3.4796     0.5245
  822.0000   104.0650    83.7080  -999.2500     5.0000     3.4696     0.5240
  822.5000   103.6134    83.4053  -999.2500     5.0000     3.4596     0.5235
  823.0000   103.1617    83.1025  -999.2500     5.0000     3.4495     0.5229
  823.5000   102.7100    82.7997  -999.2500     5.0000     3.4395     0.5224
  824.0000   102.2584    82.4969  -999.2500     5.0000     3.4295     0.5219
  824.5000   101.8067    82.1942  -999.2500     5.0000     3.4195     0.5214
  825.0000   101.3550    81.8914  -999.2500     5.0000     3.4094     0.5209
  825.5000   100.9033    81.5886  -999.2500     5.0000     3.3994     0.5203
  826.0000   100.4517    81.2859  -999.2500     5.0000     3.3893     0.5198
  826.5000   100.0000    80.9831  -999.2500     5.0000     3.3796     0.5193
  827.0000    99.5483    80.6803  -999.2500     5.0000     3.3389     0.5188
  827.5000    99.0967    80.3775  -999.2500     5.0000     3.2757     0.5183
  828.0000    98.6450    80.0748  -999.2500     5.0000     3.2122     0.5178
  828.5000    98.1933    79.7720  -999.2500     5.0000     3.1487     0.5172
  829.0000    97.7416    79.4692  -999.2500     5.0000     3.0853     0.5167
  829.5000    97.2900    79.1665  -999.2500     5.0000     3.0218     0.5162
  830.0000    96.8383    78.8637  -999.2500     5.0000     2.9583     0.5157
  830.5000    96.3866    78.5609  -999.2500     5.0000     2.8949     0.5152
  831.0000    95.9350    78.2581  -999.2500     5.0000     2.8314     0.5146
  831.5000    95.4833    77.9554  -999.2500     5.0000     2.7680     0.5141
  832.0000    95.0316    77.6526  -999.2500     5.0000     2.7045     0.5136
  832.5000    94.5799    77.3498  -999.2500     5.0000     2.6410     0.5131
  833.0000    94.1283    77.0471  -999.2500     5.0000     2.5776     0.5126
  833.5000    93.6766    76.7443  -999.2500     5.0000     2.5141     0.5121
  834.0000    93.2249    76.4415  -999.2500     5.0000     2.4505     0.5115
  834.5000    92.7733    76.1387  -999.2500     4.9919     2.3860     0.5110
  835.0000    92.3216    75.8360  -999.2500     4.9756     2.3750     0.5105
  835.5000    91.8699    75.5332  -999.2500     4.9594     2.3749     0.5100
  836.0000    91.4173    75.2304  -999.2500     4.9431     2.3750     0.5095
  836.5000    90.9569    74.9277  -999.2500     4.9268     2.3750     0.5089
  837.0000    90.4965    74.6249  -999.2500     4.9106     2.3750     0.5082
  837.5000    90.0360    74.3221  -999.2500     4.8943     2.3750     0.5065
  838.0000    89.5755    74.0193  -999.2500     4.8780     2.3750     0.5580
  838.5000    89.1150    73.7166  -999.2500     4.8618     2.3750     0.6172
  839.0000    88.6546    73.4138  -999.2500     4.8455     2.3750     0.6768
  839.5000    88.1941    73.1110  -999.2500     4.8293     2.3750     0.7365
  840.0000    87.7337    72.8083  -999.2500     4.8130     2.3750     0.7352
  840.5000    87.2732    72.5055  -999.2500     4.7968     2.3750     0.6778
  841.0000    86.8127    72.2027  -999.2500     4.7805     2.3750     0.6214
  841.5000    86.3523    71.8999  -999.2500     4.7642     2.3750     0.5654
  842.0000    85.8918    71.5972  -999.2500     4.7480     2.3750     0.5193
  842.5000    85.4313    71.2944  -999.2500     4.7317     2.3750     0.5204
  843.0000    84.9709    70.9916  -999.2500     4.7154     2.3750     0.5208
  843.5000    84.5104    70.6888  -999.2500     4.6992     2.3750     0.5210
  844.0000    84.0499    70.3861  -999.2500     4.6829     2.3750     0.5211
  844.5000    83.5895    70.0833  -999.2500     4.6667     2.3750     0.5213
  845.0000    83.1290    69.7805  -999.2500     4.6504     2.3750     0.5215
  845.5000    82.6685    69.4778  -999.2500     4.6342     2.3750     0.5217
  846.0000    82.2081    69.1750  -999.2500     4.6179     2.3750     0.5219
  846.5000    81.7476    68.8722  -999.2500     4.6016     2.3750     0.5221
  847.0000    81.2871    68.5694  -999.2500     4.5854     2.3750     0.5223
  847.5000    80.8267    68.2667  -999.2500     4.5691     2.3750     0.5224
  848.0000    80.3662    67.9639  -999.2500     4.5528     2.3750     0.5226
  848.5000    79.9057    67.6611  -999.2500     4.5366     2.3750     0.5228
  849.0000    79.4453    67.3584  -999.2500     4.5203     2.3750     0.5230
  849.5000    78.9848    67.0556  -999.2500     4.5041     2.3750     0.5232
  850.0000    78.5244    66.7528  -999.2500     4.4878     2.3750     0.5234
  850.5000    78.0639    66.4500  -999.2500     4.4715     2.3750     0.5236
  851.0000    77.6034    66.1473  -999.2500     4.4553     2.3750     0.5238
  851.5000    77.1430    65.8445  -999.2500     4.4390     2.3750     0.5239
  852.0000    76.6825    65.5417  -999.2500     4.4228     2.3750     0.5241
  852.5000    76.2220    65.2390  -999.2500     4.4065     2.3750     0.5243
  853.0000    75.7616    64.9362  -999.2500     4.3902     2.3750     0.5245
  853.5000    75.3011    64.6334  -999.2500     4.3740     2.3750     0.5247
  854.0000    74.8406    64.3306  -999.2500     4.3577     2.3750     0.5249
  854.5000    74.3802    64.0279  -999.2500     4.3415     2.3750     0.5250
  855.0000    73.9197    63.7251  -999.2500     4.3252     2.3750     0.5252
  855.5000    73.4592    63.4223  -999.2500     4.3089     2.3750     0.5254
  856.0000    72.9988    63.1195  -999.2500     4.2927     2.3750     0.5256
  856.5000    72.5383    62.8168  -999.2500     4.2764     2.3750     0.5258
  857.0000    72.0779    62.5140  -999.2500     4.2648     2.3750     0.5260
  857.5000    71.6174    62.2112  -999.2500     4.2578     2.3750     0.5261
  858.0000    71.1569    61.9085  -999.2500     4.2507     2.3750     0.5263
  858.5000    70.6964    61.6057  -999.2500     4.2437     2.3750     0.5265
  859.0000    70.2360    61.3029  -999.2500     4.2367     2.3750     0.5267
  859.5000    69.7755    61.0001  -999.2500     4.2297     2.3750     0.5269
  860.0000    69.3151    60.6974  -999.2500     4.2226     2.3750     0.5271
  860.5000    68.8546    60.3946  -999.2500     4.2156     2.3750     0.5273
  861.0000    68.3941    60.0918  -999.2500     4.2086     2.3750     0.5275
  861.5000    67.9337    59.7891  -999.2500     4.2016     2.3750     0.5276
  862.0000    67.4732    59.4863  -999.2500     4.1945     2.3750     0.5278
  862.5000    67.0127    59.1835  -999.2500     4.1875     2.3750     0.5280
  863.0000    66.5523    58.8807  -999.2500     4.1805     2.3750     0.5282
  863.5000    66.0918    58.5780  -999.2500     4.1734     2.3750     0.5284
  864.0000    65.6313    58.2752  -999.2500     4.1664     2.3750     0.5286
  864.5000    65.1709    57.9724  -999.2500     4.1594     2.3750     0.5288
  865.0000    64.7104    57.6697  -999.2500     4.1524     2.3750     0.5289
  865.5000    64.2499    57.3669  -999.2500     4.1453     2.3750     0.5291
  866.0000    63.7895    57.0641  -999.2500     4.1383     2.3750     0.5293
  866.5000    63.3290    56.7613  -999.2500     4.1313     2.3750     0.5295
  867.0000    62.8685    56.4586  -999.2500     4.1243     2.3750     0.5297
  867.5000    62.4081    56.1558  -999.2500     4.1172     2.3750     0.5299
  868.0000    61.9476    55.8530  -999.2500     4.1102     2.3750     0.5300
  868.5000    61.4872    55.5503  -999.2500     4.1032     2.3750     0.5302
  869.0000    61.0267    55.2475  -999.2500     4.0962     2.3750     0.5304
  869.5000    60.5661    54.9447  -999.2500     4.0891     2.3750     0.5306
