~VERSION INFORMATION
 VERS.                2.0:   CWLS LOG ASCII STANDARD - VERSION 2.0
 WRAP.                 NO:   ONE LINE PER DEPTH STEP
~WELL INFORMATION
#MNEM.UNIT      DATA TYPE    INFORMATION
#----------   ------------   ------------------------------
 STRT.F            8.0000:   START DEPTH
 STOP.F          551.0000:   STOP DEPTH
 STEP.F            0.5000:   STEP LENGTH
 NULL.          -999.2500:   NO VALUE
 COMP.   FLUOR DANIEL INC:   COMPANY
 WELL. NAVAL PETROLEUM RESERVE 3 S-10 #31-10:   WELL
 FLD .        TEAPOT DOME:   FIELD
 LOC .      S10 T38N R78W:   LOCATION
 CNTY.            NATRONA:   COUNTY
 STAT.            WYOMING:   STATE
 CTRY. UNITED STATES OF AMERICA:   COUNTRY
 SRVC.       Schlumberger:   SERVICE COMPANY
 DATE.        21-JUN-1970:   LOGDATE
 API .       490251039400:   API NUMBER
~CURVE INFORMATION
#MNEM.UNIT       API CODE    CURVE DESCRIPTION
#----------   ------------   ------------------------------
 DEPT.F                  :   
 SPR .MV     05 010 01 00:   SPONTANEOUS POTENTIAL FROM RES.
 ASN .OHMM   05 041 16 00:   AMPLIFIED SHORT NORMAL 16"
 ILD .OHMM   05 120 46 00:   INDUCTION LOG DEEP
 CILD.MMHO   05 110 46 00:   CONDUCTIVITY INDUCTION LOG DEEP
 CALD.IN     45 280 60 00:   CALIPER FROM DENSITY LOG
 CORR.G/C3   45 356 01 00:   DENSITY CORRECTION
 RHOB.G/C3   45 350 01 00:   BULK DENSITY
 DPHI.DEC    45 890 12 00:   DENSITY POROSITY SANDSTONE
~PARAMETER INFORMATION
#MNEM.UNIT          VALUE    DESCRIPTION
#----------   ------------   ------------------------------
 PD  .                 GL:   PERMANENT DATUM
 EPD .F              5256:   ELEVATION PERMANENT DATUM
 LMF .                 KB:   LOG MEASURED FROM
 DAPD.F                10:   FEET ABOVE PERMANENT DATUM
 DMF .                 KB:   DRILLING MEASURED FROM
 EKB .F              5266:   KELLING BUSHING
 EGL .F              5256:   GROUND LEVEL
 DATE.        27-JUN-1970:   RUN DATE
 RUN .                  1:   RUN NUMBER
 DD  .F               553:   DEPTH DRILLER
 DL  .F               552:   DEPTH LOGGER
 BLI .F               551:   BOTTOM LOG INTERVAL
 TLI .F                44:   TOP LOG INTERVAL
 CS  .IN             9.75:   CASING SIZE
 BS  .IN                9:   BIT SIZE
 BSD .F               553:   BIT SIZE AT DEPTH
 DFT .        FRESHGELMUD:   DRILLING FLUID TYPE
 DFD .                9.2:   DRILLING FLUID DENSITY
 BHT .F               100:   BOTTOM HOLE TEMPERATURE
 TCS .HRS               1:   TIME CURCULATED STOPPED
 MRT .F               100:   MAXIMUM RECORDED TEMPERATURE
 ENGI.             TUSNES:   RECORDING ENGINEER
 WITN.                HAZ:   WITNESSED BY
 CLNT.            A2DTECH:   CLIENT CODE
 ORIG.           5" PRINT:   ORIGIN OF DATA
 UWI .       490251039400:   UNIQUE WELL ID
 DICO. A2D Technologies, Inc.:   DIGITIZING COMPANY
~OTHER INFORMATION
~A    DEPT     SPR        ASN        ILD       CILD         CALD     CORR       RHOB       DPHI   
# ...
  332.0000   -28.6829     7.8483     6.9938   136.5800     8.6406     0.0186     2.4853     0.1023
  332.5000   -28.5246     7.7245     6.8441   139.6768     8.6419     0.0232     2.4816     0.1164
  333.0000   -28.3663     7.6006     6.6738   143.5441     8.6430     0.0180     2.4598     0.1130
  333.5000   -28.3632     7.4923     6.3778   148.9836     8.6440     0.0105     2.4794     0.1082
  334.0000   -28.2049     7.3529     6.2220   156.0251     8.6601    -0.0007     2.4532     0.1185
  334.5000   -28.0465     7.1827     5.9889   164.7145     8.6611     0.0062     2.4622     0.1171
  335.0000   -27.8882     6.9814     5.7559   175.9661     8.6621     0.0190     2.4743     0.1128
  335.5000   -27.8851     6.7337     5.5229   185.2262     8.6482     0.0252     2.4758     0.1102
  336.0000   -27.8819     6.4241     5.3671   193.7160     8.6493     0.0274     2.4729     0.1084
  336.5000   -27.8789     6.1300     5.2884   198.3537     8.6503     0.0140     2.4406     0.1177
  337.0000   -28.0312     6.0836     5.1326   196.0538     8.6515     0.0043     2.4249     0.1303
  337.5000   -28.3387     6.1765     5.1310   192.9911     8.6526     0.0006     2.4182     0.1405
  338.0000   -28.4909     6.3331     5.2067   189.9246     8.6536     0.0172     2.4040     0.1432
  338.5000   -28.6431     6.5052     5.3595   185.3173     8.6396     0.0262     2.4071     0.1351
  339.0000   -28.9506     6.7932     5.5895   180.7100     8.6407     0.0233     2.4350     0.1230
  339.5000   -29.1028     7.2619     5.9737   171.4802     8.6417     0.0159     2.4539     0.1179
  340.0000   -29.2551     7.8173     6.3580   160.7095     8.6427     0.0047     2.4630     0.1152
  340.5000   -29.2512     7.9721     6.7423   150.7093     8.6438    -0.0065     2.4688     0.1148
  341.0000   -29.5587     8.0650     7.0525   140.7091     8.6448    -0.0027     2.4523     0.1193
  341.5000   -29.5557     8.1424     7.2022   131.4793     8.6459     0.0049     2.4599     0.1211
  342.0000   -29.5526     8.2043     7.2778   128.4128     8.6469     0.0094     2.4637     0.1160
  342.5000   -29.7049     8.2817     7.3535   128.4284     8.6479     0.0140     2.4524     0.1196
  343.0000   -29.7018     8.3437     7.4291   127.6727     8.6490     0.0141     2.4450     0.1238
  343.5000   -29.5434     8.4211     7.5044   126.9175     8.6500     0.0118     2.4353     0.1279
  344.0000   -29.5404     8.4985     7.5028   125.3918     8.6510     0.0060     2.4496     0.1206
  344.5000   -29.2267     8.5759     7.5013   125.4108     8.6533    -0.0022     2.4661     0.1143
  345.0000   -29.0683     8.6533     7.5773   125.4260     8.6681     0.0016     2.4699     0.1118
  345.5000   -28.9100     8.7306     7.5754   125.4412     8.6842     0.0092     2.4745     0.1104
  346.0000   -28.5957     8.7461     7.5739   126.2268     8.7005     0.0130     2.4783     0.1086
  346.5000   -28.4373     8.7461     7.5724   127.0124     8.7015     0.0123     2.4798     0.1074
  347.0000   -28.4343     8.7152     7.5709   127.0276     8.7176     0.0116     2.4738     0.1067
  347.5000   -28.4312     8.6842     7.5693   127.8132     8.7186     0.0079     2.4513     0.1181
  348.0000   -28.4281     8.6378     7.5678   127.8283     8.7347    -0.0123     2.4669     0.1100
  348.5000   -28.5811     8.5913     7.5663   128.6139     8.7357     0.0066     2.4747     0.1154
  349.0000   -28.7333     8.5604     7.5648   128.6291     8.7368     0.0075     2.4493     0.1187
  349.5000   -28.8856     8.5449     7.6404   129.4147     8.7378    -0.0008     2.4388     0.1217
  350.0000   -29.0378     8.4985     7.7160   129.6170     8.7388     0.0060     2.4344     0.1238
  350.5000   -29.8137     8.5604     7.5626   130.1926     8.7400     0.0238     2.4689     0.1000
  351.0000   -29.8137     8.5913     7.5633   128.6440     8.7257     0.0384     2.5103     0.0932
  351.5000   -29.8137     8.6068     7.5641   127.8660     8.7118     0.0370     2.5283     0.0854
  352.0000   -29.8137     8.6068     7.5649   127.0878     8.6831     0.0370     2.5524     0.0791
  352.5000   -29.8137     8.5759     7.4883   127.0801     8.6688     0.0386     2.5022     0.0981
  353.0000   -29.8137     8.4985     7.4119   127.8431     8.6549     0.0417     2.4835     0.1041
  353.5000   -29.8137     8.3746     7.2583   131.0426     8.6259     0.0470     2.5008     0.1058
  354.0000   -29.8137     8.2353     7.1819   136.7333     8.5972     0.0508     2.5129     0.1064
  354.5000   -29.8137     8.0650     7.0286   146.3082     8.5982     0.0463     2.4844     0.1074
  355.0000   -29.6584     7.8328     6.8750   149.3841     8.5993     0.0366     2.4770     0.1084
  355.5000   -29.6584     7.5697     6.5672   151.6858     8.6153     0.0359     2.4740     0.1093
  356.0000   -29.3478     7.3839     6.2593   152.4505     8.6314     0.0338     2.4673     0.1096
  356.5000   -28.8820     7.2136     5.9514   154.7521     8.6625     0.0218     2.4517     0.1108
  357.0000   -28.5653     7.1362     5.6435   159.3670     8.6936     0.0166     2.4225     0.1285
  357.5000   -28.2609     7.1827     5.3357   167.0635     8.7096     0.0159     2.4030     0.1369
  358.0000   -28.2609     7.2601     5.1050   174.7600     8.7107     0.0160     2.4083     0.1408
  358.5000   -28.1056     7.2136     5.0286   182.4565     8.7118     0.0093     2.4331     0.1314
  359.0000   -28.1056     6.9814     4.9522   187.8417     8.7128     0.0071     2.4362     0.1260
  359.5000   -27.9503     6.6718     4.9529   190.1472     8.7139     0.0049     2.4393     0.1226
  360.0000   -27.9503     6.4696     5.0309   183.9743     8.7149     0.0042     2.4191     0.1205
  360.5000   -27.9503     6.5480     5.0329   182.4258     8.7310     0.0163     2.3846     0.1587
  361.0000   -28.1056     6.5480     5.1122   183.1886     8.7771     0.0681     2.3809     0.1608
  361.5000   -28.4161     6.5170     5.3418   183.9533     8.9133     0.1162     2.3915     0.1481
  362.0000   -28.5714     6.7884     5.5793   184.7160     9.3648     0.1203     2.4005     0.1851
  362.5000   -29.0373     7.2819     5.8835   177.7727     9.3208     0.0083     2.3346     0.1709
  363.0000   -29.3478     7.4975     6.1235   166.9792     8.7963     0.0023     2.4157     0.1435
  363.5000   -29.5031     7.6360     6.3660   157.7266     8.6772     0.0047     2.4592     0.1197
  364.0000   -29.6584     7.6807     6.5905   148.4739     8.6630     0.0069     2.4668     0.1152
  364.5000   -29.6584     7.6935     6.8125   140.7621     8.6793     0.0061     2.4571     0.1143
  365.0000   -29.8137     7.7090     6.8132   134.5911     8.6804     0.0003     2.4482     0.1187
  365.5000   -29.6584     7.6935     6.6597   136.1243     8.6814     0.0101     2.4452     0.1193
  366.0000   -29.6584     7.6471     6.3520   143.8208     8.6675     0.0372     2.4678     0.1118
  366.5000   -29.5031     7.5077     5.9670   156.1398     8.6685     0.0403     2.4919     0.1024
  367.0000   -29.3478     7.1827     5.5819   170.7700     8.6696     0.0328     2.5077     0.0955
  367.5000   -29.0373     6.6254     5.2741   185.4003     8.6553     0.0269     2.5167     0.0930
  368.0000   -28.7267     6.1300     4.9662   192.4500     8.6414     0.0194     2.5025     0.0954
  368.5000   -28.2609     6.0526     4.8124   192.3187     8.6427     0.0157     2.4576     0.1197
  369.0000   -27.9503     6.0526     4.7361   194.6223     8.6438     0.0150     2.4216     0.1302
  369.5000   -27.4845     6.0372     4.8913   199.2371     8.6295     0.0354     2.4037     0.1416
  370.0000   -27.1739     6.0681     5.0464   203.0815     8.6306     0.0527     2.3903     0.1562
  370.5000   -27.0186     6.5170     5.3558   206.1555     8.6317     0.0077     2.3610     0.1566
  371.0000   -27.0186     6.8111     5.5881   193.0508     8.6327    -0.0050     2.4331     0.1320
  371.5000   -27.1739     7.0433     5.9747   176.8546     8.6338     0.0199     2.4722     0.1130
  372.0000   -27.3292     7.2291     6.2841   164.4483     8.6499     0.0334     2.4978     0.1009
