~VERSION INFORMATION
 VERS.                2.0:   CWLS LOG ASCII STANDARD - VERSION 2.0
 WRAP.                 NO:   ONE LINE PER DEPTH STEP
~WELL INFORMATION
#MNEM.UNIT      DATA TYPE    INFORMATION
#----------   ------------   ------------------------------
 STRT.F           30.0000:   START DEPTH
 STOP.F         2423.0000:   STOP DEPTH
 STEP.F            0.5000:   STEP LENGTH
 NULL.          -999.2500:   NO VALUE
 COMP. DEPARTMENT OF ENERGY:   COMPANY
 WELL.   NPR-3 #35-1 X 10:   WELL
 FLD .        TEAPOT DOME:   FIELD
 LOC .      S10 T38N R78W:   LOCATION
 CNTY.            NATRONA:   COUNTY
 STAT.            WYOMING:   STATE
 CTRY. UNITED STATES OF AMERICA:   COUNTRY
 SRVC.       Schlumberger:   SERVICE COMPANY
 DATE.        15-JAN-1999:   LOGDATE
 API .       490252282200:   API NUMBER
~CURVE INFORMATION
#MNEM.UNIT       API CODE    CURVE DESCRIPTION
#----------   ------------   ------------------------------
 DEPT.F                  :   
 GRR .GAPI   06 310 01 00:   GAMMA RAY FROM RESISTIVITY
 SPR .MV     06 010 01 00:   SPONTANEOUS POTENTIAL FROM RES.
 HD  .IN     06 280 01 00:   HOLE DIAMETER
 AT90.OHMM   06 120 90 00:   90-IN. RESISTIVITY, 2-FT RESOLUTION
 AT30.OHMM   06 120 30 00:   30-IN. RESISTIVITY, 2-FT RESOLUTION
 AT10.OHMM   06 120 10 00:   10-IN. RESISTIVITY, 2-FT RESOLUTION
~PARAMETER INFORMATION
#MNEM.UNIT          VALUE    DESCRIPTION
#----------   ------------   ------------------------------
 PD  .                 GL:   PERMANENT DATUM
 EPD .F              5228:   ELEVATION PERMANENT DATUM
 LMF .                 KB:   LOG MEASURED FROM
 DAPD.F                10:   FEET ABOVE PERMANENT DATUM
 DMF .                 KB:   DRILLING MEASURED FROM
 EKB .F              5238:   KELLING BUSHING
 EDF .F              5237:   DRILLING FLOOR
 EGL .F              5228:   GROUND LEVEL
 DATE.        15-JAN-1999:   RUN DATE
 RUN .                  1:   RUN NUMBER
 DD  .F              2400:   DEPTH DRILLER
 DL  .F              2421:   DEPTH LOGGER
 BLI .F              2393:   BOTTOM LOG INTERVAL
 TLI .F                30:   TOP LOG INTERVAL
 CS  .IN            9.625:   CASING SIZE
 CBD .F               778:   CASING BOTTOM DRILLER
 CBL .F               773:   CASING BOTTOM LOGGER
 BS  .IN              8.5:   BIT SIZE
 BSD .F              2400:   BIT SIZE AT DEPTH
 DFT .            GEL/KCL:   DRILLING FLUID TYPE
 DFD .                8.9:   DRILLING FLUID DENSITY
 DFV .                 39:   DRILLING FLUID VISCOSITY
 DFPH.                  9:   DRILLING FLUID PH
 DFL .                8.8:   DRILLING FLUID LOSS
 MSS .            MUD PIT:   MUD SAMPLE SOURCE
 RMS .OHMM            .29:   RESISTIVITY MUD SAMPLE
 MST .F                65:   MUD SAMPLE TEMPERATURE
 RMF .OHMM            .22:   RESISTIVITY MUD FILTRATE SAMPLE
 MFST.F                65:   MUD FILTRATE SAMPLE TEMPERATURE
 RMC .OHMM            .43:   RESISTIVITY MUD CAKE
 MCST.F                65:   MUD CAKE SAMPLE TEMPERATURE
 MFSS.          MUD PRESS:   MUD FILTRATE SAMPLE SOURCE
 MCSS.         CALCULATED:   MUD CAKE SAMPLE SOURCE
 RMB .OHMM           .195:   RESISTIVITY MUD AT BHT
 BHT .F               100:   BOTTOM HOLE TEMPERATURE
 TCS .HRS            2015:   TIME CURCULATED STOPPED
 TLAB.HRS            2315:   TIME LOGGER AT BOTTOM
 MRT .F               100:   MAXIMUM RECORDED TEMPERATURE
 LUN .               2102:   LOGGING UNIT NUMBER
 LUL .             CASPER:   LOGGING UNIT LOCATION
 ENGI.    TISOVEC/PIERSON:   RECORDING ENGINEER
 WITN.           ESMERSON:   WITNESSED BY
 CLNT.            A2DTECH:   CLIENT CODE
 ORIG.       2", 5" PRINT:   ORIGIN OF DATA
 UWI .       490252282200:   UNIQUE WELL ID
 DICO. A2D Technologies, Inc.:   DIGITIZING COMPANY
~OTHER INFORMATION
~A   DEPT       GRR       SPR         HD       AT90       AT30       AT10   
# ...
 2370.0000   120.5758    -8.5861     8.3892     8.0785     7.4742     7.3181
 2370.5000   124.4033    -8.5859     8.3902     6.8451     6.5615     6.4837
 2371.0000   129.6531    -8.5858     8.3912     5.9891     5.6649     5.5095
 2371.5000   137.1369    -8.5867     8.3920     6.1287     5.6892     5.5790
 2372.0000   144.9925    -8.5851     8.3932     6.5106     5.7710     5.7177
 2372.5000   145.7893    -8.5887     8.3931     5.3121     4.7386     4.2488
 2373.0000   143.3351    -8.5617     8.3851     4.4510     3.7666     2.6478
 2373.5000   139.3144    -8.4996     8.3763     4.5344     4.5428     3.7805
 2374.0000   136.3692    -8.4420     8.3735    10.1894     7.3313     6.9475
 2374.5000   135.1175    -8.3819     8.3738    14.4591    11.8313    13.8007
 2375.0000   136.2772    -8.3233     8.3737    16.3083    15.8608    14.1901
 2375.5000   138.2012    -8.2639     8.3737    14.4268    13.3765    12.4939
 2376.0000   138.2910    -8.2049     8.3737    12.1370    11.0771    10.4413
 2376.5000   141.6570    -8.1457     8.3737    10.2106     9.1729     8.7259
 2377.0000   147.6712    -8.0865     8.3737     8.9243     8.4637     8.1338
 2377.5000   153.0408    -8.0283     8.3737     9.0914     8.5199     8.2096
 2378.0000   159.0458    -7.9695     8.3737     8.5888     7.6803     7.3245
 2378.5000   165.1721    -7.8588     8.3737     6.1581     6.5385     5.7657
 2379.0000   169.4131    -7.7587     8.3737     6.2155     5.7016     5.1155
 2379.5000   172.1810    -7.6564     8.3737     7.1154     6.6241     5.8486
 2380.0000   172.8286    -7.5559     8.3737     8.7603     8.0146     7.2771
 2380.5000   173.6790    -7.4540     8.3737     7.8523     7.4400     6.6866
 2381.0000   177.7679    -7.3597     8.3737     6.6035     6.1114     5.5118
 2381.5000   176.9875    -7.1844     8.3737     5.5533     5.0213     4.5434
 2382.0000   175.5952    -6.9806     8.3737     4.6782     4.1135     3.7452
 2382.5000   159.7320    -6.8947     8.3737     3.9371     3.3699     3.0872
 2383.0000   144.5465    -6.7944     8.3737     3.5853     3.5840     2.6478
 2383.5000   136.2717    -6.8344     8.3737     3.8596     3.8164     3.2309
 2384.0000   135.3954    -7.0435     8.3737     4.1824     4.0946     3.7319
 2384.5000   135.9391    -7.2432     8.3737     4.1557     4.0946     3.4814
 2385.0000   137.8179    -7.4400     8.3737     3.9151     3.7676     3.1890
 2385.5000   137.5363    -7.6628     8.3737     3.5696     3.4386     3.0149
 2386.0000   137.1695    -7.7874     8.3737     3.2542     3.1384     2.9316
 2386.5000   138.8504    -7.6837     8.3728     2.8254     2.7479     2.7947
 2387.0000   143.4966    -7.6032     8.3714     2.8517     2.8321     2.6974
 2387.5000   144.1029    -7.4894     8.3701     3.1986     3.1811     3.0344
 2388.0000   140.7318    -7.4282     8.3688     3.8729     3.7666     3.3887
 2388.5000   136.4346    -7.1679     8.3675     3.8636     3.7015     3.5628
 2389.0000   136.1727    -6.6330     8.3662     3.8372     3.5853     3.4330
 2389.5000   137.0304    -6.1809     8.3649     3.6731     3.4727     3.4013
 2390.0000   136.1286    -5.9253     8.3636     3.4187     3.3699     3.0480
 2390.5000   135.2585    -5.6597     8.3623     3.2472     3.3699     2.5991
 2391.0000   135.4663    -5.5845     8.3610     3.3388     3.3699     2.6355
 2391.5000   136.3564    -5.8197     8.3596     3.2744     3.3699     2.6974
 2392.0000   134.3382    -5.9361     8.3585     3.1875     3.3540     2.5645
 2392.5000   132.0336    -6.0950     8.3567     3.1875     3.3374     2.4357
 2393.0000   129.3655    -6.2349     8.3563     3.1875     3.3209     2.5256
 2393.5000  -999.2500    -6.3815     8.3531     3.1875     3.3045     2.6974
 2394.0000  -999.2500    -6.5305     8.3612     3.1642     3.2882     2.6679
 2394.5000  -999.2500    -6.6706     8.3766     3.1000     3.2686     2.5514
 2395.0000  -999.2500    -6.9373     8.3794     3.0903     3.2426     2.5757
 2395.5000  -999.2500    -7.0964     8.3853     3.0819     3.2169     2.6429
 2396.0000  -999.2500    -7.2080     8.3895     3.0735     3.1913     2.7225
 2396.5000  -999.2500    -7.3370     8.3947     3.0651     3.1660     2.7225
 2397.0000  -999.2500    -7.3788     8.3993     3.0567     3.1569     2.6478
 2397.5000  -999.2500    -7.3745     8.4053     3.0476     3.1578     2.5751
 2398.0000  -999.2500    -7.3760     8.4092     3.0424     3.1581     2.4584
 2398.5000  -999.2500    -7.3702     8.4177     3.0429     3.1567     2.4357
 2399.0000  -999.2500    -7.2922     8.4158     3.0426     3.1577     2.4813
 2399.5000  -999.2500    -7.2201     8.4333     3.0707     3.3374     2.4813
 2400.0000  -999.2500    -7.0729     8.4153     3.2612     3.4623     2.5278
 2400.5000  -999.2500    -6.8637     8.4653     3.5943     3.7983     2.6478
 2401.0000  -999.2500    -6.6451     8.1479     3.7291     4.0163     3.1875
 2401.5000  -999.2500    -6.5874     7.6589     3.7319     4.0193     3.8017
 2402.0000  -999.2500    -6.6673     7.2056     3.7319     3.8372     3.5959
 2402.5000  -999.2500    -6.7206     6.9549     3.4425     3.4973     3.2172
 2403.0000  -999.2500    -6.7866     6.9190     3.1836     3.2926     2.9051
 2403.5000  -999.2500    -6.8462     6.8597     2.9441     3.0714     2.7993
 2404.0000  -999.2500    -6.9095     6.8579     2.7735     2.9595     2.6974
 2404.5000  -999.2500    -6.9633     6.8563     2.6725     2.9871     2.5751
 2405.0000  -999.2500    -6.9110     6.8575     2.9244     3.1590     2.8783
 2405.5000  -999.2500    -6.8299     6.8579     3.1289     3.0404     2.6610
 2406.0000  -999.2500    -6.7547     6.8583     2.7543     2.6442     2.3563
 2406.5000  -999.2500    -6.6752     6.8585     2.4813     2.5488     2.1194
 2407.0000  -999.2500    -6.6030     6.8585     2.7378     2.7986     2.3851
 2407.5000  -999.2500    -6.5081     6.8586     2.9871     2.9608     2.7993
 2408.0000  -999.2500    -6.3914  -999.2500     2.9595     3.0172     2.7993
 2408.5000  -999.2500    -6.2868  -999.2500     2.8783     3.0455     2.7735
 2409.0000  -999.2500    -6.1644  -999.2500     2.8517     3.0738     2.8254
 2409.5000  -999.2500    -6.0519  -999.2500     2.8783     3.1310     2.9595
 2410.0000  -999.2500    -5.7999  -999.2500     2.9595     3.1265     3.1000
 2410.5000  -999.2500    -5.3632  -999.2500     3.0430     3.2827     3.1289
 2411.0000  -999.2500    -4.9162  -999.2500     3.2472     3.4491     3.2172
 2411.5000  -999.2500    -4.4864  -999.2500     3.3388     3.6244     3.2172
 2412.0000  -999.2500    -4.0066  -999.2500     3.5054     3.8089     3.2622
 2412.5000  -999.2500    -3.6126  -999.2500     3.7069     4.0161     3.4013
 2413.0000  -999.2500    -3.3617  -999.2500     4.0568     4.1327     3.6295
 2413.5000  -999.2500    -3.2707  -999.2500     4.1712     4.0568     3.9090
 2414.0000  -999.2500    -3.2269  -999.2500     3.9090     3.9090     3.4330
 2414.5000  -999.2500    -3.1661  -999.2500     3.6295     3.8017     2.7735
 2415.0000  -999.2500    -3.0901  -999.2500     3.7900     3.8017     2.7225
 2415.5000  -999.2500    -2.9679  -999.2500     4.0401     3.8017     2.7225
 2416.0000  -999.2500    -2.8394  -999.2500     4.3067     3.8017     2.8517
 2416.5000  -999.2500    -2.7158  -999.2500     4.5344     3.9090  -999.2500
 2417.0000  -999.2500    -2.5831  -999.2500  -999.2500     4.0568  -999.2500
 2417.5000  -999.2500    -2.4663  -999.2500  -999.2500  -999.2500  -999.2500
 2418.0000  -999.2500    -2.3228  -999.2500  -999.2500  -999.2500  -999.2500
 2418.5000  -999.2500    -2.2250  -999.2500  -999.2500  -999.2500  -999.2500
 2419.0000  -999.2500    -1.7917  -999.2500  -999.2500  -999.2500  -999.2500
 2419.5000  -999.2500    -1.3562  -999.2500  -999.2500  -999.2500  -999.2500
 2420.0000  -999.2500    -1.0662  -999.2500  -999.2500  -999.2500  -999.2500
 2420.5000  -999.2500    -0.6217  -999.2500  -999.2500  -999.2500  -999.2500
 2421.0000  -999.2500    -0.1308  -999.2500  -999.2500  -999.2500  -999.2500
 2421.5000  -999.2500     0.4390  -999.2500  -999.2500  -999.2500  -999.2500
