~VERSION INFORMATION
 VERS.                2.0:   CWLS LOG ASCII STANDARD - VERSION 2.0
 WRAP.                 NO:   ONE LINE PER DEPTH STEP
~WELL INFORMATION
#MNEM.UNIT      DATA TYPE    INFORMATION
#----------   ------------   ------------------------------
 STRT.F           84.0000:   START DEPTH
 STOP.F          849.5000:   STOP DEPTH
 STEP.F            0.5000:   STEP LENGTH
 NULL.          -999.2500:   NO VALUE
 COMP. U S NAVY/INTEX OIL CO:   COMPANY
 WELL.     NPR 3 #81-S-34:   WELL
 FLD .        TEAPOT DOME:   FIELD
 LOC .      S34 T39N R78W:   LOCATION
 CNTY.            NATRONA:   COUNTY
 STAT.            WYOMING:   STATE
 CTRY. UNITED STATES OF AMERICA:   COUNTRY
 SRVC.       Schlumberger:   SERVICE COMPANY
 DATE.        29-JUL-1963:   LOGDATE
 API .       490250656700:   API NUMBER
~CURVE INFORMATION
#MNEM.UNIT       API CODE    CURVE DESCRIPTION
#----------   ------------   ------------------------------
 DEPT.F                  :   
 CALS.IN     60 280 50 00:   CALIPER FROM SONIC LOG
 DT  .US/F   60 520 33 00:   INTERVAL TRANSIT TIME
 SPR .MV     05 010 01 00:   SPONTANEOUS POTENTIAL FROM RES.
 ILD .OHMM   05 120 46 00:   INDUCTION LOG DEEP
 ASN .OHMM   05 041 16 00:   AMPLIFIED SHORT NORMAL 16"
 CILD.MMHO   05 110 46 00:   CONDUCTIVITY INDUCTION LOG DEEP
 GR  .GAPI   30 310 01 00:   GAMMA RAY FROM RES.
~PARAMETER INFORMATION
#MNEM.UNIT          VALUE    DESCRIPTION
#----------   ------------   ------------------------------
 PD  .                 GL:   PERMANENT DATUM
 EPD .F              5067:   ELEVATION PERMANENT DATUM
 LMF .                 KB:   LOG MEASURED FROM
 DAPD.F                 5:   FEET ABOVE PERMANENT DATUM
 DMF .                 KB:   DRILLING MEASURED FROM
 EKB .F              5072:   KELLING BUSHING
 EGL .F              5067:   GROUND LEVEL
 DATE.          7-29-1963:   RUN DATE
 RUN .                  1:   RUN NUMBER
 DD  .F               850:   DEPTH DRILLER
 DL  .F               850:   DEPTH LOGGER
 BLI .F               849:   BOTTOM LOG INTERVAL
 TLI .F                90:   TOP LOG INTERVAL
 CS  .IN            8.625:   CASING SIZE
 CBD .F                10:   CASING BOTTOM DRILLER
 BS  .IN            7.875:   BIT SIZE
 BSD .F               850:   BIT SIZE AT DEPTH
 DFT .            GEL-OIL:   DRILLING FLUID TYPE
 DFD .                9.4:   DRILLING FLUID DENSITY
 DFV .                 40:   DRILLING FLUID VISCOSITY
 DFPH.                  9:   DRILLING FLUID PH
 DFL .                8.4:   DRILLING FLUID LOSS
 MSS .           FLOWLINE:   MUD SAMPLE SOURCE
 RMS .OHMM           3.08:   RESISTIVITY MUD SAMPLE
 MST .F                79:   MUD SAMPLE TEMPERATURE
 RMF .OHMM           2.39:   RESISTIVITY MUD FILTRATE SAMPLE
 MFST.F                79:   MUD FILTRATE SAMPLE TEMPERATURE
 RMC .OHMM           3.29:   RESISTIVITY MUD CAKE
 MCST.F                79:   MUD CAKE SAMPLE TEMPERATURE
 MFSS.                 MP:   MUD FILTRATE SAMPLE SOURCE
 MCSS.                 MP:   MUD CAKE SAMPLE SOURCE
 TCS .HRS               1:   TIME CURCULATED STOPPED
 LUN .               4507:   LOGGING UNIT NUMBER
 LUL .              CSPR.:   LOGGING UNIT LOCATION
 ENGI.             KNOBEL:   RECORDING ENGINEER
 WITN.          JORGENSON:   WITNESSED BY
 CLNT.            A2DTECH:   CLIENT CODE
 ORIG.           5" PRINT:   ORIGIN OF DATA
 UWI .       490250656700:   UNIQUE WELL ID
 DICO. A2D Technologies, Inc.:   DIGITIZING COMPANY
~OTHER INFORMATION
~A   DEPT     CALS         DT        SPR        ILD        ASN       CILD         GR   
# ...
  402.5000     7.8204   101.1064   -35.5952     6.8829     7.8266   150.0856  -999.2500
  403.0000     7.8125   100.2400   -35.5947     6.9597     7.9496   148.0125  -999.2500
  403.5000     7.8047    99.5566   -35.5948     7.0365     8.0716   148.0125  -999.2500
  404.0000     7.7977    99.1534   -35.5939     7.1115     8.1934   148.0125  -999.2500
  404.5000     7.8038    98.7550   -35.5976     7.1250     8.2904   148.0125  -999.2500
  405.0000     7.8161    99.0040   -35.8324     6.9870     8.2057   148.9191  -999.2500
  405.5000     7.8282    99.5020   -36.0698     6.8519     8.0290   150.6660  -999.2500
  406.0000     7.8352   100.0498   -36.2278     6.7166     7.8518   154.5165  -999.2500
  406.5000     7.8278   101.0359   -36.0953     6.5810     7.6686   159.5188  -999.2500
  407.0000     7.8208   102.2410   -35.9205     6.4459     7.5591   161.1591  -999.2500
  407.5000     7.8138   102.9651   -35.7462     6.3214     7.4670   162.8871  -999.2500
  408.0000     7.8067   103.7695   -35.5923     6.2951     7.3752   164.6271  -999.2500
  408.5000     7.7996   104.3327   -35.4976     6.2664     7.3151   166.3773  -999.2500
  409.0000     7.8015   104.1086   -35.3843     6.2373     7.2934   167.2687  -999.2500
  409.5000     7.8158   104.1192   -35.4558     6.2082     7.3030   167.8510  -999.2500
  410.0000     7.8298   104.4323   -35.5316     6.1790     7.3121   168.4333  -999.2500
  410.5000     7.8322   104.2995   -35.5946     6.1489     7.3212   169.0156  -999.2500
  411.0000     7.8229   103.5248   -35.4615     6.1273     7.3309   169.5979  -999.2500
  411.5000     7.8135   103.2008   -35.3181     6.0017     7.3197   170.7331  -999.2500
  412.0000     7.8042   103.7441   -35.1757     5.9920     7.2978   172.9167  -999.2500
  412.5000     7.7976   104.2331   -35.0318     5.9738     7.2384   175.2092  -999.2500
  413.0000     7.8034   104.6842   -35.0209     5.9558     7.1685   175.2092  -999.2500
  413.5000     7.8258   105.0943   -35.1118     5.9404     7.0986   174.5149  -999.2500
  414.0000     7.8244   105.5044   -35.2039     5.9278     7.0377   172.5497  -999.2500
  414.5000     7.8000   105.3225   -35.2964     6.1426     7.0393   170.5845  -999.2500
  415.0000     7.7783   104.6377   -35.3887     6.1986     7.0669   168.6192  -999.2500
  415.5000     7.7879   103.9529   -35.4811     6.2601     7.2503   166.6540  -999.2500
  416.0000     7.8077   103.2682   -35.5759     6.3285     7.4329   163.8284  -999.2500
  416.5000     7.8265   102.5834   -35.5949     6.4486     7.6139   160.3371  -999.2500
  417.0000     7.8141   101.8987   -35.5953     6.5736     7.7671   156.8417  -999.2500
  417.5000     7.7276   101.0458   -35.5951     6.6965     7.8647   153.3452  -999.2500
  418.0000     7.6439   101.5936   -35.5944     6.8205     7.9633   149.8454  -999.2500
  418.5000     7.6397   101.5438   -35.5561     6.9560     8.0663   146.3695  -999.2500
  419.0000     7.7157   100.9462   -35.4484     7.0669     8.2578   144.4685  -999.2500
  419.5000     7.7940    98.9604   -35.3417     7.0536     8.4342   143.8309  -999.2500
  420.0000     7.7837    97.8088   -35.2350     7.0262     8.4320   145.2165  -999.2500
  420.5000     7.7668    98.3217   -35.1282     7.0016     8.2018   146.6521  -999.2500
  421.0000     7.7583    99.2679   -35.0215     6.9764     8.0575   148.5611  -999.2500
  421.5000     7.7582    98.8541   -34.9148     6.9334     8.2465   150.5991  -999.2500
  422.0000     7.7587   100.1489   -34.8081     6.8010     8.1565   152.6371  -999.2500
  422.5000     7.7760   102.0017   -34.7014     6.6698     7.9894   155.1720  -999.2500
  423.0000     7.8451   102.6535   -34.5942     6.5385     7.8122   159.8303  -999.2500
  423.5000     7.9107   102.1912   -34.4945     6.4069     7.6340   163.5728  -999.2500
  424.0000     7.6989   101.9671   -34.4034     6.2825     7.4825   165.9019  -999.2500
  424.5000     7.6856   102.7141   -34.5183     6.1125     7.4650   166.5282  -999.2500
  425.0000     7.7065   103.1284   -34.9604     6.1232     7.4826   166.0042  -999.2500
  425.5000     7.7271   103.4000   -35.1201     6.2234     7.4981   165.0078  -999.2500
  426.0000     7.7481   103.6355   -35.2683     6.3285     7.4545   161.9106  -999.2500
  426.5000     7.7649   103.0677   -35.3925     6.4344     7.4368   158.3732  -999.2500
  427.0000     7.7903   102.4369   -35.2564     6.5714     7.5047   154.8358  -999.2500
  427.5000     7.8149   101.7430   -35.0962     6.7091     7.6687   151.2984  -999.2500
  428.0000     7.8394   101.1081   -34.9643     6.8492     7.8777   147.7610  -999.2500
  428.5000     7.8640   100.4026   -35.0609     7.0452     8.0820   144.2211  -999.2500
  429.0000     7.8759    99.3526   -35.2172     7.3035     8.2853   140.6862  -999.2500
  429.5000     7.8498    98.5522   -35.4118     7.5445     8.4882   137.1488  -999.2500
  430.0000     7.8203    97.6629   -35.5872     7.5844     8.6386   136.8201  -999.2500
  430.5000     7.7905    96.8625   -35.3806     7.5887     8.7548   137.5523  -999.2500
  431.0000     7.7592    97.0866   -34.9983     7.4163     8.7782   140.4736  -999.2500
  431.5000     7.7746    97.3357   -34.7740     7.2128     8.7473   143.3321  -999.2500
  432.0000     7.7983    97.5598   -34.5539     7.0086     8.5582   148.5058  -999.2500
  432.5000     7.8220    98.7284   -34.3509     6.8047     8.3120   154.1379  -999.2500
  433.0000     7.8456    99.7985   -34.4414     6.6008     8.0697   159.2241  -999.2500
  433.5000     7.8701   100.7547   -34.5411     6.3972     7.8322   162.4445  -999.2500
  434.0000     7.8753   101.8485   -34.6395     6.1911     7.6506   165.6695  -999.2500
  434.5000     7.8569   102.7428   -34.7376     6.1391     7.4961   167.3971  -999.2500
  435.0000     7.8388   102.5416   -34.8351     6.1665     7.4091   167.6313  -999.2500
  435.5000     7.8209   103.1562   -34.9363     6.1960     7.4073   167.0491  -999.2500
  436.0000     7.8023   103.2093   -34.8560     6.2256     7.4365   164.9163  -999.2500
  436.5000     7.8042   102.7602   -34.8080     6.3393     7.4856   161.7992  -999.2500
  437.0000     7.8132   102.2311   -34.9197     6.5615     7.6295   158.4728  -999.2500
  437.5000     7.8225   101.5339   -35.0290     6.6468     7.8375   155.1778  -999.2500
  438.0000     7.8317   100.3175   -35.1391     6.7328     8.0417   152.0335  -999.2500
  438.5000     7.8410    97.8897   -35.1064     6.8156     8.2456   149.0586  -999.2500
  439.0000     7.8501    96.9622   -34.9495     6.8961     8.2826   147.0502  -999.2500
  439.5000     7.8573    97.5598   -34.7926     6.9674     8.2920   145.1445  -999.2500
  440.0000     7.8188    97.1613   -34.6326     7.0126     8.3081   144.8745  -999.2500
  440.5000     7.7565    98.0578   -34.3917     7.0575     8.3276   144.8745  -999.2500
  441.0000     7.7501    99.7465   -34.1273     7.1024     8.3475   144.8745  -999.2500
  441.5000     7.7760   100.8783   -34.1330     7.1473     8.3795   144.8745  -999.2500
  442.0000     7.7167   101.4442   -34.1324     7.1922     8.4255   144.2218  -999.2500
  442.5000     7.6603   100.6474   -34.1404     7.2371     8.5128   142.8243  -999.2500
  443.0000     7.6197   101.2372   -34.2868     7.2800     8.6166   141.4221  -999.2500
  443.5000     7.6211   100.7760   -34.4321     7.3211     8.6306   140.6804  -999.2500
  444.0000     7.6649   101.0281   -34.5766     7.3626     8.5904   140.6975  -999.2500
  444.5000     7.7143    99.1513   -34.7214     7.3364     8.5628   142.3486  -999.2500
  445.0000     7.7679    98.8546   -34.8643     7.2821     8.6179   143.8900  -999.2500
  445.5000     7.7744    99.1741   -34.9393     7.2270     8.6678   145.4313  -999.2500
  446.0000     7.7694    99.6306   -34.8014     7.1741     8.5716   146.7723  -999.2500
  446.5000     7.7639   100.0996   -34.6710     7.0835     8.4293   148.0200  -999.2500
  447.0000     7.7587   100.7657   -34.5454     6.9912     8.2839   149.2678  -999.2500
  447.5000     7.7746   101.8240   -34.4091     6.8986     8.1485   150.5155  -999.2500
