~VERSION INFORMATION
 VERS.                2.0:   CWLS LOG ASCII STANDARD - VERSION 2.0
 WRAP.                 NO:   ONE LINE PER DEPTH STEP
~WELL INFORMATION
#MNEM.UNIT      DATA TYPE    INFORMATION
#----------   ------------   ------------------------------
 STRT.F           34.0000:   START DEPTH
 STOP.F          662.0000:   STOP DEPTH
 STEP.F            0.5000:   STEP LENGTH
 NULL.          -999.2500:   NO VALUE
 COMP. FENIX & SCISSON INC:   COMPANY
 WELL.     55 S 34 #34-34:   WELL
 FLD .          N.P.R. #3:   FIELD
 LOC .      S34 T39N R78W:   LOCATION
 CNTY.            NATRONA:   COUNTY
 STAT.            WYOMING:   STATE
 CTRY. UNITED STATES OF AMERICA:   COUNTRY
 SRVC.       Schlumberger:   SERVICE COMPANY
 DATE.        15-MAR-1977:   LOGDATE
 API .       490251030500:   API NUMBER
~CURVE INFORMATION
#MNEM.UNIT       API CODE    CURVE DESCRIPTION
#----------   ------------   ------------------------------
 DEPT.F                  :   
 GRD .GAPI   45 310 01 00:   GAMMA RAY FROM DENSITY LOG
 CORR.G/C3   45 356 01 00:   DENSITY CORRECTION
 RHOB.G/C3   45 350 01 00:   BULK DENSITY
 DPOR.DEC    45 890 12 00:   DENSITY POROSITY SANDSTONE
 SPR .MV     07 010 01 00:   SPONTANEOUS POTENTIAL
 LL8 .OHMM   07 220 08 00:   LATEROLOG-8 RES.
 ILD .OHMM   07 120 46 00:   INDUCTION LOG DEEP
 ILM .OHMM   07 120 44 00:   INDUCTION LOG MEDIUM
 CALD.IN     45 280 60 00:   CALIPER
~PARAMETER INFORMATION
#MNEM.UNIT          VALUE    DESCRIPTION
#----------   ------------   ------------------------------
 PD  .                 GL:   PERMANENT DATUM
 EPD .F              5087:   ELEVATION PERMANENT DATUM
 LMF .                 GL:   LOG MEASURED FROM
 DMF .                 GL:   DRILLING MEASURED FROM
 EKB .F              5091:   KELLING BUSHING
 EGL .F              5087:   GROUND LEVEL
 DATE.            3-15-77:   RUN DATE
 RUN .                  1:   RUN NUMBER
 DD  .F               670:   DEPTH DRILLER
 DL  .F               663:   DEPTH LOGGER
 BLI .F               657:   BOTTOM LOG INTERVAL
 TLI .F                40:   TOP LOG INTERVAL
 CS  .IN            8.625:   CASING SIZE
 CBD .F                40:   CASING BOTTOM DRILLER
 CBL .F                40:   CASING BOTTOM LOGGER
 BS  .IN            7.875:   BIT SIZE
 BSD .F               670:   BIT SIZE AT DEPTH
 DFT .                KCL:   DRILLING FLUID TYPE
 DFD .                8.6:   DRILLING FLUID DENSITY
 DFV .                 31:   DRILLING FLUID VISCOSITY
 DFPH.                  8:   DRILLING FLUID PH
 DFL .                8.8:   DRILLING FLUID LOSS
 MSS .                PIT:   MUD SAMPLE SOURCE
 RMS .OHMM           .246:   RESISTIVITY MUD SAMPLE
 MST .F                76:   MUD SAMPLE TEMPERATURE
 RMF .OHMM           .243:   RESISTIVITY MUD FILTRATE SAMPLE
 MFST.F                76:   MUD FILTRATE SAMPLE TEMPERATURE
 MFSS.                  M:   MUD FILTRATE SAMPLE SOURCE
 RMB .OHMM           .267:   RESISTIVITY MUD AT BHT
 BHT .F                70:   BOTTOM HOLE TEMPERATURE
 TCS .HRS            1800:   TIME CURCULATED STOPPED
 TLAB.HRS            2200:   TIME LOGGER AT BOTTOM
 MRT .F                70:   MAXIMUM RECORDED TEMPERATURE
 LUN .               5642:   LOGGING UNIT NUMBER
 LUL .               CSPR:   LOGGING UNIT LOCATION
 ENGI.             MARTIN:   RECORDING ENGINEER
 WITN.              BURKE:   WITNESSED BY
 CLNT.            A2DTECH:   CLIENT CODE
 ORIG. 2", 2.5", 5" PRINT:   ORIGIN OF DATA
 UWI .       490251030500:   UNIQUE WELL ID
 DICO. A2D Technologies, Inc.:   DIGITIZING COMPANY
~OTHER INFORMATION
~A   DEPT       GRD      CORR       RHOB       DPOR        SPR        LL8        ILD        ILM       CALD   
# ...
  399.0000   118.1652     0.0204     2.4260     0.1326   -58.1022     6.7961     4.4075     4.6627     8.5007
  399.5000   114.9180     0.0346     2.4455     0.1192   -57.9117     5.8844     4.3261     4.5281     8.5086
  400.0000   112.7118     0.0419     2.4659     0.1047   -57.5862     4.8321     4.4024     4.6266     8.5165
  400.5000   118.2422     0.0213     2.4668     0.0974   -57.2423     5.7629     4.5207     4.7874     8.5244
  401.0000   124.4022     0.0355     2.4602     0.1042   -56.8495     7.1825     4.7865     5.0679     8.5326
  401.5000   128.9340     0.0208     2.4538     0.1140   -56.4485     6.8344     5.0679     5.3663     8.5348
  402.0000   127.6252     0.0082     2.4494     0.1150   -56.0478     6.4304     5.3659     5.6818     8.5371
  402.5000   127.1514     0.0060     2.4686     0.1059   -55.6472     7.0099     5.6814     6.0159     8.5393
  403.0000   126.1453     0.0036     2.4732     0.1023   -55.2455     7.9293     6.0155     6.3696     8.5414
  403.5000   122.5218     0.0020     2.4671     0.1103   -54.8433     8.3799     6.3692     6.7441     8.5436
  404.0000   118.9987     0.0087     2.4618     0.1087   -54.4921     9.0440     6.6391     7.0005     8.5457
  404.5000   116.2997     0.0147     2.4728     0.1039   -54.6699     8.9610     6.8798     7.2538     8.5479
  405.0000   116.3619     0.0103     2.4792     0.1018   -54.8532     9.1092     7.1301     7.5143     8.5500
  405.5000   117.7601     0.0158     2.4736     0.1014   -55.0338     9.1960     7.3804     7.7375     8.5522
  406.0000   119.6703     0.0214     2.4848     0.0963   -54.9581     9.2122     7.4523     7.8038     8.5543
  406.5000   121.6085     0.0238     2.4942     0.0917   -54.6390     9.0658     7.4359     7.7735     8.5560
  407.0000   121.9839     0.0183     2.4810     0.0974   -54.3124     8.9302     7.3721     7.7069     8.5576
  407.5000   121.9701     0.0125     2.4526     0.1086   -54.4111     8.7966     7.3162     7.6353     8.5591
  408.0000   124.2341    -0.0041     2.4268     0.1207   -54.5691     8.6650     7.1221     7.4159     8.5607
  408.5000   126.4434    -0.0096     2.4268     0.1319   -54.7257     8.5574     6.9174     7.2028     8.5622
  409.0000   127.3543     0.0063     2.4421     0.1222   -54.8819     8.4225     6.7187     6.9958     8.5638
  409.5000   125.3412     0.0163     2.4531     0.1118   -55.0382     8.2532     6.5256     6.7948     8.5653
  410.0000   121.7315     0.0112     2.4420     0.1143   -55.1926     8.0873     6.3381     6.6719     8.5669
  410.5000   120.9099     0.0041     2.4470     0.1154   -55.3280     7.9265     6.0864     6.4113     8.5685
  411.0000   121.5618     0.0121     2.4573     0.1119   -55.4131     7.5660     5.8366     6.1293     8.5700
  411.5000   121.6973     0.0393     2.4621     0.1094   -55.4995     6.7302     5.5957     5.8559     8.5716
  412.0000   119.8177     0.0294     2.4543     0.1058   -55.5847     6.7368     5.3648     5.5943     8.5731
  412.5000   118.7613     0.0102     2.4321     0.1233   -55.6731     6.7337     5.1418     5.3465     8.5747
  413.0000   121.0997     0.0185     2.4147     0.1439   -55.5848     5.6925     5.0112     5.2477     8.5763
  413.5000   122.5323     0.0256     2.4149     0.1399   -55.4156     4.7004     5.0570     5.3077     8.5778
  414.0000   121.2300     0.0104     2.4381     0.1203   -55.2436     5.4347     5.1740     5.4741     8.5794
  414.5000   119.4270     0.0131     2.4699     0.1016   -55.0724     6.6667     5.4375     5.7472     8.5809
  415.0000   117.1333     0.0240     2.5000     0.0930   -54.8967     8.1780     5.7105     6.0372     8.5825
  415.5000   117.2978     0.0399     2.5043     0.0750   -54.6065     9.0440     5.9977     6.3408     8.5841
  416.0000   119.0491     0.0517     2.4909     0.0830   -54.3115     9.0440     6.2993     6.6597     8.5856
  416.5000   121.9396     0.0198     2.4872     0.0971   -54.0171     8.9481     6.6161     6.9866     8.5872
  417.0000   125.5080     0.0274     2.4936     0.0942   -53.7228     8.7178     6.8056     7.1656     8.5887
  417.5000   127.3763     0.0363     2.4908     0.0906   -53.4281     8.4768     6.9792     7.3433     8.5903
  418.0000   126.1756     0.0236     2.4885     0.0970   -53.1339     8.6189     7.1542     7.5283     8.5919
  418.5000   124.8403     0.0199     2.4932     0.0918   -52.8759     8.9084     7.3338     7.7160     8.5934
  419.0000   125.2702     0.0189     2.4978     0.0874   -52.7798     9.2106     7.4523     7.8030     8.5946
  419.5000   125.8452     0.0241     2.5024     0.0926   -52.6803     9.5201     7.4613     7.8152     8.5952
  420.0000   126.4665     0.0301     2.5070     0.0838   -52.5806     9.6489     7.4707     7.8249     8.5958
  420.5000   124.7832     0.0260     2.5114     0.0866   -52.4804     9.6480     7.4799     7.8346     8.5963
  421.0000   124.6097     0.0201     2.5083     0.0775   -52.3807     9.5973     7.4893     7.8444     8.5969
  421.5000   127.1718     0.0107     2.5003     0.0947   -52.3187     9.5669     7.4986     7.8542     8.5975
  422.0000   128.1811     0.0097     2.4926     0.0884   -52.4475     9.5368     7.5079     7.8640     8.5981
  422.5000   129.5081     0.0108     2.4935     0.0906   -52.5727     9.5067     7.5172     7.8740     8.5986
  423.0000   129.7496     0.0119     2.4918     0.0948   -52.6976     9.4767     7.5217     7.8758     8.5992
  423.5000   127.8009     0.0131     2.4857     0.0995   -52.8225     9.4705     7.5057     7.8571     8.5998
  424.0000   125.0386     0.0096     2.4830     0.0950   -52.9474     9.3865     7.4926     7.8433     8.6004
  424.5000   122.0257     0.0054     2.4801     0.1017   -53.0764     9.3045     7.4794     7.8295     8.6009
  425.0000   123.2206     0.0021     2.4738     0.1049   -53.0582     9.2233     7.4663     7.8158     8.6015
  425.5000   124.7810     0.0069     2.4718     0.1039   -53.0041     9.1427     7.4532     7.8021     8.6021
  426.0000   125.3620     0.0103     2.4725     0.1032   -52.9498     9.0628     7.4402     7.7884     8.6026
  426.5000   121.3135     0.0057     2.4732     0.1042   -52.8971     9.0440     7.4271     7.7748     8.6032
  427.0000   123.4950     0.0030     2.4744     0.1036   -52.8257     9.0863     7.4142     7.7612     8.6038
  427.5000   127.9894     0.0097     2.4691     0.1066   -52.7566     9.1294     7.4014     7.7476     8.6044
  428.0000   132.6761     0.0080     2.4636     0.1086   -52.6880     9.1728     7.3826     7.7340     8.6049
  428.5000   133.6648     0.0031     2.4670     0.1077   -52.6193     9.2163     7.3865     7.6173     8.6055
  429.0000   133.0856    -0.0010     2.4788     0.1079   -52.5507     9.2601     7.0946     7.3845     8.6061
  429.5000   132.6142     0.0064     2.4877     0.1105   -52.4820     9.2976     6.8777     7.1588     8.6067
  430.0000   133.3326     0.0188     2.4606     0.1131   -52.4133     8.8461     6.6675     6.9399     8.6072
  430.5000   131.8857     0.0223     2.4371     0.1171   -52.3447     6.6572     6.4634     6.7278     8.6078
  431.0000   130.4338     0.0041     2.4226     0.1235   -52.2757     5.9733     6.2660     6.5222     8.6084
  431.5000   129.5996    -0.0053     2.4392     0.1200   -52.2065     7.2641     6.1796     6.4111     8.6089
  432.0000   127.9967     0.0007     2.4497     0.1164   -52.1417     8.0969     6.1102     6.2551     8.6095
  432.5000   126.6826     0.0080     2.4518     0.1130   -52.2689     7.9092     6.0419     6.3454     8.6101
  433.0000   124.2383     0.0033     2.4545     0.1158   -52.6595     7.7322     5.9741     6.4294     8.6107
  433.5000   122.8122     0.0157     2.4559     0.1126   -53.0478     7.7322     5.8793     6.5501     8.6112
  434.0000   125.6396     0.0083     2.4400     0.1218   -53.4373     8.0934     5.6558     6.2573     8.6118
  434.5000   128.4402    -0.0004     2.4200     0.1379   -53.8264     8.3405     5.4473     5.7887     8.6124
  435.0000   129.5365     0.0191     2.3965     0.1542   -54.2156     8.4275     5.0683     5.3552     8.6130
