~VERSION INFORMATION
 VERS.                2.0:   CWLS LOG ASCII STANDARD - VERSION 2.0
 WRAP.                 NO:   ONE LINE PER DEPTH STEP
~WELL INFORMATION
#MNEM.UNIT      DATA TYPE    INFORMATION
#----------   ------------   ------------------------------
 STRT.F           11.5000:   START DEPTH
 STOP.F          697.0000:   STOP DEPTH
 STEP.F            0.5000:   STEP LENGTH
 NULL.          -999.2500:   NO VALUE
 COMP. FENIX & SCISSON INC:   COMPANY
 WELL.    NPR3 SX-2 #12-2:   WELL
 FLD .             TEAPOT:   FIELD
 LOC .       S2 T38N R78W:   LOCATION
 CNTY.            NATRONA:   COUNTY
 STAT.            WYOMING:   STATE
 CTRY. UNITED STATES OF AMERICA:   COUNTRY
 SRVC.           BIRDWELL:   SERVICE COMPANY
 DATE.        13-JAN-1978:   LOGDATE
 API .       490251055000:   API NUMBER
~CURVE INFORMATION
#MNEM.UNIT       API CODE    CURVE DESCRIPTION
#----------   ------------   ------------------------------
 DEPT.F                  :   
 CALD.IN     45 280 60 00:   CALIPER FROM DENSITY LOG
 CORR.G/C3   45 356 01 00:   DENSITY CORRECTION
 RHOB.G/C3   45 350 01 00:   BULK DENSITY
 GRD .GAPI   45 310 01 00:   GAMMA RAY FROM DENSITY LOG
 DPHI.DEC    45 890 12 00:   DENSITY POROSITY SANDSTONE
 ILD .OHMM   05 120 46 00:   INDUCTION LOG DEEP
 SN  .OHMM   05 040 16 00:   SHORT NORMAL 16"
 SPR .MV     05 010 01 00:   SPONTANEOUS POTENTIAL FROM RES.
~PARAMETER INFORMATION
#MNEM.UNIT          VALUE    DESCRIPTION
#----------   ------------   ------------------------------
 PD  .                 GL:   PERMANENT DATUM
 EPD .F              5094:   ELEVATION PERMANENT DATUM
 LMF .                 KB:   LOG MEASURED FROM
 DAPD.F                 4:   FEET ABOVE PERMANENT DATUM
 DMF .                 KB:   DRILLING MEASURED FROM
 EKB .F              5098:   KELLING BUSHING
 EGL .F              5094:   GROUND LEVEL
 DATE.        13-JAN-1978:   RUN DATE
 RUN .                  1:   RUN NUMBER
 DD  .F               695:   DEPTH DRILLER
 DL  .F               697:   DEPTH LOGGER
 BLI .F               692:   BOTTOM LOG INTERVAL
 TLI .F                30:   TOP LOG INTERVAL
 CS  .IN            8.625:   CASING SIZE
 CBD .F                35:   CASING BOTTOM DRILLER
 CBL .F                35:   CASING BOTTOM LOGGER
 BS  .IN            7.875:   BIT SIZE
 BSD .F               695:   BIT SIZE AT DEPTH
 DFT .                KCL:   DRILLING FLUID TYPE
 DFD .                8.6:   DRILLING FLUID DENSITY
 DFV .                 32:   DRILLING FLUID VISCOSITY
 DFPH.                9.5:   DRILLING FLUID PH
 DFL .                 12:   DRILLING FLUID LOSS
 MSS .           FLOWLINE:   MUD SAMPLE SOURCE
 RMS .OHMM            0.3:   RESISTIVITY MUD SAMPLE
 MST .F                59:   MUD SAMPLE TEMPERATURE
 RMF .OHMM           0.24:   RESISTIVITY MUD FILTRATE SAMPLE
 MFST.F                70:   MUD FILTRATE SAMPLE TEMPERATURE
 RMC .OHMM           0.56:   RESISTIVITY MUD CAKE
 MCST.F                63:   MUD CAKE SAMPLE TEMPERATURE
 MFSS.               MEAS:   MUD FILTRATE SAMPLE SOURCE
 MCSS.               MEAS:   MUD CAKE SAMPLE SOURCE
 RMB .OHMM           0.26:   RESISTIVITY MUD AT BHT
 BHT .F                72:   BOTTOM HOLE TEMPERATURE
 TCS .HRS               2:   TIME CURCULATED STOPPED
 MRT .F                72:   MAXIMUM RECORDED TEMPERATURE
 LUN .               2958:   LOGGING UNIT NUMBER
 LUL .             CASPER:   LOGGING UNIT LOCATION
 ENGI.           MARTINEZ:   RECORDING ENGINEER
 WITN.       MR. MCGINLEY:   WITNESSED BY
 CLNT.            A2DTECH:   CLIENT CODE
 ORIG.           5" PRINT:   ORIGIN OF DATA
 UWI .       490251055000:   UNIQUE WELL ID
 DICO. A2D Technologies, Inc.:   DIGITIZING COMPANY
~OTHER INFORMATION
~A   DEPT     CALD       CORR       RHOB         GRD      DPHI        ILD         SN        SPR   
# ...
  497.5000     8.5669     0.1986     2.4483    75.5033     0.1161    22.5181    17.6621   -12.6888
  498.0000     8.5814     0.1441     2.3973    76.4086     0.1542    22.3583    17.5390   -12.6888
  498.5000     8.5807     0.0886     2.3673    76.4129     0.1656    22.1996    17.4168   -12.6888
  499.0000     8.5651     0.0571     2.3772    76.1031     0.1674    22.0421    17.4156   -12.8661
  499.5000     8.5796     0.0586     2.3801    74.7711     0.1617    22.0367    17.4144   -13.1420
  500.0000     8.5939     0.0601     2.3730    74.4741     0.1605    21.8869    17.4132   -13.1449
  500.5000     8.5933     0.0450     2.3685    75.8309     0.1689    21.9002    17.4120   -13.1499
  501.0000     8.6079     0.0330     2.3641    76.5850     0.1727    21.9135    17.3908   -13.1549
  501.5000     8.6372     0.0315     2.3763    73.7407     0.1730    21.9268    17.3515   -13.1607
  502.0000     8.6316     0.0390     2.3823    70.7453     0.1724    21.9400    17.3122   -13.3177
  502.5000     8.6236     0.0438     2.3815    71.3518     0.1709    21.9533    17.2729   -13.6257
  503.0000     8.6156     0.0450     2.3755    72.2586     0.1697    21.9679    17.2413   -13.9337
  503.5000     8.6076     0.0405     2.3718    71.5137     0.1684    21.9576    17.1142   -14.2417
  504.0000     8.5996     0.0390     2.3748    68.0661     0.1668    21.7959    17.1061   -14.5498
  504.5000     8.5916     0.0390     2.3642    67.7717     0.1651    21.6355    17.0980   -14.7069
  505.0000     8.5879     0.0435     2.3590    69.9700     0.1634    21.4763    16.9719   -14.8651
  505.5000     8.5873     0.0465     2.3762    72.1379     0.1619    21.1619    16.8468   -15.0221
  506.0000     8.5868     0.0480     2.3740    71.8435     0.1601    20.8473    16.7226   -15.1791
  506.5000     8.5861     0.0480     2.3837    74.1031     0.1589    20.4301    16.7147   -15.1850
  507.0000     8.5705     0.0514     2.3852    74.4078     0.1592    20.2798    16.5915   -15.3419
  507.5000     8.5699     0.0549     2.3829    70.5113     0.1613    20.2702    16.5835   -15.4989
  508.0000     8.5543     0.0578     2.3822    69.0142     0.1588    20.1210    16.5572   -15.8069
  508.5000     8.5537     0.0578     2.3882    71.8744     0.1556    20.1115    16.4517   -15.8128
  509.0000     8.5531     0.0579     2.3904    73.5320     0.1580    20.1020    16.4439   -15.9698
  509.5000     8.5525     0.0549     2.3844    73.6880     0.1607    20.0925    16.4361   -15.9758
  510.0000     8.5518     0.0474     2.3822    73.8440     0.1547    19.9446    16.4283   -15.9831
  510.5000     8.5662     0.0476     2.3881    73.8499     0.1553    19.7977    16.3072   -15.9890
  511.0000     8.5656     0.0523     2.3898    75.2162     0.1580    19.6518    16.2995   -15.8429
  511.5000     8.5650     0.0551     2.3866    76.1140     0.1595    19.5051    16.2917   -15.6987
  512.0000     8.5644     0.0566     2.3836    74.5405     0.1601    19.3631    16.2840   -15.5520
  512.5000     8.5488     0.0597     2.3821    73.2729     0.1598    19.2191    16.1640   -15.2573
  513.0000     8.5482     0.0627     2.3979    75.6827     0.1574    19.2100    16.1562   -14.9611
  513.5000     8.5628     0.0643     2.4129    78.9904     0.1529    19.2009    16.1468   -14.9670
  514.0000     8.5621     0.0658     2.4060    75.2440     0.1481    19.3273    16.1391   -15.2750
  514.5000     8.5615     0.0614     2.3983    74.1974     0.1418    19.3159    16.0202   -15.5831
  515.0000     8.5609     0.0539     2.3948    74.6552     0.1385    19.1737    16.0126   -15.8912
  515.5000     8.5603     0.0464     2.4098    74.8098     0.1379    19.0326    16.0050   -16.2005
  516.0000     8.5597     0.0450     2.4233    73.9162     0.1349    18.7621    15.9974   -16.6596
  516.5000     8.5590     0.0497     2.4353    73.4717     0.1310    18.4937    15.9898   -16.8166
  517.0000     8.5585     0.0576     2.4413    72.7268     0.1277    18.2311    15.9826   -17.1246
  517.5000     8.5578     0.0707     2.4548    71.2214     0.1238    18.2225    15.9747   -17.5837
  518.0000     8.5572     0.0797     2.4690    68.0938     0.1185    18.4675    15.9671   -18.0427
  518.5000     8.5567     0.0858     2.4810    62.8317     0.1111    19.2407    16.1821   -18.3508
  519.0000     8.5560     0.0933     2.5110    61.7894     0.1024    20.1854    16.5121   -18.6588
  519.5000     8.5555     0.1009     2.5402    64.7998     0.0784    21.0305    16.8507   -18.8158
  520.0000     8.5549     0.1144     2.5522    67.3582     0.0651    21.7600    17.1963   -18.9829
  520.5000     8.5543     0.1280     2.5567    68.8656     0.0625    22.5149    17.7937   -19.3051
  521.0000     8.5687     0.1370     2.5520    72.0247     0.0640    23.1448    18.2849   -19.5902
  521.5000     8.5681     0.1506     2.5436    77.2858     0.0679    23.2849    18.9201   -19.7472
  522.0000     8.5675     0.1671     2.5334    78.3413     0.0754    22.9515    19.3081   -19.9042
  522.5000     8.5669     0.1947     2.5296    75.9463     0.0832    21.8567    19.5684   -19.9101
  523.0000     8.5662     0.2063     2.5184    74.6008     0.0928    21.2052    19.4239   -19.9160
  523.5000     8.5656     0.1913     2.5004    74.3063     0.1027    19.1477    18.8703   -19.7708
  524.0000     8.5802     0.1763     2.4764    75.0711     0.1111    17.8600    17.5765   -19.6242
  524.5000     8.5644     0.1614     2.4547    77.6757     0.1165    17.0081    16.4243   -19.6316
  525.0000     8.5638     0.1599     2.4584    79.8048     0.1168    16.6511    15.8578   -19.6375
  525.5000     8.5632     0.1630     2.4606    80.7864     0.1138    16.5285    15.4173   -19.6294
  526.0000     8.5778     0.1630     2.4494    77.9409     0.1204    16.5206    15.1716   -19.4982
  526.5000     8.5621     0.1540     2.4351    72.9919     0.1288    16.5126    14.8785   -19.6567
  527.0000     8.5615     0.1406     2.4554    71.3446     0.1233    16.5031    14.7688   -19.6626
  527.5000     8.5675     0.1556     2.4856    72.7034     0.1042    16.4953    14.5588   -19.8195
  528.0000     8.5753     0.1737     2.4747    73.7603     0.1018    16.4875    14.4515   -19.8254
  528.5000     8.5747     0.1338     2.4467    70.0125     0.1168    16.3662    14.2459   -19.9824
  529.0000     8.5741     0.0957     2.4418    69.4163     0.1213    16.2457    14.1408   -20.1393
  529.5000     8.5735     0.0777     2.4448    71.3756     0.1162    16.1262    14.1339   -20.2963
  530.0000     8.5879     0.0898     2.4561    73.9340     0.1126    15.8972    14.0284   -20.4533
  530.5000     8.5873     0.0989     2.4613    76.6546     0.1138    15.8897    13.9250   -20.7613
  531.0000     8.5868     0.0944     2.4576    79.9910     0.1177    15.7727    13.7269   -20.9184
  531.5000     8.5861     0.0914     2.4838    81.6094     0.1102    15.7651    13.7204   -21.2277
  532.0000     8.5855     0.1140     2.4800    79.5146     0.1048    15.6474    13.6193   -21.3847
  532.5000     8.5699     0.1110     2.4583    77.8689     0.1108    15.6400    13.6128   -21.3906
  533.0000     8.5693     0.1006     2.4470    77.5730     0.1186    15.6326    13.6064   -21.5476
  533.5000     8.5687     0.0991     2.4590    78.4813     0.1237    15.5175    13.5061   -21.5535
  534.0000     8.5681     0.1082     2.4680    80.4391     0.1161    15.5102    13.4065   -21.5594
  534.5000     8.5675     0.1281     2.4771    82.5471     0.1107    15.5029    13.3901   -21.5653
  535.0000     8.5669     0.1383     2.4889    84.5049     0.1067    15.3888    13.2998   -21.5712
  535.5000     8.5663     0.1398     2.5062    85.7120     0.1024    15.2755    13.2935   -21.4260
  536.0000     8.5656     0.1414     2.5085    86.9191     0.0966    15.1631    13.2872   -21.4320
  536.5000     8.5650     0.1444     2.5137    87.9761     0.0924    15.1558    13.2809   -21.4381
  537.0000     8.5644     0.1475     2.5144    87.3445     0.0900    15.1485    13.2747   -21.5963
  537.5000     8.5638     0.1430     2.5092    78.4536     0.0894    15.2467    13.2684   -21.9043
