~VERSION INFORMATION
 VERS.                2.0:   CWLS LOG ASCII STANDARD - VERSION 2.0
 WRAP.                 NO:   ONE LINE PER DEPTH STEP
~WELL INFORMATION
#MNEM.UNIT      DATA TYPE    INFORMATION
#----------   ------------   ------------------------------
 STRT.F           70.0000:   START DEPTH
 STOP.F          960.0000:   STOP DEPTH
 STEP.F            0.5000:   STEP LENGTH
 NULL.          -999.2500:   NO VALUE
 COMP. U S NAVY/INTEX OIL CO:   COMPANY
 WELL.      NPR 3 #26S-35:   WELL
 FLD .             TEAPOT:   FIELD
 LOC .      S35 T39N R78W:   LOCATION
 CNTY.            NATRONA:   COUNTY
 STAT.            WYOMING:   STATE
 CTRY. UNITED STATES OF AMERICA:   COUNTRY
 SRVC.         Lane Wells:   SERVICE COMPANY
 DATE.        19-MAR-1960:   LOGDATE
 API .       490250651600:   API NUMBER
~CURVE INFORMATION
#MNEM.UNIT       API CODE    CURVE DESCRIPTION
#----------   ------------   ------------------------------
 DEPT.F                  :   
 ASN .OHMM   05 041 16 00:   AMPLIFIED SHORT NORMAL 16"
 ILD .OHMM   05 120 46 00:   INDUCTION LOG DEEP
 CILD.MMHO   05 110 00 00:   CONDUCTIVITY INDUCTION LOG
 SPR .MV     05 010 01 00:   SPONTANEOUS POTENTIAL FROM RES.
~PARAMETER INFORMATION
#MNEM.UNIT          VALUE    DESCRIPTION
#----------   ------------   ------------------------------
 PD  .                 GL:   PERMANENT DATUM
 EPD .F              5095:   ELEVATION PERMANENT DATUM
 LMF .                 KB:   LOG MEASURED FROM
 DAPD.F                 5:   FEET ABOVE PERMANENT DATUM
 DMF .                 KB:   DRILLING MEASURED FROM
 EKB .F              5101:   KELLING BUSHING
 EGL .F              9096:   GROUND LEVEL
 DATE.          3-19-1960:   RUN DATE
 RUN .                  1:   RUN NUMBER
 DD  .F               977:   DEPTH DRILLER
 DL  .F               959:   DEPTH LOGGER
 BLI .F               957:   BOTTOM LOG INTERVAL
 TLI .F                70:   TOP LOG INTERVAL
 CS  .IN            8.625:   CASING SIZE
 CBD .F                12:   CASING BOTTOM DRILLER
 BS  .IN            7.875:   BIT SIZE
 BSD .F               977:   BIT SIZE AT DEPTH
 DFT .   GEL-OIL EMULSION:   DRILLING FLUID TYPE
 DFD .                9.4:   DRILLING FLUID DENSITY
 DFV .                 40:   DRILLING FLUID VISCOSITY
 DFPH.                7.5:   DRILLING FLUID PH
 DFL .                8.2:   DRILLING FLUID LOSS
 MSS .           FLOWLINE:   MUD SAMPLE SOURCE
 RMS .OHMM            2.2:   RESISTIVITY MUD SAMPLE
 MST .F                64:   MUD SAMPLE TEMPERATURE
 RMF .OHMM            1.5:   RESISTIVITY MUD FILTRATE SAMPLE
 MFST.F                64:   MUD FILTRATE SAMPLE TEMPERATURE
 RMC .OHMM            3.1:   RESISTIVITY MUD CAKE
 MCST.F                64:   MUD CAKE SAMPLE TEMPERATURE
 MFSS.                MUD:   MUD FILTRATE SAMPLE SOURCE
 MCSS.              PRESS:   MUD CAKE SAMPLE SOURCE
 RMB .OHMM            2.0:   RESISTIVITY MUD AT BHT
 BHT .F                71:   BOTTOM HOLE TEMPERATURE
 MRT .F                71:   MAXIMUM RECORDED TEMPERATURE
 LUN .             L-4474:   LOGGING UNIT NUMBER
 LUL .             CASPER:   LOGGING UNIT LOCATION
 ENGI.             NELSON:   RECORDING ENGINEER
 WITN.          JORGENSBN:   WITNESSED BY
 CLNT.            A2DTECH:   CLIENT CODE
 ORIG.      2" & 5" PRINT:   ORIGIN OF DATA
 UWI .       490250651600:   UNIQUE WELL ID
 DICO. A2D Technologies, Inc.:   DIGITIZING COMPANY
~OTHER INFORMATION
~A   DEPT        ASN        ILD      CILD       SPR   
# ...
  435.0000    10.9175     7.9526   139.6747   -42.6750
  435.5000     9.9849     7.4275   151.2699   -41.4253
  436.0000     8.0512     6.9623   162.8651   -40.1489
  436.5000     7.7411     6.4273   174.4602   -39.2877
  437.0000     7.4078     6.1406   181.0241   -39.1380
  437.5000     7.1408     5.9741   186.4458   -39.2745
  438.0000     6.9810     5.7168   192.2434   -39.3656
  438.5000     6.7739     5.4941   197.0813   -39.4784
  439.0000     6.6175     5.2507   200.7048   -39.5797
  439.5000     6.6193     5.0292   202.5864   -39.6879
  440.0000     6.7447     5.0120   202.3077   -39.7913
  440.5000     6.8587     5.0401   202.0290   -39.8988
  441.0000     6.9668     5.0581   201.7502   -39.9995
  441.5000     6.9296     5.0808   201.4715   -40.1118
  442.0000     6.8781     5.1010   201.1928   -40.1728
  442.5000     6.8249     5.1225   200.9036   -40.0380
  443.0000     6.7664     5.1435   201.1216   -39.9051
  443.5000     6.6725     5.1646   201.3481   -39.7720
  444.0000     6.5766     5.1856   201.5746   -39.6390
  444.5000     6.4701     5.2062   201.8010   -39.5063
  445.0000     6.4271     5.2277   202.0275   -39.3723
  445.5000     6.5371     5.2475   202.2540   -39.2409
  446.0000     6.6466     5.2708   202.4804   -39.1049
  446.5000     6.7690     5.2750   202.7108   -38.9776
  447.0000     6.8417     5.2594   202.5515   -38.8330
  447.5000     6.8794     5.2471   202.2221   -38.7647
  448.0000     6.8695     5.2330   201.8927   -38.9491
  448.5000     6.7983     5.2199   201.5632   -39.1193
  449.0000     6.7388     5.2063   201.2338   -39.2925
  449.5000     6.6728     5.1929   200.9036   -39.4630
  450.0000     6.6107     5.1794   202.3494   -39.6370
  450.5000     6.5455     5.1660   203.7988   -39.8056
  451.0000     6.4840     5.1525   205.2482   -39.9844
  451.5000     6.4167     5.1393   206.6976   -40.1657
  452.0000     6.3706     5.1253   208.1470   -40.3988
  452.5000     6.3287     5.1127   209.5964   -40.6385
  453.0000     6.3490     5.0983   211.0458   -40.9286
  453.5000     6.4328     5.1154   210.4196   -41.0939
  454.0000     6.5051     5.1549   207.8480   -40.9785
  454.5000     6.5824     5.1888   205.2765   -40.9056
  455.0000     6.6584     5.2276   202.7050   -40.8097
  455.5000     6.7287     5.2593   200.1335   -40.7263
  456.0000     6.7703     5.3241   197.5620   -40.6363
  456.5000     6.8024     5.4191   194.9905   -40.5493
  457.0000     6.8623     5.5077   192.4190   -40.4610
  457.5000     6.9447     5.5993   189.8432   -40.3733
  458.0000     7.0281     5.6894   187.2671   -40.2857
  458.5000     7.1837     5.7801   184.6927   -40.1980
  459.0000     7.3360     5.8711   182.1236   -40.1101
  459.5000     7.4982     5.9604   179.5616   -40.0216
  460.0000     7.5783     6.0448   177.0043   -40.0450
  460.5000     7.5869     6.1219   174.4449   -40.0950
  461.0000     7.6060     6.2023   172.0177   -40.1388
  461.5000     7.6223     6.2633   174.3769   -40.1856
  462.0000     7.6274     6.2186   176.6416   -40.2309
  462.5000     7.5454     6.1642   178.9062   -40.2768
  463.0000     7.4563     6.1119   181.1709   -40.3230
  463.5000     7.3720     6.0587   183.4356   -40.3660
  464.0000     7.2799     6.0059   185.7003   -40.3308
  464.5000     7.2032     5.9530   187.9650   -40.2778
  465.0000     7.0904     5.8999   190.0602   -40.2286
  465.5000     7.1272     5.8472   189.6919   -40.1776
  466.0000     7.1995     5.7940   189.0524   -40.1276
  466.5000     7.4953     5.7419   188.4130   -40.0770
  467.0000     7.9845     5.6874   187.7736   -40.0267
  467.5000     8.4384     5.6450   187.1341   -39.9762
  468.0000     8.8069     5.6564   186.4947   -39.9260
  468.5000     8.6066     5.6721   185.8552   -39.8751
  469.0000     8.2168     5.6870   185.2158   -39.8256
  469.5000     7.8350     5.7023   184.6385   -39.7737
  470.0000     7.4640     5.7173   186.2289   -39.7262
  470.5000     7.0707     5.7325   187.6783   -39.6696
  471.0000     6.9488     5.7476   189.1277   -39.6597
  471.5000     7.0230     5.7628   190.5771   -39.7016
  472.0000     7.0718     5.7778   191.8675   -39.7355
  472.5000     7.1294     5.7929   191.3931   -39.7739
  473.0000     7.1234     5.8080   190.6166   -39.8093
  473.5000     7.0760     5.8232   189.8401   -39.8475
  474.0000     7.0325     5.8382   189.0637   -39.8820
  474.5000     6.9930     5.8538   188.2872   -39.9226
  475.0000     6.9407     5.8682   187.5108   -39.9516
  475.5000     6.9876     5.8847   186.7343   -40.0030
  476.0000     7.1041     5.8974   186.4458   -39.9268
  476.5000     7.2080     5.9155   186.4458   -39.7327
  477.0000     7.3086     5.8696   187.2108   -39.5513
  477.5000     7.4332     5.7847   188.4187   -39.3755
  478.0000     7.3731     5.7115   189.6265   -39.1740
  478.5000     7.1950     5.6330   191.6568   -39.1796
  479.0000     7.0489     5.5574   194.1480   -39.3936
  479.5000     6.8888     5.4802   196.6391   -39.5540
  480.0000     6.7347     5.4036   199.1303   -39.7633
  480.5000     6.5797     5.3270   201.6214   -39.7581
  481.0000     6.4232     5.2499   204.1126   -39.5802
  481.5000     6.3567     5.1742   206.6037   -39.4326
  482.0000     6.3489     5.0957   209.0949   -39.2731
  482.5000     6.3334     5.0224   210.5783   -39.1145
  483.0000     6.3198     4.9403   211.5446   -38.9652
  483.5000     6.3312     4.9472   212.5108   -38.7924
  484.0000     6.3675     5.0124   213.4771   -38.8113
  484.5000     6.3804     5.0629   214.4434   -38.9879
  485.0000     6.3292     5.1202   215.4096   -39.1276
  485.5000     6.2776     5.1738   216.3759   -39.2901
  486.0000     6.2271     5.2294   217.1687   -39.4315
  486.5000     6.1746     5.2841   218.0235   -39.5997
  487.0000     6.1350     5.3391   218.7482   -39.5829
  487.5000     6.1471     5.3940   216.7892   -39.4316
  488.0000     6.3064     5.4489   213.6005   -39.3098
  488.5000     6.4151     5.5036   210.4118   -39.1754
  489.0000     6.6718     5.5587   207.2231   -39.0450
  489.5000     6.9915     5.6131   204.0345   -38.9175
  490.0000     7.2801     5.6688   200.8458   -38.7804
  490.5000     7.6287     5.7223   197.6571   -38.7688
  491.0000     7.6839     5.7802   194.4684   -38.8433
  491.5000     7.6420     5.8188   191.2798   -38.8982
  492.0000     7.5785     5.8372   188.0911   -38.9624
  492.5000     7.8054     5.8674   184.9024   -39.0216
  493.0000     8.2569     5.8905   181.7137   -39.0836
  493.5000     8.4829     5.9149   179.2169   -39.1441
  494.0000     8.3044     5.8787   179.2169   -39.2057
  494.5000     8.1234     5.8181   179.2169   -39.2659
  495.0000     7.9448     5.7670   184.4496   -39.3280
  495.5000     7.6255     5.7119   188.7319   -39.3867
  496.0000     7.3394     5.6590   193.0142   -39.4508
  496.5000     7.0427     5.6050   197.2966   -39.4570
  497.0000     6.7508     5.5511   201.5789   -39.3614
  497.5000     6.5360     5.4976   203.4725   -39.2769
  498.0000     6.4884     5.4429   204.5078   -39.1901
  498.5000     6.5059     5.3909   205.5430   -39.1042
  499.0000     6.5622     5.3343   206.3253   -39.0187
  499.5000     6.5765     5.2861   204.2990   -38.9314
  500.0000     6.7007     5.2197   201.0372   -38.8477
  500.5000     6.9019     5.2265   197.9600   -38.7487
  501.0000     7.0723     5.3932   193.8575   -38.7488
  501.5000     7.2565     5.5383   189.7616   -38.8485
  502.0000     7.4882     5.7240   185.6928   -38.9327
  502.5000     7.6596     5.8137   183.0316   -39.0206
  503.0000     7.6769     5.7375   184.2672   -39.1068
  503.5000     7.7225     5.6814   185.5146   -39.1936
  504.0000     7.6191     5.6138   187.0773   -39.2811
  504.5000     7.4704     5.5528   189.4219   -39.3664
  505.0000     7.3248     5.4875   191.7665   -39.4558
  505.5000     7.1828     5.4256   194.1111   -39.5376
  506.0000     7.0248     5.3595   196.4557   -39.6428
  506.5000     6.8839     5.3003   198.8003   -39.6203
  507.0000     6.7719     5.2266   201.1449   -39.3739
  507.5000     6.6325     5.1978   203.4895   -39.1595
