~VERSION INFORMATION
 VERS.                2.0:   CWLS LOG ASCII STANDARD - VERSION 2.0
 WRAP.                 NO:   ONE LINE PER DEPTH STEP
~WELL INFORMATION
#MNEM.UNIT      DATA TYPE    INFORMATION
#----------   ------------   ------------------------------
 STRT.F           86.0000:   START DEPTH
 STOP.F         1134.0000:   STOP DEPTH
 STEP.F            0.5000:   STEP LENGTH
 NULL.          -999.2500:   NO VALUE
 COMP.          U.S. NAVY:   COMPANY
 WELL. RES 3 TEAPOT DOM #64-S-2:   WELL
 FLD .             TEAPOT:   FIELD
 LOC .       S2 T38N R78W:   LOCATION
 CNTY.            NATRONA:   COUNTY
 STAT.            WYOMING:   STATE
 CTRY. UNITED STATES OF AMERICA:   COUNTRY
 SRVC. Schlumberger Well Surveying Corp:   SERVICE COMPANY
 DATE.        28-JUL-1964:   LOGDATE
 API .       490250644400:   API NUMBER
~CURVE INFORMATION
#MNEM.UNIT       API CODE    CURVE DESCRIPTION
#----------   ------------   ------------------------------
 DEPT.F                  :   
 ASN .OHMM   05 041 16 00:   AMPLIFIED SHORT NORMAL 16"
 CILD.MMHO   05 110 46 00:   CONDUCTIVITY INDUCTION LOG DEEP
 ILD .OHMM   05 120 46 00:   INDUCTION LOG DEEP
 SPR .MV     05 010 01 00:   SPONTANEOUS POTENTIAL FROM RES.
 DT  .US/F   60 520 33 00:   INTERVAL TRANSIT TIME
 GR  .GAPI   30 310 01 00:   GAMMA RAY
~PARAMETER INFORMATION
#MNEM.UNIT          VALUE    DESCRIPTION
#----------   ------------   ------------------------------
 PD  .                 GL:   PERMANENT DATUM
 EPD .F              5204:   ELEVATION PERMANENT DATUM
 LMF .                 KB:   LOG MEASURED FROM
 DAPD.F                 5:   FEET ABOVE PERMANENT DATUM
 DMF .                 KB:   DRILLING MEASURED FROM
 EKB .F              5209:   KELLING BUSHING
 EGL .F              5204:   GROUND LEVEL
 DATE.        28-JUL-1964:   RUN DATE
 RUN .                  1:   RUN NUMBER
 DD  .F              1135:   DEPTH DRILLER
 DL  .F              1135:   DEPTH LOGGER
 BLI .F              1134:   BOTTOM LOG INTERVAL
 TLI .F                86:   TOP LOG INTERVAL
 CS  .IN            10.75:   CASING SIZE
 CBD .F                11:   CASING BOTTOM DRILLER
 BS  .IN            7.875:   BIT SIZE
 BSD .F              1135:   BIT SIZE AT DEPTH
 DFT .            GEL-OIL:   DRILLING FLUID TYPE
 DFD .                9.5:   DRILLING FLUID DENSITY
 DFV .                 49:   DRILLING FLUID VISCOSITY
 DFL .                 10:   DRILLING FLUID LOSS
 MSS .           FLOWLINE:   MUD SAMPLE SOURCE
 RMS .OHMM           2.35:   RESISTIVITY MUD SAMPLE
 MST .F                89:   MUD SAMPLE TEMPERATURE
 RMF .OHMM           1.71:   RESISTIVITY MUD FILTRATE SAMPLE
 MFST.F                89:   MUD FILTRATE SAMPLE TEMPERATURE
 RMC .OHMM           3.01:   RESISTIVITY MUD CAKE
 MCST.F                89:   MUD CAKE SAMPLE TEMPERATURE
 MFSS.                 FP:   MUD FILTRATE SAMPLE SOURCE
 MCSS.                 FP:   MUD CAKE SAMPLE SOURCE
 TCS .HRS               1:   TIME CURCULATED STOPPED
 LUN .               3527:   LOGGING UNIT NUMBER
 LUL .               CSPR:   LOGGING UNIT LOCATION
 ENGI.             KNOBEL:   RECORDING ENGINEER
 WITN.          JORGENSEN:   WITNESSED BY
 CLNT.            A2DTECH:   CLIENT CODE
 ORIG.        2" 5" PRINT:   ORIGIN OF DATA
 UWI .       490250644400:   UNIQUE WELL ID
 DICO. A2D Technologies, Inc.:   DIGITIZING COMPANY
~OTHER INFORMATION
~A   DEPT        ASN      CILD        ILD       SPR         DT         GR   
# ...
  398.0000     6.3161   176.9428     6.1591   -29.6823  -999.2500  -999.2500
  398.5000     6.3650   176.9465     6.2656   -29.6829  -999.2500  -999.2500
  399.0000     6.4813   176.9509     6.3126   -29.5337  -999.2500  -999.2500
  399.5000     6.5974   177.2277     6.3821   -29.3847  -999.2500  -999.2500
  400.0000     6.6165   178.4639     6.3814   -29.1854  -999.2500  -999.2500
  400.5000     6.5672   180.1795     6.0052   -29.0862  -999.2500  -999.2500
  401.0000     6.4561   183.8127     5.5230   -28.8461  -999.2500  -999.2500
  401.5000     6.2855   189.0175     5.2172   -28.6015  -999.2500  -999.2500
  402.0000     6.0102   197.1034     5.0270   -28.4888  -999.2500  -999.2500
  402.5000     5.9395   203.4073     4.9130   -28.3396  -999.2500  -999.2500
  403.0000     5.9995   209.3604     4.8754   -28.3173  -999.2500  -999.2500
  403.5000     5.8750   211.2136     4.8745   -28.1912  -999.2500  -999.2500
  404.0000     5.7722   211.6263     4.8739   -28.1919  -999.2500  -999.2500
  404.5000     5.7587   210.1249     4.9482   -28.1832  -999.2500  -999.2500
  405.0000     5.7436   208.8227     4.9473   -28.0435  -999.2500  -999.2500
  405.5000     5.7586   206.3593     5.0457   -28.0442  -999.2500  -999.2500
  406.0000     5.7883   202.6657     5.0961   -28.0450  -999.2500  -999.2500
  406.5000     6.0010   197.8024     5.2146   -28.0457  -999.2500  -999.2500
  407.0000     6.1022   191.3180     5.3366   -27.8965  -999.2500  -999.2500
  407.5000     6.1669   188.2530     5.4692   -28.1973  -999.2500  -999.2500
  408.0000     6.2314   185.7028     5.5806   -28.5497  -999.2500  -999.2500
  408.5000     6.3005   181.4759     5.6930   -28.9483  -999.2500  -999.2500
  409.0000     6.3623   178.5241     5.7672   -29.1949  -999.2500  -999.2500
  409.5000     6.4340   175.9890     5.7665   -29.2496  -999.2500  -999.2500
  410.0000     6.5233   174.6988     5.7658   -29.2504  -999.2500  -999.2500
  410.5000     6.6031   174.2621     5.7650   -29.0142  -999.2500  -999.2500
  411.0000     6.6719   174.6988     5.7643   -28.7341  -999.2500  -999.2500
  411.5000     6.7286   175.4518     5.6884   -28.2032  -999.2500  -999.2500
  412.0000     6.6935   176.2349     5.6446   -28.0540  -999.2500  -999.2500
  412.5000     6.5909   177.9618     5.5962   -28.2296  -999.2500  -999.2500
  413.0000     6.4935   180.7229     5.4609   -28.5053  -999.2500  -999.2500
  413.5000     6.4081   182.9217     5.3100   -28.8748  -999.2500  -999.2500
  414.0000     6.3393   186.1546     5.2728   -29.2724  -999.2500  -999.2500
  414.5000     6.2561   190.5121     5.1584   -29.4072  -999.2500  -999.2500
  415.0000     6.1677   193.6747     5.1576   -29.1979  -999.2500  -999.2500
  415.5000     6.1226   194.2771     5.1245   -28.9448  -999.2500  -999.2500
  416.0000     6.1377   193.5241     5.0811   -28.5099  -999.2500  -999.2500
  416.5000     6.1958   192.7711     5.0802   -28.1597  -999.2500  -999.2500
  417.0000     6.2550   192.7711     5.1079   -27.9116  -999.2500  -999.2500
  417.5000     6.3335   192.4950     5.1539   -27.7624  -999.2500  -999.2500
  418.0000     6.4202   192.7711     5.1530   -27.7211  -999.2500  -999.2500
  418.5000     6.5141   193.5241     5.2276   -27.6139  -999.2500  -999.2500
  419.0000     6.4841   193.5241     5.2267   -27.6147  -999.2500  -999.2500
  419.5000     6.4768   192.7711     5.3011   -27.6154  -999.2500  -999.2500
  420.0000     6.4521   191.2651     5.3755   -27.7662  -999.2500  -999.2500
  420.5000     6.4241   188.9859     5.4497   -27.8438  -999.2500  -999.2500
  421.0000     6.4178   184.0060     5.5663   -27.9415  -999.2500  -999.2500
  421.5000     6.4092   175.4518     5.6893   -28.0683  -999.2500  -999.2500
  422.0000     6.8154   161.8371     5.8978   -28.2189  -999.2500  -999.2500
  422.5000     6.9788   154.8946     6.1236   -28.3696  -999.2500  -999.2500
  423.0000     7.1318   151.3554     6.3704   -28.5204  -999.2500  -999.2500
  423.5000     7.5113   150.3062     6.5712   -28.5210  -999.2500  -999.2500
  424.0000     7.7267   149.8494     6.6797   -28.5157  -999.2500  -999.2500
  424.5000     7.7480   150.6024     6.6373   -28.3726  -999.2500  -999.2500
  425.0000     7.6266   152.8615     6.4939   -28.3233  -999.2500  -999.2500
  425.5000     7.4110   158.8855     6.3584   -28.2241  -999.2500  -999.2500
  426.0000     7.2069   167.7411     6.1136   -27.9810  -999.2500  -999.2500
  426.5000     7.1613   172.8515     5.8910   -27.7757  -999.2500  -999.2500
  427.0000     7.1119   175.4518     5.7895   -27.9266  -999.2500  -999.2500
  427.5000     7.0568   175.4518     5.6644   -28.1622  -999.2500  -999.2500
  428.0000     6.9558   174.6988     5.6637   -28.3778  -999.2500  -999.2500
  428.5000     6.7638   173.9458     5.6629   -28.3786  -999.2500  -999.2500
  429.0000     6.6811   173.9458     5.7372   -28.2294  -999.2500  -999.2500
  429.5000     6.7496   172.4398     5.8555   -28.0572  -999.2500  -999.2500
  430.0000     6.8496   170.9337     5.9785   -27.7812  -999.2500  -999.2500
  430.5000     7.0272   169.8444     6.1854   -27.7819  -999.2500  -999.2500
  431.0000     7.1617   167.6405     6.3746   -27.9325  -999.2500  -999.2500
  431.5000     7.3130   162.6506     6.5861   -28.0833  -999.2500  -999.2500
  432.0000     7.4737   157.8913     6.9339   -28.2919  -999.2500  -999.2500
  432.5000     7.7769   145.5818     7.4155   -28.5445  -999.2500  -999.2500
  433.0000     8.0200   128.7651     7.7675   -28.9852  -999.2500  -999.2500
  433.5000     8.2490   128.5190     7.8326   -29.1847  -999.2500  -999.2500
  434.0000     8.6357   128.0121     7.8754   -29.2864  -999.2500  -999.2500
  434.5000     8.8473   128.4789     7.7509   -29.4370  -999.2500  -999.2500
  435.0000     8.9070   130.1206     7.6050   -29.4778  -999.2500  -999.2500
  435.5000     8.9396   137.8012     7.4268   -29.5885  -999.2500  -999.2500
  436.0000     8.9227   144.8494     7.2262   -29.5892  -999.2500  -999.2500
  436.5000     8.7948   151.3808     6.9283   -29.4399  -999.2500  -999.2500
  437.0000     8.5964   156.6265     6.6547   -29.4408  -999.2500  -999.2500
  437.5000     8.0508   160.3916     6.4001   -29.2916  -999.2500  -999.2500
  438.0000     7.5748   162.7611     6.2332   -29.1204  -999.2500  -999.2500
  438.5000     7.1938   164.9096     6.0792   -28.8434  -999.2500  -999.2500
  439.0000     7.0542   165.2410     5.9474   -28.4783  -999.2500  -999.2500
  439.5000     7.0091   165.7280     5.9881   -28.2321  -999.2500  -999.2500
  440.0000     7.1489   165.8634     6.2012   -27.9461  -999.2500  -999.2500
  440.5000     7.5019   164.3373     6.5457   -27.8898  -999.2500  -999.2500
  441.0000     7.5768   158.7446     6.7698   -27.7976  -999.2500  -999.2500
  441.5000     7.6303   146.8374     6.7478   -27.7985  -999.2500  -999.2500
  442.0000     7.7523   156.5663     6.4684   -27.7991  -999.2500  -999.2500
  442.5000     7.9162   163.4036     6.3263   -27.7999  -999.2500  -999.2500
  443.0000     7.4501   168.2632     6.1532   -27.9505  -999.2500  -999.2500
  443.5000     7.4201   172.0784     5.8655   -28.1012  -999.2500  -999.2500
  444.0000     7.4037   175.4518     5.6857   -28.1020  -999.2500  -999.2500
  444.5000     7.1496   177.7912     5.5612   -28.1027  -999.2500  -999.2500
  445.0000     6.8411   179.5181     5.4128   -27.9534  -999.2500  -999.2500
  445.5000     6.5151   181.4759     5.3122   -27.9543  -999.2500  -999.2500
  446.0000     6.3528   183.3534     5.2613   -27.8051  -999.2500  -999.2500
  446.5000     6.3180   184.5934     5.2605   -27.6559  -999.2500  -999.2500
  447.0000     6.2928   186.7470     5.2598   -27.5068  -999.2500  -999.2500
  447.5000     6.2870   187.5000     5.3341   -27.5075  -999.2500  -999.2500
  448.0000     6.3156   189.0060     5.3333   -27.4963  -999.2500  -999.2500
  448.5000     6.3832   189.7590     5.4078   -27.3591  -999.2500  -999.2500
  449.0000     6.4693   189.7590     5.4068   -27.3598  -999.2500  -999.2500
  449.5000     6.5789   190.5121     5.4451   -27.3606  -999.2500  -999.2500
