~VERSION INFORMATION
 VERS.                2.0:   CWLS LOG ASCII STANDARD - VERSION 2.0
 WRAP.                 NO:   ONE LINE PER DEPTH STEP
~WELL INFORMATION
#MNEM.UNIT      DATA TYPE    INFORMATION
#----------   ------------   ------------------------------
 STRT.F           30.0000:   START DEPTH
 STOP.F          526.0000:   STOP DEPTH
 STEP.F            0.5000:   STEP LENGTH
 NULL.          -999.2500:   NO VALUE
 COMP. FENIX & SCISSON INC:   COMPANY
 WELL.       NPR #37-SX-3:   WELL
 FLD .             TEAPOT:   FIELD
 LOC .       S3 T38N R78W:   LOCATION
 CNTY.            NATRONA:   COUNTY
 STAT.            WYOMING:   STATE
 CTRY. UNITED STATES OF AMERICA:   COUNTRY
 SRVC.              Welex:   SERVICE COMPANY
 DATE.        10-MAR-1977:   LOGDATE
 API .       490251028600:   API NUMBER
~CURVE INFORMATION
#MNEM.UNIT       API CODE    CURVE DESCRIPTION
#----------   ------------   ------------------------------
 DEPT.F                  :   
 ILD .OHMM   07 120 46 00:   INDUCTION LOG DEEP
 ILM .OHMM   07 120 44 00:   INDUCTION LOG MEDIUM
 SPR .MV     07 010 01 00:   SPONTANEOUS POTENTIAL
 SGRD.OHMM   07 220 05 00:   SHALLOW RESISTIVITY
 GRD .GAPI   45 310 01 00:   GAMMA RAY FROM DENSITY LOG
 CALD.IN     45 280 60 00:   CALIPER
 CORR.G/C3   45 356 01 00:   DENSITY CORRECTION
 RHOB.G/C3   45 350 01 00:   BULK DENSITY
 DPOR.DEC    45 890 12 00:   DENSITY POROSITY SANDSTONE
~PARAMETER INFORMATION
#MNEM.UNIT          VALUE    DESCRIPTION
#----------   ------------   ------------------------------
 PD  .                 GL:   PERMANENT DATUM
 EPD .F              5232:   ELEVATION PERMANENT DATUM
 LMF .                 GL:   LOG MEASURED FROM
 DMF .                 GL:   DRILLING MEASURED FROM
 EGL .F              5232:   GROUND LEVEL
 DATE.            3-10-77:   RUN DATE
 RUN .                  1:   RUN NUMBER
 DD  .F               530:   DEPTH DRILLER
 DL  .F               528:   DEPTH LOGGER
 BLI .F               526:   BOTTOM LOG INTERVAL
 TLI .F                35:   TOP LOG INTERVAL
 CS  .IN            8.625:   CASING SIZE
 CBD .F                40:   CASING BOTTOM DRILLER
 CBL .F                42:   CASING BOTTOM LOGGER
 BS  .IN            7.875:   BIT SIZE
 BSD .F               530:   BIT SIZE AT DEPTH
 DFT .            KCL MUD:   DRILLING FLUID TYPE
 DFD .                8.8:   DRILLING FLUID DENSITY
 DFV .                 32:   DRILLING FLUID VISCOSITY
 DFPH.                  8:   DRILLING FLUID PH
 DFL .                7.7:   DRILLING FLUID LOSS
 MSS .            MUD PIT:   MUD SAMPLE SOURCE
 RMS .OHMM            .48:   RESISTIVITY MUD SAMPLE
 MST .F                47:   MUD SAMPLE TEMPERATURE
 RMF .OHMM            .43:   RESISTIVITY MUD FILTRATE SAMPLE
 MFST.F                47:   MUD FILTRATE SAMPLE TEMPERATURE
 RMC .OHMM            .52:   RESISTIVITY MUD CAKE
 MCST.F                47:   MUD CAKE SAMPLE TEMPERATURE
 MFSS.           FANN KIT:   MUD FILTRATE SAMPLE SOURCE
 MCSS.           FANN KIT:   MUD CAKE SAMPLE SOURCE
 RMB .OHMM            .41:   RESISTIVITY MUD AT BHT
 BHT .F                55:   BOTTOM HOLE TEMPERATURE
 TCS .HRS             1.5:   TIME CURCULATED STOPPED
 MRT .F                55:   MAXIMUM RECORDED TEMPERATURE
 LUN .               8611:   LOGGING UNIT NUMBER
 LUL .           GILLETTE:   LOGGING UNIT LOCATION
 ENGI.               DOAK:   RECORDING ENGINEER
 WITN.              BURKE:   WITNESSED BY
 CLNT.            A2DTECH:   CLIENT CODE
 ORIG.       2", 5" PRINT:   ORIGIN OF DATA
 UWI .       490251028600:   UNIQUE WELL ID
 DICO. A2D Technologies, Inc.:   DIGITIZING COMPANY
~OTHER INFORMATION
~A   DEPT      ILD        ILM        SPR       SGRD         GRD        CALD      CORR        RHOB     DPOR   
# ...
  176.0000     8.7233    10.7142   -44.5396    13.0400   108.4957     7.9821     0.0673     2.4649     0.9604
  176.5000     8.6677    10.5903   -44.4355    12.8021   107.9536     7.9821     0.0663     2.4585     0.9452
  177.0000     8.5744    10.4680   -44.3044    12.5006   106.8844     7.9821     0.0654     2.4553     0.9393
  177.5000     8.4821    10.3472   -44.1754    12.3451   107.8918     7.9821     0.0644     2.4531     0.9335
  178.0000     8.3908    10.2278   -44.0467    12.6506   110.2330     7.9821     0.0635     2.4508     0.9310
  178.5000     8.2863    10.1098   -43.9195    12.8645   115.3370     7.9821     0.0625     2.4493     0.9295
  179.0000     8.1020     9.9917   -43.7854    13.0424   119.0550     7.9821     0.0615     2.4478     0.9279
  179.5000     7.9219     9.8250   -43.9955    12.5636   118.7510     7.9821     0.0606     2.4470     0.9262
  180.0000     7.7458     9.6594   -44.3439    12.1711   116.1562     7.9821     0.0602     2.4486     0.9266
  180.5000     7.5736     9.4611   -44.6987    11.7884   117.2538     7.9821     0.0605     2.4509     0.9332
  181.0000     7.4052     9.1808   -45.0534    11.0845   116.1046     7.9821     0.0608     2.4554     0.9424
  181.5000     7.2405     8.9088   -45.4092    10.2742   115.2544     7.9821     0.0610     2.4598     0.9607
  182.0000     7.1110     8.5461   -45.7253     9.9032   118.4765     7.9821     0.0613     2.4622     0.9666
  182.5000     7.1479     8.5647   -45.6047     9.9615   122.6428     7.9821     0.0615     2.4590     0.9448
  183.0000     7.1766     8.5950   -45.4792    11.0563   123.9133     7.9821     0.0617     2.4609     0.9505
  183.5000     7.3205     8.6254   -45.3560    11.5129   123.7086     7.9821     0.0620     2.4651     0.9606
  184.0000     7.4875     8.6559   -45.2328    11.5746   121.8029     7.9821     0.0612     2.4691     0.9714
  184.5000     7.6583     8.6864   -45.0999    11.2961   119.9093     7.9821     0.0594     2.4712     0.9686
  185.0000     7.8077     8.7171   -44.9199    11.0102   120.1087     7.9821     0.0576     2.4674     0.9611
  185.5000     7.8651     8.7479   -44.7431    10.8533   123.4644     7.9821     0.0559     2.4635     0.9535
  186.0000     7.9388     8.7788   -44.5662    11.2689   123.0653     7.9821     0.0540     2.4583     0.9458
  186.5000     7.9293     8.8099   -44.3893    12.0051   120.4104     7.9821     0.0522     2.4562     0.9392
  187.0000     7.9135     8.8410   -44.2122    11.8948   121.0397     7.9821     0.0538     2.4572     0.9430
  187.5000     7.8977     8.8722   -44.0462    11.6767   121.5583     7.9821     0.0558     2.4596     0.9531
  188.0000     7.8815     8.9036   -43.8876    11.4664   120.3763     7.9821     0.0578     2.4664     0.9640
  188.5000     7.8681     8.9350   -43.7851    11.2604   118.3689     7.9821     0.0597     2.4731     0.9750
  189.0000     7.9805     8.9666   -44.1294    11.1567   115.9475     7.9821     0.0617     2.4796     0.9860
  189.5000     8.0877     8.9983   -44.4824    11.3016   116.2518     7.9821     0.0636     2.4835     0.9957
  190.0000     8.1962     9.0307   -44.2293    11.6044   118.4639     7.9821     0.0656     2.4800     0.9951
  190.5000     8.3062     9.0355   -43.7691    12.2867   119.7164     7.9821     0.0667     2.4774     0.9885
  191.0000     8.3904     9.0404   -43.9947    12.6889   118.1563     7.9821     0.0676     2.4837     0.9973
  191.5000     8.3678     9.0453   -44.2359    12.4759   118.1697     7.9821     0.0691     2.4899     1.0059
  192.0000     8.3464     9.0501   -44.2499    12.3258   121.2802     7.9821     0.0727     2.4962     1.0144
  192.5000     8.3248     9.0550   -44.0822    12.2327   124.3869     7.9821     0.0763     2.4973     1.0215
  193.0000     8.3034     9.0599   -43.9982    12.2327   126.1449     7.9821     0.0800     2.4980     1.0242
  193.5000     8.2821     9.0649   -44.2822    11.9000   126.3860     7.9821     0.0791     2.4962     1.0168
  194.0000     8.2608     9.0698   -44.5510    11.6815   125.0534     7.9821     0.0783     2.4915     1.0096
  194.5000     8.2396     9.0747   -44.6408    11.7893   122.2555     7.9821     0.0800     2.4934     1.0147
  195.0000     8.2184     9.0796   -44.2880    11.4247   119.8042     7.9821     0.0781     2.4918     1.0159
  195.5000     8.1973     9.0845   -43.9656    10.9535   119.8875     7.9821     0.0761     2.4852     0.9960
  196.0000     8.1762     9.0894   -44.1987    11.3700   123.0160     7.9821     0.0742     2.4779     0.9781
  196.5000     8.1552     9.0943   -44.4637    11.9245   121.5634     7.9821     0.0722     2.4705     0.9625
  197.0000     8.1342     9.0993   -44.3464    12.0624   120.2955     7.9821     0.0702     2.4638     0.9516
  197.5000     8.1133     9.1042   -44.2180    12.1189   120.7439     7.9821     0.0697     2.4616     0.9503
  198.0000     8.0924     9.1091   -44.4606    11.7161   119.6083     7.9821     0.0692     2.4648     0.9589
  198.5000     8.0502     9.1139   -44.7042    11.3637   117.9118     7.9821     0.0688     2.4687     0.9695
  199.0000     8.0016     9.1141   -44.5880    11.5805   117.2157     7.9821     0.0683     2.4728     0.9802
  199.5000     7.9533     9.1141   -44.3959    11.7869   117.2770     7.9821     0.0663     2.4772     0.9887
  200.0000     7.9054     9.1143   -44.1941    11.4681   113.7025     7.9821     0.0637     2.4723     0.9732
  200.5000     7.8576     9.1156   -44.2507    11.1585   110.9304     7.9821     0.0610     2.4641     0.9579
  201.0000     7.8102     9.1157   -44.4494    11.3454   111.6764     7.9821     0.0582     2.4597     0.9455
  201.5000     7.7631     8.9813   -44.6497    11.5500   112.4680     7.9821     0.0584     2.4591     0.9392
  202.0000     7.7163     8.7597   -44.8498    11.7765   108.0887     7.9821     0.0587     2.4588     0.9394
  202.5000     7.6697     8.5444   -45.0490    10.6556   106.4876     7.9821     0.0591     2.4588     0.9400
  203.0000     7.6234     8.3348   -45.2495    10.8216   107.3990     7.9821     0.0594     2.4595     0.9427
  203.5000     7.5774     8.0875   -45.3359    11.1567   108.7879     7.9821     0.0597     2.4637     0.9519
  204.0000     7.5318     8.1021   -45.3376    10.9468   109.9917     7.9821     0.0600     2.4692     0.9626
  204.5000     7.4873     8.1205   -45.3370    10.5581   108.7881     7.9821     0.0611     2.4747     0.9743
  205.0000     7.4441     8.1390   -45.3365    10.9391   107.9037     7.9821     0.0624     2.4803     0.9859
  205.5000     7.2540     8.1622   -45.3675    11.1567   108.1714     7.9821     0.0638     2.4860     1.0000
  206.0000     7.0816     7.9102   -45.6009    10.7110   108.4145     7.9821     0.0627     2.4779     0.9883
  206.5000     6.9144     7.5862   -45.8345    10.3869   110.2699     7.9821     0.0607     2.4685     0.9639
  207.0000     6.7511     7.2754   -46.0677     9.9247   113.1056     7.9821     0.0587     2.4589     0.9415
  207.5000     6.5916     7.1306   -46.3018     9.4027   118.5191     7.9821     0.0567     2.4491     0.9291
  208.0000     6.4358     7.0627   -46.5350     8.9081   123.4217     7.9821     0.0557     2.4451     0.9170
  208.5000     6.2832     6.9956   -46.6922     8.4420   126.0389     7.9821     0.0550     2.4414     0.9145
  209.0000     6.1384     6.9814   -46.4368     7.9226   126.5395     7.9821     0.0544     2.4385     0.9124
  209.5000     6.1884     7.2796   -46.1881     8.7589   126.1641     7.9821     0.0537     2.4408     0.9176
  210.0000     6.3288     7.5025   -45.9400    10.4588   125.7454     7.9821     0.0531     2.4455     0.9236
  210.5000     6.4867     7.7042   -45.6945    10.3018   123.7797     7.9821     0.0524     2.4501     0.9295
  211.0000     6.6488     7.8674   -45.5121    10.1526   121.7999     7.9821     0.0534     2.4547     0.9355
  211.5000     6.8150     8.0316   -45.4531    10.0086   120.1187     7.9821     0.0560     2.4588     0.9414
  212.0000     6.9851     8.1996   -45.3920     9.9022   121.0230     7.9821     0.0586     2.4596     0.9473
