~VERSION INFORMATION
 VERS.                2.0:   CWLS LOG ASCII STANDARD - VERSION 2.0
 WRAP.                 NO:   ONE LINE PER DEPTH STEP
~WELL INFORMATION
#MNEM.UNIT      DATA TYPE    INFORMATION
#----------   ------------   ------------------------------
 STRT.F           30.0000:   START DEPTH
 STOP.F          481.0000:   STOP DEPTH
 STEP.F            0.5000:   STEP LENGTH
 NULL.          -999.2500:   NO VALUE
 COMP. FENIX & SCISSON INC:   COMPANY
 WELL.       NPR-3 #47-10:   WELL
 FLD .             TEAPOT:   FIELD
 LOC .      S10 T38N R78W:   LOCATION
 CNTY.            NATRONA:   COUNTY
 STAT.            WYOMING:   STATE
 CTRY. UNITED STATES OF AMERICA:   COUNTRY
 SRVC.           BIRDWELL:   SERVICE COMPANY
 DATE.        16-JUN-1978:   LOGDATE
 API .       490251064800:   API NUMBER
~CURVE INFORMATION
#MNEM.UNIT       API CODE    CURVE DESCRIPTION
#----------   ------------   ------------------------------
 DEPT.F                  :   
 SPR .MV     05 010 01 00:   SPONTANEOUS POTENTIAL FROM RES.
 SN  .OHMM   05 040 16 00:   SHORT NORMAL 16"
 ILD .OHMM   05 120 46 00:   INDUCTION LOG DEEP
 CALD.IN     45 280 60 00:   CALIPER FROM DENSITY LOG
 GRD .GAPI   45 310 01 00:   GAMMA RAY FROM DENSITY LOG
 CORR.G/C3   45 356 01 00:   DENSITY CORRECTION
 DPHI.DEC    45 890 12 00:   DENSITY POROSITY SANDSTONE
 DEN .G/C3   45 350 01 00:   COMPENSATED BULK DENSITY
~PARAMETER INFORMATION
#MNEM.UNIT          VALUE    DESCRIPTION
#----------   ------------   ------------------------------
 PD  .                 GL:   PERMANENT DATUM
 EPD .F              5200:   ELEVATION PERMANENT DATUM
 LMF .                 KB:   LOG MEASURED FROM
 DAPD.F                 4:   FEET ABOVE PERMANENT DATUM
 DMF .                 KB:   DRILLING MEASURED FROM
 EKB .F              5204:   KELLING BUSHING
 EGL .F              5200:   GROUND LEVEL
 DATE.        16-JUN-1978:   RUN DATE
 RUN .                  1:   RUN NUMBER
 DD  .F               513:   DEPTH DRILLER
 DL  .F               481:   DEPTH LOGGER
 BLI .F               475:   BOTTOM LOG INTERVAL
 TLI .F                40:   TOP LOG INTERVAL
 CS  .IN            8.625:   CASING SIZE
 CBD .F                40:   CASING BOTTOM DRILLER
 CBL .F                40:   CASING BOTTOM LOGGER
 BS  .IN            7.875:   BIT SIZE
 BSD .F               513:   BIT SIZE AT DEPTH
 DFT .                KCL:   DRILLING FLUID TYPE
 DFD .                8.6:   DRILLING FLUID DENSITY
 DFV .                 30:   DRILLING FLUID VISCOSITY
 DFPH.                 10:   DRILLING FLUID PH
 DFL .                 16:   DRILLING FLUID LOSS
 MSS .           FLOWLINE:   MUD SAMPLE SOURCE
 RMS .OHMM            .36:   RESISTIVITY MUD SAMPLE
 MST .F                72:   MUD SAMPLE TEMPERATURE
 RMF .OHMM            .34:   RESISTIVITY MUD FILTRATE SAMPLE
 MFST.F                70:   MUD FILTRATE SAMPLE TEMPERATURE
 RMC .OHMM            .52:   RESISTIVITY MUD CAKE
 MCST.F                72:   MUD CAKE SAMPLE TEMPERATURE
 MFSS.               MEAS:   MUD FILTRATE SAMPLE SOURCE
 MCSS.               MEAS:   MUD CAKE SAMPLE SOURCE
 RMB .OHMM            .32:   RESISTIVITY MUD AT BHT
 BHT .F                82:   BOTTOM HOLE TEMPERATURE
 TCS .HRS            0400:   TIME CURCULATED STOPPED
 MRT .F                82:   MAXIMUM RECORDED TEMPERATURE
 LUN .               2958:   LOGGING UNIT NUMBER
 LUL .               CASP:   LOGGING UNIT LOCATION
 ENGI.           REYNOLDS:   RECORDING ENGINEER
 WITN.           MCGINLEY:   WITNESSED BY
 CLNT.            A2DTECH:   CLIENT CODE
 ORIG.           5" PRINT:   ORIGIN OF DATA
 UWI .       490251064800:   UNIQUE WELL ID
 DICO. A2D Technologies, Inc.:   DIGITIZING COMPANY
~OTHER INFORMATION
~A   DEPT      SPR         SN        ILD       CALD         GRD      CORR       DPHI        DEN   
# ...
  111.0000   -54.3876     8.7792     7.8246     7.1989   118.9849     0.1083     0.1277     2.4744
  111.5000   -54.3891     8.7774     7.8214     7.2863   118.8503     0.1055     0.1159     2.4879
  112.0000   -54.3906     8.7756     7.8181     7.2310   117.1681     0.0953     0.1016     2.5097
  112.5000   -54.3921     8.7738     7.8149     7.2322   115.5998     0.0730     0.0944     2.5142
  113.0000   -54.3936     8.7720     7.7579     7.2334   111.7339     0.0449     0.0962     2.5098
  113.5000   -54.3951     8.7702     7.7013     7.1899   110.2523     0.0331     0.1015     2.4919
  114.0000   -54.2460     8.7684     7.5925     7.1163   117.4349     0.0302     0.1149     2.4680
  114.5000   -54.2479     8.7666     7.4852     7.0572   118.0466     0.0289     0.1380     2.4442
  115.0000   -54.2494     8.7044     7.3777     7.0000   118.0613     0.0276     0.1430     2.4352
  115.5000   -54.1004     8.6427     7.2195     6.9568   118.2252     0.0262     0.1466     2.4293
  116.0000   -53.8019     8.5223     6.9729     6.9133   118.0870     0.0234     0.1507     2.4286
  116.5000   -53.6529     8.2824     6.6907     6.9144   116.7621     0.0206     0.1528     2.4280
  117.0000   -53.2043     7.9913     6.5450     6.9602   112.8962     0.0237     0.1534     2.4281
  117.5000   -53.0553     7.6178     6.5029     6.8572   110.0751     0.0253     0.1543     2.4273
  118.0000   -52.6067     7.2468     6.5002     6.8558   107.5524     0.0193     0.1459     2.4416
  118.5000   -52.4577     6.8717     6.4970     6.9488   103.3880     0.0077     0.1365     2.4566
  119.0000   -52.3090     6.8230     6.6763     6.7417   103.2210     0.0079     0.1338     2.4604
  119.5000   -52.1604     6.9165     6.8613     6.6386   101.1179     0.0111     0.1326     2.4650
  120.0000   -52.7628     7.0599     7.1976     6.6409   101.6447     0.0127     0.1299     2.4688
  120.5000   -53.6652     7.3066     7.4475     6.6857   101.9543     0.0128     0.1244     2.4808
  121.0000   -54.4175     7.5619     7.6531     6.7167   101.2264     0.0100     0.1174     2.4853
  121.5000   -54.8694     7.8803     7.8101     6.7478   101.3903     0.0071     0.1133     2.4861
  122.0000   -54.8709     8.2122     7.9155     6.7490   103.9423     0.0058     0.1127     2.4862
  122.5000   -55.0226     8.4995     7.9123     6.7502   103.3600     0.0060     0.1130     2.4848
  123.0000   -55.0241     8.5567     7.8546     6.7362   100.9866     0.0076     0.1175     2.4826
  123.5000   -54.8754     8.3790     7.7436     6.7225   100.1058     0.0078     0.1210     2.4826
  124.0000   -54.8769     8.2623     7.6871     6.6942   101.0160     0.0079     0.1222     2.4888
  124.5000   -54.8784     8.2606     7.6839     6.6954   103.8665     0.0081     0.1150     2.4902
  125.0000   -54.8799     8.2589     7.6279     6.6814   108.6573     0.0082     0.1117     2.4903
  125.5000   -54.8784     8.3145     7.6247     6.6977   109.8661     0.0083     0.1113     2.4904
  126.0000   -54.7327     8.4284     7.5691     6.7435   108.5375     0.0085     0.1110     2.4912
  126.5000   -54.5841     8.5439     7.5139     6.7596   108.2536     0.0071     0.1101     2.4920
  127.0000   -54.5856     8.6018     7.5105     6.7459   108.4309     0.0058     0.1080     2.4898
  127.5000   -54.5871     8.5404     7.5077     6.6875   109.0523     0.0045     0.1148     2.4891
  128.0000   -54.5886     8.7175     7.5046     6.6135   109.4954     0.0031     0.1133     2.4892
  128.5000   -54.5901     8.7766     7.5015     6.5559   109.5101     0.0063     0.1108     2.4900
  129.0000   -54.5916     8.9586     7.5504     6.5252   109.3756     0.0139     0.1100     2.4863
  129.5000   -54.5931     9.0813     7.5473     6.4839   109.5395     0.0200     0.1195     2.4848
  130.0000   -54.5949     9.1424     7.5965     6.5002   109.7035     0.0201     0.1177     2.4849
  130.5000   -54.5964     9.1401     7.5934     6.5311   109.7181     0.0203     0.1168     2.4857
  131.0000   -54.5979     9.0753     7.5900     6.6067   110.0313     0.0249     0.1158     2.4850
  131.5000   -54.4490     9.0734     7.6405     6.6972   111.5386     0.0295     0.1146     2.4851
  132.0000   -54.4507     9.0091     7.6896     6.7728   113.9413     0.0386     0.1191     2.4866
  132.5000   -54.4520     9.0072     7.7397     6.8483   115.0008     0.0417     0.1193     2.4889
  133.0000   -54.6039     8.9433     7.6832     6.9834   116.2095     0.0404     0.1133     2.4972
  133.5000   -54.7552     8.8188     7.6271     7.0888   115.1794     0.0388     0.1118     2.4973
  134.0000   -54.7567     8.6960     7.5715     7.1197   113.8508     0.0318     0.1076     2.4966
  134.5000   -54.6080     8.6343     7.5163     7.1057   113.4178     0.0140     0.1031     2.4959
  135.0000   -54.6097     8.5731     7.4614     7.0774   113.2832     0.0142     0.1045     2.4945
  135.5000   -54.6111     8.6307     7.4070     7.1976   111.1420     0.0143     0.1120     2.4826
  136.0000   -54.4623     8.6290     7.4032     7.2139   105.2529     0.0145     0.1198     2.4826
  136.5000   -54.4642     8.6272     7.3499     7.0951   109.7489     0.0146     0.1173     2.4894
  137.0000   -54.4114     8.6852     7.3469     7.0672   111.2561     0.0148     0.1136     2.4940
  137.5000   -54.3166     8.6834     7.3438     7.0834   111.5693     0.0149     0.1119     2.4955
  138.0000   -54.3185     8.6816     7.3407     7.0996   112.0318     0.0151     0.1089     2.4971
  138.5000   -54.1695     8.6798     7.3377     7.1008   112.7927     0.0152     0.1068     2.4979
  139.0000   -54.0208     8.6780     7.3347     7.1020   113.1022     0.0154     0.1082     2.4964
  139.5000   -53.8722     8.7364     7.3317     7.1032   112.2251     0.0140     0.1094     2.4935
  140.0000   -53.7235     8.7345     7.3280     7.1043   111.6391     0.0097     0.1064     2.4921
  140.5000   -53.7254     8.7327     7.2745     7.0903   113.1500     0.0068     0.1153     2.4914
  141.0000   -53.7269     8.7309     7.2215     7.0323   114.6572     0.0055     0.1120     2.4915
  141.5000   -53.5778     8.7291     7.1688     6.9590   114.5224     0.0057     0.1096     2.4915
  142.0000   -53.5797     8.7273     7.1165     6.9153   114.6866     0.0058     0.1116     2.4916
  142.5000   -53.5812     8.7255     7.1136     7.0060   115.2985     0.0060     0.1119     2.4915
  143.0000   -53.5826     8.7237     7.1106     6.9922   114.1000     0.0046     0.1104     2.4902
  143.5000   -53.5842     8.6617     7.0588     6.9935   109.9026     0.0048     0.1097     2.4888
  144.0000   -53.5858     8.6599     7.0559     7.0095   110.2714     0.0049     0.1112     2.4873
  144.5000   -53.7372     8.5985     7.0529     7.0256   112.0772     0.0066     0.1145     2.4852
  145.0000   -53.7388     8.5375     7.0500     7.0268   112.6889     0.0067     0.1157     2.4837
  145.5000   -53.7402     8.4770     7.0471     6.9833   112.2558     0.0084     0.1153     2.4823
  146.0000   -53.7418     8.2442     7.0938     6.9846   111.5242     0.0085     0.1178     2.4801
  146.5000   -53.8934     8.0734     7.1393     7.0455   110.9383     0.0101     0.1240     2.4779
  147.0000   -53.8952     8.0162     7.1866     7.0764   111.2515     0.0103     0.1198     2.4825
  147.5000   -54.0468     8.1261     7.2334     7.0475   108.2847     0.0119     0.1206     2.4840
  148.0000   -54.0481     8.2374     7.2806     7.0189   106.3591     0.0121     0.1194     2.4841
  148.5000   -54.0498     8.3503     7.3280     7.0502   105.0305     0.0122     0.1194     2.4849
  149.0000   -54.0512     8.4648     7.4262     6.9918   103.1049     0.0124     0.1173     2.4887
  149.5000   -53.9023     8.5217     7.4746     6.9186   102.9702     0.0140     0.1103     2.4962
  150.0000   -53.9039     8.5200     7.4895     6.8897   106.8657     0.0141     0.1100     2.4963
  150.5000   -53.9084     8.7387     7.5935     6.9394   107.7817     0.0125     0.1112     2.4989
  151.0000   -53.9136     8.9374     7.6975     6.9820   107.6456     0.0100     0.1043     2.5017
