~VERSION INFORMATION
 VERS.                2.0:   CWLS LOG ASCII STANDARD - VERSION 2.0
 WRAP.                 NO:   ONE LINE PER DEPTH STEP
~WELL INFORMATION
#MNEM.UNIT      DATA TYPE    INFORMATION
#----------   ------------   ------------------------------
 STRT.F           30.0000:   START DEPTH
 STOP.F          570.0000:   STOP DEPTH
 STEP.F            0.5000:   STEP LENGTH
 NULL.          -999.2500:   NO VALUE
 COMP.    FENIX & SCISSON:   COMPANY
 WELL.  NPR #3 #13SX11-11:   WELL
 FLD .             TEAPOT:   FIELD
 LOC .      S11 T38N R78W:   LOCATION
 CNTY.            NATRONA:   COUNTY
 STAT.            WYOMING:   STATE
 CTRY. UNITED STATES OF AMERICA:   COUNTRY
 SRVC.       Schlumberger:   SERVICE COMPANY
 DATE.        27-FEB-1977:   LOGDATE
 API .       490251029400:   API NUMBER
~CURVE INFORMATION
#MNEM.UNIT       API CODE    CURVE DESCRIPTION
#----------   ------------   ------------------------------
 DEPT.F                  :   
 GRD .GAPI   45 310 01 00:   GAMMA RAY FROM DENSITY LOG
 CALD.IN     45 280 60 00:   CALIPER FROM DENSITY LOG
 CORR.G/C3   45 356 01 00:   DENSITY CORRECTION
 DPHI.DEC    45 890 12 00:   DENSITY POROSITY STANDSTONE
 RHOB.G/C3   45 350 01 00:   BULK DENSITY
 SPR .MV     07 010 01 00:   SPONTANEOUS POTENTIAL
 ILD .OHMM   07 120 46 00:   INDUCTION LOG DEEP
 ILM .OHMM   07 120 44 00:   INDUCTION LOG MEDIUM
 LL8 .OHMM   07 220 08 00:   LATEROLOG-8 RES.
~PARAMETER INFORMATION
#MNEM.UNIT          VALUE    DESCRIPTION
#----------   ------------   ------------------------------
 PD  .                 GL:   PERMANENT DATUM
 EPD .F              5180:   ELEVATION PERMANENT DATUM
 LMF .                 GL:   LOG MEASURED FROM
 DAPD.F                 0:   FEET ABOVE PERMANENT DATUM
 DMF .                 GL:   DRILLING MEASURED FROM
 EKB .F              5183:   KELLING BUSHING
 EGL .F              5180:   GROUND LEVEL
 DATE.        27-FEB-1977:   RUN DATE
 RUN .                  1:   RUN NUMBER
 DD  .F               585:   DEPTH DRILLER
 DL  .F               571:   DEPTH LOGGER
 BLI .F               570:   BOTTOM LOG INTERVAL
 TLI .F                44:   TOP LOG INTERVAL
 CS  .IN            8.625:   CASING SIZE
 CBD .F                40:   CASING BOTTOM DRILLER
 CBL .F                44:   CASING BOTTOM LOGGER
 BS  .IN            7.875:   BIT SIZE
 BSD .F               585:   BIT SIZE AT DEPTH
 DFT .                KCL:   DRILLING FLUID TYPE
 DFD .                8.7:   DRILLING FLUID DENSITY
 DFV .                 42:   DRILLING FLUID VISCOSITY
 DFPH.                  8:   DRILLING FLUID PH
 DFL .                9.2:   DRILLING FLUID LOSS
 MSS .                PIT:   MUD SAMPLE SOURCE
 RMS .OHMM           .806:   RESISTIVITY MUD SAMPLE
 MST .F                70:   MUD SAMPLE TEMPERATURE
 RMF .OHMM           .720:   RESISTIVITY MUD FILTRATE SAMPLE
 MFST.F                70:   MUD FILTRATE SAMPLE TEMPERATURE
 MFSS.               MEAS:   MUD FILTRATE SAMPLE SOURCE
 RMB .OHMM           .973:   RESISTIVITY MUD AT BHT
 BHT .F                58:   BOTTOM HOLE TEMPERATURE
 TCS .HRS            0230:   TIME CURCULATED STOPPED
 MRT .F                58:   MAXIMUM RECORDED TEMPERATURE
 LUN .               5642:   LOGGING UNIT NUMBER
 LUL .             CASPER:   LOGGING UNIT LOCATION
 ENGI.         JIM MARTIN:   RECORDING ENGINEER
 WITN.         STUEBINGER:   WITNESSED BY
 CLNT.            A2DTECH:   CLIENT CODE
 ORIG.           5" PRINT:   ORIGIN OF DATA
 UWI .       490251029400:   UNIQUE WELL ID
 DICO. A2D Technologies, Inc.:   DIGITIZING COMPANY
~OTHER INFORMATION
~A   DEPT      GRD       CALD       CORR       DPHI       RHOB        SPR        ILD        ILM        LL8   
# ...
  322.0000   120.6018     8.1551     0.0006     0.1160     2.4637   -27.9456     6.0126     5.9697     7.8305
  322.5000   121.2025     8.1554     0.0185     0.1118     2.4690   -27.9456     5.8041     5.6856     7.8278
  323.0000   122.1057     8.1557     0.0215     0.1170     2.4518   -27.9456     5.4679     5.3777     7.9897
  323.5000   123.0089     8.1560     0.0072     0.1230     2.4434   -27.7946     5.0531     5.1218     8.1549
  324.0000   124.0634     8.1563     0.0169     0.1140     2.4689   -27.7946     4.9818     5.1207     7.6058
  324.5000   128.1437     8.1566     0.0206     0.1122     2.4599   -27.4924     4.9801     5.2637     5.0500
  325.0000   132.0726     8.1569     0.0296     0.1191     2.4471   -27.1903     5.1184     5.5244     4.8762
  325.5000   133.7323     8.1572     0.0333     0.1125     2.4658   -26.8882     5.2606     5.7980     5.2696
  326.0000   127.3031     8.1575     0.0123     0.1128     2.4650   -26.5861     5.5975     6.0852     6.1543
  326.5000   125.2088     8.1578     0.0250     0.1225     2.4320   -26.4350     5.9148     6.3424     7.2112
  327.0000   124.1311     8.1581     0.0018     0.1466     2.4109   -25.9819     6.1215     6.6106     7.8342
  327.5000   122.3668     8.1584     0.0137     0.1556     2.4004   -25.5287     6.3353     6.8900     8.4774
  328.0000   121.9095     8.1587     0.0152     0.1448     2.4000   -25.3776     6.6482     7.1317     8.3577
  328.5000   124.1732     8.1590     0.0174     0.1320     2.4357   -25.3776     6.9283     7.3818     8.0143
  329.0000   126.2867     8.1593     0.0211     0.1178     2.4672   -25.3776     7.4233     7.6407     7.9562
  329.5000   125.3745     8.1596     0.0248     0.1093     2.4814   -25.5287     7.5250     7.7459     8.4072
  330.0000   124.6147     8.1599     0.0181     0.1163     2.4743   -25.9819     7.5218     7.7442     8.9457
  330.5000   126.4246     8.1602     0.0098     0.1199     2.4578   -26.4350     7.4672     7.6360     9.1942
  331.0000   127.6304     8.1605     0.0008     0.1193     2.4504   -27.0393     7.4131     7.5816     9.3850
  331.5000   128.8362     8.1608     0.0052     0.1139     2.4542   -27.3414     7.3593     7.4757     9.4471
  332.0000   129.5892     8.1762     0.0119     0.1115     2.4745   -27.6435     7.3568     7.4225     9.3130
  332.5000   125.9528     8.1765     0.0164     0.1127     2.4730   -27.7946     7.3543     7.4209     9.2455
  333.0000   122.7713     8.1768     0.0066     0.1164     2.4527   -27.4924     7.4029     7.4194     9.1784
  333.5000   120.3462     8.1771     0.0059     0.1194     2.4452   -27.1883     7.4004     7.4178     9.1119
  334.0000   119.9183     8.1802     0.0051     0.1131     2.4684   -26.8802     7.3951     7.4245     9.1087
  334.5000   122.4552     8.1928     0.0049     0.1146     2.4737   -26.5861     7.3441     7.4664     9.1056
  335.0000   123.9636     8.1931    -0.0040     0.1212     2.4556   -26.5861     7.3414     7.5168     9.1025
  335.5000   125.0181     8.2085    -0.0115     0.1285     2.4203   -26.4350     7.3902     7.5672     8.9120
  336.0000   125.6309     8.2088    -0.0130     0.1333     2.4158   -26.2840     7.3870     7.5656     8.6652
  336.5000   127.4518     8.2091    -0.0078     0.1201     2.4548   -26.4350     7.3845     7.5641     8.6622
  337.0000   128.3330     8.2245    -0.0018     0.1138     2.4630   -26.5861     7.3820     7.6155     8.7874
  337.5000   126.3868     8.2248    -0.0064     0.1228     2.4428   -26.5861     7.3794     7.6670     8.8998
  338.0000   124.3894     8.2099     0.0048     0.1192     2.4442   -26.4350     7.3259     7.6650     9.1462
  338.5000   123.7798     8.1951     0.0071     0.1234     2.4405   -26.2840     7.3234     7.6634     9.2067
  339.0000   124.9856     8.1803     0.0108     0.1177     2.4570   -26.4350     7.2703     7.5563     9.1400
  339.5000   126.7965     8.1656     0.0115     0.1123     2.4704   -26.8882     7.1677     7.4507     8.8868
  340.0000   128.7588     8.1659     0.0017     0.1193     2.4486   -27.3414     7.0177     7.2453     8.1744
  340.5000   129.5118     8.1662     0.0054     0.1108     2.4711   -27.6435     6.7293     6.7585     8.2284
  341.0000   127.0857     8.1665     0.0159     0.1097     2.4764   -27.7946     6.2329     6.2607     8.8777
  341.5000   125.4170     8.1668     0.0189     0.1067     2.4921   -27.9456     5.8133     5.8807    10.9273
  342.0000   124.6572     8.1671     0.0241     0.1037     2.5034   -27.7946     5.6921     5.8795     9.5087
  342.5000   127.0722     8.1674     0.0215     0.1113     2.4884   -27.3414     5.9314     6.0018     5.0568
  343.0000   127.9754     8.1678     0.0084     0.1243     2.4423   -26.8882     5.9712     6.0845     5.4938
  343.5000   129.9377     8.1681    -0.0082     0.1382     2.3942   -26.2840     5.9686     6.1681     6.5317
  344.0000   133.7153     8.1684    -0.0060     0.1340     2.4048   -25.9819     5.9666     6.1242     6.9500
  344.5000   135.9801     8.1838    -0.0023     0.1330     2.4274   -25.5287     5.8417     6.0386     7.1928
  345.0000   137.0347     8.1841     0.0029     0.1538     2.4049   -25.9819     5.6406     5.7913     8.0901
  345.5000   137.9379     8.1994     0.0149     0.1568     2.3928   -26.2840     5.4089     5.4396     9.5520
  346.0000   136.4205     8.1997     0.0171     0.1532     2.3966   -26.5861     5.0438     5.1081    10.4496
  346.5000   137.3238     8.2000     0.0133     0.1294     2.4326   -26.5781     4.8374     4.9687     9.7426
  347.0000   137.6299     8.2003     0.0298     0.1033     2.4821   -25.9819     4.8023     4.9676     5.1899
  347.5000   136.6641     8.2006     0.0335     0.0978     2.5076   -25.3776     4.8051     5.0763     3.9534
  348.0000   134.3247     8.2009     0.0275     0.1039     2.4978   -25.3776     4.8661     5.2489     4.7366
  348.5000   131.2533     8.2163     0.0187     0.1168     2.4528   -25.9819     5.0707     5.5086     6.6919
  349.0000   130.4923     8.2166     0.0102     0.1250     2.4325   -26.5861     5.3581     5.7021     7.1700
  349.5000   132.4546     8.2169     0.0116     0.1319     2.4167   -26.8882     5.7013     5.9842     7.5765
  350.0000   134.5692     8.2172     0.0176     0.1477     2.3794   -27.1903     6.2371     6.2165     7.8418
  350.5000   128.5174     8.2166     0.0213     0.1674     2.3674   -26.8900     6.7760     6.4839     7.8394
  351.0000   125.7943     8.2160     0.0236     0.1766     2.3610   -27.0425     6.9649     6.8345     7.8917
  351.5000   124.2814     8.2154     0.0078     0.1612     2.4142   -27.0440     7.1270     7.1087     7.9997
  352.0000   123.5250     8.2148    -0.0005     0.1239     2.4480   -27.0455     7.1747     7.1057     8.3954
  352.5000   127.0045     8.2142    -0.0035     0.1215     2.4509   -26.8955     7.1728     7.1033     8.6302
  353.0000   126.3994     8.2136    -0.0051     0.1279     2.4471   -26.8974     6.8730     6.9066     8.8135
  353.5000   120.9531     8.2279    -0.0058     0.1294     2.4328   -26.5964     6.4001     6.5316     9.1264
  354.0000   118.5325     8.2575     0.0009     0.1288     2.4282   -26.5982     5.7433     6.0918    10.3252
  354.5000   116.7171     8.2722     0.0039     0.1249     2.4477   -26.5997     5.3579     5.6425    11.2971
  355.0000   115.5068     8.2412     0.0061     0.1144     2.4634   -27.0544     5.1387     5.3732     6.9498
  355.5000   117.3222     8.2105     0.0083     0.1072     2.4783   -27.0559     5.1020     5.2244     4.6468
  356.0000   118.9864     8.1948    -0.0009     0.1132     2.4813   -26.9063     5.1364     5.1866     5.5251
  356.5000   121.7095     8.1791     0.0040     0.1259     2.4301   -26.6060     5.2789     5.2209     7.0412
  357.0000   123.9788     8.1634     0.0090     0.1193     2.4496   -26.1544     5.5779     5.3659     6.4771
  357.5000   126.5507     8.1628     0.0112     0.1332     2.4030   -25.7023     5.8939     5.6781     5.5210
  358.0000   129.8991     8.1472     0.0299     0.1423     2.4347   -25.8552     6.3585     6.2186     7.0844
