~VERSION INFORMATION
 VERS.                2.0:   CWLS LOG ASCII STANDARD - VERSION 2.0
 WRAP.                 NO:   ONE LINE PER DEPTH STEP
~WELL INFORMATION
#MNEM.UNIT      DATA TYPE    INFORMATION
#----------   ------------   ------------------------------
 STRT.F           87.0000:   START DEPTH
 STOP.F          987.0000:   STOP DEPTH
 STEP.F            0.5000:   STEP LENGTH
 NULL.          -999.2500:   NO VALUE
 COMP.   FLUOR DANIEL INC:   COMPANY
 WELL. NAVAL PETROLEUM RESERVE 3 SH-2 #53-2:   WELL
 FLD .        TEAPOT DOME:   FIELD
 LOC .       S2 T38N R78W:   LOCATION
 CNTY.            NATRONA:   COUNTY
 STAT.            WYOMING:   STATE
 CTRY. UNITED STATES OF AMERICA:   COUNTRY
 SRVC. Schlumberger Well Surveying Corp:   SERVICE COMPANY
 DATE.        17-JUL-1963:   LOGDATE
 API .       490250645200:   API NUMBER
~CURVE INFORMATION
#MNEM.UNIT       API CODE    CURVE DESCRIPTION
#----------   ------------   ------------------------------
 DEPT.F                  :   
 GR  .GAPI   30 310 01 00:   GAMMA RAY
 SPR .MV     05 010 01 00:   SPONTANEOUS POTENTIAL
 CILD.MMHO   05 110 46 00:   CONDUCTIVITY INDUCTION LOG DEEP
 ILD .OHMM   05 120 46 00:   INDUCTION LOG DEEP
 ASN .OHMM   05 041 16 00:   AMPLIFIED SHORT NORMAL 16"
~PARAMETER INFORMATION
#MNEM.UNIT          VALUE    DESCRIPTION
#----------   ------------   ------------------------------
 PD  .                 GL:   PERMANENT DATUM
 EPD .F              5165:   ELEVATION PERMANENT DATUM
 LMF .                 KB:   LOG MEASURED FROM
 DAPD.F                 5:   FEET ABOVE PERMANENT DATUM
 DMF .                 KB:   DRILLING MEASURED FROM
 EKB .F              5170:   KELLING BUSHING
 EGL .F              5165:   GROUND LEVEL
 DATE.          7-17-1963:   RUN DATE
 RUN .                  1:   RUN NUMBER
 DD  .F               986:   DEPTH DRILLER
 DL  .F               987:   DEPTH LOGGER
 BLI .F               986:   BOTTOM LOG INTERVAL
 TLI .F                30:   TOP LOG INTERVAL
 CS  .IN            8.625:   CASING SIZE
 CBD .F                10:   CASING BOTTOM DRILLER
 BS  .IN            7.875:   BIT SIZE
 BSD .F               986:   BIT SIZE AT DEPTH
 DFT .            GEL-OIL:   DRILLING FLUID TYPE
 DFD .                9.4:   DRILLING FLUID DENSITY
 DFV .                 67:   DRILLING FLUID VISCOSITY
 DFPH.                8.5:   DRILLING FLUID PH
 DFL .                4.6:   DRILLING FLUID LOSS
 MSS .           FLOWLINE:   MUD SAMPLE SOURCE
 RMS .OHMM           3.37:   RESISTIVITY MUD SAMPLE
 MST .F                79:   MUD SAMPLE TEMPERATURE
 RMF .OHMM           1.49:   RESISTIVITY MUD FILTRATE SAMPLE
 MFST.F                83:   MUD FILTRATE SAMPLE TEMPERATURE
 MFSS.           MEASURED:   MUD FILTRATE SAMPLE SOURCE
 BHT .F                80:   BOTTOM HOLE TEMPERATURE
 TCS .HRS            0030:   TIME CURCULATED STOPPED
 MRT .F                80:   MAXIMUM RECORDED TEMPERATURE
 LUN .               4507:   LOGGING UNIT NUMBER
 LUL .              CSPR.:   LOGGING UNIT LOCATION
 ENGI.            WINKLER:   RECORDING ENGINEER
 WITN.          JORGENSON:   WITNESSED BY
 CLNT.            A2DTECH:   CLIENT CODE
 ORIG.      2" & 5" PRINT:   ORIGIN OF DATA
 UWI .       490250645200:   UNIQUE WELL ID
 DICO. A2D Technologies, Inc.:   DIGITIZING COMPANY
~OTHER INFORMATION
~A   DEPT       GR        SPR       CILD          ILD        ASN 
# ...
  209.0000  -999.2500   -66.6776   121.0452     8.4232     9.0474
  209.5000  -999.2500   -66.7444   123.2563     8.3281     8.9950
  210.0000  -999.2500   -66.8114   125.4673     8.2331     8.9426
  210.5000  -999.2500   -66.8777   127.0100     8.1379     8.8911
  211.0000  -999.2500   -66.9477   128.1766     8.0799     8.7861
  211.5000  -999.2500   -66.7995   128.5355     8.0590     8.6610
  212.0000  -999.2500   -66.5729   128.8972     8.0380     8.5598
  212.5000  -999.2500   -66.6174   128.9893     8.0171     8.5378
  213.0000  -999.2500   -66.6691   128.4591     7.9955     8.5587
  213.5000  -999.2500   -66.7207   127.9291     8.0114     8.5766
  214.0000  -999.2500   -66.7594   127.4002     8.0416     8.5896
  214.5000  -999.2500   -66.5943   126.8712     8.0722     8.6119
  215.0000  -999.2500   -66.4249   126.3422     8.1027     8.7034
  215.5000  -999.2500   -66.3664   125.8133     8.1333     8.7599
  216.0000  -999.2500   -66.3582   125.2843     8.1640     8.7584
  216.5000  -999.2500   -66.0681   125.8794     8.1807     8.7357
  217.0000  -999.2500   -66.0212   126.9562     8.0845     8.6578
  217.5000  -999.2500   -66.0933   128.0330     7.9868     8.6119
  218.0000  -999.2500   -66.1674   130.0251     7.8895     8.5808
  218.5000  -999.2500   -66.2928   132.1189     7.7921     8.5399
  219.0000  -999.2500   -66.3941   134.2127     7.6945     8.4171
  219.5000  -999.2500   -66.4607   136.3065     7.5980     8.2929
  220.0000  -999.2500   -66.5272   138.1909     7.5875     8.2144
  220.5000  -999.2500   -66.5668   137.1564     7.5858     8.1949
  221.0000  -999.2500   -66.5667   135.0872     7.6940     8.2168
  221.5000  -999.2500   -66.5638   133.0180     7.8470     8.2883
  222.0000  -999.2500   -66.4885   131.3104     7.8384     8.4529
  222.5000  -999.2500   -66.4111   132.8566     7.7673     8.6134
  223.0000  -999.2500   -66.3669   134.4029     7.6962     8.5485
  223.5000  -999.2500   -66.4283   133.8489     7.7291     8.4346
  224.0000  -999.2500   -66.4914   132.7731     7.7751     8.6322
  224.5000  -999.2500   -66.5563   131.6942     7.8209     8.7472
  225.0000  -999.2500   -66.5217   131.7839     7.8666     8.5474
  225.5000  -999.2500   -66.4661   133.0402     7.8644     8.3613
  226.0000  -999.2500   -66.4103   134.1275     7.8140     8.2013
  226.5000  -999.2500   -66.3643   133.6943     7.7966     8.0890
  227.0000  -999.2500   -66.3650   133.2611     7.8118     8.2649
  227.5000  -999.2500   -66.3653   132.8279     7.8270     8.4602
  228.0000  -999.2500   -66.3681   132.3947     7.8422     8.6580
  228.5000  -999.2500   -66.5144   131.9615     7.8575     8.7331
  229.0000  -999.2500   -66.7599   131.5283     7.8726     8.7314
  229.5000  -999.2500   -66.7273   131.0951     7.8880     8.7044
  230.0000  -999.2500   -66.7000   130.6619     7.9145     8.5589
  230.5000  -999.2500   -66.6715   130.2287     7.9423     8.3710
  231.0000  -999.2500   -66.6433   129.7955     7.9706     8.3747
  231.5000  -999.2500   -66.6151   129.3623     8.0183     8.5992
  232.0000  -999.2500   -66.5869   127.8926     8.1169     8.8084
  232.5000  -999.2500   -66.5586   125.3789     8.2147     9.0007
  233.0000  -999.2500   -66.5304   122.8627     8.3124     9.0689
  233.5000  -999.2500   -66.5022   121.1055     8.4101     9.0897
  234.0000  -999.2500   -66.4740   119.6698     8.5080     9.1086
  234.5000  -999.2500   -66.4457   118.2340     8.6058     9.1826
  235.0000  -999.2500   -66.4173   117.5879     8.6951     9.2778
  235.5000  -999.2500   -66.3891   117.0296     8.7151     9.3735
  236.0000  -999.2500   -66.3715   116.4713     8.7341     9.4704
  236.5000  -999.2500   -66.4179   115.9129     8.7534     9.4965
  237.0000  -999.2500   -66.4636   115.3546     8.7729     9.4586
  237.5000  -999.2500   -66.5091   114.7962     8.7919     9.3466
  238.0000  -999.2500   -66.5546   114.2379     8.7703     9.4326
  238.5000  -999.2500   -66.6414   114.4221     8.7438     9.4772
  239.0000  -999.2500   -66.7451   114.9246     8.7173     9.4529
  239.5000  -999.2500   -66.7529   116.0347     8.6908     9.4258
  240.0000  -999.2500   -66.7344   117.4052     8.6644     9.3747
  240.5000  -999.2500   -66.7152   118.2101     8.6379     9.3137
  241.0000  -999.2500   -66.6963   118.4494     8.6114     9.3070
  241.5000  -999.2500   -66.6774   118.6887     8.5807     9.3176
  242.0000  -999.2500   -66.6585   118.9280     8.5390     9.2080
  242.5000  -999.2500   -66.6396   119.7236     8.4962     8.9762
  243.0000  -999.2500   -66.6207   121.8174     8.3636     8.8119
  243.5000  -999.2500   -66.6021   123.9112     8.2198     8.9244
  244.0000  -999.2500   -66.5834   127.1357     8.0760     9.0345
  244.5000  -999.2500   -66.5415   130.3601     7.9316     8.9353
  245.0000  -999.2500   -66.3421   132.4539     7.8382     8.7338
  245.5000  -999.2500   -66.1403   134.5477     7.7643     8.5249
  246.0000  -999.2500   -65.9396   135.7966     7.6909     8.3074
  246.5000  -999.2500   -65.7662   136.6834     7.6174     8.0931
  247.0000  -999.2500   -65.8437   137.5702     7.5438     8.0781
  247.5000  -999.2500   -65.9182   138.7940     7.4703     8.1067
  248.0000  -999.2500   -65.9917   140.8040     7.3967     8.0274
  248.5000  -999.2500   -66.0651   142.8141     7.3233     7.8110
  249.0000  -999.2500   -66.1385   144.9749     7.1968     7.7749
  249.5000  -999.2500   -66.2120   148.4250     7.0174     8.0637
  250.0000  -999.2500   -66.2862   152.8127     6.8381     8.0597
  250.5000  -999.2500   -66.3614   157.2004     6.6585     7.7193
  251.0000  -999.2500   -66.3225   161.5881     6.4789     7.4373
  251.5000  -999.2500   -66.2738   165.9758     6.3018     7.2540
  252.0000  -999.2500   -66.2256   170.3634     6.1868     7.0798
  252.5000  -999.2500   -66.1792   172.3966     6.2134     6.9261
  253.0000  -999.2500   -65.9902   171.9550     6.2371     6.6766
  253.5000  -999.2500   -65.7576   169.2707     6.2614     6.4127
  254.0000  -999.2500   -65.5698   166.5961     6.3003     6.6966
  254.5000  -999.2500   -65.6598   163.9249     6.4140     7.3668
  255.0000  -999.2500   -65.7519   161.2536     6.5270     7.4354
  255.5000  -999.2500   -65.5393   158.5824     6.6399     7.4415
  256.0000  -999.2500   -65.3914   155.9111     6.7530     7.4149
  256.5000  -999.2500   -65.4747   153.2399     6.8669     7.3347
  257.0000  -999.2500   -65.5548   151.6111     6.8846     7.2964
  257.5000  -999.2500   -65.6359   150.6010     6.8847     7.3024
  258.0000  -999.2500   -65.7194   150.2448     6.8847     7.3399
  258.5000  -999.2500   -65.9076   150.2513     6.8855     7.3912
  259.0000  -999.2500   -66.2510   150.2513     6.8780     7.4755
  259.5000  -999.2500   -66.3085   152.2613     6.7436     7.5301
  260.0000  -999.2500   -66.2272   156.6834     6.6109     7.4380
  260.5000  -999.2500   -66.1425   160.7437     6.4792     7.3248
  261.0000  -999.2500   -66.0579   164.8040     6.3475     7.1531
  261.5000  -999.2500   -65.9736   168.4909     6.2115     7.0286
  262.0000  -999.2500   -65.8892   169.2916     6.1662     6.8850
  262.5000  -999.2500   -65.8049   170.1472     6.1454     6.7191
  263.0000  -999.2500   -65.7205   170.9883     6.1253     6.6431
  263.5000  -999.2500   -65.6362   171.3568     6.1049     6.6575
  264.0000  -999.2500   -65.5498   170.6533     6.0828     6.7221
  264.5000  -999.2500   -65.4674   168.7862     6.1431     6.8926
  265.0000  -999.2500   -65.3802   166.9100     6.2231     7.1771
  265.5000  -999.2500   -65.3617   165.0474     6.3039     7.3463
  266.0000  -999.2500   -65.3741   164.4000     6.3809     7.2210
  266.5000  -999.2500   -65.4121   164.8356     6.3491     7.0900
  267.0000  -999.2500   -65.4496   165.2590     6.3081     6.9664
  267.5000  -999.2500   -65.4872   165.6831     6.2673     6.9458
  268.0000  -999.2500   -65.5249   166.1092     6.2265     6.9573
  268.5000  -999.2500   -65.5611   166.3400     6.1862     6.9757
  269.0000  -999.2500   -65.5625   166.3183     6.1796     7.0234
  269.5000  -999.2500   -65.5623   164.6244     6.2480     7.0654
