~VERSION INFORMATION
 VERS.                2.0:   CWLS LOG ASCII STANDARD - VERSION 2.0
 WRAP.                 NO:   ONE LINE PER DEPTH STEP
~WELL INFORMATION
#MNEM.UNIT      DATA TYPE    INFORMATION
#----------   ------------   ------------------------------
 STRT.F           24.5000:   START DEPTH
 STOP.F          750.0000:   STOP DEPTH
 STEP.F            0.5000:   STEP LENGTH
 NULL.          -999.2500:   NO VALUE
 COMP. FENIX & SCISSON INC:   COMPANY
 WELL.    NPR 3 SX #35-11:   WELL
 FLD .          N.P.R. #3:   FIELD
 LOC .      S11 T38N R78W:   LOCATION
 CNTY.            NATRONA:   COUNTY
 STAT.            WYOMING:   STATE
 CTRY. UNITED STATES OF AMERICA:   COUNTRY
 SRVC.            Unknown:   SERVICE COMPANY
 DATE.        23-FEB-1978:   LOGDATE
 API .       490251027200:   API NUMBER
~CURVE INFORMATION
#MNEM.UNIT       API CODE    CURVE DESCRIPTION
#----------   ------------   ------------------------------
 DEPT.F                  :   
 ILM .OHMM   07 120 44 00:   INDUCTION LOG MEDIUM
 ILD .OHMM   07 120 46 00:   INDUCTION LOG DEEP
 LL8 .OHMM   07 220 08 00:   LATEROLOG-8 RES.
 SPR .MV     07 010 01 00:   SPONTANEOUS POTENTIAL
 CALD.IN     45 280 60 00:   CALIPER FROM DENSITY LOG
 CORR.G/C3   45 356 01 00:   DENSITY CORRECTION
 DPHI.DEC    45 890 12 00:   DENSITY POROSITY SANDSTONE
 GRD .GAPI   45 310 01 00:   GAMMA RAY FROM DENSITY LOG
 RHOB.G/C3   45 350 01 00:   BULK DENSITY
 IL  .OHMM   05 120 40 00:   INDUCTION RESISTIVITY
 SN  .OHMM   05 040 16 00:   SHORT NORMAL 16"
 SPR1.MV     05 010 01 00:   SPONTANEOUS POTENTIAL INDUCTION ELECTRICAL LOG
~PARAMETER INFORMATION
#MNEM.UNIT          VALUE    DESCRIPTION
#----------   ------------   ------------------------------
 PD  .                 GL:   PERMANENT DATUM
 EPD .F              5204:   ELEVATION PERMANENT DATUM
 LMF .                 KB:   LOG MEASURED FROM
 DAPD.F                 4:   FEET ABOVE PERMANENT DATUM
 DMF .                 KB:   DRILLING MEASURED FROM
 EKB .F              5208:   KELLING BUSHING
 EGL .F              5204:   GROUND LEVEL
 DATE.        23-FEB-1978:   RUN DATE
 RUN .                  1:   RUN NUMBER
 DD  .F               755:   DEPTH DRILLER
 DL  .F               751:   DEPTH LOGGER
 BLI .F               745:   BOTTOM LOG INTERVAL
 TLI .F                45:   TOP LOG INTERVAL
 CS  .IN            8.625:   CASING SIZE
 CBD .F                40:   CASING BOTTOM DRILLER
 CBL .F                40:   CASING BOTTOM LOGGER
 BS  .IN            7.875:   BIT SIZE
 BSD .F               755:   BIT SIZE AT DEPTH
 DFT .         LIGNO SULF:   DRILLING FLUID TYPE
 DFD .                8.7:   DRILLING FLUID DENSITY
 DFV .                 33:   DRILLING FLUID VISCOSITY
 DFPH.                 10:   DRILLING FLUID PH
 DFL .                  4:   DRILLING FLUID LOSS
 MSS .           FLOWLINE:   MUD SAMPLE SOURCE
 RMS .OHMM            2.0:   RESISTIVITY MUD SAMPLE
 MST .F                60:   MUD SAMPLE TEMPERATURE
 RMF .OHMM            1.9:   RESISTIVITY MUD FILTRATE SAMPLE
 MFST.F                62:   MUD FILTRATE SAMPLE TEMPERATURE
 RMC .OHMM            3.5:   RESISTIVITY MUD CAKE
 MCST.F                60:   MUD CAKE SAMPLE TEMPERATURE
 MFSS.               MEAS:   MUD FILTRATE SAMPLE SOURCE
 RMB .OHMM           1.69:   RESISTIVITY MUD AT BHT
 BHT .F                71:   BOTTOM HOLE TEMPERATURE
 TCS .HRS               3:   TIME CURCULATED STOPPED
 MRT .F                71:   MAXIMUM RECORDED TEMPERATURE
 CLNT.            A2DTECH:   CLIENT CODE
 ORIG.           5" PRINT:   ORIGIN OF DATA
 UWI .       490251027200:   UNIQUE WELL ID
 DICO. A2D Technologies, Inc.:   DIGITIZING COMPANY
~OTHER INFORMATION
~A   DEPT      ILM        ILD        LL8        SPR       CALD       CORR       DPHI         GRD      RHOB         IL         SN       SPR1   
# ...
  136.5000     6.1699     5.9125     8.6951   -30.4254     8.3256     0.0256     0.1666    96.2049     2.3824     9.2489    10.7341   -34.6452
  137.0000     5.5058     5.4100     5.7264   -30.5584     8.3123     0.0295     0.1803    99.2005     2.3621     9.0620    10.9660   -34.6318
  137.5000     5.4015     5.3027     4.0473   -30.6861     8.3140     0.0387     0.1895   102.7914     2.3419     8.6959    10.7384   -34.5310
  138.0000     5.3356     5.2348     4.6550   -30.5115     8.3003     0.0698     0.1878   105.4894     2.3344     7.7313    10.2910   -34.2745
  138.5000     5.3014     5.2407     5.7530   -30.3421     8.2871     0.0706     0.2057   106.2480     2.3225     6.2251     9.1586   -34.0489
  139.0000     5.3886     5.3922     6.7405   -30.3212     8.2738     0.0685     0.1990   101.0640     2.3309     5.5742     7.3892   -33.8827
  139.5000     6.0830     5.9036     8.8128   -30.3004     8.2759     0.0660     0.1793    96.3215     2.3566     5.2849     6.3430   -33.6172
  140.0000     7.2237     6.5528     9.9265   -31.0225     8.2775     0.0279     0.1800    94.2576     2.3604     5.2142     5.8374   -33.5030
  140.5000     8.1261     8.1313     9.2684   -32.0418     8.2937     0.0263     0.1808    93.3841     2.3499     5.2164     5.7195   -33.5948
  141.0000     8.9543     9.0388     9.0898   -32.4719     8.2957     0.0317     0.1708    93.5524     2.3674     5.2185     5.7223   -33.7340
  141.5000     9.5328     9.4280     9.2275   -32.5997     8.3122     0.0295     0.1762    94.0182     2.3637     5.2936     5.8458   -33.8733
  142.0000    10.0139     9.9596     9.5627   -31.9793     8.3288     0.0311     0.1710    94.0357     2.3653     5.4449     6.3582   -34.0125
  142.5000    10.4432    10.3893    10.1134   -30.7697     8.3449     0.0213     0.1806    93.9083     2.3571     5.9202     7.4659   -34.1517
  143.0000    10.8200    10.8269    10.6188   -29.8573     8.3317     0.0131     0.1857    93.0348     2.3459     6.8519     8.5259   -34.6172
  143.5000    11.2104    11.1500    11.1567   -28.6478     8.3334     0.0102     0.1896    92.1614     2.3407     8.7396     9.3380   -34.9034
  144.0000    11.5382    11.4811    11.6308   -27.1411     8.3350     0.0156     0.1856    92.4785     2.3420     9.6354     9.9466   -35.1895
  144.5000    11.8660    11.8114    11.4809   -25.9315     8.3366     0.0157     0.1844    93.0931     2.3478     9.9107    10.3038   -35.6254
  145.0000    12.1260    12.1427    11.4932   -25.3163     8.3084     0.0226     0.1801    90.8804     2.3540    10.1234    10.4533   -35.6122
  145.5000    12.2217    12.3140    11.8244   -24.7011     8.2934     0.0310     0.1744    88.6677     2.3648    10.1276    10.5314   -35.5990
  146.0000    12.4058    12.4173    12.1628   -24.6803     8.2506     0.0235     0.1831    86.7526     2.3528    10.1318    10.8340   -35.4361
  146.5000    12.5881    12.5136    12.2592   -24.6595     8.2077     0.0191     0.1858    85.7304     2.3464    10.1360    11.3016   -35.1235
  147.0000    12.6893    12.6928    12.2673   -25.2330     8.1958     0.0245     0.1866    85.4473     2.3450    10.3544    11.7103   -35.1103
  147.5000    12.8763    12.7042    11.7782   -25.9551     8.1975     0.0223     0.1884    88.0013     2.3429    10.6503    12.1353   -35.0971
  148.0000    12.8887    12.7156    11.7082   -27.4201     8.2148     0.0201     0.1944    89.3601     2.3383    10.9546    12.4017   -35.5330
  148.5000    12.9905    12.7270    11.7179   -28.7366     8.2610     0.0225     0.1986    89.9747     2.3295    11.0354    12.5861   -35.5160
  149.0000    13.0931    12.8266    11.9730   -30.0531     8.3067     0.0248     0.2001    90.5894     2.3243    11.1168    12.7537   -35.3433
  149.5000    13.1058    12.9270    12.0664   -31.2209     8.2783     0.0219     0.1955    91.5017     2.3252    11.2768    12.8490   -35.0433
  150.0000    13.1674    13.1391    12.2437   -32.1929     8.2355     0.0278     0.1825    93.6026     2.3381    11.3588    12.9507   -35.0270
  150.5000    13.5922    13.3128    12.2566   -34.0040     8.1923     0.0266     0.1792    95.4047     2.3540    11.2857    13.0389   -35.0107
  151.0000    13.8881    13.8872    12.7863   -34.1380     8.2235     0.0184     0.1773    94.6770     2.3601    11.2123    13.1345   -34.9940
  151.5000    13.9960    14.1895    13.0656   -33.9651     8.2695     0.0154     0.1770    94.0982     2.3625    11.2959    13.1391   -34.9795
  152.0000    14.0053    14.2014    12.9845   -33.3551     8.3007     0.0178     0.1772    93.2217     2.3671    11.5376    13.2355   -35.1113
  152.5000    14.0169    14.2132    12.9963   -32.8653     8.2868     0.0232     0.1766    91.8988     2.3619    11.7051    13.3326   -35.0898
  153.0000    14.0286    14.2251    12.9054   -32.1080     8.3033     0.0316     0.1750    90.5759     2.3612    11.9550    13.4304   -35.0718
  153.5000    14.1472    14.2370    12.9306   -31.1872     8.3047     0.0378     0.1732    89.4019     2.3666    12.2116    13.5290   -35.0539
  154.0000    14.2537    14.3475    12.9422   -29.8504     8.2613     0.0356     0.1756    88.6742     2.3622    12.4737    13.7234   -35.0359
  154.5000    14.4604    14.4590    12.8645   -28.7910     8.1732     0.0281     0.1833    89.2858     2.3532    12.6534    13.8241   -35.0180
  155.0000    14.6701    14.6722    12.8763   -28.0386     8.1593     0.0221     0.1881    89.7487     2.3435    12.7468    14.0228   -35.0375
  155.5000    14.8864    14.8885    12.8878   -27.4248     8.1458     0.0207     0.1902    89.4674     2.3398    12.8409    14.2244   -35.1704
  156.0000    15.1059    15.0041    12.8995   -26.9596     8.2518     0.0238     0.1947    89.3309     2.3392    12.8928    14.3287   -35.2635
  156.5000    15.1185    15.1206    13.1812   -26.7915     8.2677     0.0186     0.1991    90.8395     2.3287    13.0313    14.4513   -35.2867
  157.0000    15.2359    15.1307    13.6563   -26.6234     8.1948     0.0157     0.2006    91.8976     2.3236    13.1275    14.6413   -35.4197
  157.5000    15.2487    15.1433    14.0512   -26.6039     8.1660     0.0196     0.1933    92.9557     2.3267    13.2244    14.8528   -35.5527
  158.0000    15.3671    15.3664    14.3581   -26.5845     8.2571     0.0249     0.1861    94.0137     2.3418    13.3221    14.9618   -35.7306
  158.5000    15.3799    15.5929    14.0766   -26.7136     8.3032     0.0228     0.1896    94.6253     2.3434    13.4257    15.1768   -35.9683
  159.0000    15.6067    15.8227    13.8007   -26.5504     8.3191     0.0221     0.1911    92.7086     2.3375    13.6194    15.3949   -36.0539
  159.5000    16.0569    16.0559    13.5301   -26.6795     8.3055     0.0267     0.1871    92.4233     2.3436    13.8158    15.6162   -35.9386
  160.0000    16.5201    16.5189    13.5424   -26.8037     8.3221     0.0390     0.1828    93.5417     2.3497    14.1127    15.9513   -35.6188
  160.5000    17.1143    16.9955    14.4231   -26.9377     8.3234     0.0504     0.1744    94.0930     2.3611    14.4160    16.1806   -35.3501
  161.0000    17.7300    17.4857    14.7382   -27.2105     8.3246     0.0513     0.1678    90.9018     2.3710    14.7183    16.5278   -35.2860
  161.5000    18.1160    17.9901    14.8537   -28.0826     8.3261     0.0339     0.1674    89.3378     2.3756    14.9382    16.8825   -35.3653
  162.0000    18.5104    18.5091    15.6029   -28.8109     8.3274     0.0287     0.1719    88.9338     2.3712    15.3570    17.3652   -35.4022
  162.5000    19.0443    18.9120    18.1774   -28.9400     8.3288     0.0386     0.1623    89.7445     2.3803    15.5781    17.7378   -35.4229
  163.0000    19.0602    18.9278    18.9587   -28.7671     8.3149     0.0350     0.1474    90.4547     2.4120    15.5846    17.8680   -35.3114
  163.5000    18.9410    18.8134    17.9607   -28.7476     8.3017     0.0252     0.1417    88.1483     2.4219    15.5911    17.8742   -35.4693
  164.0000    18.8304    18.5671    15.7678   -28.4310     8.2878     0.0260     0.1407    85.8929     2.4107    15.4895    17.7548   -35.9042
