~VERSION INFORMATION
 VERS.                2.0:   CWLS LOG ASCII STANDARD - VERSION 2.0
 WRAP.                 NO:   ONE LINE PER DEPTH STEP
~WELL INFORMATION
#MNEM.UNIT      DATA TYPE    INFORMATION
#----------   ------------   ------------------------------
 STRT.F           20.0000:   START DEPTH
 STOP.F          541.0000:   STOP DEPTH
 STEP.F            0.5000:   STEP LENGTH
 NULL.          -999.2500:   NO VALUE
 COMP. LAWRENCE/ALLISON INC:   COMPANY
 WELL.   NPR3 #58-66SHX10:   WELL
 FLD .             TEAPOT:   FIELD
 LOC .      S10 T38N R78W:   LOCATION
 CNTY.            NATRONA:   COUNTY
 STAT.            WYOMING:   STATE
 CTRY. UNITED STATES OF AMERICA:   COUNTRY
 SRVC.           Gearhart:   SERVICE COMPANY
 DATE.        15-JUN-1986:   LOGDATE
 API .       490251108800:   API NUMBER
~CURVE INFORMATION
#MNEM.UNIT       API CODE    CURVE DESCRIPTION
#----------   ------------   ------------------------------
 DEPT.F                  :   
 GRR .GAPI   07 310 01 00:   GAMMA RAY FROM RES. LOG.
 RILD.OHMM   07 120 46 00:   INDUCTION LOG DEEP RESISTIVITY
 RILM.OHMM   07 120 44 00:   INDUCTION LOG MEDIUM
~PARAMETER INFORMATION
#MNEM.UNIT          VALUE    DESCRIPTION
#----------   ------------   ------------------------------
 PD  .                 GL:   PERMANENT DATUM
 EPD .F              5196:   ELEVATION PERMANENT DATUM
 LMF .                 KB:   LOG MEASURED FROM
 DAPD.F                 5:   FEET ABOVE PERMANENT DATUM
 DMF .                 KB:   DRILLING MEASURED FROM
 EKB .F              5201:   KELLING BUSHING
 EGL .F              5196:   GROUND LEVEL
 DATE.          6-15-1986:   RUN DATE
 RUN .                  1:   RUN NUMBER
 DD  .F               554:   DEPTH DRILLER
 DL  .F               550:   DEPTH LOGGER
 BLI .F               549:   BOTTOM LOG INTERVAL
 TLI .F                47:   TOP LOG INTERVAL
 CS  .IN            8.625:   CASING SIZE
 CBD .F                47:   CASING BOTTOM DRILLER
 BS  .IN            7.875:   BIT SIZE
 BSD .F               554:   BIT SIZE AT DEPTH
 DFT .        AIR DRILLED:   DRILLING FLUID TYPE
 TLAB.HRS            0600:   TIME LOGGER AT BOTTOM
 MRT .F                65:   MAXIMUM RECORDED TEMPERATURE
 LUN .               7609:   LOGGING UNIT NUMBER
 LUL .           GILLETTE:   LOGGING UNIT LOCATION
 ENGI.         WEATHERMON:   RECORDING ENGINEER
 WITN.              FIVAS:   WITNESSED BY
 CLNT.            A2DTECH:   CLIENT CODE
 ORIG.       2", 5" PRINT:   ORIGIN OF DATA
 UWI .       490251108800:   UNIQUE WELL ID
 DICO. A2D Technologies, Inc.:   DIGITIZING COMPANY
~OTHER INFORMATION
~A   DEPT       GRR      RILD       RILM   
# ...
  293.0000   139.6366     6.2885     6.4073
  293.5000   137.5641     6.1501     6.2660
  294.0000   132.3388     6.1501     6.1617
  294.5000   131.5981     6.1501     6.0594
  295.0000   130.4345     6.1501     5.9805
  295.5000   126.8007     6.2901     5.9805
  296.0000   122.2165     6.3985     6.1985
  296.5000   119.5089     6.5039     6.3562
  297.0000   116.8097     6.6926     6.5180
  297.5000   115.9478     6.8786     6.6839
  298.0000   119.1647     7.0697     6.8540
  298.5000   123.8353     7.2662     7.0284
  299.0000   128.1818     7.4106     7.2073
  299.5000   128.5146     7.4106     7.3907
  300.0000   125.1070     7.0348     7.4801
  300.5000   121.8276     6.7916     7.1496
  301.0000   121.0048     6.5573     6.8704
  301.5000   119.8009     6.3313     6.6021
  302.0000   118.0819     6.1130     6.3443
  302.5000   116.3872     5.9025     6.0965
  303.0000   115.5983     5.7081     5.8584
  303.5000   115.9256     5.7081     5.6552
  304.0000   118.8329     5.8042     5.6027
  304.5000   122.0146     5.9413     5.7255
  305.0000   123.9964     6.1673     5.9250
  305.5000   123.0011     6.4371     6.3596
  306.0000   121.7964     6.7187     6.8681
  306.5000   120.3858     7.0126     7.4173
  307.0000   118.6959     7.3193     8.1433
  307.5000   115.9446     7.6395     9.0735
  308.0000   114.7321     7.9737    10.1099
  308.5000   117.5781     8.1876    11.2647
  309.0000   121.2972     8.3485    12.3312
  309.5000   122.4480     8.5126    12.7255
  310.0000   122.0850     8.6799    11.6573
  310.5000   121.0143     8.8504    10.7927
  311.0000   119.9560     8.9295     9.9922
  311.5000   118.9095     8.9295     9.3132
  312.0000   117.8616     8.9296     9.0976
  312.5000   117.0414     8.9295     9.0976
  313.0000   113.7308     8.9295     9.0976
  313.5000   110.9805     8.9295     9.0976
  314.0000   111.7683     8.9295     9.0976
  314.5000   115.0065     8.9295     9.0975
  315.0000   118.1784     8.9295     9.0975
  315.5000   119.5904     8.9286     9.0969
  316.0000   117.1333     8.9567     9.1280
  316.5000   114.7362     9.0315     9.2104
  317.0000   114.3852     9.1072     9.2940
  317.5000   115.4990     9.1837     9.3784
  318.0000   118.9192     9.2604     9.4635
  318.5000   122.0065     9.3380     9.5504
  319.0000   122.0239     9.3556     9.6208
  319.5000   118.4463     8.7548     9.6245
  320.0000   114.0453     8.3423     8.8988
  320.5000   114.5477     7.9493     8.3745
  321.0000   117.3234     7.5747     7.8812
  321.5000   119.9680     7.2179     7.4169
  322.0000   123.6346     7.0075     6.9800
  322.5000   127.6765     7.0075     6.5648
  323.0000   129.6856     7.1394     6.5648
  323.5000   126.6397     7.3745     6.6884
  324.0000   119.2817     7.7306     7.1255
  324.5000   109.6560     8.2064     7.5941
  325.0000   107.1498     8.7124     8.0934
  325.5000   109.1445     9.2494     8.6257
  326.0000   111.4934     9.8189     9.1929
  326.5000   113.4206    10.2954     9.7974
  327.0000   114.1795    10.6004    10.2680
  327.5000   115.0048    10.8880    10.5015
  328.0000   114.6807    11.1762    10.7403
  328.5000   113.9583    11.4722    10.9846
  329.0000   116.2770    11.7763    11.2344
  329.5000   119.4255    12.0884    11.4852
  330.0000   119.2799    12.5905    11.8479
  330.5000   107.7681    13.6230    12.7602
  331.0000    96.2338    14.7401    13.7427
  331.5000    84.6687    15.9162    14.7724
  332.0000    76.2857    17.6466    16.3313
  332.5000    71.2621    19.5141    18.0090
  333.0000    68.5366    21.5792    19.8590
  333.5000    65.4361    23.8629    21.8991
  334.0000    61.0210    26.3882    24.1499
  334.5000    60.0369    27.9872    26.6378
  335.0000    62.1517    29.4779    28.7643
  335.5000    65.0961    30.5111    29.5900
  336.0000    65.3290    30.8524    30.5661
  336.5000    65.6155    31.1414    30.1301
  337.0000    66.2795    30.3909    29.5141
  337.5000    69.1720    29.8015    28.9166
  338.0000    72.3945    29.2235    28.3284
  338.5000    75.6298    28.6566    27.7525
  339.0000    78.6255    28.1054    27.2802
  339.5000    81.2311    27.5737    27.0819
  340.0000    81.7278    27.2760    26.8847
  340.5000    78.2721    27.0645    26.6895
  341.0000    74.3813    26.8546    26.4955
  341.5000    71.3930    26.6464    26.3028
  342.0000    69.7904    26.4398    26.1115
  342.5000    71.4057    26.2348    25.7665
  343.0000    74.0303    26.0314    25.4028
  343.5000    76.6725    25.8295    25.0443
  344.0000    79.1464    25.6046    24.6908
  344.5000    77.7230    25.7213    24.4385
  345.0000    76.0222    25.8444    24.6674
  345.5000    75.0158    26.5774    25.1316
  346.0000    74.8279    27.1964    25.6296
  346.5000    74.3370    27.9156    26.1186
  347.0000    72.7506    28.6537    27.1024
  347.5000    72.5745    29.4114    28.1232
  348.0000    73.0687    30.1892    29.1841
  348.5000    69.2694    30.9875    30.2802
  349.0000    65.4415    31.7059    31.0978
  349.5000    63.5357    32.2949    31.4330
  350.0000    64.1721    32.3624    31.4330
  350.5000    67.5640    31.3454    30.0213
  351.0000    70.8793    30.2660    29.1150
  351.5000    70.8674    29.2480    28.2360
  352.0000    70.9042    28.2639    27.3835
  352.5000    73.0767    27.3125    26.5568
  353.0000    75.2737    26.3931    25.8566
  353.5000    75.8251    25.5046    25.2132
  354.0000    74.3234    24.6461    24.5858
  354.5000    76.0289    23.7645    23.9740
  355.0000    78.3729    23.3095    23.3775
  355.5000    79.9792    22.8332    22.7957
  356.0000    79.5778    22.3667    22.2285
  356.5000    79.0594    21.9096    21.6493
  357.0000    79.3323    21.4619    21.2050
  357.5000    79.7770    21.0233    20.6633
  358.0000    78.4582    20.4716    20.4716
  358.5000    77.1613    20.5440    20.2816
  359.0000    78.5956    20.6726    20.2816
  359.5000    81.1674    20.8020    20.2816
  360.0000    83.7674    21.0522    20.2781
  360.5000    84.3831    21.3988    20.7205
  361.0000    80.2078    22.0082    21.2949
  361.5000    76.1323    22.6349    21.8868
  362.0000    74.6346    23.2795    22.4949
  362.5000    76.8439    23.9424    23.1196
  363.0000    79.7657    24.6242    23.7622
  363.5000    82.6827    25.3254    24.4216
  364.0000    84.3853    25.8444    25.0999
  364.5000    82.9810    26.3389    25.3670
  365.0000    81.5070    25.4311    24.7571
  365.5000    81.8588    24.4368    23.8004
  366.0000    82.9225    23.4907    22.8808
  366.5000    84.0160    22.5812    21.9966
  367.0000    85.3888    21.7070    21.1931
  367.5000    88.0931    20.8666    20.4280
  368.0000    90.8109    20.0924    19.7214
  368.5000    89.9100    19.8081    19.4715
  369.0000    87.2518    19.5401    19.2358
  369.5000    85.1436    19.2757    19.0029
  370.0000    85.0088    19.0144    18.7723
  370.5000    84.8635    18.8241    18.6359
  371.0000    83.9257    18.8568    18.5847
  371.5000    83.6119    18.8828    18.5336
  372.0000    83.9066    18.9088    18.4827
  372.5000    85.2194    18.9349    18.4319
  373.0000    87.0459    18.9609    18.3812
  373.5000    88.3627    18.9868    18.3307
  374.0000    85.7925    19.0004    18.3051
  374.5000    83.3013    18.8101    18.3046
  375.0000    81.6680    18.6639    18.3080
  375.5000    84.0161    18.5189    18.1538
  376.0000    86.0811    18.3750    18.0157
  376.5000    87.5181    18.2323    17.8794
  377.0000    88.9799    18.0906    17.7442
  377.5000    90.0941    17.9501    17.6101
  378.0000    89.6006    17.8110    17.4769
  378.5000    86.7378    17.6723    17.3448
  379.0000    83.7623    17.5225    17.1988
  379.5000    81.7409    17.3694    17.0486
  380.0000    80.4517    17.2176    16.8996
  380.5000    79.1851    17.0673    16.7520
  381.0000    79.5332    16.9182    16.6056
  381.5000    84.6823    16.7703    16.4606
  382.0000    90.1426    16.6325    16.3252
  382.5000    95.5097    16.5113    16.2063
  383.0000    94.9959    16.3910    16.0882
  383.5000    89.1340    16.2716    15.9710
