~VERSION INFORMATION
 VERS.                2.0:   CWLS LOG ASCII STANDARD - VERSION 2.0
 WRAP.                 NO:   ONE LINE PER DEPTH STEP
~WELL INFORMATION
#MNEM.UNIT      DATA TYPE    INFORMATION
#----------   ------------   ------------------------------
 STRT.F           34.0000:   START DEPTH
 STOP.F          576.0000:   STOP DEPTH
 STEP.F            0.5000:   STEP LENGTH
 NULL.          -999.2500:   NO VALUE
 COMP. FENIX & SCISSON INC:   COMPANY
 WELL.   NPR-3 #22 SX 3-3:   WELL
 FLD .             TEAPOT:   FIELD
 LOC .       S3 T38N R78W:   LOCATION
 CNTY.            NATRONA:   COUNTY
 STAT.            WYOMING:   STATE
 CTRY. UNITED STATES OF AMERICA:   COUNTRY
 SRVC.            Unknown:   SERVICE COMPANY
 DATE.        17-JUL-1978:   LOGDATE
 API .       490251066700:   API NUMBER
~CURVE INFORMATION
#MNEM.UNIT       API CODE    CURVE DESCRIPTION
#----------   ------------   ------------------------------
 DEPT.F                  :   
 SN  .OHMM   05 040 16 00:   SHORT NORMAL 16"
 ILD .OHMM   05 120 46 00:   INDUCTION LOG DEEP
 SPR .MV     05 010 01 00:   SPONTANEOUS POTENTIAL FROM RES.
 CALD.IN     45 280 60 00:   CALIPER FROM DENSITY LOG
 GRD .GAPI   45 310 01 00:   GAMMA RAY FROM DENSITY LOG
 CORR.G/C3   45 356 01 00:   DENSITY CORRECTION
 DPHI.DEC    45 890 12 00:   DENSITY POROSITY SANDSTONE
 DEN .G/C3   45 350 01 00:   COMPENSATED BULK DENSITY
~PARAMETER INFORMATION
#MNEM.UNIT          VALUE    DESCRIPTION
#----------   ------------   ------------------------------
 PD  .                 GL:   PERMANENT DATUM
 EPD .F              5193:   ELEVATION PERMANENT DATUM
 LMF .                 KB:   LOG MEASURED FROM
 DAPD.F                 4:   FEET ABOVE PERMANENT DATUM
 DMF .                 KB:   DRILLING MEASURED FROM
 EKB .F              5197:   KELLING BUSHING
 EGL .F              5193:   GROUND LEVEL
 DATE.        17-JUL-1978:   RUN DATE
 RUN .                  1:   RUN NUMBER
 DD  .F               570:   DEPTH DRILLER
 DL  .F               576:   DEPTH LOGGER
 BLI .F               576:   BOTTOM LOG INTERVAL
 CS  .IN            8.625:   CASING SIZE
 CBD .F                30:   CASING BOTTOM DRILLER
 BS  .IN            7.875:   BIT SIZE
 BSD .F               570:   BIT SIZE AT DEPTH
 DFT .            MUD KCL:   DRILLING FLUID TYPE
 DFD .                8.6:   DRILLING FLUID DENSITY
 DFV .                 32:   DRILLING FLUID VISCOSITY
 DFL .                 15:   DRILLING FLUID LOSS
 MSS .           FLOWLINE:   MUD SAMPLE SOURCE
 RMS .OHMM            .18:   RESISTIVITY MUD SAMPLE
 MST .F                86:   MUD SAMPLE TEMPERATURE
 RMF .OHMM            .17:   RESISTIVITY MUD FILTRATE SAMPLE
 MFST.F                94:   MUD FILTRATE SAMPLE TEMPERATURE
 RMC .OHMM            .34:   RESISTIVITY MUD CAKE
 MCST.F                94:   MUD CAKE SAMPLE TEMPERATURE
 MFSS.               MEAS:   MUD FILTRATE SAMPLE SOURCE
 TCS .HRS            0300:   TIME CURCULATED STOPPED
 LUN .               2958:   LOGGING UNIT NUMBER
 LUL .               CASP:   LOGGING UNIT LOCATION
 ENGI.             MILLER:   RECORDING ENGINEER
 WITN.           MCGINLEY:   WITNESSED BY
 CLNT.            A2DTECH:   CLIENT CODE
 ORIG.           5" PRINT:   ORIGIN OF DATA
 UWI .       490251066700:   UNIQUE WELL ID
 DICO. A2D Technologies, Inc.:   DIGITIZING COMPANY
~OTHER INFORMATION
~A   DEPT       SN        ILD        SPR       CALD         GRD      CORR       DPHI        DEN   
# ...
  520.0000    10.8086    11.9845   -43.3478     8.0116    68.1159     0.0025     0.1184     2.4659
  520.5000    10.8152    11.9918   -43.3400     8.0119    67.5362     0.0040     0.1195     2.4674
  521.0000    10.8219    12.0819   -43.3322     8.0122    67.1014     0.0040     0.1210     2.4733
  521.5000    10.9046    12.0063   -43.3245     8.0125    67.1014     0.0069     0.1234     2.4792
  522.0000    10.9112    12.0153   -43.3167     8.0273    67.2464     0.0069     0.1237     2.4747
  522.5000    10.9178    12.1056   -43.3089     8.0275    67.9710     0.0083     0.1222     2.4681
  523.0000    10.9244    12.1130   -43.3012     8.0278    69.2754     0.0083     0.1198     2.4688
  523.5000    10.9310    12.0353   -43.2934     8.0137    71.1594     0.0083     0.1154     2.4755
  524.0000    10.9376    12.0444   -43.2856     8.0140    72.1739     0.0083     0.1112     2.4792
  524.5000    10.8691    11.9690   -43.2779     8.0142    71.0145     0.0067     0.1091     2.4829
  525.0000    10.8757    11.9762   -43.2701     7.9999    68.8406     0.0052     0.1094     2.4874
  525.5000    10.8824    11.9835   -43.2624     8.0148    66.8116     0.0037     0.1112     2.4933
  526.0000    10.8157    11.9908   -43.2546     8.0151    66.9565     0.0037     0.1121     2.4918
  526.5000    10.8223    11.9980   -43.2468     8.0154    67.8261     0.0021     0.1127     2.4866
  527.0000    10.7529    11.9228   -43.2391     8.0157    69.9129     0.0021     0.1109     2.4829
  527.5000    10.7610    11.8500   -43.2264     8.0305    72.8986     0.0006     0.1113     2.4883
  528.0000    10.7675    11.7758   -43.2119     8.0307    73.3333     0.0006     0.1183     2.4970
  528.5000    10.6985    11.7003   -43.1975     8.0310    72.8986     0.0005     0.1198     2.4762
  529.0000    10.7065    11.6271   -43.1830     8.0314    72.8986    -0.0010     0.1195     2.4724
  529.5000    10.7870    11.6359   -43.1685     8.0316    73.1884    -0.0025     0.1186     2.4784
  530.0000    10.7936    11.6429   -43.1540     8.0319    72.3188    -0.0025     0.1186     2.4806
  530.5000    10.8000    11.6499   -43.1396     8.0322    70.3898    -0.0026     0.1195     2.4769
  531.0000    10.6588    11.6571   -43.1250     8.0180    69.8551    -0.0026     0.1201     2.4731
  531.5000    10.5210    11.6502   -43.1101     8.0183    69.8551    -0.0026     0.1204     2.4731
  532.0000    10.3818    11.3558   -43.2450     8.0331    72.1739    -0.0027     0.1210     2.4731
  532.5000    10.1773    11.0541   -43.2269     8.0188    77.2464    -0.0027     0.1204     2.4746
  533.0000     9.9753    10.7603   -43.3648     8.0191    79.5652    -0.0027     0.1191     2.4761
  533.5000     9.8434    10.4728   -43.4992     8.0194    80.4477    -0.0027     0.1177     2.4791
  534.0000     9.7160    10.1262   -43.4811     8.0197    79.8551    -0.0028     0.1183     2.4798
  534.5000     9.5891     9.9237   -43.4666     8.0200    77.5362    -0.0028     0.1198     2.4790
  535.0000     9.5290     9.7954   -43.4521     8.0203    75.7971    -0.0028     0.1210     2.4731
  535.5000     9.3413     9.8013   -43.2887     8.0206    75.0725    -0.0029     0.1201     2.4664
  536.0000     9.2191     9.8074   -43.2738     8.0064    75.2174    -0.0029     0.1144     2.4746
  536.5000     9.0972     9.7458   -43.2563     8.0212    76.2384    -0.0029     0.1108     2.4805
  537.0000     9.0402     9.6848   -43.2418     8.0215    78.1159    -0.0030     0.1147     2.4872
  537.5000     8.9836     9.4940   -43.2274     8.0218    79.4203    -0.0030     0.1180     2.4894
  538.0000     9.0525     9.1784   -43.2129     8.0221    80.0000    -0.0030     0.1197     2.4797
  538.5000     8.9959     8.9331   -43.3508     8.0223    79.8551    -0.0030     0.1206     2.4730
  539.0000     8.8173     8.6971   -43.3328     8.0226    79.1304    -0.0031     0.1209     2.4730
  539.5000     8.6423     8.5834   -43.4673     8.0229    78.4058    -0.0046     0.1209     2.4738
  540.0000     8.5306     8.5885   -43.4524     8.0232    77.9710    -0.0046     0.1209     2.4752
  540.5000     8.5357     8.5348   -43.4345     8.0090    78.2609    -0.0047     0.1209     2.4760
  541.0000     8.5409     8.5401   -43.4201     8.0093    79.8551    -0.0062     0.1209     2.4767
  541.5000     8.5460     8.5464   -43.4056     8.0096    81.4493    -0.0047     0.1212     2.4767
  542.0000     8.5512     8.5515   -43.3911     8.0099    82.3188    -0.0047     0.1212     2.4752
  542.5000     8.5563     8.4397   -43.3766     7.9956    82.3188    -0.0033     0.1212     2.4715
  543.0000     8.4442     8.1591   -43.3622     7.9960    82.0161    -0.0033     0.1215     2.4640
  543.5000     8.2200     8.0512   -43.3477     7.9817    80.5797    -0.0033     0.1245     2.4551
  544.0000     8.0016     7.9459   -43.3332     7.9820    78.6957    -0.0004     0.1281     2.4559
  544.5000     7.8970     7.8974   -43.4676     7.9823    80.4348     0.0011     0.1161     2.4603
  545.0000     7.7937     7.9021   -43.4495     7.9681    82.3188     0.0025     0.1146     2.4662
  545.5000     7.7996     7.8527   -43.4350     7.9685    83.1884     0.0025     0.1221     2.4722
  546.0000     7.7496     7.8035   -43.5730     7.9687    83.4783     0.0040     0.1251     2.4752
  546.5000     7.7555     7.6498   -43.4061     7.9690    83.3139     0.0054     0.1242     2.4699
  547.0000     7.7057     7.6019   -43.2428     7.9693    81.5942     0.0054     0.1233     2.4640
  547.5000     7.7116     7.6065   -43.2283     7.9696    80.2899     0.0054     0.1224     2.4662
  548.0000     7.7162     7.6111   -43.2139     7.9699    79.7101     0.0053     0.1221     2.4729
  548.5000     7.6679     7.6157   -43.1994     7.9847    79.8551     0.0053     0.1230     2.4699
  549.0000     7.6199     7.6203   -43.1845     7.9850    81.7391     0.0053     0.1244     2.4662
  549.5000     7.5202     7.5724   -43.1668     7.9852    84.9468     0.0052     0.1227     2.4678
  550.0000     7.3721     7.4735   -43.1523     7.9855    84.6377     0.0037     0.1283     2.4729
  550.5000     7.1270     7.2750   -43.1379     7.9800    82.1739     0.0052     0.1373     2.4662
  551.0000     6.8900     7.0341   -43.1234     7.9744    80.8696     0.0081     0.1414     2.4550
  551.5000     6.6609     6.8472   -43.1089     7.9689    80.1449     0.0124     0.1397     2.4424
  552.0000     6.6182     6.7567   -43.0945     7.9633    80.0000     0.0139     0.1334     2.4320
  552.5000     6.6690     6.7144   -43.0800     7.9578    80.2899     0.0138     0.1248     2.4283
  553.0000     6.8593     6.7194   -43.0655     7.9543    81.0370     0.0092     0.1209     2.4525
  553.5000     7.1569     6.9112   -43.0506     7.9686    82.6087     0.0032     0.1187     2.4639
  554.0000     7.4601     7.2568   -43.0330     7.9681    83.3333    -0.0028     0.1153     2.4803
  554.5000     7.9416     7.6196   -43.0185     7.9823    81.8841    -0.0074     0.1123     2.4796
  555.0000     8.2815     8.0043   -42.8552     7.9819    81.0145    -0.0119     0.1099     2.4833
  555.5000     8.5767     8.4166   -42.8407     7.9815    81.1594    -0.0165     0.1081     2.4877
  556.0000     8.8824     8.8219   -42.8263     7.9811    78.9855    -0.0195     0.1075     2.4944
  556.5000     9.0732     8.9496   -42.9642     7.9808    79.2754    -0.0196     0.1135     2.4967
  557.0000     9.0787     8.9550   -42.9461     7.9804    78.6957    -0.0137     0.1186     2.4870
  557.5000     9.0841     8.9605   -42.9315     7.9656    76.9565    -0.0078     0.1228     2.4639
  558.0000     9.0897     8.9659   -42.9167     7.9507    77.3913    -0.0019     0.1225     2.4677
  558.5000     9.0951     8.9713   -42.8991     7.9214    78.2609     0.0010     0.1222     2.4766
  559.0000     9.0382     8.9767   -42.8846     7.9210    79.2786     0.0024     0.1225     2.4728
  559.5000     8.9816     8.9205   -42.8702     7.9061    80.0000     0.0038     0.1228     2.4689
  560.0000     8.9884     8.9260   -42.8557     7.9057    76.5217     0.0052     0.1237     2.4662
