~VERSION INFORMATION
 VERS.                2.0:   CWLS LOG ASCII STANDARD - VERSION 2.0
 WRAP.                 NO:   ONE LINE PER DEPTH STEP
~WELL INFORMATION
#MNEM.UNIT      DATA TYPE    INFORMATION
#----------   ------------   ------------------------------
 STRT.F           90.0000:   START DEPTH
 STOP.F          784.0000:   STOP DEPTH
 STEP.F            0.5000:   STEP LENGTH
 NULL.          -999.2500:   NO VALUE
 COMP.               NAVY:   COMPANY
 WELL. RES 3 TEAPOT DOM #41S-11:   WELL
 FLD .             TEAPOT:   FIELD
 LOC .      S11 T38N R78W:   LOCATION
 CNTY.            NATRONA:   COUNTY
 STAT.            WYOMING:   STATE
 CTRY. UNITED STATES OF AMERICA:   COUNTRY
 SRVC.       Schlumberger:   SERVICE COMPANY
 DATE.        14-JUL-1962:   LOGDATE
 API .       490250638000:   API NUMBER
~CURVE INFORMATION
#MNEM.UNIT       API CODE    CURVE DESCRIPTION
#----------   ------------   ------------------------------
 DEPT.F                  :   
 GR  .GAPI   30 310 01 00:   GAMMA RAY
 SPR .MV     05 010 01 00:   SPONTANEOUS POTENTIAL FROM RES.
 ASN .OHMM   05 041 16 00:   AMPLIFIED SHORT NORMAL 16"
 ILD .OHMM   05 120 46 00:   INDUCTION LOG DEEP
 CILD.MMHO   05 110 46 00:   CONDUCTIVITY INDUCTION LOG DEEP
~PARAMETER INFORMATION
#MNEM.UNIT          VALUE    DESCRIPTION
#----------   ------------   ------------------------------
 LMF .                 KB:   LOG MEASURED FROM
 DMF .                 KB:   DRILLING MEASURED FROM
 EKB .F              5162:   KELLING BUSHING
 EGL .F              5157:   GROUND LEVEL
 DATE.        14-JUL-1962:   RUN DATE
 RUN .                  1:   RUN NUMBER
 DD  .F               785:   DEPTH DRILLER
 DL  .F               785:   DEPTH LOGGER
 BLI .F               784:   BOTTOM LOG INTERVAL
 TLI .F               100:   TOP LOG INTERVAL
 CBD .F                10:   CASING BOTTOM DRILLER
 BS  .IN             6.75:   BIT SIZE
 BSD .F               785:   BIT SIZE AT DEPTH
 DFT .           OIL EMUL:   DRILLING FLUID TYPE
 DFD .               10.2:   DRILLING FLUID DENSITY
 DFV .                 43:   DRILLING FLUID VISCOSITY
 DFL .                4.6:   DRILLING FLUID LOSS
 RMS .OHMM            5.2:   RESISTIVITY MUD SAMPLE
 MST .F                78:   MUD SAMPLE TEMPERATURE
 RMF .OHMM            5.2:   RESISTIVITY MUD FILTRATE SAMPLE
 MFST.F                78:   MUD FILTRATE SAMPLE TEMPERATURE
 RMC .OHMM              6:   RESISTIVITY MUD CAKE
 MCST.F                78:   MUD CAKE SAMPLE TEMPERATURE
 TCS .HRS              .5:   TIME CURCULATED STOPPED
 LUN .               2503:   LOGGING UNIT NUMBER
 LUL .               CSPR:   LOGGING UNIT LOCATION
 ENGI.           ELLERMAN:   RECORDING ENGINEER
 WITN.          JORGENSON:   WITNESSED BY
 CLNT.            A2DTECH:   CLIENT CODE
 ORIG.           5" PRINT:   ORIGIN OF DATA
 UWI .       490250638000:   UNIQUE WELL ID
 DICO. A2D Technologies, Inc.:   DIGITIZING COMPANY
~OTHER INFORMATION
~A   DEPT       GR        SPR          ASN        ILD       CILD 
# ...
  578.0000   137.4396   -35.3455     5.0556     5.2286   212.0293
  578.5000   136.8443   -35.6286     5.3884     5.5244   199.8935
  579.0000   140.6282   -35.9271     5.7792     5.8280   187.6563
  579.5000   142.2980   -36.3773     6.1144     6.1316   171.8304
  580.0000   150.4507   -37.1297     6.3717     6.4351   163.4824
  580.5000   147.5982   -37.4290     6.6742     6.7387   155.1345
  581.0000   150.4746   -37.1239     6.8861     7.0458   147.5441
  581.5000   142.3404   -36.8182     7.0376     7.3462   140.7113
  582.0000   139.6360   -37.1174     7.1456     7.4987   136.1513
  582.5000   140.7025   -37.5676     7.2199     7.5002   133.0431
  583.0000   145.2379   -37.8676     7.2353     7.5772   130.8154
  583.5000   139.2154   -38.0157     7.2055     7.5786   131.5584
  584.0000   142.0917   -38.0121     7.1456     7.5045   133.8165
  584.5000   144.9655   -37.8580     7.0554     7.4305   136.8322
  585.0000   135.3256   -37.7034     6.9789     7.3564   140.6055
  585.5000   136.0904   -37.3984     6.8903     7.2823   143.6212
  586.0000   146.2065   -37.0934     6.7850     7.1331   146.7377
  586.5000   151.4962   -36.7884     6.6494     7.0586   149.6489
  587.0000   155.1267   -36.3323     6.5743     6.9094   154.1797
  587.5000   158.4555   -36.0146     6.5144     6.7535   157.1954
  588.0000   149.5672   -35.7215     6.4218     6.5347   163.2415
  588.5000   144.7513   -35.5675     6.1981     6.3095   170.8026
  589.0000   148.9851   -35.4136     5.8964     6.0844   184.5509
  589.5000   155.0262   -35.5625     5.7005     5.8593   200.3152
  590.0000   141.7665   -36.1630     5.5046     5.6345   214.6945
  590.5000   143.1345   -36.7679     5.2331     5.4831   223.7708
  591.0000   152.7982   -37.2146     5.0345     5.2601   225.2750
  591.5000   163.9702   -37.2110     5.0679     5.1860   223.7416
  592.0000   172.5781   -37.2081     5.1741     5.1875   221.4543
  592.5000   176.3595   -37.0541     5.1896     5.2645   216.7050
  593.0000   176.2166   -36.7491     5.3260     5.4170   205.5123
  593.5000   176.2298   -36.2930     5.9005     5.7206   191.1038
  594.0000   172.9205   -35.3655     6.3118     6.1089   173.6650
  594.5000   154.4162   -34.7759     6.5963     6.6302   160.7716
  595.0000   141.4936   -34.7730     6.7025     6.7827   150.1509
  595.5000   140.2213   -34.9219     6.7936     7.0107   143.3181
  596.0000   147.0197   -35.0700     6.8846     7.0877   141.0303
  596.5000   138.0259   -34.9153     6.9606     7.2402   141.7738
  597.0000   135.4265   -34.9124     7.0369     7.3172   142.5167
  597.5000   130.9625   -34.7577     7.1428     7.3190   141.7409
  598.0000   123.0285   -35.0569     7.2641     7.3960   139.4536
  598.5000   121.5821   -35.5072     7.3703     7.3975   137.1662
  599.0000   119.5307   -36.1085     7.4160     7.3989   135.6364
  599.5000   113.3076   -36.5589     7.4316     7.4004   134.8607
  600.0000   118.4465   -37.0091     7.4622     7.4018   137.1188
  600.5000   131.2776   -36.8804     7.4471     7.4860   137.8842
  601.0000   133.8523   -36.8515     7.4169     7.4758   138.6678
  601.5000   131.5701   -36.8486     7.3716     7.3995   140.1975
  602.0000   131.4602   -36.6946     7.3263     7.3988   141.0002
  602.5000   120.6111   -36.5406     7.2659     7.3979   141.7453
  603.0000   115.7951   -36.3867     7.2340     7.3972   141.7598
  603.5000   106.3600   -36.2326     7.2054     7.3965   141.0131
  604.0000   103.4597   -36.2291     7.2356     7.3957   140.2700
  604.5000   107.6211   -36.2262     7.2508     7.3950   139.5303
  605.0000   115.2292   -36.3743     7.2659     7.3943   137.9542
  605.5000   127.9434   -36.6735     7.2659     7.3934   137.2869
  606.0000   136.0876   -37.2749     7.2205     7.3171   139.5777
  606.5000   140.0213   -38.0392     7.1597     7.1653   147.9256
  607.0000   146.9716   -38.3265     7.0501     6.9380   155.5159
  607.5000   142.9110   -37.4165     6.8278     6.7082   160.8334
  608.0000   141.4152   -36.8093     6.5861     6.4832   164.0004
  608.5000   143.5390   -36.6554     6.4048     6.3315   166.1691
  609.0000   142.7970   -37.4078     6.3444     6.2552   166.9412
  609.5000   136.9268   -37.7070     6.2840     6.1790   166.9557
  610.0000   138.5981   -37.0991     5.9819     6.1782   169.2429
  610.5000   150.2241   -36.6430     5.9063     6.1775   173.8687
  611.0000   149.1805   -36.6401     6.0876     6.1766   184.4271
  611.5000   133.6572   -36.6372     6.1480     6.1004   202.6234
  612.0000   136.2335   -36.7854     5.8912     5.7975   217.7894
  612.5000   138.5080   -36.7825     5.5136     5.5702   226.8949
  613.0000   138.0677   -36.9306     5.1208     5.3419   226.1518
  613.5000   136.7224   -37.3802     4.9396     5.1909   223.1360
  614.0000   132.0558   -38.2836     5.1360     5.1902   223.9117
  614.5000   138.4059   -39.7913     5.2417     5.1895   223.9262
  615.0000   134.4964   -39.4863     4.9547     5.2643   220.9104
  615.5000   127.2657   -38.4260     5.0604     5.4146   208.0461
  616.0000   128.4876   -37.1783     5.7251     5.7987   179.2728
  616.5000   133.1754   -36.6067     6.1934     6.3949   160.7364
  617.0000   134.5451   -37.0577     6.2689     6.7718   152.0327
  617.5000   141.4954   -37.9604     6.3746     6.9978   149.0133
  618.0000   139.2451   -38.8639     6.4502     6.9969   155.8496
  618.5000   137.2965   -39.6164     6.4955     6.6941   164.1974
  619.0000   137.3353   -38.8340     6.5106     6.4666   173.4452
  619.5000   139.2243   -38.4013     6.4804     6.3148   192.2604
  620.0000   152.4135   -38.7005     6.3293     6.0875   204.3961
  620.5000   159.6963   -37.9423     6.0574     5.8602   207.4409
  621.0000   161.6711   -36.5799     5.6647     5.5574   209.7282
  621.5000   163.8325   -35.5196     5.4079     5.3246   212.0154
  622.0000   165.4328   -35.5287     5.3776     5.1781   213.5455
  622.5000   145.8371   -36.1172     5.3515     5.1774   213.5632
  623.0000   143.2852   -36.2661     5.1813     5.4788   206.7595
  623.5000   120.2204   -36.1114     5.7100     5.9312   196.1680
  624.0000   120.9868   -36.1085     5.9668     6.3082   181.0310
  624.5000   124.1663   -36.4077     6.4048     6.7606   165.1364
  625.0000   128.4017   -37.3112     6.8429     6.9865   144.7000
  625.5000   127.0564   -38.5891     7.1299     7.2877   135.6236
  626.0000   116.8122   -39.4202     7.3444     7.5911   131.0927
  626.5000   112.4502   -37.6039     7.5378     7.8150   128.0732
  627.0000   116.0823   -37.1485     7.6435     7.8898   126.5757
  627.5000   117.5997   -37.9002     7.7341     7.9646   126.5909
  628.0000   116.8577   -38.5015     7.7795     8.0392   126.6089
  628.5000   114.6075   -39.2720     7.7795     8.0385   126.6234
  629.0000   116.2818   -39.5531     7.7946     8.0378   125.8767
  629.5000   124.8912   -39.0963     7.8550     8.1126   125.1336
  630.0000   116.4569   -37.8849     7.9003     8.1117   123.6366
  630.5000   116.0136   -36.6735     7.9305     8.1110   122.8935
  631.0000   123.1177   -36.5196     7.9607     8.0347   123.6693
  631.5000   127.1993   -36.6677     7.9758     8.0340   125.9565
  632.0000   125.2537   -36.6641     7.9758     7.9576   128.2437
  632.5000   112.2945   -36.6612     7.9305     7.8813   127.4970
  633.0000   105.6671   -36.6583     7.8399     7.7295   124.4849
  633.5000   102.8165   -36.8072     7.7644     7.8043   121.4691
  634.0000    94.5300   -37.1057     7.7848     7.9547   119.2145
  634.5000   104.1953   -37.2538     8.0514     8.1805   116.9563
  635.0000   107.3779   -37.5530     8.2477     8.3307   116.2096
  635.5000   111.2810   -37.5494     8.4441     8.4810   115.4697
  636.0000   116.1767   -37.5465     8.5650     7.8761   120.9074
  636.5000   120.4048   -37.2415     8.5801     7.0445   149.5937
  637.0000   120.5460   -36.9364     8.4743     6.2885   170.0628
  637.5000   119.8793   -36.6314     7.9548     6.0610   188.2591
  638.0000   114.6053   -36.3263     6.8708     6.1360   191.3003
  638.5000   107.4355   -36.3228     6.1329     6.0596   187.5303
