~VERSION INFORMATION
 VERS.                2.0:   CWLS LOG ASCII STANDARD - VERSION 2.0
 WRAP.                 NO:   ONE LINE PER DEPTH STEP
~WELL INFORMATION
#MNEM.UNIT      DATA TYPE    INFORMATION
#----------   ------------   ------------------------------
 STRT.F           29.0000:   START DEPTH
 STOP.F          642.0000:   STOP DEPTH
 STEP.F            0.5000:   STEP LENGTH
 NULL.          -999.2500:   NO VALUE
 COMP. FENIX & SCISSON INC:   COMPANY
 WELL.    NPR-3 SX #21-10:   WELL
 FLD .  TEAPOT DOME NPR 3:   FIELD
 LOC .      S10 T38N R78W:   LOCATION
 CNTY.            NATRONA:   COUNTY
 STAT.            WYOMING:   STATE
 CTRY. UNITED STATES OF AMERICA:   COUNTRY
 SRVC.            Unknown:   SERVICE COMPANY
 DATE.        03-JUL-1978:   LOGDATE
 API .       490251065400:   API NUMBER
~CURVE INFORMATION
#MNEM.UNIT       API CODE    CURVE DESCRIPTION
#----------   ------------   ------------------------------
 DEPT.F                  :   
 SPR .MV     05 010 01 00:   SPONTANEOUS POTENTIAL FROM RES.
 SN  .OHMM   05 040 16 00:   SHORT NORMAL 16"
 ILD .OHMM   05 120 46 00:   INDUCTION LOG DEEP
 CALD.IN     45 280 60 00:   CALIPER FROM DENSITY
 GRD .GAPI   45 310 01 00:   GAMMA RAY FROM DENSITY LOG
 CORR.G/C3   45 356 01 00:   DENSITY CORRECTION
 DPHI.DEC    45 890 12 00:   DENSITY POROSITY SANDSTONE
 DEN .G/C3   45 350 01 00:   COMPENSATED BULK DENSTIY
~PARAMETER INFORMATION
#MNEM.UNIT          VALUE    DESCRIPTION
#----------   ------------   ------------------------------
 PD  .                 GL:   PERMANENT DATUM
 EPD .F              5253:   ELEVATION PERMANENT DATUM
 LMF .                 KB:   LOG MEASURED FROM
 DAPD.F                 4:   FEET ABOVE PERMANENT DATUM
 DMF .                 KB:   DRILLING MEASURED FROM
 EKB .F              5257:   KELLING BUSHING
 EGL .F              5253:   GROUND LEVEL
 DATE.           7-3-1978:   RUN DATE
 RUN .                  1:   RUN NUMBER
 DD  .F               650:   DEPTH DRILLER
 DL  .F               648:   DEPTH LOGGER
 BLI .F               642:   BOTTOM LOG INTERVAL
 TLI .F                40:   TOP LOG INTERVAL
 CS  .IN            8.625:   CASING SIZE
 CBD .F                40:   CASING BOTTOM DRILLER
 CBL .F                40:   CASING BOTTOM LOGGER
 BS  .IN            7.875:   BIT SIZE
 BSD .F               650:   BIT SIZE AT DEPTH
 DFT .                KCL:   DRILLING FLUID TYPE
 DFD .                8.6:   DRILLING FLUID DENSITY
 DFV .                 32:   DRILLING FLUID VISCOSITY
 DFPH.                  9:   DRILLING FLUID PH
 MSS .           FLOWLINE:   MUD SAMPLE SOURCE
 RMS .OHMM            .24:   RESISTIVITY MUD SAMPLE
 MST .F                88:   MUD SAMPLE TEMPERATURE
 RMF .OHMM            .24:   RESISTIVITY MUD FILTRATE SAMPLE
 MFST.F                94:   MUD FILTRATE SAMPLE TEMPERATURE
 RMC .OHMM            .46:   RESISTIVITY MUD CAKE
 MCST.F                96:   MUD CAKE SAMPLE TEMPERATURE
 MFSS.               MEAS:   MUD FILTRATE SAMPLE SOURCE
 MCSS.               MEAS:   MUD CAKE SAMPLE SOURCE
 TCS .HRS               2:   TIME CURCULATED STOPPED
 LUN .               2958:   LOGGING UNIT NUMBER
 LUL .               CASP:   LOGGING UNIT LOCATION
 CLNT.            A2DTECH:   CLIENT CODE
 ORIG.           5" PRINT:   ORIGIN OF DATA
 UWI .       490251065400:   UNIQUE WELL ID
 DICO. A2D Technologies, Inc.:   DIGITIZING COMPANY
~OTHER INFORMATION
~A   DEPT      SPR         SN        ILD       CALD        GRD       CORR       DPHI        DEN   
# ...
  110.0000   -27.6064     7.5471     7.5773     8.2216   112.7141     0.0109     0.1496     2.4447
  110.5000   -27.4343     7.5517     7.5315     8.2067   109.6182     0.0124     0.1443     2.4544
  111.0000   -27.4109     7.5563     7.4860     8.1919   107.5548     0.0124     0.1426     2.4634
  111.5000   -27.3874     7.6131     7.4936     8.2070   107.5563     0.0109     0.1466     2.4664
  112.0000   -27.3640     7.6178     7.4997     8.2072   107.7049     0.0049     0.1480     2.4589
  112.5000   -27.3341     7.6224     7.4529     8.2223   106.9692     0.0004     0.1487     2.4566
  113.0000   -27.1679     7.6271     7.3585     8.2075   103.1359    -0.0013     0.1507     2.4566
  113.5000   -27.1441     7.6317     7.3645     8.1927   102.8420    -0.0041     0.1553     2.4551
  114.0000   -27.1157     7.6364     7.3705     8.1778   104.6138    -0.0025     0.1589     2.4498
  114.5000   -26.9437     7.6411     7.3245     8.1481   105.0577     0.0020     0.1636     2.4304
  115.0000   -27.0747     7.6457     7.3319     8.1482   106.3866     0.0065     0.1556     2.4296
  115.5000   -26.8968     7.5979     7.3379     8.1484   108.3055     0.0107     0.1547     2.4356
  116.0000   -26.8733     7.6026     7.2920     8.1485   111.5518     0.0107     0.1484     2.4453
  116.5000   -26.8499     7.5551     7.1983     8.1487   111.1108     0.0077     0.1481     2.4550
  117.0000   -26.8264     7.4564     7.1559     8.1488   108.4574     0.0062     0.1505     2.4617
  117.5000   -26.9574     7.3998     7.1130     8.1659   105.8036     0.0062     0.1541     2.4535
  118.0000   -26.9281     7.2629     7.0215     8.1790   106.5429     0.0047     0.1577     2.4557
  118.5000   -26.9046     7.1200     6.9790     8.1492   111.2642     0.0077     0.1613     2.4510
  119.0000   -26.8812     7.0744     6.9368     8.1344   112.4456     0.0136     0.1616     2.4369
  119.5000   -27.0074     7.0302     6.9426     8.1346   113.0370     0.0166     0.1535     2.4355
  120.0000   -27.2801     6.9394     6.8532     8.1198   112.8910     0.0121     0.1484     2.4427
  120.5000   -27.2566     6.8950     6.8118     8.0900   111.7125     0.0106     0.1553     2.4594
  121.0000   -27.3819     6.9003     6.8187     8.0602   110.9765     0.0166     0.1586     2.4504
  121.5000   -27.3581     6.9045     6.8243     8.0304   107.7331     0.0240     0.1556     2.4511
  122.0000   -27.3343     6.9087     6.8298     8.0156   106.5543     0.0195     0.1497     2.4384
  122.5000   -27.3106     6.9129     6.8354     8.0007   108.6210     0.0075     0.1482     2.4431
  123.0000   -27.2821     6.9171     6.7922     8.0009   113.1948     0.0045     0.1488     2.4566
  123.5000   -27.2586     6.8737     6.7063     8.0011   114.6712     0.0045     0.1506     2.4601
  124.0000   -27.3896     6.8781     6.6656     8.0012   112.4603     0.0075     0.1581     2.4599
  124.5000   -27.3603     6.8823     6.6712     8.0014   111.2818     0.0105     0.1626     2.4522
  125.0000   -27.3368     6.8865     6.6766     8.0015   111.2586     0.0164     0.1614     2.4343
  125.5000   -27.3134     6.8908     6.6821     8.0017   111.7272     0.0179     0.1563     2.4323
  126.0000   -27.1414     6.9426     6.7387     8.0018   114.0885     0.0119     0.1434     2.4356
  126.5000   -27.1179     6.9469     6.8327     8.0169   114.9750     0.0044     0.1524     2.4640
  127.0000   -27.0945     7.0970     6.8866     8.0171   115.8614     0.0014     0.1545     2.4592
  127.5000   -27.0710     7.1997     7.0845     8.0172   117.6328     0.0029     0.1542     2.4464
  128.0000   -27.0475     7.3543     7.2381     8.0324   117.1918     0.0044     0.1521     2.4427
  128.5000   -27.0241     7.6162     7.3444     8.0475   115.8658     0.0074     0.1482     2.4472
  129.0000   -27.0006     7.9420     7.5036     8.0476   111.4425     0.0103     0.1435     2.4479
  129.5000   -26.9772     8.1685     7.7192     8.0627   108.6416     0.0088     0.1432     2.4621
  130.0000   -27.1025     8.2299     7.9410     8.0629   107.6106     0.0058     0.1420     2.4673
  130.5000   -27.2275     8.4066     8.1132     8.0630   109.3918     0.0088     0.1291     2.4808
  131.0000   -27.3526     8.4698     8.1759     8.0632   110.4208     0.0148     0.1279     2.4897
  131.5000   -27.3284     8.4750     8.3531     8.0633   110.5649     0.0207     0.1273     2.4807
  132.0000   -27.4543     8.4893     8.3599     8.0635   109.9469     0.0058     0.1282     2.5076
  132.5000   -27.4250     8.4272     8.1959     8.0786   106.0816    -0.0152     0.1324     2.5248
  133.0000   -27.4015     8.0359     7.9252     8.1237   101.4985    -0.0077     0.1471     2.5039
  133.5000   -27.3781     7.8216     7.6110     8.1538    95.0497    -0.0017     0.1525     2.4709
  134.0000   -27.5032     7.5546     7.3597     8.1539    94.9380     0.0042     0.1543     2.4463
  134.5000   -27.4798     7.3620     7.2644     8.1840   103.9219     0.0042     0.1594     2.4365
  135.0000   -27.4563     7.2658     7.1716     8.1991   106.7896    -0.0048     0.1510     2.4500
  135.5000   -27.5873     7.2204     7.1775     8.2292   108.5535    -0.0018     0.1618     2.4559
  136.0000   -27.7124     7.2259     7.1341     8.2593   115.1507     0.0056     0.1639     2.4335
  136.5000   -27.6831     7.2303     7.1413     8.2445   115.5943     0.0131     0.1561     2.4320
  137.0000   -27.6597     7.2348     7.0967     8.2147   113.6787     0.0191     0.1501     2.4409
  137.5000   -27.7907     7.2392     7.1039     8.2148   110.5829     0.0206     0.1460     2.4559
  138.0000   -27.7614     7.2936     7.1588     8.2300   110.2890     0.0146     0.1427     2.4686
  138.5000   -27.7379     7.3991     7.1646     8.2601   110.8808     0.0041     0.1406     2.4738
  139.0000   -27.7145     7.4547     7.2200     8.2602   115.3070     0.0041     0.1403     2.4693
  139.5000   -27.6909     7.5626     7.4274     8.2604   117.0784     0.0041     0.1424     2.4670
  140.0000   -27.6672     7.6721     7.6408     8.2605   115.1625     0.0055     0.1448     2.4655
  140.5000   -27.6434     7.8368     7.8604     8.2307   111.1817     0.0100     0.1463     2.4648
  141.0000   -27.7692     7.8957     8.0308     8.2009   110.2978     0.0130     0.1481     2.4588
  141.5000   -27.7399     8.0652     8.0374     8.1711   114.7244     0.0159     0.1460     2.4565
  142.0000   -28.0136     8.1259     8.0439     8.1563   115.1684     0.0174     0.1388     2.4640
  142.5000   -28.1388     8.1309     7.9403     8.1414   113.5474     0.0159     0.1352     2.4692
  143.0000   -28.1153     8.0626     7.8923     8.1416   110.3040     0.0081     0.1346     2.4707
  143.5000   -28.0919     7.8128     7.7376     8.1418   102.3409     0.0023     0.1353     2.4781
  144.0000   -28.2229     7.6054     7.6353     8.1419   102.9324     0.0024     0.1386     2.4826
  144.5000   -28.6393     7.4035     7.2811     8.1421   104.1138     0.0026     0.1541     2.4587
  145.0000   -28.7645     7.2556     7.0867     8.1422   107.2126     0.0041     0.1532     2.4452
  145.5000   -29.0441     7.1118     6.9452     8.1424   113.4087     0.0099     0.1583     2.4452
  146.0000   -29.1692     7.0684     6.9118     8.1425   114.1477     0.0128     0.1571     2.4399
  146.5000   -29.2943     7.0727     6.9188     8.1427   110.6093     0.0143     0.1443     2.4391
  147.0000   -29.2650     7.0770     7.0204     8.1578   106.1860     0.0068     0.1392     2.4481
  147.5000   -29.5387     7.0814     7.1234     8.1579   105.8921     0.0038     0.1491     2.4720
  148.0000   -29.5153     7.0857     7.1292     8.1581   107.0739     0.0038     0.1485     2.4608
  148.5000   -29.6404     7.1389     7.2838     8.1582   109.4352     0.0068     0.1536     2.4555
  149.0000   -29.6166     7.3426     7.3401     8.1584   114.1565     0.0097     0.1545     2.4585
  149.5000   -29.5929     7.5002     7.3967     8.1585   116.2228     0.0112     0.1503     2.4465
  150.0000   -29.7203     7.6613     7.5152     8.1587   113.4678     0.0072     0.1474     2.4539
