~VERSION INFORMATION
 VERS.                2.0:   CWLS LOG ASCII STANDARD - VERSION 2.0
 WRAP.                 NO:   ONE LINE PER DEPTH STEP
~WELL INFORMATION
#MNEM.UNIT      DATA TYPE    INFORMATION
#----------   ------------   ------------------------------
 STRT.F           29.0000:   START DEPTH
 STOP.F          642.0000:   STOP DEPTH
 STEP.F            0.5000:   STEP LENGTH
 NULL.          -999.2500:   NO VALUE
 COMP. FENIX & SCISSON INC:   COMPANY
 WELL.    NPR-3 SX #21-10:   WELL
 FLD .  TEAPOT DOME NPR 3:   FIELD
 LOC .      S10 T38N R78W:   LOCATION
 CNTY.            NATRONA:   COUNTY
 STAT.            WYOMING:   STATE
 CTRY. UNITED STATES OF AMERICA:   COUNTRY
 SRVC.            Unknown:   SERVICE COMPANY
 DATE.        03-JUL-1978:   LOGDATE
 API .       490251065400:   API NUMBER
~CURVE INFORMATION
#MNEM.UNIT       API CODE    CURVE DESCRIPTION
#----------   ------------   ------------------------------
 DEPT.F                  :   
 SPR .MV     05 010 01 00:   SPONTANEOUS POTENTIAL FROM RES.
 SN  .OHMM   05 040 16 00:   SHORT NORMAL 16"
 ILD .OHMM   05 120 46 00:   INDUCTION LOG DEEP
 CALD.IN     45 280 60 00:   CALIPER FROM DENSITY
 GRD .GAPI   45 310 01 00:   GAMMA RAY FROM DENSITY LOG
 CORR.G/C3   45 356 01 00:   DENSITY CORRECTION
 DPHI.DEC    45 890 12 00:   DENSITY POROSITY SANDSTONE
 DEN .G/C3   45 350 01 00:   COMPENSATED BULK DENSTIY
~PARAMETER INFORMATION
#MNEM.UNIT          VALUE    DESCRIPTION
#----------   ------------   ------------------------------
 PD  .                 GL:   PERMANENT DATUM
 EPD .F              5253:   ELEVATION PERMANENT DATUM
 LMF .                 KB:   LOG MEASURED FROM
 DAPD.F                 4:   FEET ABOVE PERMANENT DATUM
 DMF .                 KB:   DRILLING MEASURED FROM
 EKB .F              5257:   KELLING BUSHING
 EGL .F              5253:   GROUND LEVEL
 DATE.           7-3-1978:   RUN DATE
 RUN .                  1:   RUN NUMBER
 DD  .F               650:   DEPTH DRILLER
 DL  .F               648:   DEPTH LOGGER
 BLI .F               642:   BOTTOM LOG INTERVAL
 TLI .F                40:   TOP LOG INTERVAL
 CS  .IN            8.625:   CASING SIZE
 CBD .F                40:   CASING BOTTOM DRILLER
 CBL .F                40:   CASING BOTTOM LOGGER
 BS  .IN            7.875:   BIT SIZE
 BSD .F               650:   BIT SIZE AT DEPTH
 DFT .                KCL:   DRILLING FLUID TYPE
 DFD .                8.6:   DRILLING FLUID DENSITY
 DFV .                 32:   DRILLING FLUID VISCOSITY
 DFPH.                  9:   DRILLING FLUID PH
 MSS .           FLOWLINE:   MUD SAMPLE SOURCE
 RMS .OHMM            .24:   RESISTIVITY MUD SAMPLE
 MST .F                88:   MUD SAMPLE TEMPERATURE
 RMF .OHMM            .24:   RESISTIVITY MUD FILTRATE SAMPLE
 MFST.F                94:   MUD FILTRATE SAMPLE TEMPERATURE
 RMC .OHMM            .46:   RESISTIVITY MUD CAKE
 MCST.F                96:   MUD CAKE SAMPLE TEMPERATURE
 MFSS.               MEAS:   MUD FILTRATE SAMPLE SOURCE
 MCSS.               MEAS:   MUD CAKE SAMPLE SOURCE
 TCS .HRS               2:   TIME CURCULATED STOPPED
 LUN .               2958:   LOGGING UNIT NUMBER
 LUL .               CASP:   LOGGING UNIT LOCATION
 CLNT.            A2DTECH:   CLIENT CODE
 ORIG.           5" PRINT:   ORIGIN OF DATA
 UWI .       490251065400:   UNIQUE WELL ID
 DICO. A2D Technologies, Inc.:   DIGITIZING COMPANY
~OTHER INFORMATION
~A   DEPT      SPR         SN        ILD       CALD        GRD       CORR       DPHI        DEN   
# ...
  231.5000   -19.1807     8.3025     8.3378     8.2075   114.5473    -0.0251     0.1182     2.5047
  232.0000   -19.3120     8.3075     8.2863     8.2078   114.5488    -0.0370     0.1317     2.5085
  232.5000   -19.2829     8.3125     8.2918     8.2081   114.8453    -0.0311     0.1359     2.4695
  233.0000   -19.4142     8.3175     8.2405     8.2084   115.2892    -0.0012     0.1305     2.4725
  233.5000   -19.5398     8.3226     8.2475     8.2087   114.9957     0.0047     0.1275     2.4874
  234.0000   -19.6653     8.2693     8.2229     8.2090   113.2273    -0.0013     0.1282     2.4890
  234.5000   -19.6362     8.2755     8.1397     8.2093   112.7859    -0.0073     0.1339     2.4784
  235.0000   -19.6129     8.2806     8.0403     8.2096   113.3777    -0.0103     0.1330     2.4784
  235.5000   -19.5893     8.2257     8.1012     8.2099   114.7066    -0.0118     0.1444     2.4784
  236.0000   -19.5655     8.1773     8.1067     8.2102   115.7405    -0.0119     0.1500     2.4522
  236.5000   -19.5372     8.1835     8.0565     8.2255   117.2169    -0.0044     0.1438     2.4559
  237.0000   -19.5139     8.1885     8.0619     8.2258   120.0207     0.0000     0.1450     2.4626
  237.5000   -19.4907     8.1934     8.0673     8.2261   123.5620     0.0015     0.1438     2.4604
  238.0000   -19.4674     8.1984     8.0728     8.2114   123.5635     0.0000     0.1324     2.4725
  238.5000   -19.4441     8.2034     8.0782     8.2117   123.5649    -0.0001     0.1378     2.4791
  239.0000   -19.4208     8.2650     8.1394     8.1969   123.7139    -0.0001     0.1318     2.4813
  239.5000   -19.3975     8.3271     8.2578     8.1973   123.8629    -0.0016     0.1301     2.4730
  240.0000   -19.5238     8.3321     8.3205     8.1826   124.0118    -0.0076     0.1322     2.4810
  240.5000   -19.3509     8.2800     8.3273     8.1829   123.1283    -0.0077     0.1426     2.4835
  241.0000   -19.4765     8.2282     8.3904     8.1832   114.1328    -0.0077     0.1462     2.4626
  241.5000   -19.4524     8.1768     8.5124     8.1835   113.9857    -0.0077     0.1415     2.4610
  242.0000   -19.4241     8.1830     8.5181     8.1689   117.9744    -0.0077     0.1403     2.4692
  242.5000   -19.4008     8.1879     8.5238     8.1692   117.9671    -0.0078     0.1424     2.4662
  243.0000   -19.3775     8.1929     8.5295     8.1695   114.5339    -0.0123     0.1481     2.4669
  243.5000   -19.3542     8.1978     8.4187     8.1698   111.7478    -0.0138     0.1481     2.4564
  244.0000   -19.3309     8.2028     8.3664     8.1701   111.1917    -0.0079     0.1526     2.4445
  244.5000   -19.3076     8.2078     8.3722     8.1704   113.1273    -0.0019     0.1433     2.4489
  245.0000   -19.2844     8.2127     8.3779     8.1707   113.7217    -0.0004     0.1355     2.4721
  245.5000   -19.4107     8.2177     8.3260     8.1710   114.9513    -0.0020     0.1415     2.4781
  246.0000   -19.3866     8.1663     8.3330     8.1713   115.6224     0.0040     0.1428     2.4661
  246.5000   -19.2143     8.0576     8.3386     8.1716   115.4763     0.0069     0.1362     2.4676
  247.0000   -19.1905     8.0092     8.2288     8.1719   116.9531     0.0099     0.1311     2.4795
  247.5000   -19.1621     7.9603     8.1779     8.1572   116.6596     0.0039     0.1218     2.4922
  248.0000   -19.2876     7.8563     8.1273     8.1575   114.1537    -0.0021     0.1200     2.4997
  248.5000   -19.1155     7.8060     7.9667     8.1578   114.4501    -0.0036     0.1311     2.5012
  249.0000   -19.0923     7.8119     7.9187     8.1581   115.4840    -0.0037     0.1332     2.4967
  249.5000   -19.2236     7.7619     7.8696     8.1584   117.8454    -0.0022     0.1356     2.4787
  250.0000   -19.2003     7.7676     7.8210     8.1737   119.2228    -0.0022     0.1404     2.4690
  250.5000   -19.3498     7.7734     7.7867     8.1587   123.7480    -0.0023     0.1434     2.4645
  251.0000   -19.4537     7.7799     7.7790     8.1138   124.6345    -0.0023     0.1479     2.4592
  251.5000   -19.5759     7.7324     7.7320     8.0988   124.9309    -0.0008     0.1500     2.4547
  252.0000   -19.7018     7.7915     7.6339     8.0988   125.2274     0.0007     0.1446     2.4629
  252.5000   -19.8289     7.7973     7.5879     8.0988   124.0489     0.0052     0.1434     2.4629
  253.0000   -19.8065     7.8570     7.5942     8.1287   118.5931     0.0111     0.1455     2.4524
  253.5000   -19.7842     7.8629     7.6004     8.1737   116.9718     0.0171     0.1440     2.4517
  254.0000   -19.7619     7.8687     7.6067     8.1886   118.1536     0.0171     0.1369     2.4711
  254.5000   -19.8894     7.8746     7.6701     8.1886   119.7775     0.0171     0.1243     2.4868
  255.0000   -19.7130     7.9349     7.7781     8.1886   120.2215     0.0170     0.1219     2.4957
  255.5000   -19.6910     7.9973     7.8382     8.1886   117.8630     0.0185     0.1195     2.5002
  256.0000   -19.6690     8.0569     7.9001     8.1886   117.1270     0.0230     0.1201     2.4927
  256.5000   -19.3494     8.1187     8.0161     8.1884   117.7185     0.0230     0.1222     2.4949
  257.0000   -19.1786     8.1260     8.0780     8.1737   119.6374     0.0155     0.1222     2.5196
  257.5000   -19.1566     8.3016     8.1404     8.1737   122.2937    -0.0070     0.1222     2.5346
  258.0000   -18.9857     8.3651     8.3169     8.1737   122.0002    -0.0159     0.1300     2.5323
  258.5000   -18.9637     8.3713     8.3237     8.1886   115.2166    -0.0010     0.1291     2.4867
  259.0000   -18.9417     8.4354     8.4459     8.1886   116.6934     0.0184     0.1264     2.4889
  259.5000   -18.7709     8.5586     8.5111     8.1737   117.8748     0.0214     0.1258     2.4709
  260.0000   -18.7489     8.6241     8.5181     8.1737   116.5488     0.0049     0.1243     2.4956
  260.5000   -18.7269     8.6306     8.5839     8.1737   114.9275    -0.0085     0.1313     2.4903
  261.0000   -18.7049     8.6370     8.5909     8.1737   115.9618    -0.0130     0.1345     2.4761
  261.5000   -18.8318     8.6434     8.5979     8.1737   117.8807    -0.0145     0.1332     2.4724
  262.0000   -18.8097     8.6499     8.6049     8.1737   118.3243    -0.0131     0.1334     2.4761
  262.5000   -18.9365     8.6563     8.6119     8.1737   118.0308    -0.0131     0.1385     2.4716
  263.0000   -18.9137     8.6628     8.6190     8.1737   118.6226    -0.0131     0.1426     2.4596
  263.5000   -19.0358     8.6693     8.6260     8.1737   119.5090    -0.0101     0.1465     2.4491
  264.0000   -19.0137     8.6162     8.6330     8.1737   120.1004    -0.0086     0.1468     2.4476
  264.5000   -19.2949     8.6229     8.6401     8.1737   119.5119    -0.0057     0.1459     2.4476
  265.0000   -19.4217     8.6306     8.6472     8.1737   119.0706    -0.0011     0.1435     2.4513
  265.5000   -19.3941     8.6371     8.6544     8.1587   118.6296     0.0048     0.1384     2.4558
  266.0000   -19.3721     8.6435     8.6615     8.1287   118.6314     0.0079     0.1327     2.4625
  266.5000   -19.3501     8.6500     8.6701     8.0539   119.5178     0.0092     0.1312     2.4692
  267.0000   -19.3281     8.6564     8.6772     7.9940   119.9614     0.0092     0.1312     2.4729
  267.5000   -18.8597     8.6629     8.6842     7.7545   118.6358     0.0107     0.1339     2.4759
  268.0000   -18.6889     8.7291     8.7513     7.7246   117.8995     0.0122     0.1351     2.4722
  268.5000   -18.2204     8.7356     8.9411     7.7545   118.6387     0.0151     0.1345     2.4684
  269.0000   -18.0496     8.8633     9.4546     7.8443   120.2626     0.0151     0.1357     2.4699
  269.5000   -17.8788     8.9927     9.9976     8.0539   120.7066     0.0166     0.1387     2.4661
  270.0000   -17.8568     9.2505     9.8014     8.0988   119.3806     0.0345     0.1390     2.4571
  270.5000   -17.9836     9.5156     9.7402     8.0539   113.4824     0.0524     0.1387     2.4579
  271.0000   -17.9613     9.7883     9.9534     7.9940   109.6491     0.0659     0.1310     2.4653
  271.5000   -17.9390     9.4573    10.0303     7.9341   107.8802     0.0763     0.1295     2.4825
