~VERSION INFORMATION
 VERS.                2.0:   CWLS LOG ASCII STANDARD - VERSION 2.0
 WRAP.                 NO:   ONE LINE PER DEPTH STEP
~WELL INFORMATION
#MNEM.UNIT      DATA TYPE    INFORMATION
#----------   ------------   ------------------------------
 STRT.F           41.0000:   START DEPTH
 STOP.F          473.5000:   STOP DEPTH
 STEP.F            0.5000:   STEP LENGTH
 NULL.          -999.2500:   NO VALUE
 COMP. BROWN JOHN E&C INC:   COMPANY
 WELL. SX 10 #54-43-10-10:   WELL
 FLD .             TEAPOT:   FIELD
 LOC .      S10 T38N R78W:   LOCATION
 CNTY.            NATRONA:   COUNTY
 STAT.            WYOMING:   STATE
 CTRY. UNITED STATES OF AMERICA:   COUNTRY
 SRVC.       Schlumberger:   SERVICE COMPANY
 DATE.        13-SEP-1990:   LOGDATE
 API .       490251131600:   API NUMBER
~CURVE INFORMATION
#MNEM.UNIT       API CODE    CURVE DESCRIPTION
#----------   ------------   ------------------------------
 DEPT.F                  :   
 GRR .GAPI   07 310 01 00:   GAMMA RAY
 ILD .OHMM   07 120 46 00:   INDUCTION LOG DEEP
 ILM .OHMM   07 120 44 00:   INDUCTION LOG MEDIUM
~PARAMETER INFORMATION
#MNEM.UNIT          VALUE    DESCRIPTION
#----------   ------------   ------------------------------
 PD  .                 GL:   PERMANENT DATUM
 EPD .F            5193.0:   ELEVATION PERMANENT DATUM
 LMF .                 KB:   LOG MEASURED FROM
 DAPD.F              10.0:   FEET ABOVE PERMANENT DATUM
 DMF .                 KB:   DRILLING MEASURED FROM
 EKB .F            5203.0:   KELLING BUSHING
 EDF .F            5202.0:   DRILLING FLOOR
 EGL .F            5193.0:   GROUND LEVEL
 DATE.        13-SEP-1990:   RUN DATE
 RUN .                  1:   RUN NUMBER
 DD  .F               480:   DEPTH DRILLER
 DL  .F               479:   DEPTH LOGGER
 BLI .F               473:   BOTTOM LOG INTERVAL
 TLI .F                47:   TOP LOG INTERVAL
 CS  .IN            8.625:   CASING SIZE
 CBD .F                50:   CASING BOTTOM DRILLER
 CBL .F                47:   CASING BOTTOM LOGGER
 BS  .IN            7.875:   BIT SIZE
 BSD .F               480:   BIT SIZE AT DEPTH
 DFT .          AIR/ FOAM:   DRILLING FLUID TYPE
 MSS .           MUD TANK:   MUD SAMPLE SOURCE
 MFSS.               MEAS:   MUD FILTRATE SAMPLE SOURCE
 MCSS.               CALC:   MUD CAKE SAMPLE SOURCE
 TCS .HRS            0700:   TIME CURCULATED STOPPED
 TLAB.HRS            0730:   TIME LOGGER AT BOTTOM
 LUN .               8168:   LOGGING UNIT NUMBER
 LUL .           GILLETTE:   LOGGING UNIT LOCATION
 ENGI.          M. FISHER:   RECORDING ENGINEER
 WITN.          G. STRONG:   WITNESSED BY
 CLNT.            A2DTECH:   CLIENT CODE
 ORIG.           5" PRINT:   ORIGIN OF DATA
 UWI .       490251131600:   UNIQUE WELL ID
 DICO. A2D Technologies, Inc.:   DIGITIZING COMPANY
~OTHER INFORMATION
~A   DEPT       GRR       ILD        ILM   
# ...
  405.0000   128.8954     9.9165     9.9718
  405.5000   129.7799     9.6436     9.6114
  406.0000   128.8545     9.2493     9.0436
  406.5000   124.9124     8.3930     8.2623
  407.0000   117.9538     7.2794     7.7069
  407.5000   119.7433     6.4481     6.6615
  408.0000   130.2816     6.1418     5.6396
  408.5000   145.6400     6.0561     5.1881
  409.0000   150.7478     6.1393     5.3792
  409.5000   146.5041     6.2237     6.1641
  410.0000   132.9090     6.3095     6.6498
  410.5000   123.8387     6.8545     7.1243
  411.0000   124.1199     7.8816     7.6325
  411.5000   126.2111     8.8336     8.4068
  412.0000   126.7940     9.8193     9.1322
  412.5000   124.3551    10.3766     9.7162
  413.0000   122.5247    10.5197    10.4094
  413.5000   121.9010    10.5907    10.4050
  414.0000   123.9921    10.5880    10.4016
  414.5000   127.5916    10.6595    10.3981
  415.0000   129.9844    10.7314    10.6128
  415.5000   129.0409    10.8906    10.6839
  416.0000   125.3694    11.1044    10.9036
  416.5000   125.6998    11.3352    11.1338
  417.0000   125.9810    11.5709    11.3576
  417.5000   125.3521    11.8935    11.5931
  418.0000   123.5217    11.9737    11.8315
  418.5000   120.4847    12.2226    12.0758
  419.0000   121.3692    12.3906    12.3252
  419.5000   123.2008    12.5608    12.5797
  420.0000   124.6466    12.8213    12.8395
  420.5000   121.9061    13.1787    13.1957
  421.0000   119.1707    13.3605    13.8196
  421.5000   117.9436    13.3571    13.9384
  422.0000   117.3198    13.3545    14.1021
  422.5000   116.3944    13.3518    14.1021
  423.0000   115.1673    13.4424    14.1021
  423.5000   113.6380    13.6266    14.1021
  424.0000   113.6130    13.7185    14.1021
  424.5000   115.7042    13.8110    14.1021
  425.0000   115.9905    13.8076    14.1021
  425.5000   113.2500    13.7095    14.1658
  426.0000   112.0229    14.0477    14.2010
  426.5000   112.6058    13.9542    14.1255
  427.0000   115.6198    13.9594    13.9064
  427.5000   119.6835    13.9476    13.8096
  428.0000   124.0023    13.8716    13.8096
  428.5000   124.8920    13.8764    13.8096
  429.0000   120.3415    13.8813    13.8035
  429.5000   115.7962    13.8466    13.7134
  430.0000   113.6641    13.7940    13.7134
  430.5000   113.9457    13.7988    13.6902
  431.0000   113.0014    13.7473    13.5891
  431.5000   113.2960    13.6504    13.4889
  432.0000   116.5938    13.5541    13.3893
  432.5000   126.2264    13.3870    13.3354
  433.0000   129.5242    13.1620    13.1851
  433.5000   127.3922    13.0743    13.0039
  434.0000   123.7518    12.8065    12.7893
  434.5000   121.9126    12.5442    12.4456
  435.0000   124.3740    12.3539    12.2814
  435.5000   126.7019    12.0066    12.0083
  436.0000   127.5865    11.7607    11.6773
  436.5000   131.4876    11.5914    11.5960
  437.0000   135.9920    11.4481    11.3536
  437.5000   137.1833    11.3116    11.2504
  438.0000   135.0461    11.1302    10.9329
  438.5000   133.8191    10.9793    10.7077
  439.0000   135.3905    10.8210    10.5503
  439.5000   137.6946    10.6566    10.4185
  440.0000   138.5843    10.5685    10.3141
  440.5000   135.8438    10.5198    10.1938
  441.0000   134.9234    10.5020    10.1542
  441.5000   138.2161    10.4329    10.1542
  442.0000   139.1252    10.2911    10.5131
  442.5000   134.8118    10.2945    10.5145
  443.0000   129.7032    10.2979    10.5078
  443.5000   127.5711    10.2294    10.4438
  444.0000   128.7573    10.2332    10.4290
  444.5000   133.2618    10.2107    10.3331
  445.0000   138.6712    10.0638    10.1585
  445.5000   142.5732     9.8983     9.9642
  446.0000   140.1386     9.7323     9.8191
  446.5000   139.2126     9.6921     9.7108
  447.0000   139.1876     9.6631     9.6791
  447.5000  -999.2500     9.6312     9.6805
  448.0000  -999.2500     9.5545     9.6818
  448.5000  -999.2500     9.5037     9.6329
  449.0000  -999.2500     9.5071     9.6170
  449.5000  -999.2500     9.4590     9.5513
  450.0000  -999.2500     9.4473     9.5526
  450.5000  -999.2500     9.3194     9.4210
  451.0000  -999.2500     9.0014     9.1539
  451.5000  -999.2500     8.7522     8.8936
  452.0000  -999.2500     8.4445     8.7082
  452.5000  -999.2500     8.2834     8.5814
  453.0000  -999.2500     8.3199     8.4718
  453.5000  -999.2500     8.4954     8.4293
  454.0000  -999.2500     8.6443     8.5207
  454.5000  -999.2500     8.8652     8.8604
  455.0000  -999.2500     9.1356     9.3332
  455.5000  -999.2500     9.4468     9.7927
  456.0000  -999.2500     9.8456    10.2391
  456.5000  -999.2500    10.2535    10.6554
  457.0000  -999.2500    10.5952    10.9468
  457.5000  -999.2500    10.8628    11.1330
  458.0000  -999.2500    10.9301    11.1692
  458.5000  -999.2500    10.9345    11.1706
  459.0000  -999.2500    10.9382    11.1721
  459.5000  -999.2500    10.9418    11.1736
  460.0000  -999.2500    10.8689    11.1752
  460.5000  -999.2500    10.8613    11.1767
  461.0000  -999.2500    10.7247    11.1783
  461.5000  -999.2500    10.7290    11.1799
  462.0000  -999.2500    10.7327    11.1814
  462.5000  -999.2500    10.7365    11.1830
  463.0000  -999.2500    10.7403    11.1846
  463.5000  -999.2500    10.7440    11.1861
  464.0000  -999.2500    10.7478    11.1877
  464.5000  -999.2500    10.7516    11.1893
  465.0000  -999.2500    10.7096    11.1908
  465.5000  -999.2500    10.6839    11.1924
  466.0000  -999.2500    10.6877    11.1349
  466.5000  -999.2500    10.6327    11.1174
  467.0000  -999.2500    10.3274    10.8120
  467.5000  -999.2500    10.1158    10.5885
  468.0000  -999.2500     9.8394    10.2974
  468.5000  -999.2500     9.4993     9.9990
  469.0000  -999.2500     9.3039     9.6239
  469.5000  -999.2500     9.2384     9.1297
  470.0000  -999.2500     9.1855     8.6440
  470.5000  -999.2500     9.1893     8.3001
  471.0000  -999.2500     9.1925     7.8468
  471.5000  -999.2500     9.2202     7.3229
  472.0000  -999.2500     9.2637     6.8424
  472.5000  -999.2500     9.2993     6.5168
  473.0000  -999.2500     9.3354     6.3545
  473.5000  -999.2500     9.3387     6.2891
