~VERSION INFORMATION
 VERS.                2.0:   CWLS LOG ASCII STANDARD - VERSION 2.0
 WRAP.                 NO:   ONE LINE PER DEPTH STEP
~WELL INFORMATION
#MNEM.UNIT      DATA TYPE    INFORMATION
#----------   ------------   ------------------------------
 STRT.F           39.0000:   START DEPTH
 STOP.F          478.0000:   STOP DEPTH
 STEP.F            0.5000:   STEP LENGTH
 NULL.          -999.2500:   NO VALUE
 COMP. FENIX & SCISSON, INC.:   COMPANY
 WELL.  S-3 NPR #3 #46S-3:   WELL
 FLD .              NPR-3:   FIELD
 LOC .       S3 T38N R78W:   LOCATION
 CNTY.            NATRONA:   COUNTY
 STAT.            WYOMING:   STATE
 CTRY. UNITED STATES OF AMERICA:   COUNTRY
 SRVC.      Dresser Atlas:   SERVICE COMPANY
 DATE.        28-MAR-1977:   LOGDATE
 API .       490251034100:   API NUMBER
~CURVE INFORMATION
#MNEM.UNIT       API CODE    CURVE DESCRIPTION
#----------   ------------   ------------------------------
 DEPT.F                  :   
 ILD .OHMM   07 120 46 00:   INDUCTION LOG DEEP
 ILM .OHMM   07 120 44 00:   INDUCTION LOG MEDIUM
 SFL .OHMM   07 220 01 00:   SHALLOW FOCUSED LOG RESISTIVITY
 SPR .MV     07 010 01 00:   SPONTANEOUS POTENTIAL
 CALD.IN     45 280 60 00:   CALIPER FROM DENSITY LOG
 GRD .GAPI   45 310 01 00:   GAMMA RAY FROM DENSITY LOG
 DPHI.DEC    45 890 12 00:   DENSITY POROSITY SANDSTONE
 RHOB.G/C3   45 350 01 00:   BULK DENSITY
 DRHO.G/C3   45 356 01 00:   DENSITY CORRECTION
~PARAMETER INFORMATION
#MNEM.UNIT          VALUE    DESCRIPTION
#----------   ------------   ------------------------------
 PD  .                 GL:   PERMANENT DATUM
 EPD .F              5186:   ELEVATION PERMANENT DATUM
 LMF .                 KB:   LOG MEASURED FROM
 DAPD.F                 3:   FEET ABOVE PERMANENT DATUM
 DMF .                 KB:   DRILLING MEASURED FROM
 EKB .F              5189:   KELLING BUSHING
 EGL .F              5186:   GROUND LEVEL
 DATE.        28-MAR-1977:   RUN DATE
 RUN .                  1:   RUN NUMBER
 DD  .F               480:   DEPTH DRILLER
 DL  .F               480:   DEPTH LOGGER
 BLI .F               478:   BOTTOM LOG INTERVAL
 TLI .F                40:   TOP LOG INTERVAL
 CS  .IN            8.625:   CASING SIZE
 CBD .F                40:   CASING BOTTOM DRILLER
 CBL .F                40:   CASING BOTTOM LOGGER
 BS  .IN            7.875:   BIT SIZE
 BSD .F               480:   BIT SIZE AT DEPTH
 DFT .           CHEM GEL:   DRILLING FLUID TYPE
 DFD .                8.9:   DRILLING FLUID DENSITY
 DFV .                 39:   DRILLING FLUID VISCOSITY
 DFPH.                 11:   DRILLING FLUID PH
 DFL .                 16:   DRILLING FLUID LOSS
 MSS .           FLOWLINE:   MUD SAMPLE SOURCE
 RMS .OHMM           0.41:   RESISTIVITY MUD SAMPLE
 MST .F                40:   MUD SAMPLE TEMPERATURE
 RMF .OHMM           0.29:   RESISTIVITY MUD FILTRATE SAMPLE
 MFST.F                62:   MUD FILTRATE SAMPLE TEMPERATURE
 RMC .OHMM           0.28:   RESISTIVITY MUD CAKE
 MCST.F                62:   MUD CAKE SAMPLE TEMPERATURE
 MFSS.               MEAS:   MUD FILTRATE SAMPLE SOURCE
 MCSS.               MEAS:   MUD CAKE SAMPLE SOURCE
 RMB .OHMM           0.26:   RESISTIVITY MUD AT BHT
 BHT .F                62:   BOTTOM HOLE TEMPERATURE
 TCS .HRS               6:   TIME CURCULATED STOPPED
 MRT .F                62:   MAXIMUM RECORDED TEMPERATURE
 LUN .               6145:   LOGGING UNIT NUMBER
 LUL .              GLTTE:   LOGGING UNIT LOCATION
 ENGI.              RANCK:   RECORDING ENGINEER
 WITN.     MR. STUEBINGER:   WITNESSED BY
 CLNT.            A2DTECH:   CLIENT CODE
 ORIG.           5" PRINT:   ORIGIN OF DATA
 UWI .       490251034100:   UNIQUE WELL ID
 DICO. A2D Technologies, Inc.:   DIGITIZING COMPANY
~OTHER INFORMATION
~A   DEPT      ILD        ILM        SFL        SPR       CALD         GRD      DPHI       RHOB       DRHO   
# ...
  112.0000     8.6256     9.1693    10.1842   -31.0333     7.8231    90.6354     0.1168     2.4472     0.0197
  112.5000     8.6329     9.0773    10.3362   -31.0060     7.8338    89.9113     0.1167     2.4450     0.0169
  113.0000     8.6401     8.9481    10.4176   -30.8242     7.8429    90.0840     0.1167     2.4468     0.0155
  113.5000     8.6476     8.8168    10.4996   -30.7980     7.8451    90.8640     0.1167     2.4550     0.0157
  114.0000     8.6558     8.7632    10.0808   -30.7718     7.8471    92.3279     0.1160     2.4626     0.0159
  114.5000     8.6618     8.7102     9.7442   -30.7456     7.8495    94.6439     0.1148     2.4702     0.0166
  115.0000     8.5919     8.7912     9.4848   -30.5693     7.8667    96.1619     0.1126     2.4786     0.0184
  115.5000     8.4365     8.8503     9.4251   -30.5431     7.8689    97.2315     0.1101     2.4854     0.0209
  116.0000     8.2702     8.9261     9.3679   -30.5165     7.8711    97.5537     0.1044     2.4930     0.0231
  116.5000     8.1622     8.9904     9.3128   -30.4841     7.8883    97.7265     0.0999     2.4991     0.0272
  117.0000     8.0558     9.0461     9.3213   -30.4579     7.8910    98.1982     0.0966     2.5067     0.0289
  117.5000     8.0063     9.1346     9.3296   -30.4713     7.8932    96.8761     0.0944     2.5098     0.0290
  118.0000     8.0144     9.1785     9.3397   -30.5476     7.8954    91.7219     0.0971     2.4950     0.0277
  118.5000     8.0209     9.2150     9.3466   -30.6238     7.8976    89.4488     0.1043     2.4800     0.0248
  119.0000     8.0268     9.2889     9.3707   -30.6600     7.8998    90.6737     0.1090     2.4748     0.0207
  119.5000     8.0339     9.2968     9.5621   -30.9275     7.9020    92.1917     0.1111     2.4712     0.0162
  120.0000     7.8740     9.3048     9.6374   -31.0515     7.9042    93.5603     0.1123     2.4675     0.0116
  120.5000     7.4529     9.2490     9.6459   -31.1754     7.8913    94.3309     0.1141     2.4624     0.0075
  121.0000     7.1472     9.1532     9.5208   -31.2928     7.8936    94.3542     0.1185     2.4550     0.0047
  121.5000     6.8672     9.0105     9.1390   -31.4168     7.8958    94.8259     0.1223     2.4461     0.0018
  122.0000     6.7631     8.5137     9.0204   -31.3906     7.8985    97.3902     0.1253     2.4386    -0.0010
  122.5000     6.6726     7.7954     8.9034   -31.6647     7.9007   101.6592     0.1280     2.4295    -0.0038
  123.0000     6.5560     7.4296     8.6664   -31.7887     7.9029   104.6174     0.1291     2.4224    -0.0052
  123.5000     6.4692     7.2802     8.3788   -32.2132     7.8901   105.2386     0.1294     2.4194    -0.0065
  124.0000     6.3860     7.2884     8.0991   -32.3369     7.8968   104.3650     0.1300     2.4210    -0.0078
  124.5000     6.3027     7.3654     7.7743   -32.3041     7.9094   100.9503     0.1266     2.4271    -0.0076
  125.0000     6.3522     7.4562     8.0011   -32.2779     7.9116   100.0767     0.1232     2.4340    -0.0060
  125.5000     6.4477     7.5153     8.7009   -32.1016     7.9138    99.5020     0.1196     2.4438    -0.0043
  126.0000     6.5893     7.5526     9.1495   -32.0754     7.9010    99.3752     0.1166     2.4514    -0.0027
  126.5000     6.6873     7.6364     8.7236   -32.0492     7.9033    99.4001     0.1141     2.4575     0.0005
  127.0000     6.8820     7.6422     8.4913   -31.8728     7.8910    99.8804     0.1132     2.4607     0.0022
  127.5000     7.0331     7.6493     8.3812   -31.6965     7.8928   100.3483     0.1129     2.4630     0.0038
  128.0000     7.1377     7.7107     8.2706   -31.6697     7.8954   101.1189     0.1128     2.4631     0.0040
  128.5000     7.1782     7.7175     8.3959   -31.7942     7.8823   102.1885     0.1125     2.4632     0.0057
  129.0000     7.3018     7.6705     8.7620   -31.7615     7.8847   102.6602     0.1121     2.4640     0.0043
  129.5000     7.3077     7.7314     9.0355   -31.7353     7.8869   102.5281     0.1115     2.4641     0.0052
  130.0000     7.4164     7.7400     9.3474   -31.7091     7.8891   100.1656     0.1109     2.4657     0.0061
  130.5000     7.4743     7.7457     9.4190   -31.6829     7.8763    98.3951     0.1102     2.4688     0.0063
  131.0000     7.4800     7.8082     8.9181   -31.6567     7.8786    97.8205     0.1084     2.4727     0.0095
  131.5000     7.5386     7.8152     8.7394   -31.6305     7.8808    98.7832     0.1056     2.4781     0.0111
  132.0000     7.5449     7.8894     9.1863   -31.6036     7.8835    99.9655     0.1014     2.4829     0.0143
  132.5000     7.5807     7.9952     9.3885   -31.5716     7.8856    99.5403     0.0969     2.4887     0.0175
  133.0000     7.5572     8.0388     9.5287   -31.5454     7.8876    98.8104     0.0923     2.4933     0.0185
  133.5000     7.6168     8.0658     9.6040   -31.6759     7.8745    98.3910     0.0908     2.4964     0.0193
  134.0000     7.6239     8.0733     9.4154   -31.6431     7.8772    97.8164     0.0901     2.4980     0.0210
  134.5000     7.6835     8.0807     9.3561   -31.6169     7.8688    96.9427     0.0925     2.4973     0.0211
  135.0000     7.5829     7.9768     9.3664   -31.7409     7.8666    98.3113     0.0961     2.4937     0.0213
  135.5000     7.4608     7.9111     9.3075   -32.0150     7.8538   100.0000     0.0993     2.4878     0.0215
  136.0000     7.4159     7.7706     9.3177   -32.1389     7.8561   101.5217     0.1023     2.4796     0.0209
  136.5000     7.3929     7.6693     9.2612   -32.1062     7.8588   102.1238     0.1050     2.4728     0.0188
  137.0000     7.3991     7.5697     8.9496   -32.0800     7.8519   102.1471     0.1055     2.4716     0.0189
  137.5000     7.3447     7.4713     8.6531   -32.0538     7.8476   102.3198     0.1058     2.4747     0.0176
  138.0000     7.3088     7.4783     8.6006   -32.0276     7.8501   101.4462     0.1064     2.4830     0.0163
  138.5000     7.2851     7.4863     8.9152   -32.0014     7.8523    97.7325     0.1072     2.4854     0.0164
  139.0000     7.2195     7.4921     9.1752   -31.9752     7.8547    96.7094     0.1090     2.4840     0.0163
  139.5000     7.2257     7.5684     9.3772   -31.9489     7.8418    95.6864     0.1104     2.4811     0.0168
  140.0000     7.1814     7.6655     9.4511   -31.9219     7.8291    94.2149     0.1119     2.4752     0.0169
  140.5000     7.1887     7.7262     9.3937   -31.8900     7.8313    96.9345     0.1131     2.4700     0.0179
  141.0000     7.1935     7.8152     9.2042   -31.8638     7.8293    98.4525     0.1130     2.4663     0.0203
  141.5000     7.1996     7.9256     8.9020   -31.8377     7.8208    99.5221     0.1130     2.4650     0.0221
  142.0000     7.2560     7.9672     8.6048   -31.8115     7.8231   101.1896     0.1129     2.4658     0.0251
  142.5000     7.2625     8.0316     8.7332   -31.7853     7.8256   103.7540     0.1120     2.4667     0.0283
  143.0000     7.2684     8.0958     8.9879   -32.0594     7.8278   104.0704     0.1110     2.4713     0.0334
  143.5000     7.3251     8.1205     8.9958   -32.1862     7.8298   101.7078     0.1086     2.4789     0.0391
  144.0000     7.3825     8.1666     8.7563   -32.3073     7.8264   101.7311     0.1059     2.4850     0.0438
  144.5000     7.3884     8.1739     8.5230   -32.4312     7.8193   102.6777     0.1031     2.4911     0.0484
  145.0000     7.2920     8.0946     8.2961   -32.3985     7.8216   103.2782     0.1019     2.4964     0.0518
  145.5000     7.1983     7.9436     8.3052   -32.3723     7.8088   102.4046     0.1091     2.4957     0.0563
  146.0000     7.1029     7.7499     8.3125   -32.3461     7.8110   101.6805     0.1141     2.4833     0.0579
  146.5000     7.0117     7.5974     8.3198   -32.3199     7.7832   102.6006     0.1186     2.4607     0.0566
  147.0000     6.9200     7.3944     8.3271   -32.2937     7.7704   105.6134     0.1246     2.4345     0.0552
  147.5000     6.9258     7.0969     8.3345   -32.4176     7.7432   106.3840     0.1313     2.4204     0.0524
  148.0000     6.7812     6.5773     8.3418   -32.6917     7.7298   106.7062     0.1353     2.4122     0.0496
