~VERSION INFORMATION
 VERS.                2.0:   CWLS LOG ASCII STANDARD - VERSION 2.0
 WRAP.                 NO:   ONE LINE PER DEPTH STEP
~WELL INFORMATION
#MNEM.UNIT      DATA TYPE    INFORMATION
#----------   ------------   ------------------------------
 STRT.F           61.0000:   START DEPTH
 STOP.F          527.0000:   STOP DEPTH
 STEP.F            0.5000:   STEP LENGTH
 NULL.          -999.2500:   NO VALUE
 COMP.       F D SERV INC:   COMPANY
 WELL.  82-5 SX 10 #82-10:   WELL
 FLD .             TEAPOT:   FIELD
 LOC .      S10 T38N R78W:   LOCATION
 CNTY.            NATRONA:   COUNTY
 STAT.            WYOMING:   STATE
 CTRY. UNITED STATES OF AMERICA:   COUNTRY
 SRVC.     Atlas Wireline:   SERVICE COMPANY
 DATE.        08-FEB-1993:   LOGDATE
 API .       490252258800:   API NUMBER
~CURVE INFORMATION
#MNEM.UNIT       API CODE    CURVE DESCRIPTION
#----------   ------------   ------------------------------
 DEPT.F                  :   
 C13 .IN     45 280 13 00:   CALIPER
 GRD .GAPI   45 310 01 00:   GAMMA RAY FROM DENSITY LOG
 NPHI.DEC    42 890 03 00:   NEUTRON POROSITY SANDSTONE
 PORZ.DEC    45 890 12 00:   DENSITY POROSITY SANDSTONE
 ZCOR.G/C3   45 356 01 00:   DENSITY CORRECTION
 ZDEN.G/C3   45 350 01 00:   BULK DENSITY
 RILD.OHMM   07 120 46 00:   INDUCTION LOG DEEP RESISTIVITY
 RILM.OHMM   07 120 44 00:   RESITIVITY LONG MEDIUM
~PARAMETER INFORMATION
#MNEM.UNIT          VALUE    DESCRIPTION
#----------   ------------   ------------------------------
 PD  .                 GL:   PERMANENT DATUM
 EPD .F              5166:   ELEVATION PERMANENT DATUM
 LMF .                 KB:   LOG MEASURED FROM
 DAPD.F                10:   FEET ABOVE PERMANENT DATUM
 DMF .                 KB:   DRILLING MEASURED FROM
 EKB .F              5176:   KELLING BUSHING
 EDF .F              5175:   DRILLING FLOOR
 EGL .F              5166:   GROUND LEVEL
 DATE.        08-FEB-1993:   RUN DATE
 RUN .                  1:   RUN NUMBER
 DD  .F               530:   DEPTH DRILLER
 DL  .F               532:   DEPTH LOGGER
 BLI .F               529:   BOTTOM LOG INTERVAL
 TLI .F                96:   TOP LOG INTERVAL
 CS  .IN            8.625:   CASING SIZE
 CBD .F                90:   CASING BOTTOM DRILLER
 CBL .F                96:   CASING BOTTOM LOGGER
 BS  .IN            7.875:   BIT SIZE
 BSD .F               530:   BIT SIZE AT DEPTH
 DFT .                AIR:   DRILLING FLUID TYPE
 MRT .F                60:   MAXIMUM RECORDED TEMPERATURE
 LUN .            HL 6274:   LOGGING UNIT NUMBER
 LUL .             CASPER:   LOGGING UNIT LOCATION
 ENGI.          V. RAUTIO:   RECORDING ENGINEER
 WITN.          G. STRONG:   WITNESSED BY
 CLNT.            A2DTECH:   CLIENT CODE
 ORIG.           5" PRINT:   ORIGIN OF DATA
 UWI .       490252258800:   UNIQUE WELL ID
 DICO. A2D Technologies, Inc.:   DIGITIZING COMPANY
~OTHER INFORMATION
~A   DEPT      C13        GRD       NPHI       PORZ       ZCOR       ZDEN       RILD       RILM   
# ...
  101.5000     8.0155   171.4047     0.3352     0.1051     0.0031     2.4775     7.0509     7.7693
  102.0000     8.0156   169.9043     0.3364     0.1036     0.0002     2.4791     7.0029     7.6102
  102.5000     8.0158   170.2111     0.3376     0.1033     0.0002     2.4791     7.0040     8.1749
  103.0000     8.0009   173.3655     0.3364     0.1036    -0.0012     2.4799     6.7664    10.6909
  103.5000     8.0011   174.7404     0.3325     0.1020    -0.0012     2.4821     6.6741    12.2816
  104.0000     8.0012   169.9281     0.3265     0.0936    -0.0011     2.4884     7.5620    10.0471
  104.5000     8.0014   169.0301     0.3244     0.0882     0.0034     2.5025     9.0421     8.6877
  105.0000     8.0015   169.6395     0.3232     0.0876     0.0109     2.5047    10.0500     8.4513
  105.5000     8.0017   167.2355     0.3229     0.0879     0.0170     2.5010    10.1212     8.3940
  106.0000     8.0018   163.6266     0.3223     0.0897     0.0110     2.4973     9.5766     8.3951
  106.5000     8.0020   164.2361     0.3220     0.0918     0.0096     2.4965     8.2237     8.3964
  107.0000     8.0021   164.8441     0.3217     0.0939     0.0111     2.4958     8.0553     8.3975
  107.5000     8.0023   165.7533     0.3211     0.0942     0.0067     2.4951     8.0566     8.3403
  108.0000     8.0024   166.6626     0.3208     0.0950     0.0007     2.4951     8.0576     8.3417
  108.5000     8.0026   167.5732     0.3217     0.0971    -0.0053     2.4921     8.0589     8.2282
  109.0000     8.0027   168.1812     0.3232     0.0983    -0.0052     2.4891     8.0040     8.1722
  109.5000     8.0179   168.7892     0.3250     0.0965     0.0009     2.4884     8.0053     8.1735
  110.0000     8.0181   170.0010     0.3247     0.0953     0.0054     2.4899     7.8962     8.0623
  110.5000     8.0182   171.5127     0.3241     0.0965     0.0099     2.4915     7.8974     7.9524
  111.0000     8.0334   172.1207     0.3232     0.0977     0.0115     2.4900     7.8437     7.8985
  111.5000     8.0185   170.3205     0.3226     0.0974     0.0100     2.4885     7.7908     8.0097
  112.0000     8.0187   169.1212     0.3226     0.0950     0.0054     2.4885     7.6317     7.9557
  112.5000     8.0188   168.2233     0.3253     0.0947     0.0026     2.4923     7.5797     7.7930
  113.0000     8.0190   167.9276     0.3286     0.1001     0.0042     2.4901     7.4764     7.5809
  113.5000     8.0040   168.5371     0.3307     0.1037     0.0042     2.4856     7.4259     7.5296
  114.0000     8.0042   169.7475     0.3292     0.1034     0.0043     2.4811     7.4271     7.5831
  114.5000     8.0044   170.9579     0.3289     0.1018    -0.0062     2.4796     7.4798     7.6900
  115.0000     8.0045   170.0613     0.3295     0.0993    -0.0106     2.4804     7.5851     7.7445
  115.5000     8.0197   167.6573     0.3274     0.0913    -0.0076     2.4834     7.6389     7.9084
  116.0000     8.0396   164.0484     0.3232     0.0838     0.0014     2.4895     7.6401     8.0199
  116.5000     8.0501   162.5480     0.3166     0.0793     0.0135     2.5037     7.7478     8.0209
  117.0000     8.0502   162.2524     0.3144     0.0825     0.0226     2.5173     7.8026     7.9665
  117.5000     8.0353   162.5606     0.3153     0.0892     0.0285     2.5188     7.9128     7.9678
  118.0000     8.0204   162.8715     0.3205     0.0907     0.0226     2.5106     7.9689     8.0243
  118.5000     8.0206   165.5853     0.3241     0.0888     0.0226     2.4986     8.0254     8.0253
  119.0000     8.0358   167.6993     0.3256     0.0873     0.0212     2.5002     8.1384     8.0266
  119.5000     8.0510   169.2110     0.3250     0.0858     0.0197     2.5039     8.2533     8.0277
  120.0000     8.0662   167.7120     0.3238     0.0843     0.0168     2.5077     8.3118     8.0845
  120.5000     8.0663   164.7055     0.3223     0.0840     0.0138     2.5099     8.3707     8.1418
  121.0000     8.0815   160.1931     0.3205     0.0834     0.0092     2.5100     8.3721     8.1998
  121.5000     8.0817   158.9939     0.3166     0.0834     0.0109     2.5107     8.4314     8.2579
  122.0000     8.0968   163.5189     0.3163     0.0837     0.0125     2.5115     8.4325     8.2589
  122.5000     8.0819   168.6450     0.3196     0.0840     0.0125     2.5115     8.3753     8.2600
  123.0000     8.1122   170.1566     0.3226     0.0848     0.0111     2.5108     8.3767     8.2613
  123.5000     8.1124   167.4528     0.3241     0.0866     0.0066     2.5093     8.3196     8.2051
  124.0000     8.1275   164.1452     0.3241     0.0900     0.0022     2.5070     8.2633     8.2064
  124.5000     8.1427   163.2470     0.3220     0.0956    -0.0008     2.5019     8.2646     8.1508
  125.0000     8.1429   165.0614     0.3196     0.0986    -0.0007     2.4966     8.2659     8.0396
  125.5000     8.1430   166.5730     0.3184     0.1010     0.0023     2.4921     8.2670     7.9852
  126.0000     8.1432   164.1690     0.3187     0.1022     0.0055     2.4862     8.2681     7.9313
  126.5000     8.1589   161.4638     0.3190     0.1034     0.0099     2.4824     8.2694     7.9877
  127.0000     8.1736   163.8804     0.3187     0.1043     0.0114     2.4787     8.3280     8.0055
  127.5000     8.1587   166.5969     0.3178     0.1055     0.0115     2.4757     8.3870     8.1013
  128.0000     8.1438   167.8073     0.3172     0.1049     0.0055     2.4757     8.4464     8.1590
  128.5000     8.1289   168.7165     0.3160     0.1034    -0.0019     2.4758     8.5066     8.2739
  129.0000     8.1140   167.8185     0.3144     0.0986    -0.0004     2.4789     8.5668     8.3905
  129.5000     8.1141   167.5229     0.3108     0.0904     0.0071     2.4923     8.7479     8.4499
  130.0000     8.1143   167.1888     0.3027     0.0859     0.0117     2.5021     8.8099     8.6289
  130.5000     8.1145   163.0189     0.2993     0.0847     0.0117     2.5074     8.9965     8.6900
  131.0000     8.1146   161.5171     0.2994     0.0865     0.0117     2.5089     9.1232     8.8737
  131.5000     8.1298   164.2560     0.2997     0.0871     0.0103     2.5074     9.2517     9.0109
  132.0000     8.1149   167.5552     0.2982     0.0862     0.0134     2.5067     9.5133     9.2532
  132.5000     8.1301   167.2596     0.2973     0.0853     0.0179     2.5075     9.7820     9.4488
  133.0000     8.1302   166.3614     0.2967     0.0847     0.0194     2.5090    10.0583     9.6486
  133.5000     8.1304   165.7662     0.2961     0.0841     0.0210     2.5105    10.3424     9.9214
  134.0000     8.1456   166.9766     0.2952     0.0840     0.0225     2.5105    10.6348    10.1311
  134.5000     8.1457   167.5846     0.2922     0.0837     0.0241     2.5091    10.9351    10.3453
  135.0000     8.1459   165.7229     0.2831     0.0834     0.0241     2.5106    11.0892    10.5640
  135.5000     8.1460   160.3683     0.2764     0.0813     0.0301     2.5121    11.2455    10.8627
  136.0000     8.1311   155.8559     0.2747     0.0774     0.0302     2.5204    11.5634    11.0924
  136.5000     8.1162   152.2470     0.2789     0.0777     0.0138     2.5227    11.7263    11.2486
  137.0000     8.1164   154.6637     0.2832     0.0780     0.0003     2.5204    11.8915    11.4865
  137.5000     8.1166   158.2837     0.2843     0.0765     0.0004     2.5242    11.9762    11.7296
  138.0000     8.1167   158.5905     0.2804     0.0753     0.0004     2.5265    12.0610    11.8128
  138.5000     8.1168   158.5975     0.2808     0.0798     0.0020     2.5213    12.0626    11.8143
  139.0000     8.1321   159.2056     0.2856     0.0864     0.0005     2.5136    12.0641    11.8984
  139.5000     8.1322   161.9220     0.2901     0.0918     0.0006     2.5003    11.9828    11.9827
  140.0000     8.1323   163.1324     0.2910     0.0933     0.0021     2.4958    11.9843    11.9842
  140.5000     8.1475   159.8262     0.2901     0.0921     0.0066     2.4981    11.9031    11.9030
  141.0000     8.1477   158.0246     0.2898     0.0899     0.0172     2.5019    11.9047    11.8227
  141.5000     8.1478   157.1265     0.2892     0.0905     0.0202     2.5004    11.8243    11.6615
