~VERSION INFORMATION
 VERS.                2.0:   CWLS LOG ASCII STANDARD - VERSION 2.0
 WRAP.                 NO:   ONE LINE PER DEPTH STEP
~WELL INFORMATION
#MNEM.UNIT      DATA TYPE    INFORMATION
#----------   ------------   ------------------------------
 STRT.F           99.0000:   START DEPTH
 STOP.F          761.5000:   STOP DEPTH
 STEP.F            0.5000:   STEP LENGTH
 NULL.          -999.2500:   NO VALUE
 COMP.          U.S. NAVY:   COMPANY
 WELL. RES 3 TEAPOT DOM #48S-11:   WELL
 FLD .             TEAPOT:   FIELD
 LOC .      S11 T38N R78W:   LOCATION
 CNTY.            NATRONA:   COUNTY
 STAT.            WYOMING:   STATE
 CTRY. UNITED STATES OF AMERICA:   COUNTRY
 SRVC.       Schlumberger:   SERVICE COMPANY
 DATE.        14-JUL-1963:   LOGDATE
 API .       490250632500:   API NUMBER
~CURVE INFORMATION
#MNEM.UNIT       API CODE    CURVE DESCRIPTION
#----------   ------------   ------------------------------
 DEPT.F                  :   
 SPR .MV     05 010 01 00:   SPONTANEOUS POTENTIAL FROM RES.
 ILD .OHMM   05 120 46 00:   INDUCTION LOG DEEP
 CILD.MMHO   05 110 46 00:   CONDUCTIVITY INDUCTION LOG DEEP
 GR  .GAPI   30 310 01 00:   GAMMA RAY
 ASN .OHMM   05 041 16 00:   AMPLIFIED SHORT NORMAL 16"
~PARAMETER INFORMATION
#MNEM.UNIT          VALUE    DESCRIPTION
#----------   ------------   ------------------------------
 PD  .                 GL:   PERMANENT DATUM
 EPD .F              5187:   ELEVATION PERMANENT DATUM
 LMF .                 KB:   LOG MEASURED FROM
 DAPD.F                 5:   FEET ABOVE PERMANENT DATUM
 DMF .                 KB:   DRILLING MEASURED FROM
 EKB .F              5192:   KELLING BUSHING
 EGL .F              5187:   GROUND LEVEL
 DATE.            7-14-63:   RUN DATE
 RUN .                  1:   RUN NUMBER
 DD  .F               762:   DEPTH DRILLER
 DL  .F               761:   DEPTH LOGGER
 BLI .F               760:   BOTTOM LOG INTERVAL
 TLI .F               100:   TOP LOG INTERVAL
 CS  .IN            8.625:   CASING SIZE
 CBD .F                10:   CASING BOTTOM DRILLER
 BS  .IN            7.875:   BIT SIZE
 BSD .F               762:   BIT SIZE AT DEPTH
 DFT .            GEL-OIL:   DRILLING FLUID TYPE
 DFD .                 10:   DRILLING FLUID DENSITY
 DFV .                 55:   DRILLING FLUID VISCOSITY
 DFPH.                9.5:   DRILLING FLUID PH
 DFL .                  4:   DRILLING FLUID LOSS
 MSS .          FLOW LINE:   MUD SAMPLE SOURCE
 RMS .OHMM           3.11:   RESISTIVITY MUD SAMPLE
 MST .F                78:   MUD SAMPLE TEMPERATURE
 RMF .OHMM           2.31:   RESISTIVITY MUD FILTRATE SAMPLE
 MFST.F                78:   MUD FILTRATE SAMPLE TEMPERATURE
 RMC .OHMM           3.82:   RESISTIVITY MUD CAKE
 MCST.F                78:   MUD CAKE SAMPLE TEMPERATURE
 MFSS.                  M:   MUD FILTRATE SAMPLE SOURCE
 MCSS.                  M:   MUD CAKE SAMPLE SOURCE
 TCS .HRS               1:   TIME CURCULATED STOPPED
 LUN .               4507:   LOGGING UNIT NUMBER
 ENGI.             KNOBEL:   RECORDING ENGINEER
 WITN.          JORGENSEN:   WITNESSED BY
 CLNT.            A2DTECH:   CLIENT CODE
 ORIG.       2", 5" PRINT:   ORIGIN OF DATA
 UWI .       490250632500:   UNIQUE WELL ID
 DICO. A2D Technologies, Inc.:   DIGITIZING COMPANY
~OTHER INFORMATION
~A   DEPT      SPR        ILD       CILD         GR        ASN   
# ...
  221.0000   -31.2244     5.8921   163.4320    69.6346     6.4497
  221.5000   -31.2903     6.1903   156.8919    66.6499     6.7668
  222.0000   -31.3846     6.4925   150.3518    65.2845     7.0618
  222.5000   -31.4790     6.6702   147.2075    58.0133     5.1045
  223.0000   -31.5732     6.8540   145.2261    56.6917     7.2619
  223.5000   -31.6675     6.9461   145.7219    61.9665     7.3240
  224.0000   -31.7613     6.7838   146.2825    65.1574     7.3870
  224.5000   -31.8262     6.7528   146.8431    59.2912     7.3571
  225.0000   -31.8018     6.7252   147.4200    64.8841     7.3234
  225.5000   -31.7783     6.6973   148.0353    59.2205     7.2896
  226.0000   -31.7549     6.6632   148.6506    61.1004     7.2541
  226.5000   -31.7316     6.6226   149.2658    62.8480     7.2702
  227.0000   -31.7082     6.5823   149.8811    63.3703     7.3036
  227.5000   -31.6851     6.5420   150.4964    58.2604     7.3390
  228.0000   -31.6602     6.5014   151.1117    60.9795     7.3285
  228.5000   -31.6407     6.4754   151.7269    59.1516     7.3038
  229.0000   -31.3440     6.4513   152.4824    66.2902     7.2823
  229.5000   -31.1143     6.4278   154.1642    64.8401     7.2523
  230.0000   -30.8757     6.4043   155.8459    64.4560     7.2209
  230.5000   -30.6360     6.3809   157.5276    62.5486     7.1879
  231.0000   -30.4227     6.3574   159.2094    61.8076     7.1537
  231.5000   -30.4208     6.3339   160.1997    60.9949     7.1206
  232.0000   -30.4249     6.3105   159.5270    54.0392     7.0569
  232.5000   -30.3993     6.2856   158.8543    51.9543     6.9678
  233.0000   -30.4515     6.3675   158.2915    53.6843     6.9875
  233.5000   -30.7638     6.5191   156.2814    59.1171     7.0798
  234.0000   -31.0836     6.6715   153.2641    61.0079     7.3001
  234.5000   -31.4018     6.8239   149.3400    62.8764     7.4633
  235.0000   -31.6022     6.9762   145.4160    57.5901     7.5657
  235.5000   -31.4963     7.1285   141.3481    52.2719     7.6698
  236.0000   -31.3958     7.2808   136.6392    49.1991     7.8226
  236.5000   -31.2952     7.4331   131.9303    49.5926     7.9656
  237.0000   -31.1947     7.5858   128.0999    53.7193     8.0374
  237.5000   -31.0944     7.7369   125.7847    61.6246     8.0486
  238.0000   -31.0022     7.8787   123.3948    59.0117     8.0382
  238.5000   -30.9308     8.0101   121.0275    59.6076     8.0247
  239.0000   -30.8591     8.0692   120.2070    55.9333     7.9134
  239.5000   -30.7874     8.0943   120.7116    55.4325     7.7572
  240.0000   -30.7157     7.9392   121.9742    57.8079     7.6465
  240.5000   -30.6440     7.7612   125.9383    55.0320     7.5468
  241.0000   -30.5723     7.4861   129.9024    54.9191     7.4466
  241.5000   -30.5003     7.2186   134.5650    51.8041     7.2032
  242.0000   -30.4302     6.3907   153.9729    52.9069     6.8810
  242.5000   -30.3682     5.2691   190.5117    53.7813     6.4968
  243.0000   -30.2929     4.1519   226.5155    54.3759     5.8369
  243.5000   -30.2171     3.3305   283.5867    47.3789     5.0936
  244.0000   -30.1413     2.6743   341.9671    42.8852     4.3466
  244.5000   -30.0655     2.3259   436.5761    56.3716     3.7138
  245.0000   -29.9898     1.9738   479.5421    66.5347     3.4069
  245.5000   -29.9140     1.8247   501.5075    76.8178     3.1721
  246.0000   -29.8382     1.7715   560.5427    82.9026     3.0099
  246.5000   -29.7622     1.7184   567.8392    88.2159     2.9655
  247.0000   -29.6862     1.7957   520.7208    82.8465     3.0034
  247.5000   -29.6243     1.8479   492.0100    74.4289     3.0977
  248.0000   -29.6759     2.2655   429.1531    71.8985     3.3929
  248.5000   -29.7291     3.0970   356.1539    63.6190     3.6946
  249.0000   -29.7826     4.6526   285.5887    54.5832     4.5072
  249.5000   -29.8709     6.4685   219.5959    45.6044     5.8840
  250.0000   -30.0502     8.3095   154.3529    37.6055     7.1556
  250.5000   -30.2285    10.2843   103.0477    45.5180     8.4925
  251.0000   -30.4147    12.3256    83.4196    43.8945     9.5765
  251.5000   -30.6783    13.4046    71.8593    44.6762    10.1498
  252.0000   -30.9585    13.7955    70.8543    38.5948     9.9063
  252.5000   -31.2360    13.1816    71.6329    36.0069    10.2570
  253.0000   -31.4289    11.9691    79.8140    35.0507    10.3013
  253.5000   -31.4255    10.3617   100.0834    51.1439    10.1334
  254.0000   -31.4256     8.7631   120.3819    45.9354     9.8810
  254.5000   -31.4274     7.1556   141.2060    46.5034     9.1784
  255.0000   -31.1996     6.1552   168.3417    48.7892     8.3527
  255.5000   -30.7968     5.5841   173.3065    55.8972     7.1554
  256.0000   -30.3936     5.3740   178.3719    63.0241     6.5434
  256.5000   -29.9861     5.1730   180.7437    67.2396     6.4474
  257.0000   -29.8225     4.9770   182.4121    64.0553     6.4566
  257.5000   -29.8147     5.1096   182.4121    58.9010     6.4670
  258.0000   -30.2229     5.9895   165.1960    48.8847     7.4514
  258.5000   -30.9015     6.9853   142.4020    41.6209     8.5787
  259.0000   -31.1254     8.4099   124.7320    41.0550     9.4261
  259.5000   -31.2606     9.1150   109.9581    49.2916     9.7672
  260.0000   -31.4290     9.6901    96.8174    48.0272     9.9312
  260.5000   -31.5978    10.2821    93.9698    54.3225    10.0346
  261.0000   -31.7637    10.6249    93.4292    50.8589    10.2784
  261.5000   -32.0788    10.9391    92.9648    52.9760    10.5297
  262.0000   -32.4692    11.2423    90.3161    44.4023    10.8041
  262.5000   -32.8622    11.5371    87.3230    50.8744    11.0750
  263.0000   -33.2349    11.8308    84.3298    46.0648    11.3466
  263.5000   -33.4434    12.1333    81.3548    42.5107    11.6201
  264.0000   -33.6806    12.3325    79.9918    43.2924    11.8966
  264.5000   -33.8792    12.4174    80.2482    44.7333    11.9117
  265.0000   -33.9418    12.4973    80.4808    47.1235    11.9098
  265.5000   -33.9964    12.5769    80.7091    42.8156    11.9084
  266.0000   -34.0214    12.6144    80.6856    43.8076    11.9132
  266.5000   -33.9550    12.7161    79.1985    43.7261    12.1023
  267.0000   -33.8920    12.8251    77.7211    42.8569    12.3056
  267.5000   -33.8103    12.9559    76.2437    49.1529    12.5086
  268.0000   -33.6026    13.1951    74.7663    45.6674    12.7114
  268.5000   -33.3914    13.4340    73.4714    40.9418    12.9132
  269.0000   -33.1802    13.6732    72.4583    41.9915    13.0829
  269.5000   -32.9720    13.8599    71.4449    43.7741    13.2516
  270.0000   -32.8625    14.0353    70.4318    43.5318    13.4213
  270.5000   -33.1177    14.2105    69.4180    44.4421    13.6185
  271.0000   -33.4652    14.3861    68.4060    44.7818    13.8577
  271.5000   -33.8913    14.5613    67.8392    43.9148    14.0967
  272.0000   -34.3178    14.7335    67.8392    39.1710    14.3178
  272.5000   -34.7522    14.9022    67.8454    43.7471    14.3229
  273.0000   -35.0341    14.9405    67.8322    40.7597    14.3218
  273.5000   -35.3783    15.0095    66.5593    41.0593    14.3205
  274.0000   -35.4159    15.0754    65.3458    42.5643    14.3103
  274.5000   -35.3731    15.1560    64.1397    46.5455    14.6663
  275.0000   -35.3282    15.4743    62.8141    46.1902    15.0184
  275.5000   -35.2843    15.9859    61.1330    51.5110    15.3744
  276.0000   -35.2402    16.4906    59.2669    51.4847    15.7370
  276.5000   -35.3884    16.9975    57.4007    47.7902    16.1508
  277.0000   -35.6252    17.4931    55.5302    44.5339    16.5979
  277.5000   -35.8637    18.0462    53.6306    47.9488    17.0399
  278.0000   -36.0396    18.3382    51.7312    43.2163    17.3583
  278.5000   -35.8030    18.6397    49.7487    39.4971    17.4116
  279.0000   -35.5622    18.9407    49.8884    38.2354    17.5582
  279.5000   -35.4896    19.2350    50.0725    35.1846    18.3092
  280.0000   -36.6639    19.2715    50.2567    37.6001    18.2334
  280.5000   -37.1669    19.2999    50.4409    48.0343    18.1146
  281.0000   -37.4457    19.3288    50.6251    48.1356    18.1375
  281.5000   -37.7119    19.3134    50.8093    53.9103    18.3959
