~VERSION INFORMATION
 VERS.                2.0:   CWLS LOG ASCII STANDARD - VERSION 2.0
 WRAP.                 NO:   ONE LINE PER DEPTH STEP
~WELL INFORMATION
#MNEM.UNIT      DATA TYPE    INFORMATION
#----------   ------------   ------------------------------
 STRT.F            0.0000:   START DEPTH
 STOP.F          580.0000:   STOP DEPTH
 STEP.F            0.5000:   STEP LENGTH
 NULL.          -999.2500:   NO VALUE
 COMP. Fluor Daniel (NPOSR) Inc:   COMPANY
 WELL.    NPR 3 #53-3-X-3:   WELL
 FLD .             TEAPOT:   FIELD
 LOC .       S3 T38N R78W:   LOCATION
 CNTY.            NATRONA:   COUNTY
 STAT.            WYOMING:   STATE
 CTRY. UNITED STATES OF AMERICA:   COUNTRY
 SRVC.      Western Atlas:   SERVICE COMPANY
 DATE.        15-APR-1996:   LOGDATE
 API .       490252277800:   API NUMBER
~CURVE INFORMATION
#MNEM.UNIT       API CODE    CURVE DESCRIPTION
#----------   ------------   ------------------------------
 DEPT.F                  :   
 GRR .GAPI   07 310 01 00:   GAMMA RAY FROM RES. LOG.
 RILD.OHMM   07 120 46 00:   INDUCTION LOG DEEP RESISTIVITY
 RILM.OHMM   07 120 44 00:   INDUCTION LOG MEDIUM RESISTIVITY
~PARAMETER INFORMATION
#MNEM.UNIT          VALUE    DESCRIPTION
#----------   ------------   ------------------------------
 PD  .                 GL:   PERMANENT DATUM
 EPD .F              5105:   ELEVATION PERMANENT DATUM
 LMF .                 KB:   LOG MEASURED FROM
 DAPD.F                10:   FEET ABOVE PERMANENT DATUM
 DMF .                 KB:   DRILLING MEASURED FROM
 EKB .F              5115:   KELLING BUSHING
 EDF .F              5114:   DRILLING FLOOR
 EGL .F              5105:   GROUND LEVEL
 DATE.        15-APR-1996:   RUN DATE
 RUN .                  1:   RUN NUMBER
 DD  .F               594:   DEPTH DRILLER
 DL  .F               588:   DEPTH LOGGER
 BLI .F               580:   BOTTOM LOG INTERVAL
 CS  .IN            9.625:   CASING SIZE
 CBD .F                54:   CASING BOTTOM DRILLER
 CBL .F                56:   CASING BOTTOM LOGGER
 BS  .IN             8.75:   BIT SIZE
 BSD .F               594:   BIT SIZE AT DEPTH
 DFT .                AIR:   DRILLING FLUID TYPE
 MRT .F                85:   MAXIMUM RECORDED TEMPERATURE
 LUN .            HL-6530:   LOGGING UNIT NUMBER
 LUL .             CASPER:   LOGGING UNIT LOCATION
 ENGI.             RAUTIO:   RECORDING ENGINEER
 WITN.              HARDY:   WITNESSED BY
 CLNT.            A2DTECH:   CLIENT CODE
 ORIG.       2", 5" PRINT:   ORIGIN OF DATA
 UWI .       490252277800:   UNIQUE WELL ID
 DICO. A2D Technologies, Inc.:   DIGITIZING COMPANY
~OTHER INFORMATION
~A    DEPT      GRR      RILD       RILM   
# ...
  182.0000   122.6784     8.0944     8.5476
  182.5000   122.1773     8.1739     8.6274
  183.0000   121.3751     8.2541     8.6876
  183.5000   118.5616     8.3154     8.7459
  184.0000   116.9123     8.3877     8.8045
  184.5000   117.2975     8.4935     8.8636
  185.0000   119.1306     8.6793     8.9230
  185.5000   120.7063     8.8373     8.9829
  186.0000   120.5521     8.7561     9.0431
  186.5000   120.4338     8.8003     9.1037
  187.0000   120.3181     8.8374     9.1648
  187.5000   120.2824     8.8746     9.2262
  188.0000   120.2854     8.9120     9.2881
  188.5000   119.4405     8.9495     9.3405
  189.0000   116.4681     9.0020     9.2949
  189.5000   116.4117     8.9658     9.2479
  190.0000   117.2403     8.9067     9.2012
  190.5000   120.2068     8.8480     9.1547
  191.0000   118.0364     8.7896     9.1084
  191.5000   116.7645     8.7317     9.0624
  192.0000   117.7008     8.6741     9.0166
  192.5000   121.0423     8.6170     8.9711
  193.0000   122.2328     8.5864     8.9194
  193.5000   122.9622     8.5713     8.9414
  194.0000   124.6805     8.5562     8.9671
  194.5000   125.9447     8.5411     8.9931
  195.0000   124.6194     8.5261     9.0191
  195.5000   122.9072     8.5128     9.0451
  196.0000   122.3711     8.5021     9.0713
  196.5000   124.1349     8.4915     9.0854
  197.0000   124.9304     8.4808     8.9599
  197.5000   122.8529     8.4702     8.8749
  198.0000   120.7533     8.4596     8.8157
  198.5000   120.5167     8.4493     8.7559
  199.0000   120.3457     8.4397     8.6965
  199.5000   119.0188     8.2862     8.6376
  200.0000   116.2369     8.1070     8.5094
  200.5000   113.6860     8.0582     8.4311
  201.0000   114.6052     8.0582     8.3535
  201.5000   118.1233     8.0582     8.2767
  202.0000   120.1602     7.9763     8.2005
  202.5000   119.3934     7.6657     8.0938
  203.0000   119.1273     7.3672     7.7324
  203.5000   120.7217     7.0803     7.3872
  204.0000   123.1249     6.8046     7.0573
  204.5000   123.8820     6.6369     6.7622
  205.0000   124.5537     6.4913     6.6001
  205.5000   127.2227     6.3979     6.4573
  206.0000   130.1993     6.3979     6.6326
  206.5000   127.8653     6.4024     6.7627
  207.0000   121.8198     6.3917     6.9563
  207.5000   117.6541     6.5745     7.1485
  208.0000   118.4695     6.8043     7.3454
  208.5000   121.0630     7.0346     7.5482
  209.0000   121.4895     7.2727     7.7336
  209.5000   121.4918     7.5183     7.9105
  210.0000   121.4836     7.7773     8.0916
  210.5000   121.7673     7.9882     8.2084
  211.0000   122.8520     7.9384     8.1454
  211.5000   124.8521     7.8624     8.0921
  212.0000   125.1716     7.7871     8.0393
  212.5000   122.7982     7.7073     7.9842
  213.0000   120.3470     7.5969     7.8688
  213.5000   120.3154     7.4881     7.7493
  214.0000   121.8751     7.3809     7.6316
  214.5000   125.2714     7.2752     7.5158
  215.0000   128.3020     7.1710     7.3690
  215.5000   126.8306     6.8341     7.2135
  216.0000   122.2364     6.4477     6.8214
  216.5000   118.7398     6.0847     6.4514
  217.0000   116.9012     5.7499     6.1014
  217.5000   117.1828     5.5370     5.7704
  218.0000   119.4697     5.3669     5.5196
  218.5000   120.0472     5.4224     5.5176
  219.0000   118.0936     5.4876     5.6982
  219.5000   117.0638     5.5502     5.9141
  220.0000   118.6344     5.6098     6.1084
  220.5000   120.2706     5.8339     6.4373
  221.0000   119.9982     6.1576     6.7840
  221.5000   119.8853     6.4921     7.1514
  222.0000   120.4173     6.8447     7.5517
  222.5000   122.1699     7.1872     7.6487
  223.0000   124.0060     7.4105     7.7700
  223.5000   125.8326     7.6242     7.8750
  224.0000   127.0055     7.7031     7.9566
  224.5000   125.9117     7.7775     8.0390
  225.0000   123.4988     7.8382     8.1222
  225.5000   122.7735     7.9050     8.2064
  226.0000   125.2061     7.9724     8.2914
  226.5000   125.5091     8.0403     8.3772
  227.0000   125.7863     8.1088     8.4640
  227.5000   126.8241     8.1779     8.5543
  228.0000   127.3454     8.2476     8.6497
  228.5000   126.9730     8.2845     8.7463
  229.0000   127.0332     8.3389     8.8439
  229.5000   127.9362     8.3892     8.9425
  230.0000   127.9126     8.4398     9.0082
  230.5000   127.9149     8.4907     9.0237
  231.0000   127.9272     8.5170     9.0392
  231.5000   127.8257     8.5169     9.0548
  232.0000   125.8381     8.5170     9.0703
  232.5000   122.3852     8.5170     9.0854
  233.0000   119.4051     8.5083     9.0314
  233.5000   117.8417     8.4900     8.9673
  234.0000   118.1612     8.4715     8.9037
  234.5000   119.8373     8.4530     8.8405
  235.0000   123.8010     8.4335     8.7777
  235.5000   128.2603     8.4094     8.6951
  236.0000   128.5466     8.3856     8.6027
  236.5000   126.6673     8.3621     8.5113
  237.0000   125.4971     8.2699     8.4208
  237.5000   125.7769     8.1540     8.3328
  238.0000   126.9889     8.0395     8.1899
  238.5000   128.2624     7.9063     7.9964
  239.0000   127.9888     7.6680     7.8064
  239.5000   125.9177     7.3779     7.5479
  240.0000   125.1041     6.8882     7.1935
  240.5000   125.8027     6.4309     6.6394
  241.0000   130.6774     5.8290     5.9202
  241.5000   133.9558     5.1422     5.2789
  242.0000   133.0965     4.5364     4.7070
  242.5000   128.9393     4.0019     4.1971
  243.0000   126.9855     3.5304     3.7424
  243.5000   125.4832     3.1279     3.3370
  244.0000   122.6295     2.8818     2.9742
  244.5000   116.9973     2.7174     2.8351
  245.0000   111.2318     2.6292     2.7120
  245.5000   105.7414     2.5659     2.7524
  246.0000   107.8628     2.6380     2.8473
  246.5000   116.1719     2.8148     2.9868
  247.0000   124.8539     2.9534     3.2398
  247.5000   133.2080     3.3527     3.6935
  248.0000   135.4870     3.8575     4.2061
  248.5000   131.6457     4.2747     4.8061
  249.0000   127.6114     4.6537     5.3275
  249.5000   127.7241     5.1650     5.8652
  250.0000   128.8052     5.7325     6.2523
  250.5000   130.7406     6.3979     6.5775
  251.0000   130.5107     6.6205     6.6986
  251.5000   130.0014     6.7682     6.8249
  252.0000   132.4868     6.7955     6.7852
  252.5000   137.2934     6.8249     6.7468
  253.0000   136.0926     6.6139     6.7087
  253.5000   133.1588     6.3928     6.5698
  254.0000   131.5663     6.1791     6.3519
  254.5000   133.8595     5.9018     6.0668
  255.0000   136.9162     5.5986     5.7592
  255.5000   140.1734     5.3131     5.4672
  256.0000   142.5103     5.0415     5.1901
  256.5000   142.1380     4.8144     4.9269
  257.0000   139.0291     4.6772     4.7680
  257.5000   135.5439     4.5472     4.6748
  258.0000   134.5035     4.5660     4.7129
  258.5000   132.7204     4.5894     4.8506
  259.0000   130.8172     4.8265     5.1013
  259.5000   131.6411     5.0647     5.3531
  260.0000   137.0242     5.3147     5.6535
  260.5000   141.1384     5.5770     5.9838
  261.0000   142.3082     5.8523     6.3334
  261.5000   140.1355     6.1869     6.7034
  262.0000   135.5126     6.5476     7.0963
  262.5000   131.5183     6.9294     7.4464
  263.0000   133.3487     7.2232     7.7156
  263.5000   137.3957     7.4590     7.9842
  264.0000   138.5119     7.6006     7.9842
  264.5000   137.4687     7.7325     8.0103
  265.0000   135.0224     7.8382     8.0582
  265.5000   133.5734     7.8864     7.9880
  266.0000   135.1787     7.9109     7.8863
  266.5000   140.6309     7.4363     7.6524
  267.0000   144.3523     7.2943     7.5083
  267.5000   144.0997     7.1718     7.3886
  268.0000   139.8504     7.0816     7.2804
  268.5000   135.6102     6.8598     7.0392
  269.0000   133.8945     6.6608     6.8232
  269.5000   134.5605     6.4676     6.6138
  270.0000   135.8783     6.1278     6.2800
  270.5000   136.5261     5.7235     5.9367
  271.0000   137.2664     5.4252     5.6105
  271.5000   138.0447     5.2945     5.3829
  272.0000   140.2883     5.1727     5.2708
  272.5000   143.3556     5.2276     5.3420
