~VERSION INFORMATION
 VERS.                2.0:   CWLS LOG ASCII STANDARD - VERSION 2.0
 WRAP.                 NO:   ONE LINE PER DEPTH STEP
~WELL INFORMATION
#MNEM.UNIT      DATA TYPE    INFORMATION
#----------   ------------   ------------------------------
 STRT.F           82.0000:   START DEPTH
 STOP.F          426.5000:   STOP DEPTH
 STEP.F            0.5000:   STEP LENGTH
 NULL.          -999.2500:   NO VALUE
 COMP. BROWN JOHN E&C INC:   COMPANY
 WELL.    NPR 3 #73-45X10:   WELL
 FLD .             TEAPOT:   FIELD
 LOC .      S10 T38N R78W:   LOCATION
 CNTY.            NATRONA:   COUNTY
 STAT.            WYOMING:   STATE
 CTRY. UNITED STATES OF AMERICA:   COUNTRY
 SRVC.      Western Atlas:   SERVICE COMPANY
 DATE.        30-DEC-1990:   LOGDATE
 API .       490251132400:   API NUMBER
~CURVE INFORMATION
#MNEM.UNIT       API CODE    CURVE DESCRIPTION
#----------   ------------   ------------------------------
 DEPT.F                  :   
 GR  .CPS    30 310 30 00:   GAMMA RAY
 TT  .US/F   30 520 00 00:   TRANSIT TIME FROM GAMMA RAY LOG
~PARAMETER INFORMATION
#MNEM.UNIT          VALUE    DESCRIPTION
#----------   ------------   ------------------------------
 PD  .                 GL:   PERMANENT DATUM
 EPD .F              5175:   ELEVATION PERMANENT DATUM
 LMF .                 KB:   LOG MEASURED FROM
 DMF .                 KB:   DRILLING MEASURED FROM
 EKB .F              5185:   KELLING BUSHING
 EGL .F              5175:   GROUND LEVEL
 DATE.         12-30-1990:   RUN DATE
 RUN .                  1:   RUN NUMBER
 DD  .F               485:   DEPTH DRILLER
 DL  .F               489:   DEPTH LOGGER
 BLI .F               483:   BOTTOM LOG INTERVAL
 TLI .F                26:   TOP LOG INTERVAL
 BSD .F               485:   BIT SIZE AT DEPTH
 BHT .F                70:   BOTTOM HOLE TEMPERATURE
 TCS .HRS             1.5:   TIME CURCULATED STOPPED
 MRT .F                70:   MAXIMUM RECORDED TEMPERATURE
 ENGI.          ATTERHOLT:   RECORDING ENGINEER
 WITN.              DOYLE:   WITNESSED BY
 CLNT.            A2DTECH:   CLIENT CODE
 ORIG.           5" PRINT:   ORIGIN OF DATA
 UWI .       490251132400:   UNIQUE WELL ID
 DICO. A2D Technologies, Inc.:   DIGITIZING COMPANY
~OTHER INFORMATION
~A   DEPT        GR         TT  
# ...
  325.0000    60.4618   289.4980
  325.5000    59.7151   283.2304
  326.0000    59.3158   273.8217
  326.5000    61.2232   259.0458
  327.0000    63.5894   246.5023
  327.5000    65.2312   238.0883
  328.0000    65.2232   229.4300
  328.5000    66.1400   225.6509
  329.0000    67.1207   225.1060
  329.5000    68.1155   224.5610
  330.0000    67.8895   224.6233
  330.5000    66.9894   224.8602
  331.0000    66.7557   225.0935
  331.5000    66.4900   225.4500
  332.0000    66.2243   225.1025
  332.5000    65.9586   224.7661
  333.0000    65.6929   224.4284
  333.5000    65.4267   224.0910
  334.0000    65.1577   223.7537
  334.5000    64.8957   223.9151
  335.0000    65.5549   224.2370
  335.5000    66.3125   225.2174
  336.0000    67.0965   227.9470
  336.5000    66.6415   234.8964
  337.0000    65.6686   241.8458
  337.5000    64.6657   247.9694
  338.0000    66.3563   252.1441
  338.5000    66.2737   253.3088
  339.0000    64.2996   250.2390
  339.5000    62.3016   248.0359
  340.0000    60.2255   245.7306
  340.5000    60.2733   246.3848
  341.0000    60.6789   247.3115
  341.5000    60.0216   248.1581
  342.0000    59.3232   248.9851
  342.5000    58.9512   248.9134
  343.0000    59.4940   247.7889
  343.5000    60.0355   249.8939
  344.0000    60.5601   255.4894
  344.5000    61.0395   266.0436
  345.0000    62.7962   270.5995
  345.5000    64.6624   272.4297
  346.0000    66.5107   268.1044
  346.5000    67.7971   261.7439
  347.0000    67.4867   254.7374
  347.5000    68.2737   249.3374
  348.0000    69.0276   248.5341
  348.5000    68.8952   250.7127
  349.0000    67.8648   253.2171
  349.5000    66.8697   255.7261
  350.0000    65.8763   258.2569
  350.5000    64.8849   260.1968
  351.0000    63.8379   262.6751
  351.5000    62.6370   268.6462
  352.0000    61.4074   275.0544
  352.5000    60.1715   284.1938
  353.0000    58.8369   290.0266
  353.5000    59.6936   289.9869
  354.0000    61.1623   289.9026
  354.5000    62.6451   289.8183
  355.0000    64.1233   289.7339
  355.5000    65.6003   281.5321
  356.0000    67.0782   273.0321
  356.5000    68.5595   277.3120
  357.0000    70.0623   280.4507
  357.5000    70.1332   283.4489
  358.0000    69.6775   282.6335
  358.5000    68.4528   274.4843
  359.0000    67.1951   272.2222
  359.5000    65.9436   271.6265
  360.0000    64.6937   275.4908
  360.5000    63.4461   279.3141
  361.0000    62.1913   283.1375
  361.5000    60.8591   286.5251
  362.0000    59.0827   288.8022
  362.5000    58.8924   289.5733
  363.0000    60.5481   289.7251
  363.5000    59.7235   289.8769
  364.0000    56.5857   290.0287
  364.5000    56.6137   270.6225
  365.0000    57.9591   269.0161
  365.5000    58.9207   272.4664
  366.0000    59.0712   274.8394
  366.5000    59.2384   271.2249
  367.0000    59.4020   277.2512
  367.5000    59.5661   279.6586
  368.0000    59.7304   274.4402
  368.5000    59.8966   273.0321
  369.0000    60.0764   272.2770
  369.5000    59.5198   271.4388
  370.0000    58.8091   278.3175
  370.5000    58.0696   285.4353
  371.0000    58.8363   287.0968
  371.5000    58.6465   289.0197
  372.0000    57.8425   289.6988
  372.5000    57.1062   284.6787
  373.0000    57.4378   282.5341
  373.5000    57.8021   280.6727
  374.0000    58.3490   272.1679
  374.5000    59.9491   268.6145
  375.0000    60.2185   286.1982
  375.5000    59.9981   280.6673
  376.0000    60.0264   278.3477
  376.5000    61.7834   282.5944
  377.0000    63.6269   281.9207
  377.5000    65.2633   279.6436
  378.0000    64.8964   278.6546
  378.5000    64.4627   283.0514
  379.0000    63.9892   283.4621
  379.5000    62.4149   281.2600
  380.0000    60.7534   280.0197
  380.5000    59.0997   289.8873
  381.0000    57.4248   290.0169
  381.5000    57.4919   290.0560
  382.0000    58.5022   290.1004
  382.5000    57.2112   287.5402
  383.0000    56.1048   287.8683
  383.5000    58.1464   289.4427
  384.0000    60.3003   289.6542
  384.5000    59.3514   289.6009
  385.0000    58.3140   289.5477
  385.5000    58.2783   289.4980
  386.0000    59.7442   285.9719
  386.5000    60.9547   280.0602
  387.0000    60.4177   270.0201
  387.5000    59.8763   268.1277
  388.0000    59.5615   265.3857
  388.5000    59.3725   265.3967
  389.0000    57.9455   262.8401
  389.5000    56.4878   261.9096
  390.0000    56.5459   264.9565
  390.5000    57.5454   265.4640
  391.0000    58.9723   262.5835
  391.5000    60.3857   261.4268
  392.0000    61.6195   260.2700
  392.5000    65.0477   257.4681
  393.0000    67.2807   253.3552
  393.5000    68.3185   247.2106
  394.0000    69.3510   240.9937
  394.5000    68.9492   235.8835
  395.0000    67.6978   236.1044
  395.5000    66.3068   240.3742
  396.0000    64.3382   258.7992
  396.5000    62.5412   274.7357
  397.0000    62.6159   282.3794
  397.5000    62.7791   288.7321
  398.0000    61.4437   289.3645
  398.5000    60.3756   289.6573
  399.0000    61.2191   287.2897
  399.5000    62.3989   285.2908
  400.0000    63.6086   285.5805
  400.5000    64.8378   286.3305
  401.0000    64.6410   278.2865
  401.5000    65.4462   275.0402
  402.0000    66.3735   278.0743
  402.5000    67.2801   279.9044
  403.0000    67.4570   274.8517
  403.5000    65.8638   278.2310
  404.0000    64.6796   281.4402
  404.5000    67.1929   283.3454
  405.0000    66.2625   285.5992
  405.5000    65.2865   284.6787
  406.0000    65.1094   289.9016
  406.5000    66.0979   287.3374
  407.0000    66.6380   280.7451
  407.5000    67.1736   274.4893
  408.0000    67.8438   278.8517
  408.5000    69.2317   269.2071
  409.0000    70.6534   265.2008
  409.5000    70.5571   272.2129
  410.0000    70.3275   274.6385
  410.5000    72.2652   269.0705
  411.0000    72.9099   269.8545
  411.5000    72.7247   269.3855
  412.0000    72.5190   265.0454
  412.5000    72.6448   257.5331
  413.0000    72.9812   249.9664
  413.5000    72.9556   247.4868
  414.0000    72.7390   249.6561
  414.5000    72.5226   255.3263
  415.0000    72.3061   260.9965
  415.5000    72.0870   265.6265
  416.0000    71.8497   266.3890
  416.5000    72.5676   266.8072
  417.0000    73.8817   265.9679
  417.5000    75.2581   264.9598
  418.0000    76.6346   263.9960
  418.5000    78.0099   263.1295
  419.0000    79.3867   262.2993
  419.5000    80.7562   261.4692
  420.0000    81.8020   261.0743
  420.5000    81.8305   260.9918
  421.0000    81.8780   261.0089
  421.5000    81.9264   261.0259
  422.0000    81.9752   261.0431
  422.5000    82.0243   261.0602
  423.0000    82.0738   261.0773
  423.5000    82.0393   261.0943
  424.0000    81.9948   261.1114
  424.5000    81.9501   261.1285
  425.0000    81.9056   261.1456
  425.5000    81.8609   261.1627
  426.0000    81.8165   261.1798
  426.5000    81.7759  -999.2500
