~VERSION INFORMATION
 VERS.                2.0:   CWLS LOG ASCII STANDARD - VERSION 2.0
 WRAP.                 NO:   ONE LINE PER DEPTH STEP
~WELL INFORMATION
#MNEM.UNIT      DATA TYPE    INFORMATION
#----------   ------------   ------------------------------
 STRT.F          217.0000:   START DEPTH
 STOP.F         3170.0000:   STOP DEPTH
 STEP.F            0.5000:   STEP LENGTH
 NULL.          -999.2500:   NO VALUE
 COMP. FENIX & SCISSON INC:   COMPANY
 WELL.    51 TX 33 #51-33:   WELL
 FLD .             TEAPOT:   FIELD
 LOC .      S33 T39N R78W:   LOCATION
 CNTY.            NATRONA:   COUNTY
 STAT.            WYOMING:   STATE
 CTRY. UNITED STATES OF AMERICA:   COUNTRY
 SRVC.            Unknown:   SERVICE COMPANY
 DATE.        02-APR-1978:   LOGDATE
 API .       490251068600:   API NUMBER
~CURVE INFORMATION
#MNEM.UNIT       API CODE    CURVE DESCRIPTION
#----------   ------------   ------------------------------
 DEPT.F                  :   
 TGAS.UNITS  91 830 01 00:   TOTAL GAS FROM HOTWIRE
 ROP .MIN/FT 91 810 01 00:   RATE OF DRILLING PENETRATION
~PARAMETER INFORMATION
#MNEM.UNIT          VALUE    DESCRIPTION
#----------   ------------   ------------------------------
 DATE.         2-APR-1978:   RUN DATE
 RUN .                  1:   RUN NUMBER
 BLI .F              3150:   BOTTOM LOG INTERVAL
 TLI .F               250:   TOP LOG INTERVAL
 DFT .       CHEMICAL GEL:   DRILLING FLUID TYPE
 ENGI.            R. CABS:   RECORDING ENGINEER
 CLNT.            A2DTECH:   CLIENT CODE
 ORIG.           5" PRINT:   ORIGIN OF DATA
 UWI .       490251068600:   UNIQUE WELL ID
 DICO. A2D Technologies, Inc.:   DIGITIZING COMPANY
~OTHER INFORMATION
~A   DEPT       TGAS      ROP   
# ...
  946.0000     1.7113  -999.2500
  946.5000     1.8024  -999.2500
  947.0000     1.8058  -999.2500
  947.5000     1.7213  -999.2500
  948.0000     1.7256  -999.2500
  948.5000     1.8159  -999.2500
  949.0000     1.7315  -999.2500
  949.5000     1.7357  -999.2500
  950.0000     1.7391  -999.2500
  950.5000     1.6556  -999.2500
  951.0000     1.5720  -999.2500
  951.5000     1.5762  -999.2500
  952.0000     1.5796  -999.2500
  952.5000     1.5830  -999.2500
  953.0000     1.5864  -999.2500
  953.5000     1.5020  -999.2500
  954.0000     1.5062  -999.2500
  954.5000     1.4226  -999.2500
  955.0000     1.4261  -999.2500
  955.5000     1.4296  -999.2500
  956.0000     1.4337  -999.2500
  956.5000     1.4370  -999.2500
  957.0000     1.4404  -999.2500
  957.5000     1.4438  -999.2500
  958.0000     1.4472  -999.2500
  958.5000     1.4506  -999.2500
  959.0000     1.4540  -999.2500
  959.5000     1.4574  -999.2500
  960.0000     1.4609  -999.2500
  960.5000     1.4650  -999.2500
  961.0000     1.4684  -999.2500
  961.5000     1.5587  -999.2500
  962.0000     1.5621  -999.2500
  962.5000     1.3220  -999.2500
  963.0000     0.7826  -999.2500
  963.5000     0.8696  -999.2500
  964.0000     0.8696  -999.2500
  964.5000     0.9565  -999.2500
  965.0000     1.0435  -999.2500
  965.5000     1.0435  -999.2500
  966.0000     1.0435  -999.2500
  966.5000     0.9565  -999.2500
  967.0000     0.9565  -999.2500
  967.5000     0.9565  -999.2500
  968.0000     0.9565  -999.2500
  968.5000     0.9565  -999.2500
  969.0000     1.0435  -999.2500
  969.5000     1.0435  -999.2500
  970.0000     1.1304  -999.2500
  970.5000     1.2174  -999.2500
  971.0000     1.2174  -999.2500
  971.5000     1.1304  -999.2500
  972.0000     1.1304  -999.2500
  972.5000     1.0435  -999.2500
  973.0000     1.0435  -999.2500
  973.5000     1.0435  -999.2500
  974.0000     1.0435  -999.2500
  974.5000     1.0435  -999.2500
  975.0000     1.0435  -999.2500
  975.5000     1.0435  -999.2500
  976.0000     1.0435  -999.2500
  976.5000     1.0435  -999.2500
  977.0000     1.0435  -999.2500
  977.5000     1.0435  -999.2500
  978.0000     1.0435  -999.2500
  978.5000     0.9565  -999.2500
  979.0000     0.9548  -999.2500
  979.5000     0.9565  -999.2500
  980.0000     0.9565  -999.2500
  980.5000     0.9565  -999.2500
  981.0000     1.0435  -999.2500
  981.5000     1.0435  -999.2500
  982.0000     0.9565  -999.2500
  982.5000     0.9565  -999.2500
  983.0000     1.0435  -999.2500
  983.5000     1.0435  -999.2500
  984.0000     1.0435  -999.2500
  984.5000     1.1304  -999.2500
  985.0000     1.2174  -999.2500
  985.5000     1.2174  -999.2500
  986.0000     1.2174  -999.2500
  986.5000     1.0435  -999.2500
  987.0000     0.7826  -999.2500
  987.5000     0.6087  -999.2500
  988.0000     0.5217  -999.2500
  988.5000     0.4348  -999.2500
  989.0000     0.5217  -999.2500
  989.5000     0.5217  -999.2500
  990.0000     0.5217  -999.2500
  990.5000     0.5217  -999.2500
  991.0000     0.6087  -999.2500
  991.5000     0.6087  -999.2500
  992.0000     0.6957  -999.2500
  992.5000     0.6957  -999.2500
  993.0000     0.7826  -999.2500
  993.5000     0.7826  -999.2500
  994.0000     0.8696  -999.2500
  994.5000     0.9565  -999.2500
  995.0000     1.0435  -999.2500
  995.5000     1.2174  -999.2500
  996.0000     1.2174  -999.2500
  996.5000     1.2174  -999.2500
  997.0000     1.2174  -999.2500
  997.5000     1.2174  -999.2500
  998.0000     1.1304  -999.2500
  998.5000     1.1304  -999.2500
  999.0000     1.0435  -999.2500
  999.5000     1.1304  -999.2500
 1000.0000     1.1304  -999.2500
 1000.5000     1.1304  -999.2500
 1001.0000     1.1304  -999.2500
 1001.5000     1.1304  -999.2500
 1002.0000     1.1304  -999.2500
 1002.5000     1.2174  -999.2500
 1003.0000     1.2174  -999.2500
 1003.5000     1.1304  -999.2500
 1004.0000     1.2174  -999.2500
 1004.5000     1.2174  -999.2500
 1005.0000     1.2174  -999.2500
 1005.5000     1.2252  -999.2500
 1006.0000     1.2395  -999.2500
 1006.5000     1.2539  -999.2500
 1007.0000     1.2683  -999.2500
 1007.5000     1.2826  -999.2500
 1008.0000     1.2970  -999.2500
 1008.5000     1.3114  -999.2500
 1009.0000     1.3257  -999.2500
 1009.5000     1.3401  -999.2500
 1010.0000     1.3545  -999.2500
 1010.5000     1.3688  -999.2500
 1011.0000     1.3832  -999.2500
 1011.5000     1.3975  -999.2500
 1012.0000     1.4119  -999.2500
 1012.5000     1.4263  -999.2500
 1013.0000     1.4406  -999.2500
 1013.5000     1.4550  -999.2500
 1014.0000     1.4694  -999.2500
 1014.5000     1.4837  -999.2500
 1015.0000     1.4981  -999.2500
 1015.5000     1.5125  -999.2500
 1016.0000     1.5268  -999.2500
 1016.5000     1.5412  -999.2500
 1017.0000     1.5556  -999.2500
 1017.5000     1.5699  -999.2500
 1018.0000     1.5843  -999.2500
 1018.5000     1.5987  -999.2500
 1019.0000     1.6130  -999.2500
 1019.5000     1.6274  -999.2500
 1020.0000     1.6125  -999.2500
 1020.5000     1.5738  -999.2500
 1021.0000     1.5351  -999.2500
 1021.5000     1.4964  -999.2500
 1022.0000     1.4678  -999.2500
 1022.5000     1.5159  -999.2500
 1023.0000     1.6070  -999.2500
 1023.5000     1.6980  -999.2500
 1024.0000     1.7359     2.0851
 1024.5000     1.7920     2.1725
 1025.0000     1.8568     2.1545
 1025.5000     1.9215     2.1547
 1026.0000     1.9863     2.1549
 1026.5000     2.0052     2.1551
 1027.0000     2.0188     2.1553
 1027.5000     2.0439     2.1555
 1028.0000     2.0689     2.1556
 1028.5000     2.0939     2.0286
 1029.0000     2.1280     1.9026
 1029.5000     2.1899     1.9047
 1030.0000     2.1916     1.9068
 1030.5000     2.1930     1.9089
 1031.0000     2.1948     1.9110
 1031.5000     2.1965     1.9131
 1032.0000     2.1985     1.9152
 1032.5000     2.2000     1.9173
 1033.0000     2.2017     1.9194
 1033.5000     2.2035     1.9215
 1034.0000     2.2239     1.9236
 1034.5000     2.2869     1.9258
 1035.0000     2.3498     1.9279
 1035.5000     2.3844     1.9300
 1036.0000     2.3861     1.9321
 1036.5000     2.3878     1.9342
 1037.0000     2.3896     1.9363
 1037.5000     2.3913     1.9384
 1038.0000     2.3930     1.9405
 1038.5000     2.3320     1.9426
 1039.0000     2.2725     1.9447
 1039.5000     2.2240     1.9468
 1040.0000     2.1391     1.9489
 1040.5000     2.1231     1.9511
 1041.0000     2.0879     1.9532
 1041.5000     2.0572     1.9553
 1042.0000     2.0593     1.9574
 1042.5000     2.0609     1.9595
 1043.0000     2.0626     1.9616
 1043.5000     2.0643     1.9637
 1044.0000     2.0661     1.9658
 1044.5000     2.0680     1.9679
 1045.0000     2.1265     1.9700
 1045.5000     2.1931     1.9721
 1046.0000     2.2470     1.9742
 1046.5000     2.2575     1.9764
 1047.0000     2.2685     1.9785
 1047.5000     2.2795     1.9806
 1048.0000     2.2904     1.9827
 1048.5000     2.3014     1.9848
 1049.0000     2.3124     1.9869
 1049.5000     2.3234     1.9890
 1050.0000     2.3343     1.9911
 1050.5000     2.3453     1.9932
 1051.0000     2.3475     1.9953
 1051.5000     2.3422     1.9974
 1052.0000     2.3369     2.8531
 1052.5000     2.3317     2.7982
 1053.0000     2.3264     2.7615
 1053.5000     2.3211     2.7793
 1054.0000     2.3158     2.7826
 1054.5000     2.3105     1.9785
 1055.0000     2.3052     1.9776
 1055.5000     2.2999     1.9764
 1056.0000     2.2946     1.9753
 1056.5000     2.2894     1.9741
 1057.0000     2.2849     1.9729
 1057.5000     2.2870     1.9718
 1058.0000     2.2887     1.9706
 1058.5000     2.2904     1.9695
 1059.0000     2.2055     1.9683
 1059.5000     2.1198     1.9672
 1060.0000     2.1219     1.9660
 1060.5000     2.1236     1.9649
 1061.0000     2.1253     1.9637
 1061.5000     2.1270     1.9625
 1062.0000     2.1482     1.9614
 1062.5000     2.1760     1.9602
 1063.0000     2.2038     1.9591
 1063.5000     2.2316     1.9579
 1064.0000     2.2594     1.9568
 1064.5000     2.2871     1.9556
 1065.0000     2.3133     1.9544
 1065.5000     2.3150     1.9533
 1066.0000     2.2992     1.9519
 1066.5000     2.2732     1.9515
 1067.0000     2.2473     1.9330
