~VERSION INFORMATION
 VERS.                2.0:   CWLS LOG ASCII STANDARD - VERSION 2.0
 WRAP.                 NO:   ONE LINE PER DEPTH STEP
~WELL INFORMATION
#MNEM.UNIT      DATA TYPE    INFORMATION
#----------   ------------   ------------------------------
 STRT.F           57.5000:   START DEPTH
 STOP.F         4049.0000:   STOP DEPTH
 STEP.F            0.5000:   STEP LENGTH
 NULL.          -999.2500:   NO VALUE
 COMP. LAWRENCE/ALLISON INC:   COMPANY
 WELL.     NPR #3` #13-11:   WELL
 FLD .             NPR #3:   FIELD
 LOC .      S11 T38N R78W:   LOCATION
 CNTY.            NATRONA:   COUNTY
 STAT.            WYOMING:   STATE
 CTRY. UNITED STATES OF AMERICA:   COUNTRY
 SRVC.      Dresser Atlas:   SERVICE COMPANY
 DATE.        13-MAR-1986:   LOGDATE
 API .       490251106500:   API NUMBER
~CURVE INFORMATION
#MNEM.UNIT       API CODE    CURVE DESCRIPTION
#----------   ------------   ------------------------------
 DEPT.F                  :   
 CALR.IN     07 280 01 00:   CALIPER FROM RESISTIVITY
 GRR .GAPI   07 310 01 00:   GAMMA RAY FROM RESISTIVITY
 RILD.OHMM   07 120 46 00:   RESISTIVITY INDUCTION LOG DEEP
 RILM.OHMM   07 120 44 00:   RESISTIVITY INDUCTION LOG MEDIUM
 RFOC.OHMM   07 220 04 00:   RESISTIVITY FOCUSED LOG
 SPR .MV     07 010 01 00:   SPONTANEOUS POTENTIAL FROM RES.
 PORD.DEC    45 890 12 00:   POROSITY DENSITY SANDSTONE
 CNC .DEC    42 890 03 00:   COMPENSATED NEUTRON POROSITY SANDSTONE
 CORR.G/C3   45 356 01 00:   DENSITY CORRECTION
 DEN .G/C3   45 350 01 00:   COMPENSATED BULK DENSTIY
 DT  .US/F   60 520 00 00:   INTERVAL TRANSIT TIME
~PARAMETER INFORMATION
#MNEM.UNIT          VALUE    DESCRIPTION
#----------   ------------   ------------------------------
 PD  .                 GL:   PERMANENT DATUM
 EPD .F              5176:   ELEVATION PERMANENT DATUM
 LMF .                 KB:   LOG MEASURED FROM
 DAPD.F              11.8:   FEET ABOVE PERMANENT DATUM
 DMF .                 KB:   DRILLING MEASURED FROM
 EKB .F            5187.8:   KELLING BUSHING
 EGL .F              5176:   GROUND LEVEL
 DATE.        13-MAR-1986:   RUN DATE
 RUN .                  1:   RUN NUMBER
 DD  .F              4051:   DEPTH DRILLER
 DL  .F              4051:   DEPTH LOGGER
 BLI .F              4049:   BOTTOM LOG INTERVAL
 TLI .F               564:   TOP LOG INTERVAL
 CS  .IN            8.625:   CASING SIZE
 CBD .F               564:   CASING BOTTOM DRILLER
 CBL .F               564:   CASING BOTTOM LOGGER
 BS  .IN            7.875:   BIT SIZE
 BSD .F              4051:   BIT SIZE AT DEPTH
 DFT .          POLY- KCL:   DRILLING FLUID TYPE
 DFD .                8.9:   DRILLING FLUID DENSITY
 DFV .                 36:   DRILLING FLUID VISCOSITY
 DFPH.                8.5:   DRILLING FLUID PH
 DFL .               13.5:   DRILLING FLUID LOSS
 MSS .           FLOWLINE:   MUD SAMPLE SOURCE
 RMS .OHMM           .275:   RESISTIVITY MUD SAMPLE
 MST .F                55:   MUD SAMPLE TEMPERATURE
 RMF .OHMM           .206:   RESISTIVITY MUD FILTRATE SAMPLE
 MFST.F                55:   MUD FILTRATE SAMPLE TEMPERATURE
 RMC .OHMM           .344:   RESISTIVITY MUD CAKE
 MCST.F                55:   MUD CAKE SAMPLE TEMPERATURE
 MFSS.               CALC:   MUD FILTRATE SAMPLE SOURCE
 MCSS.               CALC:   MUD CAKE SAMPLE SOURCE
 RMB .OHMM           .092:   RESISTIVITY MUD AT BHT
 BHT .F               164:   BOTTOM HOLE TEMPERATURE
 TCS .HRS            0400:   TIME CURCULATED STOPPED
 MRT .F               164:   MAXIMUM RECORDED TEMPERATURE
 LUN .               6274:   LOGGING UNIT NUMBER
 LUL .           GILLETTE:   LOGGING UNIT LOCATION
 ENGI.             MILLER:   RECORDING ENGINEER
 WITN.             STRONG:   WITNESSED BY
 CLNT.            A2DTECH:   CLIENT CODE
 ORIG.         2.5" PRINT:   ORIGIN OF DATA
 UWI .       490251106500:   UNIQUE WELL ID
 DICO. A2D Technologies, Inc.:   DIGITIZING COMPANY
~OTHER INFORMATION
~A   DEPT     CALR         GRR      RILD       RILM       RFOC        SPR       PORD        CNC       CORR        DEN         DT   
# ...
  820.0000    10.8930    78.8956     9.3544     9.3589     7.9622   -41.9512  -999.2500  -999.2500  -999.2500  -999.2500  -999.2500
  820.5000    10.8930    79.8674     9.4846     9.4005     8.0741   -41.9558  -999.2500  -999.2500  -999.2500  -999.2500  -999.2500
  821.0000    10.9235    81.3169     9.6166     9.4903     8.1877   -42.2652  -999.2500  -999.2500  -999.2500  -999.2500  -999.2500
  821.5000    10.9541    85.1529     9.6767     9.4531     8.1882   -42.1540  -999.2500  -999.2500  -999.2500  -999.2500  -999.2500
  822.0000    10.9690    90.2600     9.7498     9.1618     8.1888   -41.9687  -999.2500  -999.2500  -999.2500  -999.2500  -999.2500
  822.5000    10.9847    88.7935     9.8855     8.9447     8.0763   -41.9741  -999.2500  -999.2500  -999.2500  -999.2500  -999.2500
  823.0000    10.9847    86.9449     9.8848     8.8516     7.9655   -41.9787  -999.2500  -999.2500  -999.2500  -999.2500  -999.2500
  823.5000    11.0153    83.4355     9.8252     8.8516     7.9661   -42.3958  -999.2500  -999.2500  -999.2500  -999.2500  -999.2500
  824.0000    11.0153    80.5807     9.7470     8.8516     7.9667   -42.9024  -999.2500  -999.2500  -999.2500  -999.2500  -999.2500
  824.5000    11.0590    81.4111     9.6119     8.8743     7.9672   -43.0107  -999.2500  -999.2500  -999.2500  -999.2500  -999.2500
  825.0000    11.0765    83.8447     9.6112     8.9758     8.0792   -43.2165  -999.2500  -999.2500  -999.2500  -999.2500  -999.2500
  825.5000    11.1070    86.0776     9.7450     8.9947     8.1928   -43.2210  -999.2500  -999.2500  -999.2500  -999.2500  -999.2500
  826.0000    11.1070    87.0940     9.7998     9.2294     8.3080   -43.5305  -999.2500  -999.2500  -999.2500  -999.2500  -999.2500
  826.5000    11.1376    87.0798     9.8800     9.2294     8.3086   -43.6306  -999.2500  -999.2500  -999.2500  -999.2500  -999.2500
  827.0000    11.1376    87.0675     9.9341     9.2424     8.4254   -44.1494  -999.2500  -999.2500  -999.2500  -999.2500  -999.2500
  827.5000    11.1792    87.0552    10.0169     9.3589     8.4259   -44.4588  -999.2500  -999.2500  -999.2500  -999.2500  -999.2500
  828.0000    11.2094    87.0430    10.1563     9.3589     8.4956   -44.6423  -999.2500  -999.2500  -999.2500  -999.2500  -999.2500
  828.5000    11.2294    87.0307    10.1555     9.3589     8.5449   -45.3826  -999.2500  -999.2500  -999.2500  -999.2500  -999.2500
  829.0000    11.2392    87.0184    10.2083     9.3589     8.6651   -45.6921  -999.2500  -999.2500  -999.2500  -999.2500  -999.2500
  829.5000    11.2599    87.0061    10.2963     9.3589     8.6657   -45.6966  -999.2500  -999.2500  -999.2500  -999.2500  -999.2500
  830.0000    11.2599    86.8302    10.2954     9.3589     8.6663   -45.3957  -999.2500  -999.2500  -999.2500  -999.2500  -999.2500
  830.5000    11.2599    85.4357    10.2947     9.1017     8.6047   -45.0168  -999.2500  -999.2500  -999.2500  -999.2500  -999.2500
  831.0000    11.2599    83.9034    10.2940     8.9758     8.4300   -44.7185  -999.2500  -999.2500  -999.2500  -999.2500  -999.2500
  831.5000    11.2680    86.0325    10.1513     8.8516     8.3143   -44.4949  -999.2500  -999.2500  -999.2500  -999.2500  -999.2500
  832.0000    11.2905    87.5598    10.1506     8.8516     8.2001   -44.5000  -999.2500  -999.2500  -999.2500  -999.2500  -999.2500
  832.5000    11.2905    85.2765    10.0098     8.7291     8.0876   -44.5046  -999.2500  -999.2500  -999.2500  -999.2500  -999.2500
  833.0000    11.2905    80.7038     9.8710     8.7291     8.0375   -44.5091  -999.2500  -999.2500  -999.2500  -999.2500  -999.2500
  833.5000    11.3211    74.5031     9.8252     8.6083     7.9771   -45.4284  -999.2500  -999.2500  -999.2500  -999.2500  -999.2500
  834.0000    11.3211    77.9551     9.5560     8.4892     7.9776   -45.7378  -999.2500  -999.2500  -999.2500  -999.2500  -999.2500
  834.5000    11.3517    79.5227     9.3356     8.4892     7.9782   -45.7424  -999.2500  -999.2500  -999.2500  -999.2500  -999.2500
  835.0000    11.3517    79.7546     9.2061     8.4892     7.9788   -46.0518  -999.2500  -999.2500  -999.2500  -999.2500  -999.2500
  835.5000    11.3517    81.4561     9.1659     8.3717     7.9793   -46.0564  -999.2500  -999.2500  -999.2500  -999.2500  -999.2500
  836.0000    11.3517    82.6667     9.0779     8.3717     7.9799   -46.0041  -999.2500  -999.2500  -999.2500  -999.2500  -999.2500
  836.5000    11.3517    83.8772     9.0772     8.3717     7.9804   -45.7603  -999.2500  -999.2500  -999.2500  -999.2500  -999.2500
  837.0000    11.3517    85.1945     9.0766     8.3717     7.9810   -45.4600  -999.2500  -999.2500  -999.2500  -999.2500  -999.2500
  837.5000    11.3517    87.1166     9.1130     8.3717     7.9815   -45.4649  -999.2500  -999.2500  -999.2500  -999.2500  -999.2500
  838.0000    11.3517    89.2525     9.2024     8.3717     7.9821   -45.4695  -999.2500  -999.2500  -999.2500  -999.2500  -999.2500
  838.5000    11.3517    88.4374     9.2016     8.3717     7.9826   -45.4741  -999.2500  -999.2500  -999.2500  -999.2500  -999.2500
  839.0000    11.3517    86.0695     9.3298     8.4892     7.9832   -45.4787  -999.2500  -999.2500  -999.2500  -999.2500  -999.2500
  839.5000    11.3517    84.9211     9.3291     8.4892     7.9837   -45.4832  -999.2500  -999.2500  -999.2500  -999.2500  -999.2500
  840.0000    11.3517    86.9935     9.3632     8.4892     7.9843   -45.5285  -999.2500  -999.2500  -999.2500  -999.2500  -999.2500
  840.5000    11.3517    89.1910     9.5907     8.7291     8.1252   -45.7973  -999.2500  -999.2500  -999.2500  -999.2500  -999.2500
  841.0000    11.3823    87.8033     9.5899     8.8516     8.3532   -45.8018  -999.2500  -999.2500  -999.2500  -999.2500  -999.2500
  841.5000    11.3823    86.7117     9.7235     8.9758     8.5875   -45.8064  -999.2500  -999.2500  -999.2500  -999.2500  -999.2500
  842.0000    11.3823    86.8960     9.5886     8.9758     8.8022   -45.8110  -999.2500  -999.2500  -999.2500  -999.2500  -999.2500
  842.5000    11.3823    91.0429     9.5559     8.9758     8.6813   -45.8155  -999.2500  -999.2500  -999.2500  -999.2500  -999.2500
  843.0000    11.3823    91.5834     9.4550     8.9054     8.5401   -45.8201  -999.2500  -999.2500  -999.2500  -999.2500  -999.2500
  843.5000    11.3823    90.2373     9.3239     8.8516     8.4245   -45.5196  -999.2500  -999.2500  -999.2500  -999.2500  -999.2500
  844.0000    11.3823    86.5521     9.3232     8.7863     8.1957   -45.5244  -999.2500  -999.2500  -999.2500  -999.2500  -999.2500
  844.5000    11.3823    84.7975     9.1940     8.6667     8.0847   -45.2239  -999.2500  -999.2500  -999.2500  -999.2500  -999.2500
  845.0000    11.3823    84.7444     9.1933     8.5488     7.9898   -44.9236  -999.2500  -999.2500  -999.2500  -999.2500  -999.2500
  845.5000    11.3823    83.5460     9.1927     8.4892     7.9904   -45.2516  -999.2500  -999.2500  -999.2500  -999.2500  -999.2500
  846.0000    11.3517    82.9206     9.1921     8.4892     7.9910   -45.5589  -999.2500  -999.2500  -999.2500  -999.2500  -999.2500
  846.5000    11.3517    84.2210     9.1914     8.4892     7.9915   -45.8663  -999.2500  -999.2500  -999.2500  -999.2500  -999.2500
  847.0000    11.3517    86.5769     9.1908     8.4892     7.9921   -46.4786  -999.2500  -999.2500  -999.2500  -999.2500  -999.2500
  847.5000    11.3517    86.5438     9.1902     8.3717     7.9926   -46.7759  -999.2500  -999.2500  -999.2500  -999.2500  -999.2500
  848.0000    11.3517    85.3251     9.1895     8.3717     7.9932   -46.7805  -999.2500  -999.2500  -999.2500  -999.2500  -999.2500
  848.5000    11.3517    85.3129     9.1889     8.2559     7.9937   -46.7851  -999.2500  -999.2500  -999.2500  -999.2500  -999.2500
  849.0000    11.3517    85.9225     9.1882     8.0290     7.9943   -46.7896  -999.2500  -999.2500  -999.2500  -999.2500  -999.2500
  849.5000    11.3517    87.7540     9.1658     8.0290     7.9948   -46.7942  -999.2500  -999.2500  -999.2500  -999.2500  -999.2500
  850.0000    11.3517    91.4110     9.0602     7.9179     7.9954   -46.7988  -999.2500  -999.2500  -999.2500  -999.2500  -999.2500
