~VERSION INFORMATION
 VERS.                2.0:   CWLS LOG ASCII STANDARD - VERSION 2.0
 WRAP.                 NO:   ONE LINE PER DEPTH STEP
~WELL INFORMATION
#MNEM.UNIT      DATA TYPE    INFORMATION
#----------   ------------   ------------------------------
 STRT.F          142.0000:   START DEPTH
 STOP.F          940.5000:   STOP DEPTH
 STEP.F            0.5000:   STEP LENGTH
 NULL.          -999.2500:   NO VALUE
 COMP. U S NAVY-INTEX OIL:   COMPANY
 WELL.     RESERVE #44S-2:   WELL
 FLD .             TEAPOT:   FIELD
 LOC .       S2 T38N R78W:   LOCATION
 CNTY.            NATRONA:   COUNTY
 STAT.            WYOMING:   STATE
 CTRY. UNITED STATES OF AMERICA:   COUNTRY
 SRVC. Schlumberger Well Surveying Corp:   SERVICE COMPANY
 DATE.        06-AUG-1959:   LOGDATE
 API .       490250644200:   API NUMBER
~CURVE INFORMATION
#MNEM.UNIT       API CODE    CURVE DESCRIPTION
#----------   ------------   ------------------------------
 DEPT.F                  :   
 ASN .OHMM   05 041 16 00:   AMPLIFIER SHORT NORMAL 16"
 CILD.MMHO   05 110 46 00:   CONDUCTIVITY INDUCTION LOG DEEP
 ILD .OHMM   05 110 46 00:   INDUCTION LOG DEEP
 SPR .MV     05 010 01 00:   SPONTANEOUS POTENTIAL FROM RES.
~PARAMETER INFORMATION
#MNEM.UNIT          VALUE    DESCRIPTION
#----------   ------------   ------------------------------
 LMF .                 KB:   LOG MEASURED FROM
 DMF .                 KB:   DRILLING MEASURED FROM
 EDF .F              5146:   DRILLING FLOOR
 EGL .F              5142:   GROUND LEVEL
 DATE.        06-AUG-1959:   RUN DATE
 RUN .                  1:   RUN NUMBER
 DD  .F               948:   DEPTH DRILLER
 DL  .F               946:   DEPTH LOGGER
 BLI .F               940:   BOTTOM LOG INTERVAL
 TLI .F               143:   TOP LOG INTERVAL
 CBD .F                17:   CASING BOTTOM DRILLER
 BS  .IN             6.75:   BIT SIZE
 BSD .F               948:   BIT SIZE AT DEPTH
 DFT .                GEL:   DRILLING FLUID TYPE
 RMS .OHMM             75:   RESISTIVITY MUD SAMPLE
 MST .F                75:   MUD SAMPLE TEMPERATURE
 TCS .HRS               1:   TIME CURCULATED STOPPED
 LUN .               2754:   LOGGING UNIT NUMBER
 LUL .                 NC:   LOGGING UNIT LOCATION
 ENGI.             QUINBY:   RECORDING ENGINEER
 WITN.             MARTIN:   WITNESSED BY
 CLNT.            A2DTECH:   CLIENT CODE
 ORIG.        2" 5" PRINT:   ORIGIN OF DATA
 UWI .       490250644200:   UNIQUE WELL ID
 DICO. A2D Technologies, Inc.:   DIGITIZING COMPANY
~OTHER INFORMATION
~A   DEPT      ASN       CILD        ILD        SPR   
# ...
  653.0000     7.9260   142.3275     7.2314   -60.5980
  653.5000     8.0207   140.7737     7.3015   -60.3233
  654.0000     8.1019   138.9985     7.4317   -60.4547
  654.5000     8.1966   137.6695     7.5654   -60.5860
  655.0000     8.2642   136.3406     7.6317   -60.5811
  655.5000     8.3481   134.9690     7.6304   -60.5771
  656.0000     8.4536   133.6827     7.6291   -60.5731
  656.5000     8.5077   132.3537     7.5601   -60.4338
  657.0000     8.5347   131.0248     7.5588   -60.2945
  657.5000     8.5888   129.6958     7.5874   -60.2906
  658.0000     8.5886   128.3669     7.6238   -60.0160
  658.5000     8.6156   127.0379     7.6902   -59.7413
  659.0000     8.7103   126.3867     7.6885   -59.6021
  659.5000     8.7644   127.0975     7.6872   -59.4628
  660.0000     8.7507   127.1239     7.6182   -59.3234
  660.5000     8.5419   127.8283     7.5492   -59.1840
  661.0000     8.3710   128.5331     7.5479   -59.0439
  661.5000     8.2218   129.9208     7.4789   -59.0399
  662.0000     8.0726   131.9804     7.4100   -59.0360
  662.5000     7.9099   134.7177     7.2733   -59.1683
  663.0000     7.8284   136.7773     7.1367   -59.2986
  663.5000     7.6928   138.8369     7.0000   -59.2950
  664.0000     7.5572   140.8965     6.8631   -59.2907
  664.5000     7.4622   143.6338     6.6588   -59.2867
  665.0000     7.3130   146.3712     6.4545   -59.4181
  665.5000     7.0188   151.1416     6.1825   -59.4141
  666.0000     6.3100   157.5203     5.9106   -59.1105
  666.5000     5.9169   169.4993     5.3680   -58.3226
  667.0000     5.5509   180.3692     4.7577   -58.0480
  667.5000     5.1849   194.6276     4.2151   -58.0440
  668.0000     4.7377   225.8287     3.7366   -58.0401
  668.5000     4.3581   254.9968     3.3899   -58.0361
  669.0000     3.9379   295.0082     3.1283   -57.8968
  669.5000     3.6397   333.6642     2.9917   -57.4869
  670.0000     3.3144   369.6093     2.9227   -57.7535
  670.5000     3.2194   393.3557     2.8537   -58.1555
  671.0000     3.3005   403.0331     2.7847   -58.4222
  671.5000     3.3546   418.8033     2.9187   -58.4100
  672.0000     3.3545   421.2212     3.0527   -57.8530
  672.5000     3.3408   402.2784     3.3221   -57.4620
  673.0000     3.7336   372.4856     3.8796   -57.5934
  673.5000     4.8852   318.9729     4.6723   -57.9953
  674.0000     5.2509   254.6168     5.1446   -58.1277
  674.5000     5.6167   220.7578     5.6169   -58.2590
  675.0000     5.9553   191.6427     5.8862   -58.3904
  675.5000     6.1882   174.0487     6.0202   -58.3854
  676.0000     6.3073   167.2802     6.0189   -58.3814
  676.5000     6.3343   165.9691     5.9499   -58.2421
  677.0000     6.3206   166.0021     5.8809   -58.2382
  677.5000     6.3340   166.0286     5.8796   -58.2341
  678.0000     6.4152   167.4066     5.8106   -58.2292
  678.5000     6.4828   168.9088     5.6736   -58.2253
  679.0000     6.5098   172.2096     5.4693   -58.2213
  679.5000     6.4690   174.2692     5.1974   -58.3536
  680.0000     6.2249   179.0397     4.9931   -59.0252
  680.5000     5.9592   184.4878     4.7888   -59.9685
  681.0000     5.6420   187.9028     4.6521   -60.5058
  681.5000     5.3979   192.6733     4.5155   -60.7725
  682.0000     5.2217   204.2209     4.4465   -60.7686
  682.5000     5.0996   215.7684     4.4486   -60.6292
  683.0000     5.0181   226.7341     4.5792   -60.6180
  683.5000     5.1671   230.7319     4.6456   -60.3505
  684.0000     5.3973   226.6978     4.7792   -59.8044
  684.5000     5.4243   221.9803     4.9809   -59.3944
  685.0000     5.4241   215.2296     5.2502   -58.8492
  685.5000     5.6395   207.1236     5.5195   -58.1686
  686.0000     6.2775   194.2736     5.8565   -57.7587
  686.5000     6.4806   184.1344     6.1258   -57.4841
  687.0000     6.6295   176.0283     6.3275   -57.3448
  687.5000     6.9546   169.2776     6.5291   -57.3408
  688.0000     7.4016   161.1534     6.7981   -57.3369
  688.5000     7.6047   152.8426     6.9998   -57.3329
  689.0000     7.6453   145.6438     7.0664   -57.1935
  689.5000     7.6451   142.2817     7.0648   -57.1894
  690.0000     7.6179   142.3082     7.0635   -57.1847
  690.5000     7.6028   142.3347     7.0621   -57.1807
  691.0000     7.5498   143.0388     7.0608   -57.1767
  691.5000     7.4684   144.4207     6.9242   -57.1727
  692.0000     7.3870   145.8026     6.7199   -57.1277
  692.5000     7.2784   148.5399     6.5753   -57.0298
  693.0000     7.1699   152.6327     6.4391   -57.0255
  693.5000     7.0343   156.1001     6.1743   -57.0215
  694.0000     6.8309   159.5812     5.9700   -57.0176
  694.5000     6.6275   166.9506     5.6981   -57.0135
  695.0000     6.4377   175.7873     5.3585   -57.0095
  695.5000     6.0893   188.6903     5.0865   -57.0046
  696.0000     5.5566   202.2710     4.8822   -57.0007
  696.5000     5.2448   212.4631     4.7456   -56.8614
  697.0000     4.9872   217.9113     4.7411   -56.7221
  697.5000     5.1768   220.6486     4.7429   -56.5828
  698.0000     5.2987   226.0967     4.9443   -56.8495
  698.5000     5.2985   235.6409     5.1459   -57.3867
  699.0000     5.4339   236.3163     5.4829   -57.7889
  699.5000     5.8402   228.2159     5.8199   -58.3260
  700.0000     6.4634   206.5556     6.2245   -58.5927
  700.5000     6.8617   181.5068     6.4938   -58.7240
  701.0000     7.0593   167.9790     6.6364   -58.1552
  701.5000     7.1676   154.4514     6.7599   -57.3619
  702.0000     7.2894   149.7339     6.8254   -56.9520
  702.5000     7.3841   148.3983     6.9584   -56.9480
  703.0000     7.4821   147.7530     7.0241   -56.8087
  703.5000     7.6201   147.1024     7.0221   -56.6694
  704.0000     7.7371   146.4513     7.0882   -56.6655
  704.5000     7.8184   145.6837     7.1539   -56.9321
  705.0000     7.8591   144.4711     7.1514   -57.0636
  705.5000     7.8726   144.5042     7.1494   -57.1949
  706.0000     7.8726   144.5307     7.1474   -57.3262
  706.5000     7.8591   144.5572     7.0101   -57.3049
  707.0000     7.8455   144.5837     6.9405   -57.1819
  707.5000     7.7913   145.2879     6.9384   -57.2395
  708.0000     7.7100   145.9921     6.9364   -57.2395
  708.5000     7.6152   146.6963     7.0022   -57.2395
  709.0000     7.5881   146.7229     6.9997   -57.2395
  709.5000     7.5881   146.7500     6.9977   -57.1042
  710.0000     7.6016   146.0994     6.9280   -56.9689
  710.5000     7.5745   146.1312     6.8584   -56.8336
  711.0000     7.5474   146.8354     6.6534   -56.6982
  711.5000     7.4932   150.2504     6.5490   -56.5629
  712.0000     7.3713   155.0209     6.3111   -56.5629
  712.5000     7.2087   160.4691     6.0385   -56.8336
  713.0000     6.9919   168.6281     5.6982   -57.1042
  713.5000     6.5176   176.1094     5.3579   -56.9508
  714.0000     5.7182   182.9130     5.1529   -56.1570
  714.5000     5.8266   188.4427     5.0746   -55.8863
  715.0000     5.7995   196.1147     4.8778   -55.8863
  715.5000     5.3252   210.7852     4.8758   -55.8863
  716.0000     5.5176   218.9443     5.0091   -55.8863
  716.5000     6.1205   216.2599     5.3454   -56.1570
  717.0000     6.2873   209.5093     5.4788   -56.1570
  717.5000     6.1924   202.7587     5.3415   -56.2923
  718.0000     5.9485   200.0677     5.0688   -56.4276
  718.5000     5.5962   209.5888     4.9315   -56.5629
  719.0000     5.2168   214.3592     4.7942   -56.4276
  719.5000     5.0000   215.7411     4.6569   -56.1570
  720.0000     5.4201   217.2142     4.5196   -56.6982
  720.5000     5.3930   227.2888     4.4499   -57.2395
  721.0000     5.2439   245.6465     4.5886   -57.0861
  721.5000     5.0542   247.7061     4.9299   -56.8336
  722.0000     5.8943   239.6001     5.5260   -56.8336
  722.5000     6.5176   215.9067     5.9300   -57.2395
  723.0000     6.7079   192.2133     6.1314   -57.6455
  723.5000     6.7766   171.9085     6.3319   -57.7808
  724.0000     6.8293   162.4470     6.3981   -57.6455
  724.5000     6.8699   157.7289     6.2603   -57.3748
  725.0000     6.8970   159.1115     6.1230   -56.9689
  725.5000     6.9106   163.2681     5.8503   -56.4276
