~VERSION INFORMATION
 VERS.                2.0:   CWLS LOG ASCII STANDARD - VERSION 2.0
 WRAP.                 NO:   ONE LINE PER DEPTH STEP
~WELL INFORMATION
#MNEM.UNIT      DATA TYPE    INFORMATION
#----------   ------------   ------------------------------
 STRT.F           34.0000:   START DEPTH
 STOP.F          514.0000:   STOP DEPTH
 STEP.F            0.5000:   STEP LENGTH
 NULL.          -999.2500:   NO VALUE
 COMP. FENIX & SCISSON INC:   COMPANY
 WELL. NPR 3 #41 SX 10-10:   WELL
 FLD .             TEAPOT:   FIELD
 LOC .      S10 T38N R78W:   LOCATION
 CNTY.            NATRONA:   COUNTY
 STAT.            WYOMING:   STATE
 CTRY. UNITED STATES OF AMERICA:   COUNTRY
 SRVC.           BIRDWELL:   SERVICE COMPANY
 DATE.        25-JUN-1978:   LOGDATE
 API .       490251065200:   API NUMBER
~CURVE INFORMATION
#MNEM.UNIT       API CODE    CURVE DESCRIPTION
#----------   ------------   ------------------------------
 DEPT.F                  :   
 SPR .MV     07 010 01 00:   SPONTANEOUS POTENTIAL
 ILD .OHMM   07 120 46 00:   INDUCTION LOG DEEP
 SN  .OHMM   07 040 16 00:   SHORT NORMAL 16"
 CALD.IN     45 280 60 00:   CALIPER FROM DENSITY LOG
 GRD .GAPI   45 310 01 00:   GAMMA RAY FROM DENSITY LOG
 CORR.G/C3   45 356 01 00:   DENSITY CORRECTION
 DPHI.DEC    45 890 12 00:   DENSITY POROSITY SANDSTONE
 DEN .G/C3   45 350 01 00:   COMPENSATED BULK DENSTIY
 GRN .GAPI   35 310 01 00:   GAMMA RAY
 NEUT.NAPI   35 330 01 00:   NEUTRON
~PARAMETER INFORMATION
#MNEM.UNIT          VALUE    DESCRIPTION
#----------   ------------   ------------------------------
 PD  .                 GL:   PERMANENT DATUM
 EPD .F              5235:   ELEVATION PERMANENT DATUM
 LMF .                 KB:   LOG MEASURED FROM
 DAPD.F                 4:   FEET ABOVE PERMANENT DATUM
 DMF .                 KB:   DRILLING MEASURED FROM
 EKB .F              5239:   KELLING BUSHING
 EGL .F              5235:   GROUND LEVEL
 DATE.        25-JUN-1978:   RUN DATE
 RUN .                  1:   RUN NUMBER
 DD  .F               510:   DEPTH DRILLER
 DL  .F               514:   DEPTH LOGGER
 BLI .F               514:   BOTTOM LOG INTERVAL
 TLI .F                30:   TOP LOG INTERVAL
 CS  .IN            8.625:   CASING SIZE
 CBD .F                40:   CASING BOTTOM DRILLER
 CBL .F                40:   CASING BOTTOM LOGGER
 BS  .IN            7.875:   BIT SIZE
 BSD .F               510:   BIT SIZE AT DEPTH
 DFT .                KCL:   DRILLING FLUID TYPE
 DFD .                8.6:   DRILLING FLUID DENSITY
 DFV .                 31:   DRILLING FLUID VISCOSITY
 DFPH.                9.5:   DRILLING FLUID PH
 DFL .                 17:   DRILLING FLUID LOSS
 MSS .           FLOWLINE:   MUD SAMPLE SOURCE
 RMS .OHMM             .5:   RESISTIVITY MUD SAMPLE
 MST .F                74:   MUD SAMPLE TEMPERATURE
 RMF .OHMM            .54:   RESISTIVITY MUD FILTRATE SAMPLE
 MFST.F                72:   MUD FILTRATE SAMPLE TEMPERATURE
 RMC .OHMM            1.0:   RESISTIVITY MUD CAKE
 MCST.F                66:   MUD CAKE SAMPLE TEMPERATURE
 MFSS.               MEAS:   MUD FILTRATE SAMPLE SOURCE
 MCSS.               MEAS:   MUD CAKE SAMPLE SOURCE
 BHT .F                74:   BOTTOM HOLE TEMPERATURE
 TCS .HRS            0100:   TIME CURCULATED STOPPED
 MRT .F                74:   MAXIMUM RECORDED TEMPERATURE
 LUN .               2958:   LOGGING UNIT NUMBER
 LUL .               CASP:   LOGGING UNIT LOCATION
 ENGI.           REYNOLDS:   RECORDING ENGINEER
 CLNT.            A2DTECH:   CLIENT CODE
 ORIG.           5" PRINT:   ORIGIN OF DATA
 UWI .       490251065200:   UNIQUE WELL ID
 DICO. A2D Technologies, Inc.:   DIGITIZING COMPANY
~OTHER INFORMATION
~A   DEPT      SPR        ILD         SN       CALD        GRD       CORR       DPHI        DEN        GRN       NEUT   
# ...
  335.5000   -59.5880    20.8402    16.1661    10.1360    68.9158     0.0245     0.1906     2.3506    38.5486  1575.0815
  336.0000   -59.5935    20.8334    16.2720    10.1057    72.0847     0.0259     0.1963     2.3657    37.5901  1591.1957
  336.5000   -59.5901    20.6813    16.3769    10.1057    73.2927     0.0274     0.2057     2.3589    36.3069  1577.5729
  337.0000   -59.5867    20.3904    16.3705    10.1057    73.8975     0.0274     0.2025     2.3536    35.2492  1566.6747
  337.5000   -59.5833    20.1035    16.4777    10.1208    73.7481     0.0274     0.2008     2.3522    35.0815  1552.6239
  338.0000   -59.5799    20.0969    16.4696    10.1360    72.9754     0.0304     0.1987     2.3605    37.8707  1544.8523
  338.5000   -59.5764    20.2299    16.4632    10.1360    71.1870     0.0364     0.1996     2.3620    39.5822  1542.0499
  339.0000   -59.5730    20.2216    16.3417    10.1337    70.7359     0.0394     0.2081     2.3582    41.2428  1524.4052
  339.5000   -59.5696    20.2150    15.9996    10.1057    71.0394     0.0273     0.1915     2.3500    42.2152  1514.8562
  340.0000   -59.5662    20.2083    15.8830    10.0151    72.0967     0.0168     0.1767     2.3718    42.5873  1530.9445
  340.5000   -59.5628    20.2017    15.7673     9.8489    73.4556     0.0183     0.1897     2.4041    40.4757  1554.2240
  341.0000   -59.5593    20.1947    15.6524     9.8187    73.1554     0.0123     0.1966     2.3733    39.2677  1617.0681
  341.5000   -59.5559    20.1869    15.6460     9.8187    71.0101     0.0183     0.1918     2.3620    40.7035  1633.1565
  342.0000   -59.5532    20.1802    15.6385     9.8036    70.7450     0.0348     0.2180     2.3673    42.1147  1622.2583
  342.5000   -59.5639    20.1736    15.6324     9.7432    70.8977     0.0348     0.2042     2.3357    41.9580  1558.7363
  343.0000   -59.5745    20.1654    15.6263     9.7281    70.8991     0.0348     0.2005     2.3417    42.4041  1539.7422
  343.5000   -59.5824    20.1588    15.6201     9.7281    69.2414     0.0347     0.1948     2.3605    43.7524  1546.8303
  344.0000   -59.5822    20.0132    15.7224     9.7432    67.0910     0.0346     0.1906     2.3620    40.8150  1562.4475
  344.5000   -59.5639    20.0067    15.7147     9.7281    67.7360     0.0316     0.1875     2.3763    40.5842  1574.4878
  345.0000   -59.5456    19.8621    15.7085     9.7432    70.7290     0.0240     0.1867     2.3756    40.5042  1579.8074
  345.5000   -59.5273    19.8541    15.7023     9.7432    73.1692     0.0149     0.1888     2.3763    41.0242  1558.0886
  346.0000   -59.5090    19.7107    15.6946     9.7432    74.3773     0.0148     0.1812     2.3839    41.9966  1553.9370
  346.5000   -59.4907    19.4334    15.6885     9.7432    74.2275     0.0148     0.1906     2.3831    43.7960  1584.4133
  347.0000   -59.4724    18.8967    15.5742     9.7281    74.9835     0.0147     0.1875     2.3764    44.6932  1618.4716
  347.5000   -59.4541    18.3733    15.5680     9.7281    75.8899     0.0161     0.1870     2.3779    45.0641  1723.6282
  348.0000   -59.4358    18.1148    15.5518     9.7281    75.7205     0.0160     0.1876     2.3801    43.9300  1864.9678
  348.5000   -59.4175    17.8600    15.4470     9.7281    73.9324     0.0205     0.1915     2.3786    40.7670  1943.3198
  349.0000   -59.3992    17.7310    15.4410     9.7281    73.1797     0.0234     0.1996     2.3726    39.9349  2063.5637
  349.5000   -59.3809    17.6028    15.3284     9.7281    73.0300     0.0248     0.2002     2.3606    39.1028  2197.3215
  350.0000   -59.3626    17.5673    15.3224     9.7281    73.0915     0.0232     0.2014     2.3554    38.3459  2335.1331
  350.5000   -59.3443    17.4677    15.0781     9.7278    73.1759     0.0247     0.2020     2.3561    39.6977  2418.8904
  351.0000   -59.3260    17.4606    14.7856     9.7275    73.1670     0.0276     0.2008     2.3524    40.5985  2531.0264
  351.5000   -59.3077    17.5754    14.7786     9.7422    73.7631     0.0290     0.2005     2.3561    42.4035  2641.8108
  352.0000   -59.2894    17.5664    14.7716     9.7420    73.4525     0.0304     0.2024     2.3569    43.4527  2630.7917
  352.5000   -59.2708    17.5593    14.6628     9.7266    74.6520     0.0304     0.2087     2.3554    42.6238  2313.3733
  353.0000   -59.2755    17.5522    14.6559     9.7414    76.7564     0.0303     0.2108     2.3479    42.3216  1902.5365
  353.5000   -59.2799    17.5451    14.5479     9.7411    76.5984     0.0302     0.2135     2.3404    41.8690  1438.8682
  354.0000   -59.2843    17.5380    14.5411     9.7408    76.5912     0.0271     0.2093     2.3412    40.2886  1447.0762
  354.5000   -59.2887    17.5308    14.5342     9.7404    76.4314     0.0301     0.2060     2.3442    41.0390  1487.5906
  355.0000   -59.2932    17.5237    14.5273     9.7401    76.2734     0.0345     0.2099     2.3457    42.3161  1528.1049
  355.5000   -59.2955    17.5166    14.5203     9.7399    76.2663     0.0419     0.2136     2.3419    40.2090  1529.4365
  356.0000   -59.2930    17.5093    14.5130     9.7396    76.2591     0.0463     0.2172     2.3382    38.5454  1509.1334
  356.5000   -59.2904    17.5006    14.5050     9.7544    76.2519     0.0478     0.2012     2.3352    37.6497  1468.5667
  357.0000   -59.2879    17.4935    14.4981     9.7843    76.2430     0.0477     0.2000     2.3407    39.0764  1482.0538
  357.5000   -59.2853    17.4864    14.4913     9.7386    76.3884     0.0461     0.1988     2.3600    40.3531  1512.3188
  358.0000   -59.2828    17.3588    14.4844     9.7232    76.5303     0.0460     0.1976     2.3638    39.3742  1568.4812
  358.5000   -59.2802    17.2321    14.4776     9.7229    76.2214     0.0445     0.2007     2.3600    39.0720  1572.5156
  359.0000   -59.2777    17.1063    14.4707     9.7227    74.6898     0.0444     0.1991     2.3585    39.2961  1548.1584
  359.5000   -59.2751    16.8644    14.4639     9.7223    74.0955     0.0428     0.1991     2.3630    41.3247  1472.4565
  360.0000   -59.2726    16.7413    14.4571     9.7220    78.6114     0.0412     0.1982     2.3630    42.5263  1488.6465
  360.5000   -59.2700    16.6191    14.3505     9.7217    79.8109     0.0411     0.1940     2.3638    42.0596  1515.6472
  361.0000   -59.2675    16.4916    14.3436     9.7214    79.6529     0.0426     0.1883     2.3676    40.8963  1527.7838
  361.5000   -59.2649    16.2642    14.2365     9.7211    79.9603     0.0440     0.1890     2.3736    39.7396  1512.8247
  362.0000   -59.2624    16.1441    14.1316     9.7360    80.3927     0.0469     0.1922     2.3758    38.6103  1485.7472
  362.5000   -59.2598    16.1376    13.9308     9.7507    80.0821     0.0484     0.1940     2.3698    37.8570  1369.5897
  363.0000   -59.2573    16.0198    13.9242     9.7806    78.5666     0.0498     0.2001     2.3660    37.4044  1323.6174
  363.5000   -59.2547    16.0133    13.8216     9.7652    78.7104     0.0512     0.2039     2.3631    40.0345  1266.8345
  364.0000   -59.2522    16.0068    13.7198     9.7498    78.8539     0.0511     0.1952     2.3541    42.8902  1201.9434
  364.5000   -59.2496    16.0003    13.7133     9.7344    77.9400     0.0510     0.1929     2.3676    43.9413  1243.8090
  365.0000   -59.2471    15.9938    13.6123     9.7190    76.5753     0.0495     0.1932     2.3691    44.5514  1339.7286
  365.5000   -59.2445    15.9873    13.6059     9.7187    77.0207     0.0479     0.1983     2.3676    44.9907  1366.7295
  366.0000   -59.2420    15.9808    13.5051     9.7184    77.4660     0.0463     0.2052     2.3627    41.3802  1407.6034
  366.5000   -59.2466    15.9742    13.4977     9.7181    78.0850     0.0462     0.2059     2.3519    39.7246  1418.0282
  367.0000   -59.2519    15.9676    13.4913     9.7027    77.9023     0.0477     0.1998     2.3579    40.4750  1423.4009
  367.5000   -59.2556    15.9598    13.4849     9.6873    76.5395     0.0506     0.2004     2.3594    40.9999  1432.8340
  368.0000   -59.2603    15.9533    13.4786     9.6719    77.2847     0.0535     0.2029     2.3579    40.5473  1442.2672
  368.5000   -59.2647    15.8368    13.4722     9.6716    77.1267     0.0549     0.2077     2.3534    38.9669  1442.2410
