~VERSION INFORMATION
 VERS.                2.0:   CWLS LOG ASCII STANDARD - VERSION 2.0
 WRAP.                 NO:   ONE LINE PER DEPTH STEP
~WELL INFORMATION
#MNEM.UNIT      DATA TYPE    INFORMATION
#----------   ------------   ------------------------------
 STRT.F            4.0000:   START DEPTH
 STOP.F          470.0000:   STOP DEPTH
 STEP.F            0.5000:   STEP LENGTH
 NULL.          -999.2500:   NO VALUE
 COMP. BROWN JOHN E&C INC:   COMPANY
 WELL. NPR 3 SX-10 #74-1-10:   WELL
 FLD .             TEAPOT:   FIELD
 LOC .      S10 T38N R78W:   LOCATION
 CNTY.            NATRONA:   COUNTY
 STAT.            WYOMING:   STATE
 CTRY. UNITED STATES OF AMERICA:   COUNTRY
 SRVC.     Atlas Wireline:   SERVICE COMPANY
 DATE.        21-SEP-1983:   LOGDATE
 API .       490251094000:   API NUMBER
~CURVE INFORMATION
#MNEM.UNIT       API CODE    CURVE DESCRIPTION
#----------   ------------   ------------------------------
 DEPT.F                  :   
 GRR .GAPI   07 310 01 00:   GAMMA RAY FROM RES. LOG.
 RILD.OHMM   07 120 46 00:   INDUCTION LOG DEEP RESISTIVITY
 RILM.OHMM   07 120 44 00:   INDUCTION LOG MEDIUM RESISTIVITY
~PARAMETER INFORMATION
#MNEM.UNIT          VALUE    DESCRIPTION
#----------   ------------   ------------------------------
 PD  .                 GL:   PERMANENT DATUM
 EPD .F              5183:   ELEVATION PERMANENT DATUM
 LMF .                 KB:   LOG MEASURED FROM
 DAPD.F                10:   FEET ABOVE PERMANENT DATUM
 DMF .                 KB:   DRILLING MEASURED FROM
 EKB .F              5193:   KELLING BUSHING
 EGL .F              5183:   GROUND LEVEL
 DATE.        21-SEP-1991:   RUN DATE
 RUN .                  1:   RUN NUMBER
 DD  .F               480:   DEPTH DRILLER
 DL  .F               478:   DEPTH LOGGER
 BLI .F               470:   BOTTOM LOG INTERVAL
 CS  .IN                7:   CASING SIZE
 CBD .F                90:   CASING BOTTOM DRILLER
 CBL .F                90:   CASING BOTTOM LOGGER
 BS  .IN             6.25:   BIT SIZE
 BSD .F               480:   BIT SIZE AT DEPTH
 DFT .                AIR:   DRILLING FLUID TYPE
 TCS .HRS               1:   TIME CURCULATED STOPPED
 MRT .F                80:   MAXIMUM RECORDED TEMPERATURE
 LUN .             HL6307:   LOGGING UNIT NUMBER
 LUL .             CASPER:   LOGGING UNIT LOCATION
 ENGI.             RAUTIO:   RECORDING ENGINEER
 WITN.             STRONG:   WITNESSED BY
 CLNT.            A2DTECH:   CLIENT CODE
 ORIG.     1", 2.5" PRINT:   ORIGIN OF DATA
 UWI .       490251094000:   UNIQUE WELL ID
 DICO. A2D Technologies, Inc.:   DIGITIZING COMPANY
~OTHER INFORMATION
~A    DEPT       GRR     RILD       RILM   
# ...
  277.0000    99.5679    25.8223    28.9177
  277.5000    99.1992    25.1272    27.7852
  278.0000    98.1378    24.4508    26.6970
  278.5000    95.6765    23.7927    25.6514
  279.0000    95.2861    23.1522    24.8048
  279.5000    97.1389    22.5290    24.1083
  280.0000    99.5972    21.9226    23.4313
  280.5000   100.4799    21.3325    22.7733
  281.0000   101.4824    20.5303    22.1193
  281.5000   101.1423    20.5730    22.2155
  282.0000   100.8143    20.6449    22.3143
  282.5000   100.4109    20.7170    22.4136
  283.0000   100.0765    20.7894    22.5133
  283.5000    99.7668    20.8609    22.7379
  284.0000   100.7871    20.9942    23.0007
  284.5000   101.8282    21.3054    23.2665
  285.0000   102.1395    21.6213    23.5353
  285.5000   102.1603    21.9415    23.8073
  286.0000   102.1771    22.1836    24.0824
  286.5000   103.7265    22.3198    24.2434
  287.0000   105.3783    22.5318    24.1192
  287.5000   106.0273    22.4226    23.9955
  288.0000   103.5628    22.1298    23.8725
  288.5000   101.4083    21.8408    23.7501
  289.0000   102.6002    21.5555    23.6283
  289.5000   103.3725    21.2740    23.5072
  290.0000   103.2761    20.9961    23.3913
  290.5000   103.8015    20.7219    23.0292
  291.0000   105.5312    20.4513    22.6858
  291.5000   106.0743    20.1842    22.3475
  292.0000   104.8344    19.9206    22.0143
  292.5000   103.7054    19.7055    21.7109
  293.0000   104.7009    19.5458    21.4492
  293.5000   106.3055    19.3874    21.2088
  294.0000   105.4607    19.2303    20.9712
  294.5000   104.1206    19.0744    20.7362
  295.0000   105.3339    18.9198    20.5303
  295.5000   106.9999    18.7036    20.7029
  296.0000   106.0101    18.8279    20.8590
  296.5000   104.0125    19.0413    21.0163
  297.0000   103.2729    19.2570    21.1748
  297.5000   105.3579    19.4753    21.3100
  298.0000   105.1144    19.7791    21.1394
  298.5000   104.1696    19.6286    20.9924
  299.0000   103.2601    19.4139    20.7001
  299.5000   102.3552    19.0728    20.2571
  300.0000   101.3583    18.7677    19.8236
  300.5000   101.1189    18.4674    19.4139
  301.0000   101.9280    18.1720    19.1730
  301.5000   102.5271    17.8812    18.9430
  302.0000   104.9517    17.5952    18.7158
  302.5000   108.3545    17.3137    18.4913
  303.0000   110.4854    17.0367    18.2555
  303.5000   111.1680    16.7641    18.0054
  304.0000   109.5087    16.4959    17.7588
  304.5000   107.5565    16.3056    17.4627
  305.0000   105.8426    16.1490    17.1493
  305.5000   105.3300    15.9938    16.8414
  306.0000   105.8909    15.8401    16.7229
  306.5000   107.3508    15.6880    16.7231
  307.0000   107.7334    15.5247    16.7248
  307.5000   105.8505    15.4763    16.7248
  308.0000   104.0514    15.4231    16.7248
  308.5000   103.7361    15.3700    16.7248
  309.0000   105.8068    15.3170    16.7248
  309.5000   107.9597    15.2643    16.7248
  310.0000   108.0522    15.1514    16.7248
  310.5000   105.8857    14.9801    16.5867
  311.0000   106.4804    14.8098    16.1912
  311.5000   107.1651    14.6426    15.8050
  312.0000   106.1326    14.4772    15.4282
  312.5000   100.8089    14.3137    15.0603
  313.0000   102.3520    14.1521    14.6792
  313.5000   106.4056    13.9922    14.7533
  314.0000   111.1310    13.8342    14.8326
  314.5000   109.8943    13.6780    14.9554
  315.0000   107.1479    13.5235    14.8305
  315.5000   106.8001    13.3708    14.5644
  316.0000   107.5232    13.2198    14.3032
  316.5000   106.1919    13.1262    14.1189
  317.0000   106.4190    13.1262    14.0571
  317.5000   109.9484    13.1262    13.9955
  318.0000   114.6944    13.1262    13.9343
  318.5000   114.3782    13.1248    13.8823
  319.0000   113.4423    13.1251    14.0515
  319.5000   112.3392    13.1257    14.2027
  320.0000   111.7605    13.2277    14.3550
  320.5000   108.3505    13.4698    14.5085
  321.0000   104.1025    13.7160    14.6638
  321.5000   100.1541    13.9190    14.8211
  322.0000   102.0497    14.0306    14.9523
  322.5000   107.1672    14.1421    14.6747
  323.0000   109.0224    13.8246    14.4404
  323.5000   107.1436    13.5200    14.2100
  324.0000   105.3025    13.2221    13.9831
  324.5000   105.0293    12.9308    13.7198
  325.0000   106.1850    12.6459    13.4286
  325.5000   107.5652    12.4942    13.1436
  326.0000   109.8226    12.3444    12.8838
  326.5000   112.0749    12.1963    12.6858
  327.0000   114.3798    12.0500    12.5034
  327.5000   114.8517    11.9055    12.3237
  328.0000   114.4888    11.7375    12.2324
  328.5000   114.1135    12.0204    12.4709
  329.0000   113.6990    12.4124    12.8383
  329.5000   112.6543    13.0093    13.5547
  330.0000   111.7817    13.6975    14.3463
  330.5000   110.8649    14.4339    14.9972
  331.0000   110.0734    15.2134    18.4097
  331.5000   108.6798    16.8464    21.3644
  332.0000   104.6264    19.1701    24.3190
  332.5000    99.6574    21.8162    27.2023
  333.0000    94.6259    24.2888    30.1200
  333.5000    91.6748    26.8625    33.3206
  334.0000    88.9351    29.2489    35.9101
  334.5000    90.6204    31.8697    36.6573
  335.0000    92.6360    32.8984    37.3852
  335.5000    94.9256    33.1641    37.7478
  336.0000    94.5265    33.4320    38.1295
  336.5000    93.5403    33.7020    38.5407
  337.0000    93.8456    33.9574    38.9563
  337.5000    91.0600    33.3304    39.4173
  338.0000    86.3317    32.7504    38.4377
  338.5000    83.2887    32.1806    37.3908
  339.0000    86.4822    31.5180    36.3727
  339.5000    90.9032    31.1817    35.3815
  340.0000    95.9173    30.7739    34.4168
  340.5000   100.1487    30.3715    33.9408
  341.0000    98.9927    29.9743    33.7115
  341.5000    97.3073    29.3986    33.5066
  342.0000    95.4275    28.6976    33.3304
  342.5000    94.8208    28.0132    32.0743
  343.0000    94.3297    27.3452    30.8925
  343.5000    93.0734    27.1523    29.2538
  344.0000    91.7948    27.1523    29.6791
  344.5000    91.4330    27.1523    30.4709
  345.0000    92.3780    27.1089    31.2839
  345.5000    93.4340    26.9226    32.5460
  346.0000    92.0905    26.7376    32.3626
  346.5000    88.0465    26.5539    31.2136
  347.0000    82.5991    26.3714    30.1042
  347.5000    81.0893    26.1588    29.0340
  348.0000    84.7019    26.0663    28.0016
  348.5000    91.3887    25.8575    27.4139
  349.0000    98.3486    25.6758    27.0394
  349.5000   103.0008    24.6548    26.6509
  350.0000   103.6024    23.7803    26.4047
  350.5000   100.4903    22.9594    26.1588
  351.0000    97.6280    23.3869    26.5478
  351.5000    97.1081    23.8108    26.9320
  352.0000    99.2944    24.2796    27.3218
  352.5000   103.1278    24.2796    27.6630
  353.0000   102.2037    24.2796    27.3986
  353.5000    99.6740    24.2796    27.1680
  354.0000    97.3973    24.2796    26.9394
  354.5000    97.9291    24.0642    26.7126
  355.0000    98.3284    23.8555    26.4878
  355.5000    96.6615    23.6487    26.2648
  356.0000    96.1898    23.4436    25.7395
  356.5000    96.6662    23.0027    24.9540
  357.0000    97.9409    22.4900    24.1925
  357.5000    99.2401    21.9888    23.4542
  358.0000   100.8900    21.4987    22.7384
  358.5000   103.0920    21.0195    22.0445
  359.0000   105.2269    20.5510    21.3100
  359.5000   108.4842    20.1512    21.4131
  360.0000   111.5996    20.2154    21.5273
  360.5000   112.8459    20.2724    21.6422
  361.0000   109.8149    20.3296    22.0288
  361.5000   104.9458    20.3870    22.8345
  362.0000   100.3981    20.4445    23.6697
  362.5000    96.8403    20.5022    24.2180
  363.0000    97.1404    20.8210    24.0080
  363.5000    97.6278    21.3987    23.7998
  364.0000    97.7399    22.0172    23.5935
  364.5000    97.2295    21.8421    23.3913
  365.0000    98.5282    21.4962    23.0842
  365.5000   100.8376    21.1557    22.7846
  366.0000   103.1888    20.8206    22.4889
  366.5000   102.3476    20.4908    22.1970
  367.0000   100.1891    20.1512    21.5892
  367.5000    97.9031    19.6964    20.8851
