~VERSION INFORMATION
 VERS.                2.0:   CWLS LOG ASCII STANDARD - VERSION 2.0
 WRAP.                 NO:   ONE LINE PER DEPTH STEP
~WELL INFORMATION
#MNEM.UNIT      DATA TYPE    INFORMATION
#----------   ------------   ------------------------------
 STRT.F           38.0000:   START DEPTH
 STOP.F          846.0000:   STOP DEPTH
 STEP.F            0.5000:   STEP LENGTH
 NULL.          -999.2500:   NO VALUE
 COMP. FENIX & SCISSON INC:   COMPANY
 WELL.    NPR 3 #34-SX-14:   WELL
 FLD .        TEAPOT DOME:   FIELD
 LOC .      S14 T38N R78W:   LOCATION
 CNTY.            NATRONA:   COUNTY
 STAT.            WYOMING:   STATE
 CTRY. UNITED STATES OF AMERICA:   COUNTRY
 SRVC.           BIRDWELL:   SERVICE COMPANY
 DATE.        26-APR-1978:   LOGDATE
 API .       490251063500:   API NUMBER
~CURVE INFORMATION
#MNEM.UNIT       API CODE    CURVE DESCRIPTION
#----------   ------------   ------------------------------
 DEPT.F                  :   
 NEUT.CPS    81 330 30 00:   NEUTRON
 TT  .US/F   81 520 00 00:   TRANSIT TIME
 GRD .GAPI   45 310 01 00:   GAMMA RAY FROM DENSITY LOG
 RHOB.G/C3   45 350 01 00:   BULK DENSITY
 DPOR.DEC    45 890 10 00:   DENSITY POROSITY
 CALD.IN     45 280 60 00:   CALIPER FROM DENSITY LOG
 CORR.G/C3   45 356 01 00:   DENSITY CORRECTION
~PARAMETER INFORMATION
#MNEM.UNIT          VALUE    DESCRIPTION
#----------   ------------   ------------------------------
 PD  .                 GL:   PERMANENT DATUM
 EPD .F              5232:   ELEVATION PERMANENT DATUM
 LMF .                 KB:   LOG MEASURED FROM
 DMF .                 KB:   DRILLING MEASURED FROM
 EKB .F              5236:   KELLING BUSHING
 EGL .F              5232:   GROUND LEVEL
 DATE.          4-26-1978:   RUN DATE
 RUN .                  1:   RUN NUMBER
 DD  .F               855:   DEPTH DRILLER
 DL  .F               853:   DEPTH LOGGER
 BLI .F               846:   BOTTOM LOG INTERVAL
 TLI .F                40:   TOP LOG INTERVAL
 CS  .IN            8.625:   CASING SIZE
 CBD .F                40:   CASING BOTTOM DRILLER
 CBL .F                40:   CASING BOTTOM LOGGER
 BS  .IN            7.875:   BIT SIZE
 BSD .F               855:   BIT SIZE AT DEPTH
 DFT .                KCL:   DRILLING FLUID TYPE
 DFD .                8.5:   DRILLING FLUID DENSITY
 DFV .                 31:   DRILLING FLUID VISCOSITY
 DFPH.                 10:   DRILLING FLUID PH
 DFL .               10.4:   DRILLING FLUID LOSS
 MSS .          FLUID PIT:   MUD SAMPLE SOURCE
 RMS .OHMM            .36:   RESISTIVITY MUD SAMPLE
 MST .F                68:   MUD SAMPLE TEMPERATURE
 RMF .OHMM            .28:   RESISTIVITY MUD FILTRATE SAMPLE
 MFST.F                74:   MUD FILTRATE SAMPLE TEMPERATURE
 RMC .OHMM            .48:   RESISTIVITY MUD CAKE
 MCST.F                79:   MUD CAKE SAMPLE TEMPERATURE
 MFSS.               MEAS:   MUD FILTRATE SAMPLE SOURCE
 RMB .OHMM            .33:   RESISTIVITY MUD AT BHT
 BHT .F                75:   BOTTOM HOLE TEMPERATURE
 TCS .HRS               1:   TIME CURCULATED STOPPED
 MRT .F                75:   MAXIMUM RECORDED TEMPERATURE
 LUN .               3006:   LOGGING UNIT NUMBER
 LUL .              CASP.:   LOGGING UNIT LOCATION
 ENGI.             MILLER:   RECORDING ENGINEER
 WITN.           MCGINLEY:   WITNESSED BY
 CLNT.            A2DTECH:   CLIENT CODE
 ORIG.      2" , 5" PRINT:   ORIGIN OF DATA
 UWI .       490251063500:   UNIQUE WELL ID
 DICO. A2D Technologies, Inc.:   DIGITIZING COMPANY
~OTHER INFORMATION
~A   DEPT     NEUT         TT         GRD      RHOB       DPOR       CALD       CORR   
# ...
  720.5000   373.3272   335.7332    84.0382     2.3444     0.1676     8.7091     0.0032
  721.0000   373.6649   330.0321    82.6820     2.3450     0.1679     8.7058    -0.0001
  721.5000   389.4710   302.5104    80.5785     2.3475     0.1654     8.7024     0.0001
  722.0000   433.0236   270.8134    82.7892     2.3542     0.1606     8.6991     0.0050
  722.5000   456.8694   265.3043    84.1988     2.3609     0.1559     8.6958     0.0099
  723.0000   454.5869   269.1819    80.3475     2.3675     0.1512     8.6924     0.0102
  723.5000   460.3665   272.1078    79.8424     2.3723     0.1487     8.6891     0.0046
  724.0000   481.8709   272.1856    83.1968     2.3675     0.1488     8.6858    -0.0017
  724.5000   497.5512   272.2634    84.8989     2.3626     0.1489     8.6832    -0.0075
  725.0000   494.2800   272.3412    83.9326     2.3717     0.1489     8.6795     0.0054
  725.5000   499.2538   272.4190    82.7675     2.3817     0.1490     8.6149     0.0119
  726.0000   504.2085   272.4900    83.1719     2.3916     0.1491     8.5519     0.0167
  726.5000   499.4713   287.1149    84.7062     2.4016     0.1471     8.5040     0.0210
  727.0000   476.3140   300.5574    84.4634     2.4057     0.1442     8.5822     0.0245
  727.5000   464.7888   312.6606    82.5186     2.4018     0.1423     8.6621     0.0213
  728.0000   485.3214   319.4779    80.5720     2.3977     0.1435     8.7414     0.0167
  728.5000   487.8011   370.0803    78.6219     2.3967     0.1447     8.8207     0.0184
  729.0000   487.8954   371.6867    76.6636     2.4063     0.1439     8.8987     0.0202
  729.5000   497.6758   385.7430    75.3392     2.4065     0.1422     8.9701     0.0256
  730.0000   516.0043   386.4717    74.8742     2.4265     0.1405     9.1550     0.0308
  730.5000   521.5147   386.9664    74.9141     2.4313     0.1388     9.3625     0.0358
  731.0000   515.2812   386.6850    75.6379     2.4141     0.1381     9.1140     0.0284
  731.5000   519.1940   384.8094    78.6243     2.4012     0.1410     8.7128     0.0087
  732.0000   542.3486   382.9424    84.7275     2.3885     0.1440     8.4075    -0.0021
  732.5000   564.8331   381.0754    81.9956     2.3759     0.1469     8.3544     0.0011
  733.0000   587.2325   375.1647    80.1559     2.3670     0.1487     8.3066     0.0061
  733.5000   599.1320   367.5507    80.4613     2.3719     0.1466     8.2590     0.0255
  734.0000   581.9056   359.9367    81.5921     2.3780     0.1439     8.2110     0.0464
  734.5000   559.8206   352.4920    82.2668     2.3844     0.1411     8.1625     0.0671
  735.0000   555.6686   324.9575    80.6903     2.3847     0.1422     8.1185     0.0829
  735.5000   559.5462   311.4853    79.0466     2.3577     0.1454     8.0755     0.0812
  736.0000   557.2031   321.3217    78.6211     2.3611     0.1487     8.0405     0.0706
  736.5000   548.5930   333.0286    79.3188     2.3645     0.1507     8.0055     0.0658
  737.0000   539.8472   348.8529    80.0077     2.3677     0.1446     8.0076     0.0814
  737.5000   539.3530   348.9312    80.6993     2.3708     0.1305     8.0243     0.1019
  738.0000   557.2859   371.6627    81.3928     2.3833     0.1222     8.0215     0.1408
  738.5000   583.2544   382.0892    82.1013     2.3964     0.1271     7.8926     0.1220
  739.0000   609.3517   386.5462    82.5151     2.3978     0.1342     7.7453     0.0937
  739.5000   635.3690   386.5462    82.4014     2.3963     0.1371     7.7593     0.0683
  740.0000   644.8956   386.5462    81.6586     2.3948     0.1390     7.7723     0.0614
  740.5000   659.0163   386.5462    80.9205     2.3932     0.1407     7.7859     0.0540
  741.0000   683.2590   386.5462    80.4948     2.3919     0.1425     7.7995     0.0489
  741.5000   683.3179   386.5462    80.6771     2.3840     0.1442     7.8130     0.0463
  742.0000   638.7439   386.5462    80.9403     2.3737     0.1468     7.8302     0.0428
  742.5000   629.5430   386.5458    81.0604     2.3633     0.1503     7.5195     0.0341
  743.0000   605.2028   386.5468    78.9540     2.3529     0.1537     7.1763     0.0255
  743.5000   594.9625   386.6235    76.6706     2.3498     0.1572     7.1910     0.0272
  744.0000   564.2374   386.7433    75.9164     2.3558     0.1583     7.3871     0.0328
  744.5000   573.8638   386.8766    77.4214     2.3623     0.1521     7.7523     0.0493
  745.0000   586.8766   386.9277    78.9671     2.3689     0.1457     8.1104     0.0653
  745.5000   565.3861   385.3414    80.5067     2.3768     0.1392     8.3740     0.0874
  746.0000   546.3864   380.6827    82.0478     2.3914     0.1328     8.4047     0.1139
  746.5000   571.2339   374.7605    83.4765     2.4058     0.1263     8.4359     0.1408
  747.0000   588.6337   369.2231    83.5091     2.4203     0.1226     8.4680     0.1727
  747.5000   591.5717   364.0562    82.5331     2.4360     0.1001     8.5064     0.2111
  748.0000   539.6433   374.6391    80.6045     2.4532     0.0886     8.5227     0.2493
  748.5000   478.4672   386.1446    78.6855     2.4705     0.0994     8.5239     0.2749
  749.0000   493.0560   386.1446    78.6950     2.4725     0.1082     8.4477     0.1999
  749.5000   515.3024   385.3414    80.6835     2.4417     0.1138     8.3262     0.1261
  750.0000   537.1997   372.6135    82.6413     2.4403     0.1138     8.2033     0.0534
  750.5000   546.6519   371.6867    84.6218     2.4445     0.1107     8.1546     0.0449
  751.0000   543.9086   375.6046    85.1117     2.4487     0.1072     8.1851     0.0443
  751.5000   548.9049   379.3173    80.2419     2.4550     0.1037     8.2166     0.0459
  752.0000   559.0449   372.4900    84.9930     2.4628     0.1002     8.2484     0.0431
  752.5000   565.1354   357.3795    84.1077     2.4706     0.1042     8.2792     0.0395
  753.0000   582.6088   352.2088    83.3539     2.4615     0.1124     8.2667     0.0267
  753.5000   600.1520   352.3923    82.5084     2.4414     0.1204     8.2450     0.0149
  754.0000   604.5883   360.2840    83.8969     2.4212     0.1271     8.2287     0.0091
  754.5000   601.0750   379.6330    85.5245     2.4143     0.1251     8.2122     0.0030
  755.0000   607.9775   384.1812    82.3975     2.4187     0.1219     8.1958     0.0009
  755.5000   616.3932   387.7510    82.4393     2.4232     0.1222     8.1833     0.0000
  756.0000   622.2886   387.7510    83.1521     2.4253     0.1233     8.1838     0.0000
  756.5000   610.8442  -999.2500    83.8314     2.4236     0.1244     8.1826     0.0000
  757.0000   591.8652  -999.2500    84.5085     2.4216     0.1234     8.2116     0.0022
  757.5000   572.5878  -999.2500    85.1799     2.4263     0.1172     8.2299     0.0058
  758.0000   565.3146  -999.2500    85.7617     2.4342     0.1135     8.2496     0.0095
  758.5000   580.0096  -999.2500    85.8884     2.4423     0.1061     8.2691     0.0146
  759.0000   595.4626  -999.2500    85.4743     2.4521     0.0988     8.2886     0.0241
  759.5000   610.8569  -999.2500    84.6096     2.4627     0.0985     8.3080     0.0435
  760.0000   627.2027  -999.2500    83.7403     2.4733     0.0942     8.3275     0.0499
  760.5000   605.0447  -999.2500    82.9103     2.4841     0.0882     8.3470     0.0540
  761.0000   571.4301  -999.2500    83.2067     2.4885     0.0874     8.3665     0.0516
  761.5000   537.5987  -999.2500    84.7211     2.4841     0.1015     8.3860     0.0392
  762.0000   512.3922  -999.2500    86.5403     2.4649     0.1110     8.4048     0.0169
  762.5000   527.9847  -999.2500    88.3965     2.4456     0.1206     8.4427    -0.0059
  763.0000   560.3575  -999.2500    90.1998     2.4263     0.1243     8.3669    -0.0203
  763.5000   598.4908  -999.2500    91.2198     2.4207     0.1243     8.3029    -0.0319
  764.0000   605.8143  -999.2500    84.3249     2.4174     0.1243     8.3354    -0.0282
  764.5000   561.9141  -999.2500    86.4706     2.4178     0.1243     8.3674    -0.0202
  765.0000   543.4108  -999.2500    89.0485     2.4184     0.1243     8.3992    -0.0123
  765.5000   526.2350  -999.2500    91.6220     2.4189     0.1243     8.4312    -0.0057
