~VERSION INFORMATION
 VERS.                2.0:   CWLS LOG ASCII STANDARD - VERSION 2.0
 WRAP.                 NO:   ONE LINE PER DEPTH STEP
~WELL INFORMATION
#MNEM.UNIT      DATA TYPE    INFORMATION
#----------   ------------   ------------------------------
 STRT.F           30.0000:   START DEPTH
 STOP.F          634.0000:   STOP DEPTH
 STEP.F            0.5000:   STEP LENGTH
 NULL.          -999.2500:   NO VALUE
 COMP. FENIX & SCISSON INC:   COMPANY
 WELL.     26-S-11 #26-11:   WELL
 FLD .             TEAPOT:   FIELD
 LOC .      S11 T38N R78W:   LOCATION
 CNTY.            NATRONA:   COUNTY
 STAT.            WYOMING:   STATE
 CTRY. UNITED STATES OF AMERICA:   COUNTRY
 SRVC.              Welex:   SERVICE COMPANY
 DATE.        26-APR-1977:   LOGDATE
 API .       490251034300:   API NUMBER
~CURVE INFORMATION
#MNEM.UNIT       API CODE    CURVE DESCRIPTION
#----------   ------------   ------------------------------
 DEPT.F                  :   
 SPR .MV     07 010 01 00:   SPONTANEOUS POTENTIAL
 ILD .OHMM   07 120 46 00:   INDUCTION LOG DEEP
 ILM .OHMM   07 120 44 00:   INDUCTION LOG MEDIUM
 SGRD.OHMM   07 221 05 00:   SHALLOW SHORT GUARD RESISTIVITY
 CALD.IN     45 280 60 00:   CALIPER FROM DENSITY LOG
 GRD .GAPI   45 310 01 00:   GAMMA RAY FROM DENSITY LOG
 CORR.G/C3   45 356 01 00:   DENSITY CORRECTION
 DPHI.DEC    45 890 12 00:   DENSITY POROSITY SANDSTONE
 RHOB.G/C3   45 350 01 00:   BULK DENSITY
~PARAMETER INFORMATION
#MNEM.UNIT          VALUE    DESCRIPTION
#----------   ------------   ------------------------------
 PD  .                 GL:   PERMANENT DATUM
 EPD .F              5179:   ELEVATION PERMANENT DATUM
 LMF .                 GL:   LOG MEASURED FROM
 DMF .                 GL:   DRILLING MEASURED FROM
 EGL .F              5179:   GROUND LEVEL
 DATE.          4-24-1977:   RUN DATE
 RUN .                  1:   RUN NUMBER
 DD  .F               645:   DEPTH DRILLER
 DL  .F               634:   DEPTH LOGGER
 BLI .F               632:   BOTTOM LOG INTERVAL
 TLI .F                40:   TOP LOG INTERVAL
 CS  .IN            8.625:   CASING SIZE
 CBD .F                40:   CASING BOTTOM DRILLER
 CBL .F                42:   CASING BOTTOM LOGGER
 BS  .IN            7.875:   BIT SIZE
 BSD .F               645:   BIT SIZE AT DEPTH
 DFT .            KCL MUD:   DRILLING FLUID TYPE
 DFD .                8.8:   DRILLING FLUID DENSITY
 DFV .                 33:   DRILLING FLUID VISCOSITY
 DFPH.                7.5:   DRILLING FLUID PH
 DFL .                 96:   DRILLING FLUID LOSS
 MSS .           FLOWLINE:   MUD SAMPLE SOURCE
 RMS .OHMM            .17:   RESISTIVITY MUD SAMPLE
 MST .F                81:   MUD SAMPLE TEMPERATURE
 RMF .OHMM            .16:   RESISTIVITY MUD FILTRATE SAMPLE
 MFST.F                81:   MUD FILTRATE SAMPLE TEMPERATURE
 RMC .OHMM            .21:   RESISTIVITY MUD CAKE
 MCST.F                81:   MUD CAKE SAMPLE TEMPERATURE
 MFSS.           FANN KIT:   MUD FILTRATE SAMPLE SOURCE
 MCSS.           FANN KIT:   MUD CAKE SAMPLE SOURCE
 RMB .OHMM            .19:   RESISTIVITY MUD AT BHT
 BHT .F                72:   BOTTOM HOLE TEMPERATURE
 TCS .HRS             1.5:   TIME CURCULATED STOPPED
 MRT .F                72:   MAXIMUM RECORDED TEMPERATURE
 LUN .                861:   LOGGING UNIT NUMBER
 LUL .           GILLETTE:   LOGGING UNIT LOCATION
 ENGI.             JOYNER:   RECORDING ENGINEER
 WITN.           ROB LYON:   WITNESSED BY
 CLNT.            A2DTECH:   CLIENT CODE
 ORIG.         2.5" PRINT:   ORIGIN OF DATA
 UWI .       490251034300:   UNIQUE WELL ID
 DICO. A2D Technologies, Inc.:   DIGITIZING COMPANY
~OTHER INFORMATION
~A   DEPT      SPR        ILD        ILM       SGRD       CALD        GRD       CORR       DPHI       RHOB   
# ...
  139.5000   -29.3610     6.2566     7.3991    10.4998     7.9301   117.6877    -0.0566     0.1618     2.3763
  140.0000   -29.3656     6.2562     7.3991    10.4976     7.9296   116.2757    -0.0626     0.1601     2.3807
  140.5000   -29.3701     6.3441     7.3991    10.4953     7.9292   115.6075    -0.0567     0.1601     2.3829
  141.0000   -28.7713     6.3436     7.3991    10.4931     7.9287   117.5367    -0.0538     0.1589     2.3851
  141.5000   -28.7757     6.4328     7.3991    10.6400     7.9283   118.9648    -0.0509     0.1530     2.3931
  142.0000   -28.4773     6.5231     7.3991    10.4887     7.9279   117.7732    -0.0450     0.1482     2.4020
  142.5000   -28.4825     6.5226     7.3991    10.4865     7.9274   116.9062    -0.0421     0.1447     2.4087
  143.0000   -28.1843     6.6143     7.3991    10.4843     7.9270   116.3030    -0.0422     0.1453     2.4065
  143.5000   -28.1892     6.6138     7.3991    10.6310     7.9265   115.7273    -0.0423     0.1471     2.4020
  144.0000   -28.1937     6.7067     7.3991    10.6288     7.9261   115.7243    -0.0453     0.1494     2.3976
  144.5000   -28.1981     6.7062     7.3991    10.6265     7.9257   116.6227    -0.0483     0.1496     2.3975
  145.0000   -28.2026     6.8004     7.4341    10.6242     7.9252   118.3676    -0.0454     0.1435     2.4019
  145.5000   -28.2070     6.7999     7.5042    10.6220     7.9248   119.3856    -0.0425     0.1352     2.4085
  146.0000   -28.2115     6.8955     7.5042    10.7932     7.9243   119.9687    -0.0426     0.1305     2.4166
  146.5000   -27.9138     6.8949     7.5397    11.0898     7.9239   120.2586    -0.0396     0.1275     2.4247
  147.0000   -27.9184     6.9918     7.6108    11.2315     7.9235   120.8416    -0.0397     0.1299     2.4306
  147.5000   -27.9230     6.9913     7.7554    11.2290     7.9230   121.4247    -0.0398     0.1335     2.4307
  148.0000   -27.9275     7.0896     7.8656    11.2078     7.9226   122.5943    -0.0398     0.1371     2.4173
  148.5000   -27.6294     7.1891     7.9773    11.0670     7.9221   123.6188    -0.0399     0.1365     2.4084
  149.0000   -27.6345     7.2901     8.0906    11.0647     7.9217   124.4946    -0.0429     0.1335     2.4128
  149.5000   -27.6389     7.2896     8.2829    11.0623     7.9213   125.5176    -0.0430     0.1311     2.4238
  150.0000   -27.6435     7.3920     8.4005    11.2173     7.9208   126.0997    -0.0401     0.1312     2.4216
  150.5000   -27.6480     7.3914     8.4403    11.3743     7.9204   123.8983    -0.0401     0.1312     2.4142
  151.0000   -27.6525     7.4953     8.5602    11.5643     7.9199   122.8690    -0.0402     0.1312     2.4164
  151.5000   -27.6571     7.4947     8.7636    11.7280     7.9195   123.5924    -0.0402     0.1312     2.4193
  152.0000   -27.3595     7.6001     8.8051    11.8584     7.9191   124.7762    -0.0403     0.1312     2.4207
  152.5000   -27.3641     7.7068     9.0144    12.0243     7.9186   120.3862    -0.0404     0.1306     2.4239
  153.0000   -27.3686     7.7062     9.1857    12.0215     7.9182   117.5865    -0.0404     0.1294     2.4279
  153.5000   -27.0710     7.8145     9.3162    12.2327     7.9177   116.2620    -0.0405     0.1283     2.4319
  154.0000   -27.0763     7.8139     9.5376    12.3605     7.9173   116.9580    -0.0415     0.1265     2.4362
  154.5000   -27.0807     7.9237     9.7188    12.3575     7.9169   120.6393    -0.0426     0.1259     2.4376
  155.0000   -26.7825     8.0350     9.8569    12.3549     7.9164   121.5249    -0.0436     0.1265     2.4361
  155.5000   -26.7875     8.1479     9.9498    12.4041     7.9160   119.9252    -0.0407     0.1301     2.4272
  156.0000   -26.7920     8.2623    10.0911    12.5256     7.9155   118.7507    -0.0437     0.1354     2.4168
  156.5000   -26.7964     8.3784    10.0911    12.5791     7.9151   118.1374    -0.0442     0.1467     2.4020
  157.0000   -27.1030     8.4960    10.0911    12.7572     7.9147   119.5865    -0.0498     0.1497     2.3990
  157.5000   -27.1074     8.6154    10.0911    13.0587     7.9142   121.2023    -0.0393     0.1479     2.4019
  158.0000   -27.1118     8.6148    10.1389    13.3074     7.9138   119.9648    -0.0232     0.1444     2.4053
  158.5000   -27.1163     8.7358    10.2345    13.6174     7.9133   115.3959    -0.0351     0.1509     2.3959
  159.0000   -27.1208     8.7352    10.2345    13.5421     7.9129   113.6012    -0.0352     0.1503     2.3944
  159.5000   -27.1254     8.7346    10.3798    13.2326     7.9125   112.8568    -0.0323     0.1444     2.4077
  160.0000   -27.1299     8.7339    10.3798    13.1556     7.9120   111.5640    -0.0294     0.1408     2.4098
  160.5000   -27.1345     8.7333    10.3798    13.0417     7.9116   109.4897    -0.0294     0.1438     2.4062
  161.0000   -27.1390     8.7327    10.3798    13.0389     7.9116   113.9149    -0.0325     0.1325     2.4121
  161.5000   -27.1435     8.6106    10.3798    12.9567     7.9118   117.6295    -0.0199     0.1254     2.4313
  162.0000   -27.1480     8.6100    10.3798    12.8509     7.9120   119.2727    -0.0081     0.1165     2.4549
  162.5000   -27.1525     8.4895    10.3798    12.7657     7.9122   119.0005     0.0037     0.1118     2.4741
  163.0000   -27.1571     8.3707    10.3314    12.6655     7.9124   118.8387     0.0092     0.1106     2.4667
  163.5000   -27.1616     8.2536    10.0911    12.6628     7.9127   119.8226     0.0118     0.1100     2.4814
  164.0000   -27.3031     8.2530    10.0440    12.6602     7.9129   120.1935     0.0087     0.1094     2.4903
  164.5000   -27.4728     8.1376     9.9498    12.6574     7.9131   117.8744     0.0087     0.1077     2.4906
  165.0000   -27.4774     8.1370     9.8104    12.6548     7.9133   115.6305     0.0083     0.1101     2.4754
  165.5000   -27.4819     8.1364     9.6730    12.6521     7.9135   116.6501     0.0056     0.1124     2.4665
  166.0000   -27.4873     8.1359     9.5376    12.6494     7.9137   119.0831     0.0052     0.1154     2.4606
  166.5000   -27.4917     8.1353     9.4040    12.4697     7.9140   120.2522     0.0025     0.1131     2.4709
  167.0000   -27.4961     8.1347     9.4040    12.4670     7.9142   121.8446     0.0024     0.1107     2.4798
  167.5000   -27.8027     8.1342     9.3601    12.3640     7.9144   122.9179     0.0024     0.1089     2.4886
  168.0000   -27.8071     8.1336     9.2723    12.2872     7.9146   120.4164     0.0023     0.1077     2.4975
  168.5000   -27.8116     8.1330     9.2723    12.1120     7.9148   117.9629     0.0052     0.1066     2.5019
  169.0000   -27.8160     8.0192     9.2290    11.9399     7.9150   117.9775     0.0055     0.1066     2.4885
  169.5000   -27.8205     7.9071     9.0997    11.7702     7.9153   120.0631     0.0081     0.1119     2.4707
  170.0000   -27.8249     7.7964     8.8881    11.6029     7.9155   120.8896     0.0110     0.1150     2.4660
  170.5000   -27.8294     7.7959     8.7636    11.7652     7.9157   118.5816     0.0112     0.1108     2.4766
  171.0000   -27.8338     7.6868     8.6005    11.7628     7.9159   117.5777     0.0138     0.1090     2.4840
  171.5000   -27.8383     7.5793     8.4005    11.9277     7.9161   119.5427     0.0138     0.1078     2.4899
  172.0000   -27.8429     7.4733     8.2442    11.9248     7.9163   121.8006     0.0140     0.1078     2.4957
  172.5000   -27.8071     7.3687     8.0525    11.9223     7.9166   123.7952     0.0166     0.1072     2.5031
  173.0000   -27.5495     7.3682     7.9397    11.9198     7.9168   124.3520     0.0168     0.1055     2.5075
  173.5000   -27.5544     7.2651     7.9397    11.9173     7.9170   122.5117     0.0197     0.1037     2.5134
  174.0000   -27.5589     7.2646     7.9397    11.9148     7.9172   121.3627     0.0224     0.1007     2.5193
  174.5000   -27.5634     7.1630     7.9397    11.7454     7.9174   120.5059     0.0223     0.0995     2.5252
  175.0000   -27.5680     7.0628     7.8285    11.5785     7.9176   119.9415     0.0223     0.1007     2.5237
  175.5000   -27.5725     7.0623     7.8285    11.5761     7.9179   121.8177     0.0252     0.1037     2.5074
