~VERSION INFORMATION
 VERS.                2.0:   CWLS LOG ASCII STANDARD - VERSION 2.0
 WRAP.                 NO:   ONE LINE PER DEPTH STEP
~WELL INFORMATION
#MNEM.UNIT      DATA TYPE    INFORMATION
#----------   ------------   ------------------------------
 STRT.F          664.0000:   START DEPTH
 STOP.F         1880.0000:   STOP DEPTH
 STEP.F            0.5000:   STEP LENGTH
 NULL.          -999.2500:   NO VALUE
 COMP. LAWRENCE/ALLISON INC:   COMPANY
 WELL.     NPR 3 TX #42-3:   WELL
 FLD .             TEAPOT:   FIELD
 LOC .       S3 T38N R78W:   LOCATION
 CNTY.            NATRONA:   COUNTY
 STAT.            WYOMING:   STATE
 CTRY. UNITED STATES OF AMERICA:   COUNTRY
 SRVC.            Unknown:   SERVICE COMPANY
 DATE.        23-JUN-1984:   LOGDATE
 API .       490251096800:   API NUMBER
~CURVE INFORMATION
#MNEM.UNIT       API CODE    CURVE DESCRIPTION
#----------   ------------   ------------------------------
 DEPT.F                  :   
 ROP .MIN/FT 91 810 01 00:   RAT OF DRILLING PENETRATION
 TGAS.UNITS  91 830 01 00:   TOTAL GAS FROM HOTWIRE
~PARAMETER INFORMATION
#MNEM.UNIT          VALUE    DESCRIPTION
#----------   ------------   ------------------------------
 EKB .F              5142:   KELLING BUSHING
 EGL .F              5132:   GROUND LEVEL
 DATE.            6-23-84:   RUN DATE
 BLI .F              1180:   BOTTOM LOG INTERVAL
 TLI .F               660:   TOP LOG INTERVAL
 CS  .IN            8.625:   CASING SIZE
 CBD .F               653:   CASING BOTTOM DRILLER
 LUN .               T-63:   LOGGING UNIT NUMBER
 ENGI.            JOHNSON:   RECORDING ENGINEER
 WITN.           SCHERGER:   WITNESSED BY
 CLNT.            A2DTECH:   CLIENT CODE
 ORIG.           5" PRINT:   ORIGIN OF DATA
 UWI .       490251096800:   UNIQUE WELL ID
 DICO. A2D Technologies, Inc.:   DIGITIZING COMPANY
~OTHER INFORMATION
~A   DEPT        ROP       TGAS 
# ...
 1150.0000     1.9270   448.4266
 1150.5000     1.8630   448.6069
 1151.0000     1.7562   448.7860
 1151.5000     1.6076   434.2910
 1152.0000     1.5039   416.5969
 1152.5000     1.4819   415.6802
 1153.0000     1.5012   412.7506
 1153.5000     1.4993   387.6967
 1154.0000     1.4978   372.1053
 1154.5000     1.5171   368.0794
 1155.0000     1.6617   326.2031
 1155.5000     1.7432   300.0977
 1156.0000     1.8042   331.4755
 1156.5000     1.9073   383.7985
 1157.0000     1.9701   449.9508
 1157.5000     2.0079   450.0000
 1158.0000     2.0060   450.0000
 1158.5000     2.0257   450.0000
 1159.0000     2.0238   286.6958
 1159.5000     2.0014    73.4409
 1160.0000     2.0418    66.2159
 1160.5000     1.8107    61.1834
 1161.0000     1.6425    59.2603
 1161.5000     1.5368    58.3437
 1162.0000     1.4728    58.5683
 1162.5000     1.4712    58.7480
 1163.0000     1.4489    57.8763
 1163.5000     1.4474    58.0637
 1164.0000     1.4458    60.3834
 1164.5000     1.4443    59.5117
 1165.0000     1.4427    57.5886
 1165.5000     1.4411    55.6205
 1166.0000     1.4396    53.7423
 1166.5000     1.4380    53.9220
 1167.0000     1.4365    51.9989
 1167.5000     1.4349    50.0758
 1168.0000     1.4333    49.1709
 1168.5000     1.4318    49.5252
 1169.0000     1.4302    51.7112
 1169.5000     1.4286    51.8909
 1170.0000     1.4271    52.0706
 1170.5000     1.4255    51.1989
 1171.0000     1.4240    50.3272
 1171.5000     1.4224    46.3012
 1172.0000     1.4208    47.5323
 1172.5000     1.5235    49.8148
 1173.0000     1.5841    49.9945
 1173.5000     1.6451    50.1782
 1174.0000     1.7060    49.3025
 1174.5000     1.7465    47.4243
 1175.0000     1.6613    48.6554
 1175.5000     1.5764    49.8865
 1176.0000     1.3874    46.9120
 1176.5000     1.5109    44.9889
 1177.0000     1.6552    42.0144
 1177.5000     1.7995    42.1940
 1178.0000     1.9660    43.4251
 1178.5000     1.9608    44.6583
 1179.0000     1.7757    45.8937
 1179.5000     1.5846    47.1633
 1180.0000     1.5411    45.2402
 1180.5000     1.5374    45.2103
 1181.0000     1.5338    46.2617
 1181.5000     1.5302    46.2617
 1182.0000     1.5266    46.2617
 1182.5000     1.5229    43.1075
 1183.0000     1.5193    42.0561
 1183.5000     1.5157    41.0047
 1184.0000     1.5121    39.9533
 1184.5000     1.5085    39.9533
 1185.0000     1.5048    39.9533
 1185.5000     1.5012    41.0047
 1186.0000     1.7268    41.0047
 1186.5000     1.9731    42.0561
 1187.0000     2.4070    43.1075
 1187.5000     2.9085    44.1589
 1188.0000     2.9323    44.1589
 1188.5000     2.9561    44.1589
 1189.0000     2.9799    44.1589
 1189.5000     3.0037    44.1589
 1190.0000     2.9683    44.1589
 1190.5000     2.6522    44.1589
 1191.0000     2.3777    44.1589
 1191.5000     2.2283    44.1589
 1192.0000     2.0371    43.1075
 1192.5000     1.8460    41.0047
 1193.0000     1.6132    41.0047
 1193.5000     1.4647    41.0047
 1194.0000     1.7101    39.9533
 1194.5000     1.8732    39.9533
 1195.0000     2.2029    39.9533
 1195.5000     2.3659    39.9533
 1196.0000     2.4882    39.9533
 1196.5000     2.2545    39.9533
 1197.0000     1.9801    39.9533
 1197.5000     1.6014    42.0561
 1198.0000     1.4688    46.2617
 1198.5000     1.5734    46.2617
 1199.0000     1.6531    45.2103
 1199.5000     1.7328    45.0964
 1200.0000     2.0622    43.1075
 1200.5000     2.1649    40.0569
 1201.0000     2.3717    42.2664
 1201.5000     2.4743    42.3715
 1202.0000     2.4102    42.4965
 1202.5000     2.3462    42.6001
 1203.0000     2.2405    42.7037
 1203.5000     2.1556    42.8074
 1204.0000     2.0708    42.9110
 1204.5000     1.9859    43.0146
 1205.0000     1.9218    42.0410
 1205.5000     1.8370    41.0932
 1206.0000     1.7937    40.1713
 1206.5000     1.8794    38.1462
 1207.0000     2.0229    39.3272
 1207.5000     2.0804    40.4822
 1208.0000     2.0581   117.3382
 1208.5000     2.0357   159.5070
 1209.0000     1.9300   153.1902
 1209.5000     1.7618   142.5628
 1210.0000     1.6561    92.5363
 1210.5000     1.5712    82.1259
 1211.0000     1.5696    79.0754
 1211.5000     1.5893    78.1017
 1212.0000     1.6082    78.2312
 1212.5000     2.0234    76.2320
 1213.0000     2.4802    73.1815
 1213.5000     2.8119    71.1823
 1214.0000     3.0061    68.1317
 1214.5000     3.0215    65.0811
 1215.0000     3.0368    62.9090
 1215.5000     3.0522    55.6806
 1216.0000     3.7414    52.7752
 1216.5000     4.1602    49.7505
 1217.0000     4.7639    48.7769
 1217.5000     5.3677    47.8290
 1218.0000     6.0062    47.9586
 1218.5000     5.7755    48.0622
 1219.0000     5.2531    48.1659
 1219.5000     4.9898    46.1667
 1220.0000     4.6460    37.8759
 1220.5000     4.7745    38.0285
 1221.0000     4.7928    38.1812
 1221.5000     4.8141    38.3338
 1222.0000     4.7730    37.4299
 1222.5000     4.3776    37.5876
 1223.0000     4.0656    40.8996
 1223.5000     3.8120    42.1366
 1224.0000     3.5043    42.2892
 1224.5000     3.6298    42.4419
 1225.0000     3.7344    41.5050
 1225.5000     3.7974    41.6957
 1226.0000     3.9646    41.8483
 1226.5000     4.0693    42.0035
 1227.0000     4.0906    42.1917
 1227.5000     4.0912    42.3444
 1228.0000     4.0917    42.4970
 1228.5000     3.9256    42.6496
 1229.0000     3.7177    42.8022
 1229.5000     3.5099    42.9549
 1230.0000     3.2812    43.1075
 1230.5000     3.1922    85.7414
 1231.0000     2.9490    89.7126
 1231.5000     2.7620    89.8652
 1232.0000     2.6376    88.9282
 1232.5000     2.5339    86.9781
 1233.0000     2.1802    87.1689
 1233.5000     1.7360    87.3215
 1234.0000     1.3064    86.4227
 1234.5000     1.2027    85.5621
 1235.0000     1.1407    85.7147
 1235.5000     1.0787    85.8673
 1236.0000     1.0166    86.0200
 1236.5000     1.1214    87.2240
 1237.0000     1.2490    87.3766
 1237.5000     1.3517    88.5806
 1238.0000     1.4355    90.8411
 1238.5000     1.4567    92.0782
 1239.0000     1.3323    92.2308
 1239.5000     1.1662    92.3835
 1240.0000     1.0625    92.4979
 1240.5000     1.2151   165.9638
 1241.0000     1.4281   225.2325
 1241.5000     1.6870   213.6527
 1242.0000     1.9901   123.5438
 1242.5000     1.9302   102.4174
 1243.0000     1.7244    98.2783
 1243.5000     1.4145    94.1368
 1244.0000     1.3747    94.2660
 1244.5000     1.3565    94.3693
 1245.0000     1.3382    94.4726
 1245.5000     1.2789    94.5760
 1246.0000     1.1975    94.6793
 1246.5000     1.0966    94.7826
 1247.0000     1.0152    94.8860
 1247.5000     1.0392    93.9279
 1248.0000     1.2085    90.8473
 1248.5000     1.3152    90.9552
 1249.0000     1.4011    91.0798
 1249.5000     1.4662    91.1832
 1250.0000     1.4688    91.2865
 1250.5000     1.4505    91.3898
 1251.0000     1.4531    90.4319
 1251.5000     1.4557    90.5352
 1252.0000     1.4797    89.5755
 1252.5000     1.5448    86.4529
 1253.0000     1.6307    83.4159
 1253.5000     1.7166    83.5451
 1254.0000     1.7400    83.6484
 1254.5000     1.6800    81.6292
 1255.0000     1.5778    80.6711
 1255.5000     1.5387    79.6873
 1256.0000     1.6044    79.8165
 1256.5000     1.7320    79.9198
 1257.0000     1.9012    78.9618
 1257.5000     2.0288    79.0684
 1258.0000     2.0105    79.1943
 1258.5000     1.9298    78.2105
 1259.0000     1.6824    77.2784
 1259.5000     1.4974    77.3817
 1260.0000     1.3125    76.4240
 1260.5000     1.3958    76.5303
 1261.0000     1.4167    75.5488
 1261.5000     1.5000    74.5938
 1262.0000     1.5625    74.7267
 1262.5000     1.5833    74.8331
 1263.0000     1.5417    73.8515
 1263.5000     1.4792    73.9845
 1264.0000     1.3958    75.1521
 1264.5000     1.2708    75.2585
 1265.0000     1.2292    75.3649
 1265.5000     1.1875    75.4712
 1266.0000     1.2750    75.5776
 1266.5000     1.3964    75.6839
 1267.0000     1.5000    75.7903
 1267.5000     1.6042    74.8087
 1268.0000     1.7292    73.8803
 1268.5000     1.8333    72.8988
 1269.0000     1.9583    71.9438
 1269.5000     2.0833    74.1994
 1270.0000     2.1042   138.1486
 1270.5000     1.9792   432.1754
 1271.0000     1.8542   438.5377
