~VERSION INFORMATION
 VERS.                2.0:   CWLS LOG ASCII STANDARD - VERSION 2.0
 WRAP.                 NO:   ONE LINE PER DEPTH STEP
~WELL INFORMATION
#MNEM.UNIT      DATA TYPE    INFORMATION
#----------   ------------   ------------------------------
 STRT.F           16.0000:   START DEPTH
 STOP.F         1334.0000:   STOP DEPTH
 STEP.F            0.5000:   STEP LENGTH
 NULL.          -999.2500:   NO VALUE
 COMP. U S NAVY/INTEX OIL CO:   COMPANY
 WELL.  S-11 NPR 3 #87-11:   WELL
 FLD .             TEAPOT:   FIELD
 LOC .      S11 T38N R78W:   LOCATION
 CNTY.            NATRONA:   COUNTY
 STAT.            WYOMING:   STATE
 CTRY. UNITED STATES OF AMERICA:   COUNTRY
 SRVC.       Schlumberger:   SERVICE COMPANY
 DATE.        17-JUN-1966:   LOGDATE
 API .       490250958900:   API NUMBER
~CURVE INFORMATION
#MNEM.UNIT       API CODE    CURVE DESCRIPTION
#----------   ------------   ------------------------------
 DEPT.F                  :   
 GRD .GAPI   45 310 01 00:   GAMMA RAY FROM DENSITY LOG
 CALD.IN     45 280 60 00:   CALIPER
 RHOB.G/C3   45 350 01 00:   BULK DENSITY
 DPOR.DEC    45 890 12 00:   DENSITY POROSITY SANDSTONE
 DRHO.G/C3   45 356 01 00:   DENSITY CORRECTION
 ASN .OHMM   05 041 16 00:   AMPLIFIED SHORT NORMAL 16"
 ILD .OHMM   05 120 46 00:   INDUCTION LOG DEEP
 CILD.MMHO   05 110 46 00:   CONDUCTIVITY INDUCTION LOG DEEP
 SPR .MV     05 010 01 00:   SPONTANEOUS POTENTIAL FROM RES.
~PARAMETER INFORMATION
#MNEM.UNIT          VALUE    DESCRIPTION
#----------   ------------   ------------------------------
 PD  .                 GL:   PERMANENT DATUM
 EPD .F              5284:   ELEVATION PERMANENT DATUM
 LMF .                 KB:   LOG MEASURED FROM
 DAPD.F                 5:   FEET ABOVE PERMANENT DATUM
 DMF .                 KB:   DRILLING MEASURED FROM
 EKB .F              5289:   KELLING BUSHING
 EGL .F              5284:   GROUND LEVEL
 DATE.          8-17-1966:   RUN DATE
 RUN .                  1:   RUN NUMBER
 DD  .F              1335:   DEPTH DRILLER
 DL  .F              1335:   DEPTH LOGGER
 BLI .F              1334:   BOTTOM LOG INTERVAL
 TLI .F                50:   TOP LOG INTERVAL
 CS  .IN            8.625:   CASING SIZE
 CBD .F                10:   CASING BOTTOM DRILLER
 BS  .IN            7.875:   BIT SIZE
 BSD .F              1335:   BIT SIZE AT DEPTH
 DFT .           GEL-CHEM:   DRILLING FLUID TYPE
 DFD .                9.3:   DRILLING FLUID DENSITY
 DFV .                 50:   DRILLING FLUID VISCOSITY
 MSS .          FLOW LINE:   MUD SAMPLE SOURCE
 RMS .OHMM           1.38:   RESISTIVITY MUD SAMPLE
 MST .F                80:   MUD SAMPLE TEMPERATURE
 RMF .OHMM           1.09:   RESISTIVITY MUD FILTRATE SAMPLE
 MFST.F                77:   MUD FILTRATE SAMPLE TEMPERATURE
 MFSS.                  M:   MUD FILTRATE SAMPLE SOURCE
 RMB .OHMM           1.70:   RESISTIVITY MUD AT BHT
 BHT .F               108:   BOTTOM HOLE TEMPERATURE
 TCS .HRS               1:   TIME CURCULATED STOPPED
 MRT .F               108:   MAXIMUM RECORDED TEMPERATURE
 LUN .               4507:   LOGGING UNIT NUMBER
 LUL .               CSPR:   LOGGING UNIT LOCATION
 ENGI.            MANGOLD:   RECORDING ENGINEER
 WITN.                MAY:   WITNESSED BY
 CLNT.            A2DTECH:   CLIENT CODE
 ORIG.       2", 5" PRINT:   ORIGIN OF DATA
 UWI .       490250958900:   UNIQUE WELL ID
 DICO. A2D Technologies, Inc.:   DIGITIZING COMPANY
~OTHER INFORMATION
~A   DEPT       GRD      CALD       RHOB       DPOR       DRHO        ASN        ILD       CILD        SPR   
   16.0000    95.7191  -999.2500  -999.2500  -999.2500  -999.2500  -999.2500  -999.2500  -999.2500  -999.2500
   16.5000    93.5691  -999.2500  -999.2500  -999.2500  -999.2500  -999.2500  -999.2500  -999.2500  -999.2500
   17.0000    93.6326  -999.2500  -999.2500  -999.2500  -999.2500  -999.2500  -999.2500  -999.2500  -999.2500
   17.5000    94.1381  -999.2500  -999.2500  -999.2500  -999.2500  -999.2500  -999.2500  -999.2500  -999.2500
   18.0000    95.3341  -999.2500  -999.2500  -999.2500  -999.2500  -999.2500  -999.2500  -999.2500  -999.2500
   18.5000    97.0076  -999.2500  -999.2500  -999.2500  -999.2500  -999.2500  -999.2500  -999.2500  -999.2500
   19.0000    98.6149  -999.2500  -999.2500  -999.2500  -999.2500  -999.2500  -999.2500  -999.2500  -999.2500
   19.5000    98.1781  -999.2500  -999.2500  -999.2500  -999.2500  -999.2500  -999.2500  -999.2500  -999.2500
   20.0000    95.8114     8.5033     1.9664     0.4132     0.0425  -999.2500  -999.2500  -999.2500  -999.2500
   20.5000    98.2203     8.5509     1.9638     0.4175     0.0551  -999.2500  -999.2500  -999.2500  -999.2500
   21.0000   100.8799     8.5627     2.0133     0.3940    -0.0418  -999.2500  -999.2500  -999.2500  -999.2500
   21.5000   101.4532     8.5743     2.0382     0.3773    -0.0053  -999.2500  -999.2500  -999.2500  -999.2500
   22.0000    96.7769     8.5822     2.0310     0.3830     0.0159  -999.2500  -999.2500  -999.2500  -999.2500
   22.5000    95.2549     8.4737     2.0562     0.3655     0.0379  -999.2500  -999.2500  -999.2500  -999.2500
   23.0000    94.9724     8.2849     2.0445     0.3699     0.0433  -999.2500  -999.2500  -999.2500  -999.2500
   23.5000    94.1650     8.0768     2.0606     0.3726     0.0383  -999.2500  -999.2500  -999.2500  -999.2500
   24.0000    90.7447     8.1624     2.0683     0.3575     0.0331  -999.2500  -999.2500  -999.2500  -999.2500
   24.5000    92.3159     8.2686     2.0594     0.3648     0.0302  -999.2500  -999.2500  -999.2500  -999.2500
   25.0000    94.8850     8.3712     2.0531     0.3702     0.0459  -999.2500  -999.2500  -999.2500  -999.2500
   25.5000    97.2234     8.3897     2.0613     0.3646     0.0499  -999.2500  -999.2500  -999.2500  -999.2500
   26.0000    94.9258     8.1955     2.0810     0.3568     0.0366  -999.2500  -999.2500  -999.2500  -999.2500
   26.5000    90.6345     8.0022     2.1101     0.3350     0.0274  -999.2500  -999.2500  -999.2500  -999.2500
   27.0000    84.3177     8.0016     2.1416     0.3106     0.0203  -999.2500  -999.2500  -999.2500  -999.2500
   27.5000    80.9490     8.1285     2.1732     0.2924     0.0271  -999.2500  -999.2500  -999.2500  -999.2500
   28.0000    80.7703     8.2638     2.2050     0.2769     0.0365  -999.2500  -999.2500  -999.2500  -999.2500
   28.5000    80.1587     8.2782     2.2169     0.2680     0.0601  -999.2500  -999.2500  -999.2500  -999.2500
   29.0000    78.9768     8.2892     2.2361     0.2576     0.0809  -999.2500  -999.2500  -999.2500  -999.2500
   29.5000    81.4908     8.3005     2.2411     0.2542     0.0827  -999.2500  -999.2500  -999.2500  -999.2500
   30.0000    84.5618     8.3121     2.2412     0.2552     0.0844  -999.2500  -999.2500  -999.2500  -999.2500
   30.5000    87.6782     8.3248     2.2294     0.2614     0.0839  -999.2500  -999.2500  -999.2500  -999.2500
   31.0000    87.8988     8.2751     2.2021     0.2754     0.0790  -999.2500  -999.2500  -999.2500  -999.2500
   31.5000    87.4399     8.2145     2.1833     0.2894     0.0615  -999.2500  -999.2500  -999.2500  -999.2500
   32.0000    88.5761     8.1640     2.1762     0.2886     0.0443  -999.2500  -999.2500  -999.2500  -999.2500
   32.5000    90.6785     8.1536     2.1890     0.2851     0.0265  -999.2500  -999.2500  -999.2500  -999.2500
   33.0000    92.8016     8.1681     2.1992     0.2797     0.0212  -999.2500  -999.2500  -999.2500  -999.2500
   33.5000    94.9108     8.2281     2.2041     0.2743     0.0189  -999.2500  -999.2500  -999.2500  -999.2500
   34.0000    96.4781     8.2874     2.2001     0.2773     0.0233  -999.2500  -999.2500  -999.2500  -999.2500
   34.5000    96.1267     8.3468     2.1962     0.2803     0.0205  -999.2500  -999.2500  -999.2500  -999.2500
   35.0000    93.2414     8.4062     2.1923     0.2810     0.0180  -999.2500  -999.2500  -999.2500  -999.2500
   35.5000    88.8888     8.4657     2.1881     0.2850     0.0154  -999.2500  -999.2500  -999.2500  -999.2500
   36.0000    85.1349     8.5244     2.1959     0.2875     0.0130  -999.2500  -999.2500  -999.2500  -999.2500
   36.5000    89.4775     8.5601     2.2049     0.2719     0.0181  -999.2500  -999.2500  -999.2500  -999.2500
   37.0000    89.7017     8.5154     2.1958     0.2815     0.0250  -999.2500  -999.2500  -999.2500  -999.2500
   37.5000    88.1212     8.4714     2.1908     0.2805     0.0320  -999.2500  -999.2500  -999.2500  -999.2500
   38.0000    86.9178     8.4274     2.1974     0.2774     0.0387  -999.2500  -999.2500  -999.2500  -999.2500
   38.5000    89.6041     8.3834     2.2039     0.2743     0.0400  -999.2500  -999.2500  -999.2500  -999.2500
   39.0000    92.2990     8.3389     2.2099     0.2734     0.0284  -999.2500  -999.2500  -999.2500  -999.2500
   39.5000    94.7323     8.3255     2.1965     0.2805     0.0220  -999.2500  -999.2500  -999.2500  -999.2500
   40.0000    94.7784     8.3253     2.1819     0.2926     0.0317  -999.2500  -999.2500  -999.2500  -999.2500
   40.5000    94.7933     8.3253     2.1714     0.2930     0.0180  -999.2500  -999.2500  -999.2500  -999.2500
   41.0000    93.5864     8.3253     2.1863     0.2871    -0.0003  -999.2500  -999.2500  -999.2500  -999.2500
   41.5000    92.2454     8.3253     2.2013     0.2808     0.0113  -999.2500  -999.2500  -999.2500  -999.2500
   42.0000    92.2262     8.3253     2.2035     0.2760     0.0205  -999.2500  -999.2500  -999.2500  -999.2500
   42.5000    96.0508     8.3253     2.2056     0.2740     0.0259  -999.2500  -999.2500  -999.2500  -999.2500
   43.0000    99.7875     8.3253     2.2294     0.2613     0.0320  -999.2500  -999.2500  -999.2500  -999.2500
   43.5000   103.3249     8.3254     2.2375     0.2551     0.0380  -999.2500  -999.2500  -999.2500  -999.2500
   44.0000   103.8086     8.3255     2.2319     0.2580     0.0440  -999.2500  -999.2500  -999.2500  -999.2500
   44.5000   102.8087     8.3266     2.2588     0.2428     0.0484  -999.2500  -999.2500  -999.2500  -999.2500
   45.0000   101.6216     8.2745     2.2811     0.2314     0.0503  -999.2500  -999.2500  -999.2500  -999.2500
   45.5000   100.5577     8.2104     2.2875     0.2201     0.0440  -999.2500  -999.2500  -999.2500  -999.2500
   46.0000   103.3205     8.1458     2.3029     0.2088     0.0368  -999.2500  -999.2500  -999.2500  -999.2500
   46.5000   106.6587     8.0795     2.3273     0.1978     0.0322  -999.2500  -999.2500  -999.2500  -999.2500
   47.0000   110.2091     8.0669     2.3528     0.1868     0.0276  -999.2500  -999.2500  -999.2500  -999.2500
   47.5000   112.8379     8.0680     2.3564     0.1797     0.0230  -999.2500  -999.2500  -999.2500  -999.2500
   48.0000   114.6009     8.0695     2.3500     0.1853     0.0184  -999.2500  -999.2500  -999.2500  -999.2500
   48.5000   111.2796     8.0708     2.3433     0.1888     0.0138  -999.2500  -999.2500  -999.2500  -999.2500
   49.0000   109.9497     8.0721     2.3607     0.1778     0.0108  -999.2500  -999.2500  -999.2500  -999.2500
   49.5000   108.6222     8.0734     2.3806     0.1641     0.0049  -999.2500  -999.2500  -999.2500  -999.2500
   50.0000   107.3265     8.0747     2.4006     0.1503     0.0079  -999.2500     0.6705  -999.2500   -20.0990
   50.5000   105.5181     8.0760     2.4180     0.1454     0.0202  -999.2500     0.8441  -999.2500   -20.6395
   51.0000   100.3135     8.0773     2.4117     0.1491     0.0326  -999.2500     1.0298  -999.2500   -23.9198
   51.5000    96.0949     8.0787     2.4053     0.1532     0.0358  -999.2500     1.6676  -999.2500   -26.6651
   52.0000    99.6428     8.0800     2.3992     0.1553     0.0250     2.3923     2.4648    13.4062   -33.7029
