~VERSION INFORMATION
 VERS.                2.0:   CWLS LOG ASCII STANDARD - VERSION 2.0
 WRAP.                 NO:   ONE LINE PER DEPTH STEP
~WELL INFORMATION
#MNEM.UNIT      DATA TYPE    INFORMATION
#----------   ------------   ------------------------------
 STRT.F          100.0000:   START DEPTH
 STOP.F          780.0000:   STOP DEPTH
 STEP.F            0.5000:   STEP LENGTH
 NULL.          -999.2500:   NO VALUE
 COMP. U S NAVY-INTEX OIL:   COMPANY
 WELL.        NPR #34-S-2:   WELL
 FLD .             TEAPOT:   FIELD
 LOC .       S2 T38N R78W:   LOCATION
 CNTY.            NATRONA:   COUNTY
 STAT.            WYOMING:   STATE
 CTRY. UNITED STATES OF AMERICA:   COUNTRY
 SRVC.       Schlumberger:   SERVICE COMPANY
 DATE.        16-JUL-1962:   LOGDATE
 API .       490250644000:   API NUMBER
~CURVE INFORMATION
#MNEM.UNIT       API CODE    CURVE DESCRIPTION
#----------   ------------   ------------------------------
 DEPT.F                  :   
 ASN .OHMM   05 041 16 00:   AMPLIFIED SHORT NORMAL 16"
 CILD.MMHO   05 110 46 00:   CONDUCTIVITY INDUCTION LOG DEEP
 ILD .OHMM   05 120 46 00:   INDUCTION LOG DEEP
 SPR .MV     05 010 01 00:   SPONTANEOUS POTENTIAL FROM RES.
 CALM.IN     15 280 01 00:   CALIPER FROM MICRO LOG
 GR  .GAPI   30 310 01 00:   GAMMA RAY
~PARAMETER INFORMATION
#MNEM.UNIT          VALUE    DESCRIPTION
#----------   ------------   ------------------------------
 LMF .                 KB:   LOG MEASURED FROM
 DMF .                 KB:   DRILLING MEASURED FROM
 EKB .F              5130:   KELLING BUSHING
 EGL .F              5125:   GROUND LEVEL
 DATE.        16-JUL-1962:   RUN DATE
 RUN .                  1:   RUN NUMBER
 DD  .F               780:   DEPTH DRILLER
 DL  .F               781:   DEPTH LOGGER
 BLI .F               780:   BOTTOM LOG INTERVAL
 TLI .F               100:   TOP LOG INTERVAL
 CBD .F                10:   CASING BOTTOM DRILLER
 BS  .IN             6.75:   BIT SIZE
 BSD .F               780:   BIT SIZE AT DEPTH
 DFT .       OIL EMULSION:   DRILLING FLUID TYPE
 DFD .               10.3:   DRILLING FLUID DENSITY
 DFV .                 43:   DRILLING FLUID VISCOSITY
 DFL .                4.6:   DRILLING FLUID LOSS
 RMS .OHMM              4:   RESISTIVITY MUD SAMPLE
 MST .F                82:   MUD SAMPLE TEMPERATURE
 RMF .OHMM            3.1:   RESISTIVITY MUD FILTRATE SAMPLE
 MFST.F                82:   MUD FILTRATE SAMPLE TEMPERATURE
 RMC .OHMM            4.3:   RESISTIVITY MUD CAKE
 MCST.F                82:   MUD CAKE SAMPLE TEMPERATURE
 TCS .HRS             0.5:   TIME CURCULATED STOPPED
 LUN .               2503:   LOGGING UNIT NUMBER
 LUL .               CSPR:   LOGGING UNIT LOCATION
 ENGI.           ELLERMAN:   RECORDING ENGINEER
 WITN.          JORGENSON:   WITNESSED BY
 CLNT.            A2DTECH:   CLIENT CODE
 ORIG.           5" PRINT:   ORIGIN OF DATA
 UWI .       490250644000:   UNIQUE WELL ID
 DICO. A2D Technologies, Inc.:   DIGITIZING COMPANY
~OTHER INFORMATION
~A   DEPT       ASN       CILD         ILD      SPR       CALM         GR   
# ...
  412.0000     8.4749   121.5020     8.0991   -49.6726  -999.2500  -999.2500
  412.5000     8.5364   122.1940     8.1771   -49.6641  -999.2500  -999.2500
  413.0000     8.5806   122.9192     8.1038   -49.6568  -999.2500  -999.2500
  413.5000     8.5514   123.6469     8.0306   -49.6503  -999.2500  -999.2500
  414.0000     8.5221   124.3734     7.9576   -49.6422  -999.2500  -999.2500
  414.5000     8.4926   124.3458     7.9200   -49.6350  -999.2500  -999.2500
  415.0000     8.4635   123.5753     7.8868   -49.6280  -999.2500  -999.2500
  415.5000     8.4640   124.3072     7.9648   -49.4717  -999.2500  -999.2500
  416.0000     8.4495   124.2797     8.0422   -49.4643  -999.2500  -999.2500
  416.5000     8.4503   123.5091     8.1196   -49.1592  -999.2500  -999.2500
  417.0000     8.4658   123.4871     8.1970   -48.6805  -999.2500  -999.2500
  417.5000     8.4813   122.7165     8.2744   -48.2501  -999.2500  -999.2500
  418.0000     8.5417   121.9461     8.4271   -48.5405  -999.2500  -999.2500
  418.5000     8.6021   120.7834     8.5145   -49.2772  -999.2500  -999.2500
  419.0000     8.7073   118.8173     8.6576   -50.0140  -999.2500  -999.2500
  419.5000     8.9060   115.1378     8.7350   -50.1573  -999.2500  -999.2500
  420.0000     9.1310   112.1217     8.7372   -50.1482  -999.2500  -999.2500
  420.5000     9.2623   109.1056     8.8143   -49.9921  -999.2500  -999.2500
  421.0000     9.2778   108.3351     8.8917   -49.6872  -999.2500  -999.2500
  421.5000     9.2784   108.3159     8.8942   -49.5311  -999.2500  -999.2500
  422.0000     9.3239   108.5030     8.8965   -49.3750  -999.2500  -999.2500
  422.5000     9.3543   109.9026     8.8229   -49.2187  -999.2500  -999.2500
  423.0000     9.3699   110.4940     8.7500   -49.2113  -999.2500  -999.2500
  423.5000     9.3705   111.2201     8.7376   -49.2025  -999.2500  -999.2500
  424.0000     9.3113   112.6946     8.6797   -49.4928  -999.2500  -999.2500
  424.5000     9.0876   114.1692     8.6456   -49.6362  -999.2500  -999.2500
  425.0000     8.9537   115.3942     8.6090   -49.9247  -999.2500  -999.2500
  425.5000     8.8347   117.1187     8.5536   -50.0680  -999.2500  -999.2500
  426.0000     8.8054   118.7026     8.4631   -50.3584  -999.2500  -999.2500
  426.5000     8.7904   121.5601     8.3901   -50.4985  -999.2500  -999.2500
  427.0000     8.7451   123.7835     8.3171   -50.6399  -999.2500  -999.2500
  427.5000     8.6046   126.0070     8.1695   -50.4835  -999.2500  -999.2500
  428.0000     8.4641   128.2304     8.1718   -50.3274  -999.2500  -999.2500
  428.5000     8.3451   129.7054     8.0982   -50.1587  -999.2500  -999.2500
  429.0000     8.1813   131.9289     8.1010   -49.9281  -999.2500  -999.2500
  429.5000     8.0922   133.4038     8.1032   -49.8573  -999.2500  -999.2500
  430.0000     8.0330   133.3818     8.1054   -49.8500  -999.2500  -999.2500
  430.5000     7.9887   134.1082     8.1075   -50.1403  -999.2500  -999.2500
  431.0000     7.9893   133.3377     8.1099   -50.4306  -999.2500  -999.2500
  431.5000     8.0646   132.5671     8.1872   -50.7210  -999.2500  -999.2500
  432.0000     8.1698   131.7964     8.2246   -50.7137  -999.2500  -999.2500
  432.5000     8.2751   130.2769     8.3421   -50.5576  -999.2500  -999.2500
  433.0000     8.3504   128.7575     8.4221   -50.2527  -999.2500  -999.2500
  433.5000     8.4111   126.4854     8.4970   -49.7990  -999.2500  -999.2500
  434.0000     8.4576   123.4693     8.5749   -49.6429  -999.2500  -999.2500
  434.5000     8.4867   120.4532     8.6519   -49.7844  -999.2500  -999.2500
  435.0000     8.5024   117.4372     8.6545   -49.6280  -999.2500  -999.2500
  435.5000     8.5179   115.1696     8.7316   -49.4704  -999.2500  -999.2500
  436.0000     8.5484   114.3991     8.7341   -49.3161  -999.2500  -999.2500
  436.5000     8.6536   113.6285     8.7361   -49.4568  -999.2500  -999.2500
  437.0000     8.7289   114.3605     8.7386   -49.4494  -999.2500  -999.2500
  437.5000     8.8192   114.6457     8.6650   -49.2924  -999.2500  -999.2500
  438.0000     8.8945   115.7734     8.5923   -49.1363  -999.2500  -999.2500
  438.5000     8.9400   116.5344     8.6700   -49.2796  -999.2500  -999.2500
  439.0000     8.8509   118.0093     8.6722   -49.7170  -999.2500  -999.2500
  439.5000     8.7618   118.7357     8.6745   -50.1561  -999.2500  -999.2500
  440.0000     8.6876   120.2052     8.6391   -50.4464  -999.2500  -999.2500
  440.5000     8.6433   120.9371     8.6789   -50.7368  -999.2500  -999.2500
  441.0000     8.6279   121.6636     8.6060   -50.7292  -999.2500  -999.2500
  441.5000     8.6146   122.3900     8.6083   -50.6845  -999.2500  -999.2500
  442.0000     8.6303   123.1165     8.6105   -50.2666  -999.2500  -999.2500
  442.5000     8.6757   123.0889     8.6880   -50.2594  -999.2500  -999.2500
  443.0000     8.7062   123.0669     8.6906   -50.2521  -999.2500  -999.2500
  443.5000     8.7367   122.2963     8.7680   -50.0960  -999.2500  -999.2500
  444.0000     8.6925   122.2743     8.7833   -50.2393  -999.2500  -999.2500
  444.5000     8.6331   121.5037     8.8478   -50.2302  -999.2500  -999.2500
  445.0000     8.6488   120.7332     8.9666   -50.0741  -999.2500  -999.2500
  445.5000     8.7391   119.2141     9.0298   -50.0668  -999.2500  -999.2500
  446.0000     8.8891   117.6347     9.1550   -50.0595  -999.2500  -999.2500
  446.5000     9.0990   116.1751     9.2649   -50.0521  -999.2500  -999.2500
  447.0000     9.3088   113.9029     9.3850   -50.0446  -999.2500  -999.2500
  447.5000     9.4439   112.2754     9.5376   -50.0358  -999.2500  -999.2500
  448.0000     9.6562   109.9800     9.6201   -50.0298  -999.2500  -999.2500
  448.5000     9.8076   107.8487     9.7677   -50.0213  -999.2500  -999.2500
  449.0000     9.9391   102.9271     9.9207   -50.0140  -999.2500  -999.2500
  449.5000    10.0742   101.3885    10.0733   -50.1555  -999.2500  -999.2500
  450.0000    10.2392    96.8468    10.2259   -50.1482  -999.2500  -999.2500
  450.5000    10.3886    93.8063    10.4537   -50.2897  -999.2500  -999.2500
  451.0000    10.6129    91.4464    10.6063   -50.4312  -999.2500  -999.2500
  451.5000    10.7623    89.1216    10.8341   -50.8704  -999.2500  -999.2500
  452.0000    10.9865    86.1862    11.0619   -51.0119  -999.2500  -999.2500
  452.5000    11.2108    84.6400    11.3648   -50.6945  -999.2500  -999.2500
  453.0000    11.5117    82.3507    11.6678   -50.2424  -999.2500  -999.2500
  453.5000    11.8152    80.8121    11.9708   -49.9359  -999.2500  -999.2500
  454.0000    12.0438    79.2735    12.2738   -49.9271  -999.2500  -999.2500
  454.5000    12.4813    78.4856    12.5767   -49.7694  -999.2500  -999.2500
  455.0000    12.7055    76.9470    12.8045   -49.7606  -999.2500  -999.2500
  455.5000    12.9297    75.4084    12.9571   -49.7857  -999.2500  -999.2500
  456.0000    13.0045    76.1220    12.6486   -49.9286  -999.2500  -999.2500
  456.5000    12.9297    76.8450    12.3606   -50.0339  -999.2500  -999.2500
  457.0000    12.7803    79.0601    12.1268   -50.3205  -999.2500  -999.2500
  457.5000    12.4813    81.2753    11.9133   -50.6092  -999.2500  -999.2500
  458.0000    12.1824    82.7397    11.7652   -51.0468  -999.2500  -999.2500
  458.5000    11.8087    84.2041    11.8299   -51.4866  -999.2500  -999.2500
  459.0000    11.4350    86.4099    11.6062   -51.7732  -999.2500  -999.2500
  459.5000    11.1360    87.1246    11.4569   -51.6155  -999.2500  -999.2500
  460.0000    10.9118    88.5886    11.2332   -51.1603  -999.2500  -999.2500
  460.5000    10.6876    90.0524    11.0091   -50.8538  -999.2500  -999.2500
  461.0000    10.6129    90.0150    10.8391   -50.6962  -999.2500  -999.2500
  461.5000    10.5381    90.7289    10.7113   -51.1338  -999.2500  -999.2500
  462.0000    10.6129    90.6907    10.5624   -51.2738  -999.2500  -999.2500
  462.5000    10.6876    90.6516    10.5639   -50.9673  -999.2500  -999.2500
  463.0000    10.8371    90.6083    10.5654   -50.6607  -999.2500  -999.2500
  463.5000    10.9865    90.5781    10.5750   -50.3482  -999.2500  -999.2500
