~VERSION INFORMATION
 VERS.                2.0:   CWLS LOG ASCII STANDARD - VERSION 2.0
 WRAP.                 NO:   ONE LINE PER DEPTH STEP
~WELL INFORMATION
#MNEM.UNIT      DATA TYPE    INFORMATION
#----------   ------------   ------------------------------
 STRT.F           30.0000:   START DEPTH
 STOP.F          507.0000:   STOP DEPTH
 STEP.F            0.5000:   STEP LENGTH
 NULL.          -999.2500:   NO VALUE
 COMP. FENIX & SCISSON INC:   COMPANY
 WELL.      NPR-3 #42S-10:   WELL
 FLD .             TEAPOT:   FIELD
 LOC .      S10 T38N R78W:   LOCATION
 CNTY.            NATRONA:   COUNTY
 STAT.            WYOMING:   STATE
 CTRY. UNITED STATES OF AMERICA:   COUNTRY
 SRVC.            Unknown:   SERVICE COMPANY
 DATE.        15-JUL-1978:   LOGDATE
 API .       490251065700:   API NUMBER
~CURVE INFORMATION
#MNEM.UNIT       API CODE    CURVE DESCRIPTION
#----------   ------------   ------------------------------
 DEPT.F                  :   
 SPR .MV     07 010 01 00:   SPONTANEOUS POTENTIAL
 ILD .OHMM   07 120 46 00:   INDUCTION LOG DEEP
 SN  .OHMM   07 040 16 00:   SHORT NORMAL
 CALD.IN     45 280 60 00:   CALIPER FROM DENSITY LOG
 GRD .GAPI   45 310 01 00:   GAMMA RAY FROM DENSITY LOG
 CORR.G/C3   45 356 01 00:   DENSITY CORRECTION
 RHOB.G/C3   45 350 01 00:   BULK DENSITY
 DPHI.DEC    45 890 12 00:   DENSITY POROSITY SANDSTONE
~PARAMETER INFORMATION
#MNEM.UNIT          VALUE    DESCRIPTION
#----------   ------------   ------------------------------
 PD  .                 GL:   PERMANENT DATUM
 EPD .F              5204:   ELEVATION PERMANENT DATUM
 LMF .                 KB:   LOG MEASURED FROM
 DAPD.F                 4:   FEET ABOVE PERMANENT DATUM
 DMF .                 KB:   DRILLING MEASURED FROM
 EKB .F              5208:   KELLING BUSHING
 EGL .F              5204:   GROUND LEVEL
 DATE.        15-JUL-1978:   RUN DATE
 RUN .                  1:   RUN NUMBER
 DD  .F               500:   DEPTH DRILLER
 DL  .F               511:   DEPTH LOGGER
 BLI .F               504:   BOTTOM LOG INTERVAL
 TLI .F                30:   TOP LOG INTERVAL
 CS  .IN            8.625:   CASING SIZE
 CBD .F                40:   CASING BOTTOM DRILLER
 CBL .F                40:   CASING BOTTOM LOGGER
 BS  .IN            7.875:   BIT SIZE
 BSD .F               500:   BIT SIZE AT DEPTH
 DFT .                KCL:   DRILLING FLUID TYPE
 DFD .                8.7:   DRILLING FLUID DENSITY
 DFV .                 32:   DRILLING FLUID VISCOSITY
 DFPH.                9.0:   DRILLING FLUID PH
 RMS .OHMM           0.18:   RESISTIVITY MUD SAMPLE
 MST .F                78:   MUD SAMPLE TEMPERATURE
 RMF .OHMM           0.16:   RESISTIVITY MUD FILTRATE SAMPLE
 MFST.F                88:   MUD FILTRATE SAMPLE TEMPERATURE
 RMC .OHMM           0.28:   RESISTIVITY MUD CAKE
 MCST.F                88:   MUD CAKE SAMPLE TEMPERATURE
 MFSS.               MEAS:   MUD FILTRATE SAMPLE SOURCE
 MCSS.               MEAS:   MUD CAKE SAMPLE SOURCE
 TCS .HRS               1:   TIME CURCULATED STOPPED
 LUN .               2958:   LOGGING UNIT NUMBER
 LUL .               CASP:   LOGGING UNIT LOCATION
 ENGI.              HONEA:   RECORDING ENGINEER
 WITN.           MCGINLEY:   WITNESSED BY
 CLNT.            A2DTECH:   CLIENT CODE
 ORIG.           5" PRINT:   ORIGIN OF DATA
 UWI .       490251065700:   UNIQUE WELL ID
 DICO. A2D Technologies, Inc.:   DIGITIZING COMPANY
~OTHER INFORMATION
~A   DEPT      SPR        ILD         SN       CALD        GRD       CORR       RHOB       DPHI   
# ...
  192.0000   -33.0015     8.8805     7.1382     8.7776    85.8940     0.0568     2.4992     0.1048
  192.5000   -33.1371     8.8847     7.1422     8.7056    81.0140     0.0540     2.5113     0.1194
  193.0000   -33.2727     8.8281     7.0970     8.6632    76.2826     0.0482     2.4885     0.1223
  193.5000   -33.4083     8.7082     7.1012     8.6358    75.1173     0.0424     2.4831     0.1205
  194.0000   -33.3950     8.4153     7.0561     8.6380    74.6891     0.0409     2.4877     0.1252
  194.5000   -33.5308     8.1238     7.0125     8.6402    78.5816     0.0398     2.4871     0.1335
  195.0000   -33.5171     7.7629     7.0163     8.6424    83.5084     0.0385     2.4656     0.1436
  195.5000   -33.3547     7.5043     6.9710     8.6447    84.2748     0.0372     2.4567     0.1463
  196.0000   -33.3388     7.2542     6.9270     8.6469    83.1095     0.0374     2.4457     0.1441
  196.5000   -33.3255     7.1095     6.8833     8.6644    82.3899     0.0376     2.4503     0.1410
  197.0000   -33.3123     7.0158     6.7929     8.6814    83.4535     0.0377     2.4578     0.1345
  197.5000   -33.4481     6.9710     6.7038     8.7281    85.8643     0.0379     2.4647     0.1309
  198.0000   -33.4349     6.9744     6.6158     8.8045    87.6612     0.0366     2.4685     0.1344
  198.5000   -33.5740     6.9291     6.4851     8.8808    87.0693     0.0368     2.4612     0.1436
  199.0000   -33.7098     6.9332     6.3991     8.9572    85.7818     0.0370     2.4523     0.1498
  199.5000   -33.8455     6.9843     6.2727     8.9149    82.9820     0.0356     2.4457     0.1578
  200.0000   -33.8323     6.9776     6.1265     8.8650    83.1404     0.0343     2.4334     0.1674
  200.5000   -33.9694     6.9901     6.0021     8.8156    85.1090     0.0355     2.4194     0.1760
  201.0000   -34.4047     7.0407     5.8619     8.9365    87.6584     0.0379     2.4028     0.1855
  201.5000   -34.6885     6.9469     5.6265     9.0277    85.3043     0.0513     2.3880     0.1986
  202.0000   -34.6764     6.6685     5.3634     9.0596    81.0186     0.0649     2.3709     0.2177
  202.5000   -34.8137     6.3139     5.1480     9.0914    80.7389     0.0755     2.3501     0.2320
  203.0000   -34.8019     5.9781     4.8706     9.1233    80.7682     0.0891     2.3046     0.2484
  203.5000   -35.2534     5.5446     4.5721     9.1848    80.7915     0.1116     2.2801     0.2618
  204.0000   -35.8217     4.5442     4.1718     9.3057    80.2205     0.1416     2.2660     0.2662
  204.5000   -36.4031     3.5737     3.8080     9.4859    77.8665     0.1627     2.2594     0.2617
  205.0000   -36.8385     3.1589     3.5072     9.3684    74.9133     0.1718     2.2641     0.2619
  205.5000   -37.2738     3.0088     3.2081     9.3568    74.7929     0.1721     2.2724     0.2804
  206.0000   -37.4141     2.9108     2.9957     9.5003    74.1199     0.1288     2.2240     0.2538
  206.5000   -37.7004     2.8918     2.9351     9.1683    70.9821     0.0766     2.1799     0.2095
  207.0000   -37.8377     2.9130     2.9973     9.2600    70.7025     0.0676     2.3205     0.1817
  207.5000   -37.9750     2.9543     3.1030     9.9002    75.1893     0.0458     2.3908     0.1605
  208.0000   -37.9603     3.1010     3.2346     9.3683    83.8308     0.0474     2.4342     0.1524
  208.5000   -37.6505     3.3457     3.3718     8.4654    87.5689     0.0536     2.4642     0.1493
  209.0000   -37.1917     3.8931     3.6129     8.8237    88.7810     0.0298     2.4479     0.1529
  209.5000   -37.1799     4.6246     3.8979     8.4549    88.6558     0.0151     2.4405     0.1600
  210.0000   -36.8701     5.2715     4.2931     8.4417    87.6390     0.0137     2.4324     0.1620
  210.5000   -36.2623     5.7267     4.8938     8.4741    87.3594     0.0154     2.4251     0.1573
  211.0000   -35.9523     6.0110     5.3967     8.5060    89.3202     0.0230     2.4259     0.1429
  211.5000   -35.7730     6.1383     5.7062     8.5379    92.7611     0.0292     2.4410     0.1276
  212.0000   -35.4814     6.2254     5.8974     8.5697    95.1639     0.0263     2.4710     0.1374
  212.5000   -35.3182     6.2275     5.9401     8.5868    93.1304     0.0220     2.4770     0.1478
  213.0000   -35.1574     6.2296     5.9827     8.5890    88.9004     0.0207     2.4553     0.1534
  213.5000   -34.9967     6.1834     5.9429     8.5763    87.9570     0.0238     2.4377     0.1656
  214.0000   -34.9849     6.0648     5.9038     8.5048    89.1691     0.0300     2.4196     0.1823
  214.5000   -34.9732     5.9028     5.8649     8.4180    92.0156     0.0346     2.3946     0.1993
  215.0000   -35.1105     5.7843     5.7867     8.3015    94.1192     0.0542     2.3648     0.1951
  215.5000   -35.0988     5.6293     5.7088     8.2586    95.4799     0.1036     2.3739     0.1738
  216.0000   -35.0870     5.4785     5.6323     8.2762    96.2462     0.1396     2.4442     0.1535
  216.5000   -35.0753     5.3685     5.5192     8.3674    95.3780     0.0860     2.4070     0.1442
  217.0000   -35.3616     5.2247     5.3708     8.4735    92.8754     0.0653     2.4311     0.1304
  217.5000   -35.6479     5.1547     5.1907     8.5647    90.6699     0.0983     2.5044     0.1366
  218.0000   -35.6362     5.1211     5.0860     8.6262    89.8018     0.1068     2.5178     0.1512
  218.5000   -35.6244     5.1232     5.0525     8.6432    89.0822     0.0494     2.4672     0.1435
  219.0000   -35.6125     5.1250     5.1291     8.6009    87.4711     0.0450     2.4382     0.1257
  219.5000   -35.4516     5.1977     5.3097     8.5437    86.4543     0.0771     2.4719     0.1045
  220.0000   -35.4373     5.3444     5.5300     8.5460    87.1124     0.0947     2.5034     0.0913
  220.5000   -35.2765     5.5738     5.6858     8.5487    87.6897     0.0859     2.5259     0.1026
  221.0000   -35.2648     5.7734     5.8864     8.4915    85.0444     0.0577     2.5185     0.1172
  221.5000   -35.2531     6.0966     6.0940     8.4047    84.4675     0.0399     2.5037     0.1208
  222.0000   -35.2413     6.5326     6.3089     8.3772    84.7939     0.0296     2.4911     0.1264
  222.5000   -35.0806     7.0481     6.4867     8.3794    85.8574     0.0283     2.4800     0.1314
  223.0000   -34.7707     7.3980     6.5783     8.3662    87.6638     0.0285     2.4696     0.1374
  223.5000   -34.6100     7.6592     6.6712     8.3689    88.1330     0.0286     2.4607     0.1448
  224.0000   -34.5982     7.7146     6.7191     8.3711    87.8591     0.0303     2.4517     0.1477
  224.5000   -34.5865     7.7172     6.7209     8.3733    87.4367     0.0334     2.4445     0.1465
  225.0000   -34.5748     7.6663     6.7228     8.3755    88.0545     0.0366     2.4431     0.1429
  225.5000   -34.5630     7.4616     6.7246     8.3776    89.1180     0.0397     2.4514     0.1374
  226.0000   -34.5513     7.2119     6.7264     8.3947    89.7357     0.0354     2.4627     0.1358
  226.5000   -34.5395     7.0187     6.6821     8.4124    90.2050     0.0311     2.4658     0.1296
  227.0000   -34.5276     6.9252     6.6342     8.4453    90.2288     0.0268     2.4644     0.1242
  227.5000   -34.5156     6.8801     6.5492     8.4755    90.0768     0.0240     2.4742     0.1310
  228.0000   -34.5014     6.8353     6.4614     8.5078    89.3892     0.0226     2.4812     0.1387
  228.5000   -34.4897     6.8377     6.3749     8.5249    89.2581     0.0213     2.4557     0.1402
  229.0000   -34.4779     6.8405     6.2899     8.5270    89.4359     0.0199     2.4566     0.1509
  229.5000   -34.4662     6.8428     6.2481     8.5292    89.4593     0.0201     2.4448     0.1592
  230.0000   -34.4545     6.8451     6.1644     8.4721    89.7798     0.0203     2.4262     0.1687
  230.5000   -34.5947     6.4367     5.9580     8.3852    89.8032     0.0235     2.4069     0.1890
  231.0000   -34.7291     6.0526     5.7581     8.3720    89.9752     0.0296     2.3920     0.1929
  231.5000   -34.7173     5.8501     5.5650     8.4193    90.1413     0.0419     2.3675     0.1830
  232.0000   -34.8576     5.7327     5.3783     8.5105    89.7247     0.0768     2.4079     0.1671
