~VERSION INFORMATION
 VERS.                2.0:   CWLS LOG ASCII STANDARD - VERSION 2.0
 WRAP.                 NO:   ONE LINE PER DEPTH STEP
~WELL INFORMATION
#MNEM.UNIT      DATA TYPE    INFORMATION
#----------   ------------   ------------------------------
 STRT.F           64.0000:   START DEPTH
 STOP.F          795.0000:   STOP DEPTH
 STEP.F            0.5000:   STEP LENGTH
 NULL.          -999.2500:   NO VALUE
 COMP. LAWRENCE/ALLISON INC:   COMPANY
 WELL.      23-61 SX #2-2:   WELL
 FLD .             TEAPOT:   FIELD
 LOC .       S2 T38N R78W:   LOCATION
 CNTY.            NATRONA:   COUNTY
 STAT.            WYOMING:   STATE
 CTRY. UNITED STATES OF AMERICA:   COUNTRY
 SRVC.              Welex:   SERVICE COMPANY
 DATE.        14-AUG-1985:   LOGDATE
 API .       490251103800:   API NUMBER
~CURVE INFORMATION
#MNEM.UNIT       API CODE    CURVE DESCRIPTION
#----------   ------------   ------------------------------
 DEPT.F                  :   
 SPR .MV     07 010 01 00:   SPONTANEOUS POTENTIAL
 ILD .OHMM   07 120 46 00:   INDUCTION LOG DEEP
 ILM .OHMM   07 120 44 00:   INDUCTION LOG MEDIUM
 SGRD.OHMM   07 221 05 00:   SHALLOW SHORT GUARD RESISTIVITY
 DPHI.DEC    45 890 12 00:   DENSITY POROSITY SANDSTONE
 NPHI.DEC    42 890 03 00:   NEUTRON POROSITY SANDSTONE
 GRD .GAPI   45 310 01 00:   GAMMA RAY FROM DENSITY LOG
 CALD.IN     45 280 60 00:   CALIPER FROM DENSITY
 CORR.G/C3   45 356 01 00:   DENSITY CORRECTION
 RHOB.G/C3   45 350 01 00:   BULK DENSITY
~PARAMETER INFORMATION
#MNEM.UNIT          VALUE    DESCRIPTION
#----------   ------------   ------------------------------
 PD  .                 GL:   PERMANENT DATUM
 EPD .F              5112:   ELEVATION PERMANENT DATUM
 LMF .                 GL:   LOG MEASURED FROM
 DMF .                 GL:   DRILLING MEASURED FROM
 EGL .F              5112:   GROUND LEVEL
 DATE.        14-AUG-1985:   RUN DATE
 RUN .                  1:   RUN NUMBER
 DD  .F               800:   DEPTH DRILLER
 DL  .F               797:   DEPTH LOGGER
 BLI .F               795:   BOTTOM LOG INTERVAL
 TLI .F                76:   TOP LOG INTERVAL
 CS  .IN            8.625:   CASING SIZE
 CBD .F                76:   CASING BOTTOM DRILLER
 CBL .F                76:   CASING BOTTOM LOGGER
 BS  .IN            7.875:   BIT SIZE
 BSD .F               800:   BIT SIZE AT DEPTH
 DFT .                KCL:   DRILLING FLUID TYPE
 MSS .               TANK:   MUD SAMPLE SOURCE
 RMS .OHMM           0.22:   RESISTIVITY MUD SAMPLE
 MST .F                64:   MUD SAMPLE TEMPERATURE
 MFSS.               MEAS:   MUD FILTRATE SAMPLE SOURCE
 TCS .HRS            2230:   TIME CURCULATED STOPPED
 TLAB.HRS            0200:   TIME LOGGER AT BOTTOM
 LUN .               1892:   LOGGING UNIT NUMBER
 LUL .             CASPER:   LOGGING UNIT LOCATION
 ENGI.         T. QUINLAN:   RECORDING ENGINEER
 WITN.        N. JENNINGS:   WITNESSED BY
 CLNT.            A2DTECH:   CLIENT CODE
 ORIG.        2" 5" PRINT:   ORIGIN OF DATA
 UWI .       490251103800:   UNIQUE WELL ID
 DICO. A2D Technologies, Inc.:   DIGITIZING COMPANY
 R1  . POROSITY WITH SANDSTONE:   REMARKS 1
~OTHER INFORMATION
~A   DEPT      SPR        ILD        ILM       SGRD       DPHI       NPHI         GRD      CALD       CORR       RHOB   
# ...
  566.5000   -46.0389     9.6999     8.0384    13.1312     0.1185     0.2794   105.8537     7.9841     0.0197     2.4826
  567.0000   -46.3378     9.1697     7.9765    13.0241     0.1260     0.2825   103.7675     7.9842     0.0158     2.4754
  567.5000   -46.0389     8.9107     7.8600    12.6615     0.1346     0.2855   103.1693     7.9844     0.0142     2.4605
  568.0000   -45.4410     8.8421     7.8540    12.3046     0.1402     0.2880   102.5710     7.9836     0.0126     2.4465
  568.5000   -44.8430     8.8990     7.9572    12.2108     0.1373     0.2868   104.9490     7.9822     0.0125     2.4497
  569.0000   -44.2451     9.0156     8.1194    11.9497     0.1267     0.2856   107.3270     7.9808     0.0147     2.4663
  569.5000   -43.0493     9.2639     8.5195    11.8586     0.1210     0.2845   108.5153     7.9793     0.0214     2.4754
  570.0000   -41.8535    10.1359     9.3214    12.2713     0.1192     0.2842   108.5116     7.9779     0.0312     2.4799
  570.5000   -39.7083    10.7847    10.4875    14.1981     0.1183     0.2845   108.2110     7.9765     0.0395     2.4783
  571.0000   -37.2197    11.8024    11.3949    17.1299     0.1287     0.2771   106.1247     7.9750     0.0447     2.4608
  571.5000   -35.2765    13.0310    12.5548    22.8282     0.1414     0.2711   103.4431     7.9736     0.0446     2.4319
  572.0000   -34.2302    14.5230    13.6486    24.5889     0.1657     0.2664    98.9759     7.9722     0.0452     2.3977
  572.5000   -34.5291    15.7796    14.0167    20.6354     0.1779     0.2650    87.0682     7.9707     0.0474     2.3704
  573.0000   -34.6786    17.2649    13.2434    19.2349     0.1903     0.2714    71.8866     7.9693     0.0504     2.3559
  573.5000   -34.5291    18.6283    12.7798    21.3391     0.1952     0.2787    66.8241     7.9679     0.0541     2.3536
  574.0000   -34.0807    19.2752    12.8596    23.8432     0.1925     0.2802    64.4402     7.9664     0.0653     2.3581
  574.5000   -33.6249    19.3957    13.3994    24.5056     0.1944     0.2779    62.0563     7.9650     0.0713     2.3565
  575.0000   -33.0094    19.2464    13.9618    21.8984     0.2065     0.2761    60.2676     7.9636     0.0659     2.3208
  575.5000   -31.6891    18.8336    14.6497    21.2812     0.2281     0.2764    58.4797     7.9621     0.0422     2.2844
  576.0000   -30.0448    18.4296    15.1585    21.9013     0.2539     0.2789    64.4283     7.9607     0.0270     2.2563
  576.5000   -28.2511    18.5631    15.2574    22.7881     0.2609     0.2813    67.4016     7.9593     0.0217     2.2456
  577.0000   -26.6069    19.1889    14.6071    22.4533     0.2527     0.2817    66.2081     7.9578     0.0264     2.2546
  577.5000   -25.2616    20.2715    14.3008    21.8204     0.2282     0.2823    64.4194     7.9576     0.0361     2.2811
  578.0000   -24.5142    21.4192    15.1104    21.8056     0.2122     0.2814    62.0355     7.9577     0.0443     2.3113
  578.5000   -24.3647    22.6319    16.0777    23.0418     0.2104     0.2797    61.4381     7.9579     0.0495     2.3264
  579.0000   -24.5142    23.7470    16.9880    24.8630     0.2150     0.2791    64.4105     7.9580     0.0446     2.3203
  579.5000   -24.5142    23.8998    17.2171    26.4565     0.2220     0.2794    66.4909     7.9582     0.0397     2.3058
  580.0000   -24.5142    24.0453    16.8447    27.5689     0.2438     0.2819    67.9760     7.9583     0.0301     2.2762
  580.5000   -24.5142    24.0267    16.5988    28.5368     0.2560     0.2844    67.6755     7.9585     0.0278     2.2542
  581.0000   -24.2152    23.8415    16.2428    29.5211     0.2590     0.2847    66.4820     7.9586     0.0345     2.2473
  581.5000   -24.0658    23.8232    15.8943    28.6842     0.2609     0.2832    65.2886     7.9588     0.0427     2.2427
  582.0000   -23.6173    23.3086    15.8821    27.1085     0.2573     0.2802    63.4999     7.9589     0.0525     2.2532
  582.5000   -23.3184    22.8087    16.2034    25.6193     0.2537     0.2760    62.6041     7.9591     0.0532     2.2541
  583.0000   -23.3134    22.4758    17.6054    24.7241     0.2558     0.2767    62.0059     7.9593     0.0508     2.2523
  583.5000   -23.0194    22.4590    19.6701    24.0314     0.2504     0.2776    61.9712     7.9594     0.0492     2.2613
  584.0000   -23.0194    22.6036    21.3720    26.2908     0.2480     0.2782    65.2737     7.9596     0.0491     2.2688
  584.5000   -23.4679    23.0601    22.7401    34.9745     0.2399     0.2747    69.1398     7.9448     0.0467     2.2741
  585.0000   -23.9163    23.6951    23.0425    39.3706     0.2339     0.2708    69.7321     7.9450     0.0459     2.2831
  585.5000   -24.0658    25.3904    22.7062    41.8745     0.2272     0.2672    68.5387     7.9451     0.0488     2.2989
  586.0000   -24.2152    28.0567    22.2192    29.7232     0.2188     0.2662    67.9404     7.9303     0.0518     2.3217
  586.5000   -24.5142    31.0302    23.0290    29.2964     0.2061     0.2703    67.6399     7.9305     0.0532     2.3353
  587.0000   -24.5142    32.3326    23.9559    32.7288     0.2025     0.2724    66.7440     7.9307     0.0455     2.3412
  587.5000   -23.9163    32.3084    23.2747    34.5842     0.2022     0.2712    67.3363     7.9308     0.0348     2.3364
  588.0000   -23.6173    32.0598    20.8006    28.0333     0.2068     0.2701    67.9286     7.9607     0.0272     2.3224
  588.5000   -24.0658    30.2966    17.5802    26.1262     0.2253     0.2692    66.4212     7.9906     0.0210     2.2993
  589.0000   -24.6637    29.2359    16.6133    25.9269     0.2429     0.2717    65.2441     8.0057     0.0172     2.2690
  589.5000   -25.5605    28.2124    16.1440    25.9092     0.2484     0.2751    65.2571     8.0207     0.0231     2.2589
  590.0000   -26.9058    26.8475    16.1319    25.6873     0.2524     0.2775    66.7658     8.0209     0.0268     2.2544
  590.5000   -25.1121    25.0127    16.4609    25.3339     0.2554     0.2803    68.8302     8.0210     0.0252     2.2528
  591.0000   -23.9163    23.7620    16.5637    24.6198     0.2546     0.2837    70.0217     8.0212     0.0228     2.2580
  591.5000   -23.9163    22.1835    15.4329    23.1056     0.2485     0.2876    70.5864     8.0213     0.0205     2.2678
  592.0000   -25.8993    21.4068    14.9970    21.2353     0.2431     0.2897    70.8810     8.0214     0.0196     2.2844
  592.5000   -26.9058    20.3712    14.7781    20.2093     0.2365     0.2880    70.2430     8.0216     0.0195     2.3025
  593.0000   -28.4006    19.7956    14.3606    19.5032     0.2232     0.2841    69.0893     8.0217     0.0202     2.3199
  593.5000   -30.4933    19.5067    14.5515    19.2073     0.2119     0.2795    71.2652     8.0219     0.0231     2.3418
  594.0000   -32.2870    19.2220    14.7477    19.8941     0.1957     0.2753    74.0001     8.0220     0.0261     2.3675
  594.5000   -33.3333    19.2076    15.1515    22.2802     0.1779     0.2717    76.8741     8.0222     0.0252     2.3810
  595.0000   -34.0807    19.1932    15.2458    24.4823     0.1732     0.2669    78.0061     8.0223     0.0229     2.3916
  595.5000   -34.0807    19.1786    15.1240    25.1624     0.1700     0.2624    76.8119     8.0225     0.0243     2.3946
  596.0000   -34.0807    19.0307    14.7005    23.6108     0.1724     0.2612    75.9161     8.0077     0.0265     2.3793
  596.5000   -33.7818    18.8813    14.4837    21.6996     0.1830     0.2664    75.0203     8.0079     0.0287     2.3633
  597.0000   -33.6323    18.6057    14.2723    20.6512     0.1925     0.2722    74.4221     8.0081     0.0316     2.3512
  597.5000   -33.4828    18.5918    14.1624    20.0692     0.1977     0.2768    73.8239     8.0082     0.0345     2.3481
  598.0000   -33.1839    18.4487    13.9557    20.0555     0.1965     0.2784    75.0114     7.9935     0.0367     2.3518
  598.5000   -32.8849    18.1794    13.8483    20.1823     0.1975     0.2760    78.2822     7.9638     0.0366     2.3457
  599.0000   -33.4828    18.0395    13.8380    20.0279     0.2008     0.2748    79.1721     7.9491     0.0305     2.3357
  599.5000   -34.0807    17.9007    13.8277    19.7340     0.2088     0.2748    78.5739     7.9344     0.0243     2.3243
