~VERSION INFORMATION
 VERS.                2.0:   CWLS LOG ASCII STANDARD - VERSION 2.0
 WRAP.                 NO:   ONE LINE PER DEPTH STEP
~WELL INFORMATION
#MNEM.UNIT      DATA TYPE    INFORMATION
#----------   ------------   ------------------------------
 STRT.F           16.0000:   START DEPTH
 STOP.F          634.0000:   STOP DEPTH
 STEP.F            0.5000:   STEP LENGTH
 NULL.          -999.2500:   NO VALUE
 COMP. LAWRENCE/ALLISON INC:   COMPANY
 WELL.    14-15 SX #11-11:   WELL
 FLD .             TEAPOT:   FIELD
 LOC .      S11 T38N R78W:   LOCATION
 CNTY.            NATRONA:   COUNTY
 STAT.            WYOMING:   STATE
 CTRY. UNITED STATES OF AMERICA:   COUNTRY
 SRVC.      Dresser Atlas:   SERVICE COMPANY
 DATE.        06-JAN-1985:   LOGDATE
 API .       490251101700:   API NUMBER
~CURVE INFORMATION
#MNEM.UNIT       API CODE    CURVE DESCRIPTION
#----------   ------------   ------------------------------
 DEPT.F                  :   
 SPR .MV     11 010 01 00:   SPONTANEOUS POTENTIAL FROM RES.
 RD  .OHMM   11 220 10 00:   RESISTIVITY DEEP
 RS  .OHMM   11 220 09 00:   RESISTIVITY SHALLOW
 RMLL.OHMM   20 270 04 00:   RESISTIVITY MICROLATEROLOG
 AC  .US/F   60 520 00 00:   ACCOUSTIC SONIC
 CNC .DEC    42 890 03 00:   COMPENSATED NEUTRON POROSITY SANDSTONE
 PORD.DEC    45 890 12 00:   POROSITY DENSITY SANDSTONE
 GRD .GAPI   45 310 01 00:   GAMMA RAY FROM DENSITY LOG
 CALD.IN     45 280 60 00:   CALIPER FROM DENSITY
 CORR.G/C3   45 356 01 00:   DENSITY CORRECTION
 DEN .G/C3   45 350 01 00:   COMPENSATED BULK DENSTIY
~PARAMETER INFORMATION
#MNEM.UNIT          VALUE    DESCRIPTION
#----------   ------------   ------------------------------
 PD  .                 GL:   PERMANENT DATUM
 EPD .F            5196.8:   ELEVATION PERMANENT DATUM
 LMF .                 KB:   LOG MEASURED FROM
 DMF .                 KB:   DRILLING MEASURED FROM
 EKB .F            5196.8:   KELLING BUSHING
 EGL .F            5196.8:   GROUND LEVEL
 DATE.        06-JAN-1985:   RUN DATE
 RUN .                  1:   RUN NUMBER
 DD  .F               650:   DEPTH DRILLER
 DL  .F               636:   DEPTH LOGGER
 BLI .F               634:   BOTTOM LOG INTERVAL
 CS  .IN            8.625:   CASING SIZE
 CBD .F                20:   CASING BOTTOM DRILLER
 CBL .F                22:   CASING BOTTOM LOGGER
 BS  .IN             6.25:   BIT SIZE
 BSD .F               650:   BIT SIZE AT DEPTH
 DFT .        KCL POLYMER:   DRILLING FLUID TYPE
 RMS .OHMM           .105:   RESISTIVITY MUD SAMPLE
 MST .F                72:   MUD SAMPLE TEMPERATURE
 RMF .OHMM            .08:   RESISTIVITY MUD FILTRATE SAMPLE
 MFST.F                72:   MUD FILTRATE SAMPLE TEMPERATURE
 RMC .OHMM            .13:   RESISTIVITY MUD CAKE
 MCST.F                72:   MUD CAKE SAMPLE TEMPERATURE
 MFSS.               CALC:   MUD FILTRATE SAMPLE SOURCE
 MCSS.               CALC:   MUD CAKE SAMPLE SOURCE
 TCS .HRS               3:   TIME CURCULATED STOPPED
 LUN .               6307:   LOGGING UNIT NUMBER
 LUL .               GLTE:   LOGGING UNIT LOCATION
 ENGI.               MACK:   RECORDING ENGINEER
 WITN.               PAGE:   WITNESSED BY
 CLNT.            A2DTECH:   CLIENT CODE
 ORIG.           5" PRINT:   ORIGIN OF DATA
 UWI .       490251101700:   UNIQUE WELL ID
 DICO. A2D Technologies, Inc.:   DIGITIZING COMPANY
 R1  . POROSITY WITH SANDSTONE:   REMARKS 1
~OTHER INFORMATION
~A   DEPT      SPR         RD         RS       RMLL         AC        CNC       PORD        GRD       CALD       CORR        DEN   
# ...
  473.5000   -67.1224    13.6687    12.3317     6.2195    93.1181     0.2582     0.1233   100.0113     6.6339     0.0849     2.4783
  474.0000   -66.8278    13.7599    12.4870     6.1737    95.2241     0.2534     0.1267    99.8720     6.6328     0.0656     2.4647
  474.5000   -66.6843    13.8520    12.6579     6.0439    98.8339     0.2590     0.1333    95.1942     6.6318     0.0692     2.4549
  475.0000   -66.3897    14.1393    12.8458     5.7157   102.9700     0.2633     0.1372    95.0519     6.6307     0.0834     2.4550
  475.5000   -66.2462    14.6340    13.1281     5.2577   106.9557     0.2785     0.1372    93.8567     6.6296     0.0984     2.4543
  476.0000   -65.8009    15.3577    13.6830     5.0415   112.8963     0.2830     0.1382    90.2379     6.6286     0.0889     2.4384
  476.5000   -65.2042    16.2294    14.5789     5.2527   113.2729     0.2812     0.1484    81.3241     6.6275     0.0649     2.4029
  477.0000   -64.4565    17.8793    16.3073     5.7048   107.4842     0.2719     0.1801    74.5282     6.6264     0.0650     2.3704
  477.5000   -63.4066    19.5608    17.4525     5.7416    98.8073     0.2641     0.2166    69.0940     6.6252     0.0772     2.3098
  478.0000   -62.2057    22.9374    19.6842     4.9469    90.1527     0.2629     0.2368    67.8927     6.6241     0.0833     2.2614
  478.5000   -61.3069    25.9801    22.5487     4.2264    77.8429     0.2747     0.2482    68.3616     6.6231     0.0789     2.2683
  479.0000   -60.4081    28.8204    24.2984     4.1993    71.9489     0.2865     0.2434    70.6430     6.6220     0.0729     2.2805
  479.5000   -59.9625    28.8124    25.6787     4.6558    65.0127     0.2880     0.2329    73.8320     6.6210     0.0776     2.3002
  480.0000   -59.6677    28.8045    26.6875     8.3797    57.1129     0.2762     0.2184    77.9288     6.6047     0.1079     2.3366
  480.5000   -59.6755    28.7965    27.4306    13.4085    55.5347     0.2404     0.1744    78.3947     6.5733     0.1427     2.3873
  481.0000   -59.5320    29.5983    28.3906    13.0362    58.3926     0.2260     0.1612    77.3477     6.5570     0.1382     2.4434
  481.5000   -59.5395    31.2783    30.8460     9.8794    70.7242     0.2254     0.1235    72.8212     6.5560     0.1338     2.4828
  482.0000   -59.6981    34.2200    35.4258     6.3414    84.3340     0.2290     0.1178    67.8408     6.5549     0.1385     2.4889
  482.5000   -59.7057    36.9225    37.1804     5.2947    98.0189     0.2492     0.1452    68.0041     6.5538     0.1431     2.4397
  483.0000   -59.7132    37.1695    36.1506     4.6082   100.4257     0.2562     0.1727    69.2265     6.5528     0.1402     2.3845
  483.5000   -59.7207    33.2560    32.3446     4.1807   100.6518     0.2644     0.1979    70.9026     6.5517     0.1267     2.3399
  484.0000   -59.7283    28.9407    28.9393     4.0366    99.6753     0.2766     0.2085    73.0327     6.5507     0.1178     2.3286
  484.5000   -59.7358    26.4382    25.1842     3.9518    98.7738     0.2831     0.2068    75.9192     6.5344     0.1148     2.3339
  485.0000   -59.7434    25.0043    23.9841     3.9499    98.3234     0.2837     0.1987    79.2595     6.5182     0.1150     2.3476
  485.5000   -59.7509    23.8128    23.1602     4.0588    98.1736     0.2816     0.1978    82.2973     6.5019     0.1151     2.3499
  486.0000   -59.7585    22.9948    22.3646     4.1712    99.1519     0.2726     0.2008    81.2503     6.4857     0.1152     2.3467
  486.5000   -59.7660    22.0514    21.8980     4.3756    99.9046     0.2726     0.2159    76.4212     6.4390     0.1153     2.3175
  487.0000   -59.6224    21.4422    21.8919     4.4345    99.7549     0.2735     0.2156    76.7358     6.5444     0.1154     2.3202
  487.5000   -59.4790    21.1409    21.7346     4.4323    98.7782     0.2781     0.2072    79.4710     6.6193     0.1185     2.3381
  488.0000   -59.3355    20.9890    21.7286     4.4302    94.3429     0.2905     0.1945    85.8371     6.6182     0.1261     2.3532
  488.5000   -59.1920    21.1293    21.8738     4.4899    79.9076     0.2947     0.1933    87.0594     6.6324     0.1308     2.3555
  489.0000   -59.1995    21.2705    21.8677     4.5833    59.6827     0.2932     0.1921    86.6176     6.6313     0.1309     2.3593
  489.5000   -59.2071    21.5615    21.8616     4.6434    48.4805     0.2860     0.1906    86.1758     6.6302     0.1265     2.3647
  490.0000   -59.0634    21.8566    21.8556     4.6091    50.4361     0.2791     0.1891    85.5826     6.6290     0.0571     2.3662
  490.5000   -59.2222    21.8505    21.8495     4.6125    67.8805     0.2797     0.1901    84.5357     6.6279     0.0557     2.3655
  491.0000   -59.2297    21.8445    21.8435     4.7663    79.6992     0.2888     0.1907    83.1862     6.6421     0.0573     2.3618
  491.5000   -59.2373    21.8384    21.8374     4.8639    86.8945     0.2885     0.1919    82.4417     6.6410     0.0620     2.3573
  492.0000   -59.2448    21.6815    21.8314     4.5366    92.9231     0.2755     0.1931    84.4406     6.6400     0.0742     2.3543
  492.5000   -59.4034    21.6755    21.8253     4.3802    95.7156     0.2689     0.1946    89.4251     6.6237     0.1060     2.3551
  493.0000   -59.4110    21.6694    21.9726     4.4699    97.8783     0.2708     0.1940    88.0515     6.6226     0.1151     2.3567
  493.5000   -59.4185    21.9660    22.2734     4.5932    99.2203     0.2817     0.1930    87.4824     6.6216     0.0999     2.3575
  494.0000   -59.5771    22.2667    22.4222     4.7856    99.9159     0.2889     0.1928    88.1140     6.6205     0.0806     2.3568
  494.5000   -59.5847    22.4154    22.2595     4.8842   100.0671     0.2907     0.1932    87.9093     6.6195     0.0807     2.3568
  495.0000   -59.5922    21.6454    21.7951     4.6184   100.1428     0.2888     0.1920    86.3082     6.6184     0.0792     2.3599
  495.5000   -59.4486    20.6140    21.1929     4.4902    99.8428     0.2844     0.1905    86.3203     6.6174     0.0743     2.3614
  496.0000   -59.4562    20.4658    20.6073     4.4880   100.1445     0.2796     0.1929    85.6227     6.6318     0.0312     2.3592
  496.5000   -59.6148    20.0388    20.1774     4.4859    99.7693     0.2854     0.1953    82.7776     6.6305     0.0331     2.3540
  497.0000   -59.6224    20.0333    20.0324     4.6096    98.8678     0.2978     0.1932    82.1204     6.6294     0.0522     2.3623
  497.5000   -59.6299    20.0277    19.6144     4.7367    98.1166     0.2999     0.1875    82.8919     6.6132     0.0753     2.3775
  498.0000   -59.6375    19.6099    19.4735     5.0039   101.2001     0.2939     0.1758    85.9296     6.5969     0.1011     2.3942
  498.5000   -59.6450    19.3344    19.1999     5.0759   105.7121     0.2906     0.1607    90.0264     6.5807     0.1178     2.4124
  499.0000   -59.8036    18.9310    18.9302     4.9991   111.7279     0.2894     0.1535    90.3410     6.5948     0.1360     2.4306
  499.5000   -59.9622    18.4080    18.5352     5.1369   113.9091     0.2867     0.1493    90.1988     6.6090     0.1890     2.4330
  500.0000   -59.9698    18.0239    18.0949     5.5024   111.2978     0.2795     0.1601    89.3779     6.6383     0.2304     2.4148
  500.5000   -60.2865    17.6156    17.4348     5.1686   106.3997     0.2837     0.1731    86.2906     6.6080     0.2133     2.3914
  501.0000   -60.5861    17.3927    17.0252     5.0261   100.8348     0.2850     0.1688    87.3601     6.6234     0.1681     2.3969
  501.5000   -60.7432    17.2450    16.7778     5.3847    96.7784     0.2826     0.1631    91.1527     6.6388     0.1365     2.4069
  502.0000   -60.7504    16.8988    16.3324     6.6253    95.7294     0.2808     0.1582    94.1889     6.6541     0.1427     2.4160
  502.5000   -60.6038    16.8907    16.3268     7.5020    95.5076     0.2808     0.1512    92.5352     6.6391     0.1322     2.4249
  503.0000   -60.4587    16.8826    16.2084     7.5000    95.5113     0.2738     0.1447    88.9148     6.6240     0.1127     2.4476
  503.5000   -60.3136    16.8746    16.2029     7.3438    95.5150     0.2594     0.1352    88.1663     6.6090     0.0946     2.4567
