~VERSION INFORMATION
 VERS.                2.0:   CWLS LOG ASCII STANDARD - VERSION 2.0
 WRAP.                 NO:   ONE LINE PER DEPTH STEP
~WELL INFORMATION
#MNEM.UNIT      DATA TYPE    INFORMATION
#----------   ------------   ------------------------------
 STRT.F           20.0000:   START DEPTH
 STOP.F         1363.5000:   STOP DEPTH
 STEP.F            0.5000:   STEP LENGTH
 NULL.          -999.2500:   NO VALUE
 COMP.   FLUOR DANIEL INC:   COMPANY
 WELL.   NPR 3 "S" #83-14:   WELL
 FLD .             TEAPOT:   FIELD
 LOC .      S14 T38N R78W:   LOCATION
 CNTY.            NATRONA:   COUNTY
 STAT.            WYOMING:   STATE
 CTRY. UNITED STATES OF AMERICA:   COUNTRY
 SRVC. Schlumberger Well Surveying Corp:   SERVICE COMPANY
 DATE.        22-AUG-1966:   LOGDATE
 API .       490250971000:   API NUMBER
~CURVE INFORMATION
#MNEM.UNIT       API CODE    CURVE DESCRIPTION
#----------   ------------   ------------------------------
 DEPT.F                  :   
 SPR .MV     05 010 01 00:   SPONTANEOUS POTENTIAL FROM RES.
 ASN .OHMM   05 041 16 00:   AMPLIFIED SHORT NORMAL 16"
 CILD.MMHO   05 110 00 00:   CONDUCTIVITY INDUCTION LOG
 ILD .OHMM   05 120 46 00:   INDUCTION LOG DEEP
 CALD.IN     45 280 60 00:   CALIPER
 GRD .GAPI   45 310 01 00:   GAMMA RAY FROM DENSITY LOG
 CORR.G/C3   45 356 01 00:   DENSITY CORRECTION
 RHOB.G/C3   45 350 01 00:   BULK DENSITY
 DPOR.DEC    45 890 12 00:   DENSITY POROSITY SANDSTONE
~PARAMETER INFORMATION
#MNEM.UNIT          VALUE    DESCRIPTION
#----------   ------------   ------------------------------
 PD  .                 GL:   PERMANENT DATUM
 EPD .F              5300:   ELEVATION PERMANENT DATUM
 LMF .                 KB:   LOG MEASURED FROM
 DAPD.F                 5:   FEET ABOVE PERMANENT DATUM
 DMF .                 KB:   DRILLING MEASURED FROM
 EKB .F              5305:   KELLING BUSHING
 EGL .F              5300:   GROUND LEVEL
 DATE.          8-22-1966:   RUN DATE
 RUN .                  1:   RUN NUMBER
 DD  .F              1365:   DEPTH DRILLER
 DL  .F              1363:   DEPTH LOGGER
 BLI .F              1362:   BOTTOM LOG INTERVAL
 TLI .F                20:   TOP LOG INTERVAL
 CS  .IN            8.625:   CASING SIZE
 CBD .F                15:   CASING BOTTOM DRILLER
 CBL .F                20:   CASING BOTTOM LOGGER
 BS  .IN            7.875:   BIT SIZE
 BSD .F              1365:   BIT SIZE AT DEPTH
 DFT .           GEL-CHEM:   DRILLING FLUID TYPE
 DFD .                 10:   DRILLING FLUID DENSITY
 DFV .                 55:   DRILLING FLUID VISCOSITY
 DFL .                  8:   DRILLING FLUID LOSS
 MSS .          FLOW LINE:   MUD SAMPLE SOURCE
 RMS .OHMM           1.86:   RESISTIVITY MUD SAMPLE
 MST .F                73:   MUD SAMPLE TEMPERATURE
 RMF .OHMM           1.13:   RESISTIVITY MUD FILTRATE SAMPLE
 MFST.F                70:   MUD FILTRATE SAMPLE TEMPERATURE
 MFSS.                  M:   MUD FILTRATE SAMPLE SOURCE
 RMB .OHMM           1.32:   RESISTIVITY MUD AT BHT
 BHT .F               102:   BOTTOM HOLE TEMPERATURE
 TCS .HRS               1:   TIME CURCULATED STOPPED
 MRT .F               102:   MAXIMUM RECORDED TEMPERATURE
 LUN .               3527:   LOGGING UNIT NUMBER
 LUL .               CSPR:   LOGGING UNIT LOCATION
 ENGI.          TOLLEFSON:   RECORDING ENGINEER
 WITN.         MAY/TUTTLE:   WITNESSED BY
 CLNT.            A2DTECH:   CLIENT CODE
 ORIG.       2", 5" PRINT:   ORIGIN OF DATA
 UWI .       490250971000:   UNIQUE WELL ID
 DICO. A2D Technologies, Inc.:   DIGITIZING COMPANY
~OTHER INFORMATION
~A   DEPT       SPR       ASN         CILD      ILD         CALD       GRD       CORR        RHOB     DPOR   
# ...
 1151.5000   -44.1124     8.6552   152.8646     6.8505     7.9502   114.0604     0.0216     2.4842     0.0972
 1152.0000   -43.8183     8.5865   151.6533     6.8485     7.9498   112.7521     0.0243     2.4932     0.0998
 1152.5000   -44.0067     8.5520   149.0481     6.9565     7.9506   107.8032     0.0161     2.5149     0.0854
 1153.0000   -44.3250     8.6299   146.4429     7.1111     7.9447   105.2700     0.0159     2.5063     0.0900
 1153.5000   -44.3746     8.7787   143.8377     7.2681     7.9345   107.1200     0.0220     2.4968     0.0886
 1154.0000   -44.2931     9.0256   141.2325     7.4213     7.9260   108.5540     0.0188     2.5089     0.0958
 1154.5000   -44.2055     9.2181   138.7776     7.2249     7.9164   106.5643     0.0144     2.4994     0.0806
 1155.0000   -44.2883     9.2410   140.1136     6.7217     7.9101   101.7213     0.0243     2.4905     0.0998
 1155.5000   -44.5453     9.1850   151.3377     6.0932     7.9100   101.0576     0.0280     2.4954     0.0939
 1156.0000   -44.3831     8.9863   177.6503     5.4869     7.9100   104.6983     0.0236     2.5096     0.0870
 1156.5000   -43.9928     8.3499   203.9765     4.8874     7.9100   107.2669     0.0219     2.5188     0.0826
 1157.0000   -44.0897     7.5704   230.3306     4.5352     7.9100   104.9410     0.0296     2.5150     0.0854
 1157.5000   -44.1894     6.6322   249.0831     4.5083     7.9101   105.8320     0.0389     2.5410     0.0846
 1158.0000   -44.1306     5.6856   246.9797     4.4783     7.9100   108.4191     0.0474     2.5383     0.0718
 1158.5000   -43.7969     5.5665   244.7466     4.4508     7.9104   114.2389     0.0375     2.5003     0.0827
 1159.0000   -43.4658     5.6013   242.5136     4.5055     7.9078   114.7644     0.0316     2.5043     0.0914
 1159.5000   -43.1864     5.7659   240.2806     4.6588     7.8874   117.7053     0.0413     2.4973     0.0942
 1160.0000   -43.8087     6.5760   225.3420     5.1887     7.8678   120.5886     0.0518     2.4695     0.1027
 1160.5000   -44.4855     7.5486   199.0633     6.0407     7.8474   122.4903     0.0622     2.4071     0.1207
 1161.0000   -44.5871     8.5326   172.7792     6.8643     7.8317   124.6777     0.0576     2.3315     0.1437
 1161.5000   -44.4986     9.5072   146.4649     7.6850     7.8424   128.7424     0.0421     2.2935     0.1594
 1162.0000   -44.4058    10.1599   121.7107     8.4364     7.8572   112.7315     0.0245     2.3955     0.1118
 1162.5000   -44.5188    10.6021   115.6276     8.3838     7.8716   106.0890     0.0331     2.4980     0.0578
 1163.0000   -44.7419    10.7490   115.3480     8.3126     7.8860   106.0016     0.0574     2.5575     0.0554
 1163.5000   -44.9639    10.7630   116.5468     8.2448     7.9004   105.5712     0.0376     2.5284     0.0743
 1164.0000   -44.8148    10.7761   117.7572     8.1776     7.9151   103.7806     0.0174     2.4985     0.0942
 1164.5000   -44.6530    10.7892   118.9656     8.1100     7.9286   102.5347     0.0227     2.5101     0.0862
 1165.0000   -45.0777    10.8026   120.1565     8.0521     7.9309   101.4807     0.0351     2.5325     0.0722
 1165.5000   -45.3982    10.8159   120.7415     8.0901     7.9243   102.7332     0.0472     2.5275     0.0734
 1166.0000   -45.3396    10.8292   120.4289     8.1278     7.9121   104.6443     0.0526     2.5375     0.0782
 1166.5000   -45.2654    10.8420   120.0120     8.1648     7.9014   105.4278     0.0431     2.5349     0.0686
 1167.0000   -45.1915    10.8443   119.5952     8.2019     7.8901   104.9204     0.0467     2.5285     0.0770
 1167.5000   -45.2822    11.0351   119.1784     8.2350     7.8788   104.9669     0.0610     2.5491     0.0678
 1168.0000   -45.4314    11.2563   118.7375     8.5427     7.8703   108.4059     0.0724     2.5478     0.0626
 1168.5000   -45.5863    11.5616   113.9721     8.9520     7.8700   107.2307     0.0789     2.5572     0.0475
 1169.0000   -45.7426    12.1955   108.9149     9.3621     7.8699   104.6414     0.0803     2.5728     0.0506
 1169.5000   -46.1715    12.7701   103.8577     9.7599     7.8700   106.9274     0.0893     2.5608     0.0566
 1170.0000   -46.6531    13.2632    98.8005    10.1499     7.8702   104.9873     0.0615     2.5455     0.0626
 1170.5000   -48.3766    13.7564    93.7434    10.5404     7.8701   100.0098     0.0357     2.5314     0.0668
 1171.0000   -49.3592    14.2517    88.6862    10.9523     7.8703    95.0786     0.0412     2.5082     0.0892
 1171.5000   -50.1509    14.6159    84.2803    11.3782     7.8701    89.6769     0.0463     2.5115     0.0856
 1172.0000   -50.9171    14.8974    82.4414    11.6001     7.8698    82.9888     0.0550     2.5187     0.0806
 1172.5000   -52.6675    15.1626    80.6024    11.7811     7.8604    77.6869     0.0414     2.4877     0.0927
 1173.0000   -54.8685    15.5160    78.7634    11.9617     7.8453    81.6335     0.0455     2.4816     0.1046
 1173.5000   -57.1026    15.8534    76.9244    12.1414     7.7709    84.0203     0.0658     2.4839     0.0978
 1174.0000   -58.5144    16.1888    75.0855    12.2471     7.6944    81.0503     0.0876     2.4769     0.1038
 1174.5000   -59.0238    16.5255    73.2465    12.3416     7.6771    77.7240     0.0808     2.4560     0.1106
 1175.0000   -59.0186    16.8618    73.2020    12.2880     7.6655    73.7109     0.0751     2.4764     0.1006
 1175.5000   -59.2019    17.1377    74.3598    12.2385     7.6536    69.5180     0.0930     2.4674     0.1050
 1176.0000   -59.5490    16.9695    75.5177    12.1890     7.6413    67.2655     0.0828     2.4305     0.1187
 1176.5000   -59.8250    16.8086    76.6463    12.1492     7.6316    67.9190     0.0655     2.4044     0.1322
 1177.0000   -59.7061    16.8322    75.8379    12.1511     7.6438    68.7037     0.0676     2.4204     0.1251
 1177.5000   -59.4177    17.0174    74.5133    12.1435     7.6585    69.1068     0.0699     2.4293     0.1190
 1178.0000   -58.0704    17.2033    73.9590    12.0086     7.6728    67.8965     0.0631     2.4009     0.1254
 1178.5000   -56.6009    17.5186    76.2748    11.8771     7.6871    68.5674     0.0557     2.3732     0.1348
 1179.0000   -55.2081    17.8767    77.7032    11.7471     7.7015    69.2907     0.0479     2.3554     0.1413
 1179.5000   -54.5465    18.2372    77.9298    11.6496     7.7199    72.1837     0.0411     2.3634     0.1392
 1180.0000   -53.9206    18.3324    78.1563    11.6955     7.7439    74.0441     0.0322     2.3904     0.1297
 1180.5000   -53.4066    17.8654    78.3829    11.7429     7.7682    72.2303     0.0376     2.4384     0.1118
 1181.0000   -53.5276    17.4885    78.6094    11.6451     7.7923    67.3719     0.0522     2.4860     0.0940
 1181.5000   -53.8318    17.1117    78.6573    11.5055     7.8167    63.0766     0.0638     2.5355     0.0761
 1182.0000   -54.8567    16.7373    79.4160    11.3650     7.8403    65.1196     0.0777     2.5425     0.0635
 1182.5000   -55.8476    16.3493    80.1603    11.2250     7.8655    68.2550     0.0655     2.5472     0.0645
 1183.0000   -56.8442    16.0379    80.9047    11.0808     7.8880    69.6790     0.0435     2.5338     0.0728
 1183.5000   -57.4906    15.6617    81.6633    11.0321     7.9126    71.1175     0.0409     2.5020     0.0880
 1184.0000   -57.7917    15.2936    81.6633    11.0083     7.8746    70.0428     0.0429     2.4703     0.1033
 1184.5000   -57.6464    14.9558    81.6633    10.9851     7.7878    67.6929     0.0294     2.4571     0.1158
 1185.0000   -57.5161    14.8815    81.6633    10.9615     7.7321    67.8865     0.0324     2.4744     0.1047
 1185.5000   -57.5656    14.7878    83.1592    10.8922     7.6993    67.8547     0.0475     2.4803     0.1058
 1186.0000   -58.3910    14.6869    84.5238    10.7808     7.6777    66.9319     0.0604     2.4652     0.1169
 1186.5000   -59.2340    14.5770    85.8884    10.6694     7.6185    66.7390     0.0749     2.4528     0.1266
 1187.0000   -59.1710    14.4601    87.2531    10.5577     7.5216    68.3007     0.0866     2.4495     0.1230
 1187.5000   -58.8017    14.3564    88.6177    10.4462     7.4436    70.5676     0.0911     2.4416     0.1288
