~VERSION INFORMATION
 VERS.                2.0:   CWLS LOG ASCII STANDARD - VERSION 2.0
 WRAP.                 NO:   ONE LINE PER DEPTH STEP
~WELL INFORMATION
#MNEM.UNIT      DATA TYPE    INFORMATION
#----------   ------------   ------------------------------
 STRT.F           40.0000:   START DEPTH
 STOP.F          596.0000:   STOP DEPTH
 STEP.F            0.5000:   STEP LENGTH
 NULL.          -999.2500:   NO VALUE
 COMP. FENIX & SCISSON INC:   COMPANY
 WELL. SX-15 N.O.R. #3 #51-15:   WELL
 FLD .             TEAPOT:   FIELD
 LOC .      S15 T38N R78W:   LOCATION
 CNTY.            NATRONA:   COUNTY
 STAT.            WYOMING:   STATE
 CTRY. UNITED STATES OF AMERICA:   COUNTRY
 SRVC.              Welex:   SERVICE COMPANY
 DATE.        12-MAR-1977:   LOGDATE
 API .       490251031100:   API NUMBER
~CURVE INFORMATION
#MNEM.UNIT       API CODE    CURVE DESCRIPTION
#----------   ------------   ------------------------------
 DEPT.F                  :   
 GRD .GAPI   45 310 01 00:   GAMMA RAY FROM DENSITY LOG
 CALD.IN     45 280 60 00:   CALIPER FROM DENSITY LOG
 CORR.G/C3   45 356 01 00:   DENSITY CORRECTION
 RHOB.G/C3   45 350 01 00:   BULK DENSITY
 DPOR.DEC    45 890 12 00:   DENSITY POROSITY SANDSTONE
 SGRD.OHMM   07 220 05 00:   SHALLOW GUARD RESISTIVITY
 ILD .OHMM   07 120 46 00:   INDUCTION LOG DEEP
 ILM .OHMM   07 120 44 00:   INDUCTION LOG MEDIUM
 SPR .MV     07 010 01 00:   SPONTANEOUS POTENTIAL
~PARAMETER INFORMATION
#MNEM.UNIT          VALUE    DESCRIPTION
#----------   ------------   ------------------------------
 PD  .                 GL:   PERMANENT DATUM
 EPD .F              5221:   ELEVATION PERMANENT DATUM
 LMF .                 GL:   LOG MEASURED FROM
 DMF .                 GL:   DRILLING MEASURED FROM
 EGL .F              5221:   GROUND LEVEL
 DATE.            3-12-77:   RUN DATE
 RUN .                  1:   RUN NUMBER
 DD  .F               600:   DEPTH DRILLER
 DL  .F               597:   DEPTH LOGGER
 BLI .F               596:   BOTTOM LOG INTERVAL
 TLI .F                45:   TOP LOG INTERVAL
 CS  .IN            8.625:   CASING SIZE
 CBD .F                46:   CASING BOTTOM DRILLER
 CBL .F                45:   CASING BOTTOM LOGGER
 BS  .IN            7.875:   BIT SIZE
 BSD .F               600:   BIT SIZE AT DEPTH
 DFT .            KCL-MUD:   DRILLING FLUID TYPE
 DFD .                8.9:   DRILLING FLUID DENSITY
 DFV .                 34:   DRILLING FLUID VISCOSITY
 MSS .            MUD PIT:   MUD SAMPLE SOURCE
 RMS .OHMM            .68:   RESISTIVITY MUD SAMPLE
 MST .F                40:   MUD SAMPLE TEMPERATURE
 RMF .OHMM            .57:   RESISTIVITY MUD FILTRATE SAMPLE
 MFST.F                40:   MUD FILTRATE SAMPLE TEMPERATURE
 RMC .OHMM            .78:   RESISTIVITY MUD CAKE
 MCST.F                40:   MUD CAKE SAMPLE TEMPERATURE
 MFSS.           MEASURED:   MUD FILTRATE SAMPLE SOURCE
 MCSS.           MEASURED:   MUD CAKE SAMPLE SOURCE
 RMB .OHMM            .41:   RESISTIVITY MUD AT BHT
 BHT .F                65:   BOTTOM HOLE TEMPERATURE
 TCS .HRS               3:   TIME CURCULATED STOPPED
 MRT .F                65:   MAXIMUM RECORDED TEMPERATURE
 LUN .                716:   LOGGING UNIT NUMBER
 LUL .             VERNAL:   LOGGING UNIT LOCATION
 ENGI.           CALLAHAN:   RECORDING ENGINEER
 WITN.         STUEBINGER:   WITNESSED BY
 CLNT.            A2DTECH:   CLIENT CODE
 ORIG.       2", 5" PRINT:   ORIGIN OF DATA
 UWI .       490251031100:   UNIQUE WELL ID
 DICO. A2D Technologies, Inc.:   DIGITIZING COMPANY
~OTHER INFORMATION
~A   DEPT       GRD        CALD     CORR       RHOB       DPOR       SGRD        ILD        ILM        SPR   
   40.0000    67.7355     7.9739  -999.2500  -999.2500  -999.2500  -999.2500  -999.2500  -999.2500  -999.2500
   40.5000    70.7415     7.9893  -999.2500  -999.2500  -999.2500  -999.2500  -999.2500  -999.2500  -999.2500
   41.0000    73.7266     7.9759  -999.2500  -999.2500  -999.2500  -999.2500  -999.2500  -999.2500  -999.2500
   41.5000    77.7068     7.9626  -999.2500  -999.2500  -999.2500  -999.2500  -999.2500  -999.2500  -999.2500
   42.0000    80.6925     7.9534  -999.2500  -999.2500  -999.2500  -999.2500  -999.2500  -999.2500  -999.2500
   42.5000    84.6709     7.9390  -999.2500  -999.2500  -999.2500  -999.2500  -999.2500  -999.2500  -999.2500
   43.0000    88.6556     7.9252  -999.2500  -999.2500  -999.2500  -999.2500  -999.2500  -999.2500  -999.2500
   43.5000    92.6386     7.9115  -999.2500  -999.2500  -999.2500  -999.2500  -999.2500  -999.2500  -999.2500
   44.0000    96.6032     7.8979  -999.2500  -999.2500  -999.2500  -999.2500  -999.2500  -999.2500  -999.2500
   44.5000    99.6607     7.8842  -999.2500  -999.2500  -999.2500  -999.2500  -999.2500  -999.2500  -999.2500
   45.0000   100.3434     7.8706    -0.0676  -999.2500  -999.2500  -999.2500  -999.2500  -999.2500  -999.2500
   45.5000   101.0679     7.8569     0.0516  -999.2500  -999.2500  -999.2500  -999.2500  -999.2500  -999.2500
   46.0000   101.7943     7.8432     0.0314     2.3192     0.2004     6.2018     1.4584     4.6601   -58.3832
   46.5000   102.5191     7.8296     0.0307     2.2953     0.2106     6.4944     0.9623     3.7351   -59.3812
   47.0000   103.2458     7.8159     0.0335     2.3072     0.2161     6.2935     0.6511     4.5724   -58.9188
   47.5000   104.0117     7.8022     0.0323     2.3094     0.2101     6.1576     0.5432     5.3513   -59.1920
   48.0000   104.7095     7.7884     0.0310     2.3020     0.2052     7.1649     0.3733     6.1418   -59.4144
   48.5000   105.4015     7.7742     0.0312     2.3286     0.1969     8.2634     0.2826     6.3660   -59.4869
   49.0000   106.0942     7.7831     0.0449     2.3473     0.1867     9.1346     0.3862     6.6406   -59.5586
   49.5000   106.7872     7.7939     0.0552     2.3660     0.1778     9.4639     0.5189     7.0720   -59.6300
   50.0000   107.4801     7.8047     0.0576     2.3826     0.1659     9.7735     0.8087     7.5314   -59.7015
   50.5000   108.1730     7.8155     0.0556     2.3798     0.1686    10.0933     1.9589     8.0207   -59.7731
   51.0000   108.8660     7.8263     0.0501     2.3768     0.1677    10.4235     4.6761     8.5418   -59.8445
   51.5000   109.5589     7.8370     0.0446     2.3739     0.1670    10.7645     6.2937     8.9993   -59.9159
   52.0000   110.2518     7.8478     0.0391     2.3711     0.1731    11.1167     6.7623     9.3876   -60.0016
   52.5000   110.9447     7.8585     0.0364     2.3713     0.1691    11.4997     7.5524     9.6728   -60.1769
   53.0000   111.6377     7.8693     0.0373     2.3737     0.1705    11.7581     8.7226     9.8086   -60.3553
   53.5000   112.3300     7.8801     0.0381     2.3760     0.1722    12.2448    10.0740     9.9689   -60.5335
   54.0000   113.0216     7.8908     0.0390     2.3780     0.1655    12.8481    12.3829    10.2581   -60.7116
   54.5000   113.7187     7.9016     0.0398     2.3831     0.1675    13.2084    12.1671    10.6846   -60.8896
   55.0000   114.5385     7.9123     0.0386     2.3881     0.1606    14.2194    11.7145    10.3249   -61.0677
   55.5000   115.8025     7.9138     0.0316     2.3838     0.1645    14.0889    11.1509     9.6625   -61.2458
   56.0000   117.0523     7.9138     0.0248     2.3727     0.1686    14.2194    10.6143     9.0416   -61.4239
   56.5000   118.2935     7.9138     0.0179     2.3614     0.1727    12.6766    10.1226     8.4604   -61.6020
   57.0000   119.3459     7.9138     0.0111     2.3623     0.1767    10.4874     9.7115     7.9172   -61.7801
   57.5000   119.6799     7.9138     0.0099     2.3691     0.1719     9.1095     8.6205     7.4087   -61.9581
   58.0000   120.0331     7.9138     0.0231     2.3825     0.1637     8.4864     7.2622     7.0742   -62.1363
   58.5000   120.3880     7.9138     0.0248     2.3993     0.1525     8.7297     6.6173     6.7844   -62.3139
   59.0000   120.7422     7.9138     0.0227     2.3983     0.1582     8.9661     6.1449     6.5829   -62.4928
   59.5000   121.0977     7.9138     0.0203     2.3962     0.1552     8.8395     5.9770     6.5546   -62.5968
   60.0000   121.4373     7.9138     0.0261     2.4029     0.1513     8.6435     5.8202     6.5546   -62.6417
   60.5000   121.5049     7.9138     0.0333     2.4094     0.1513     8.7081     5.7083     6.5976   -62.6855
   61.0000   121.5616     7.9138     0.0405     2.4164     0.1433     8.8128     5.8076     6.6911   -62.7300
   61.5000   121.6235     7.9138     0.0442     2.4392     0.1322     8.9809     5.8875     6.7860   -62.7693
   62.0000   121.3957     7.9138     0.0323     2.4265     0.1349     9.3442     5.9686     6.8822   -62.5837
   62.5000   120.9922     7.9138     0.0207     2.4105     0.1405     9.8305     6.0507     6.9798   -62.3800
   63.0000   120.5871     7.9138     0.0174     2.4119     0.1460     9.7938     6.1340     7.0788   -62.1767
   63.5000   120.1808     7.9138     0.0193     2.4153     0.1436     9.7436     6.2184     7.1876   -61.9738
   64.0000   119.7738     7.9138     0.0184     2.4172     0.1417    12.9671     6.2623     7.1876   -61.7709
   64.5000   119.3701     7.9138     0.0157     2.4121     0.1439    11.2469     6.2715     7.1878   -61.5680
   65.0000   119.0190     7.9138     0.0128     2.4094     0.1462     9.8338     6.2808     7.1878   -61.3651
   65.5000   119.0574     7.9138     0.0103     2.4108     0.1472     9.7560     6.2900     7.1877   -61.1622
   66.0000   120.0084     7.9138     0.0161     2.4122     0.1460     9.6739     6.2993     7.1356   -60.9593
   66.5000   121.2304     7.9138     0.0224     2.4138     0.1455     9.5925     6.3086     7.0800   -60.7564
   67.0000   122.8555     7.9138     0.0290     2.4120     0.1461     9.5118     6.3179     6.9915   -60.5534
   67.5000   124.4769     7.9138     0.0249     2.4086     0.1468     9.4778     6.3273     7.0554   -60.3499
   68.0000   126.0812     7.9138     0.0194     2.4051     0.1566     9.4967     6.3366     7.1025   -60.1475
   68.5000   127.5385     7.9138     0.0183     2.4038     0.1538     9.5105     6.3460     7.1218   -59.9898
   69.0000   127.6870     7.9138     0.0257     2.4124     0.1479     9.5244     6.3553     7.0230   -60.0835
   69.5000   127.7723     7.9138     0.0328     2.4214     0.1355     9.5379     6.3647     6.9274   -60.1732
   70.0000   127.1920     7.9138     0.0399     2.4304     0.1223     9.5506     6.3735     7.0674   -60.2621
   70.5000   126.5728     7.9138     0.0470     2.4382     0.1340     9.5607     6.4407     7.3010   -60.3510
   71.0000   127.2573     7.9138     0.0460     2.4383     0.1196     9.8907     6.5201     7.4254   -60.4399
   71.5000   128.3155     7.9138     0.0381     2.4363     0.1297    10.2032     6.6009     7.4831   -60.5292
   72.0000   128.8966     7.9138     0.0303     2.4321     0.1346    10.2977     6.6826     7.5413   -60.6190
   72.5000   128.2664     7.9138     0.0222     2.4218     0.1364    10.1097     6.7653     7.5964   -60.7003
   73.0000   127.9099     7.9138     0.0233     2.4125     0.1454     9.8934     6.8491     7.6406   -60.6311
   73.5000   128.1517     7.9138     0.0293     2.4163     0.1430     9.7358     6.9338     7.6824   -60.5956
   74.0000   128.6436     7.9138     0.0354     2.4221     0.1401    10.2376     7.0196     7.7245   -60.6184
   74.5000   129.3931     7.9138     0.0415     2.4336     0.1336    10.3807     7.1065     7.8622   -60.6399
   75.0000   130.0266     7.9138     0.0476     2.4447     0.1270    10.3765     7.1944     8.0470   -60.6603
   75.5000   129.5901     7.9138     0.0537     2.4563     0.1211    10.8956     7.2835     8.2362   -60.6807
   76.0000   127.6390     7.9138     0.0543     2.4572     0.1208    10.6254     7.3736     8.3798   -60.7011
