~VERSION INFORMATION
 VERS.                2.0:   CWLS LOG ASCII STANDARD - VERSION 2.0
 WRAP.                 NO:   ONE LINE PER DEPTH STEP
~WELL INFORMATION
#MNEM.UNIT      DATA TYPE    INFORMATION
#----------   ------------   ------------------------------
 STRT.F           14.0000:   START DEPTH
 STOP.F          692.5000:   STOP DEPTH
 STEP.F            0.5000:   STEP LENGTH
 NULL.          -999.2500:   NO VALUE
 COMP. FENIX & SCISSON INC:   COMPANY
 WELL. NPR #3 #27-51 SX 11 WP:   WELL
 FLD .        TEAPOT DOME:   FIELD
 LOC .      S11 T38N R78W:   LOCATION
 CNTY.            NATRONA:   COUNTY
 STAT.            WYOMING:   STATE
 CTRY. UNITED STATES OF AMERICA:   COUNTRY
 SRVC.      Dresser Atlas:   SERVICE COMPANY
 DATE.        16-AUG-1980:   LOGDATE
 API .       490251083900:   API NUMBER
~CURVE INFORMATION
#MNEM.UNIT       API CODE    CURVE DESCRIPTION
#----------   ------------   ------------------------------
 DEPT.F                  :   
 RHOB.G/C3   45 350 01 00:   BULK DENSITY
 CORR.G/C3   45 356 01 00:   DENSITY CORRECTION
 GRD .GAPI   45 310 01 00:   GAMMA RAY FROM DENSITY LOG
 CALD.IN     45 280 60 00:   CALIPER
 NPOR.DEC    42 890 03 00:   NEUTRON POROSITY SANDSTONE
 DPOR.DEC    45 890 12 00:   DENSITY POROSITY SANDSTONE
 SPR .MV     07 010 01 00:   SPONTANEOUS POTENTIAL
 SFL .OHMM   07 220 01 00:   SHALLOW FOCUSED LOG RESISTIVITY
 ILM .OHMM   07 120 44 00:   INDUCTION LOG MEDIUM
 ILD .OHMM   07 120 46 00:   INDUCTION LOG DEEP
~PARAMETER INFORMATION
#MNEM.UNIT          VALUE    DESCRIPTION
#----------   ------------   ------------------------------
 PD  .                 GL:   PERMANENT DATUM
 EPD .F              5194:   ELEVATION PERMANENT DATUM
 LMF .                 KB:   LOG MEASURED FROM
 DAPD.F                 5:   FEET ABOVE PERMANENT DATUM
 DMF .                 KB:   DRILLING MEASURED FROM
 EKB .F              5199:   KELLING BUSHING
 EGL .F              5194:   GROUND LEVEL
 DATE.            8-16-80:   RUN DATE
 RUN .                  1:   RUN NUMBER
 DD  .F               685:   DEPTH DRILLER
 DL  .F               693:   DEPTH LOGGER
 BLI .F               692:   BOTTOM LOG INTERVAL
 TLI .F                25:   TOP LOG INTERVAL
 BS  .IN            7.875:   BIT SIZE
 BSD .F               685:   BIT SIZE AT DEPTH
 DFT .                KCL:   DRILLING FLUID TYPE
 DFD .                9.4:   DRILLING FLUID DENSITY
 DFV .                 45:   DRILLING FLUID VISCOSITY
 DFPH.                 11:   DRILLING FLUID PH
 DFL .                7.2:   DRILLING FLUID LOSS
 MSS .           FLOWLINE:   MUD SAMPLE SOURCE
 RMS .OHMM            .74:   RESISTIVITY MUD SAMPLE
 MST .F                60:   MUD SAMPLE TEMPERATURE
 RMF .OHMM            .44:   RESISTIVITY MUD FILTRATE SAMPLE
 MFST.F                60:   MUD FILTRATE SAMPLE TEMPERATURE
 RMC .OHMM           1.35:   RESISTIVITY MUD CAKE
 MCST.F                60:   MUD CAKE SAMPLE TEMPERATURE
 MFSS.               MEAS:   MUD FILTRATE SAMPLE SOURCE
 MCSS.               MEAS:   MUD CAKE SAMPLE SOURCE
 TCS .HRS               1:   TIME CURCULATED STOPPED
 LUN .               6180:   LOGGING UNIT NUMBER
 LUL .               CODY:   LOGGING UNIT LOCATION
 ENGI.              HOYER:   RECORDING ENGINEER
 WITN.           MCINTYRE:   WITNESSED BY
 CLNT.            A2DTECH:   CLIENT CODE
 ORIG.      2" 2.5" PRINT:   ORIGIN OF DATA
 UWI .       490251083900:   UNIQUE WELL ID
 DICO. A2D Technologies, Inc.:   DIGITIZING COMPANY
~OTHER INFORMATION
~A   DEPT     RHOB       CORR        GRD       CALD       NPOR       DPOR        SPR        SFL         ILM       ILD   
# ...
  181.5000     2.4544     0.0186   113.1363     8.1325     0.2876     0.1348   -86.5813     6.5918     6.4274     6.5180
  182.0000     2.4625     0.0221   113.2971     8.1341     0.2876     0.1313   -87.0294     6.5228     6.3622     6.4511
  182.5000     2.4711     0.0251   114.3766     8.1358     0.2876     0.1252   -87.4731     6.5239     6.2970     6.4135
  183.0000     2.4698     0.0276   116.2400     8.1374     0.2911     0.1245   -87.9069     6.4640     6.2309     6.3770
  183.5000     2.4697     0.0302   118.7048     8.1390     0.2943     0.1281   -87.9286     6.4640     6.2309     6.3462
  184.0000     2.4786     0.0326   117.1304     8.1407     0.2972     0.1207   -87.8084     6.5534     6.2309     6.3328
  184.5000     2.4871     0.0356   114.8451     8.1424     0.2955     0.1142   -87.7788     6.6470     6.2309     6.2965
  185.0000     2.4895     0.0329   114.1616     8.1440     0.2924     0.1128   -87.8666     6.7059     6.2309     6.2884
  185.5000     2.4748     0.0260   115.5693     8.1456     0.2893     0.1190   -87.8900     6.5760     6.2309     6.2884
  186.0000     2.4683     0.0264   116.0411     8.1473     0.2861     0.1257   -87.7980     6.4634     6.2308     6.2972
  186.5000     2.4850     0.0368   116.8379     8.1489     0.2829     0.1144   -87.7546     6.4637     6.2308     6.3194
  187.0000     2.4748     0.0253   118.8964     8.1506     0.2798     0.1215   -87.9427     6.5114     6.2297     6.3418
  187.5000     2.4548     0.0086   117.8909     8.1522     0.2780     0.1297   -88.1244     6.5717     6.2567     6.3644
  188.0000     2.4482     0.0078   115.4474     8.1539     0.2812     0.1357   -87.8842     6.6453     6.3205     6.3869
  188.5000     2.4429     0.0115   115.3394     8.1555     0.2849     0.1401   -87.5833     6.6252     6.3468     6.4051
  189.0000     2.4529     0.0190   116.3575     8.1571     0.2885     0.1347   -87.2803     6.5787     6.3464     6.4049
  189.5000     2.4685     0.0263   117.0825     8.1557     0.2908     0.1249   -86.9703     6.5321     6.3464     6.4053
  190.0000     2.4781     0.0249   117.8648     8.1541     0.2908     0.1196   -87.1602     6.5236     6.3459     6.4043
  190.5000     2.4806     0.0206   115.1569     8.1524     0.2865     0.1192   -87.4470     6.6311     6.3721     6.4752
  191.0000     2.4788     0.0162   116.1459     8.1508     0.2855     0.1224   -87.7143     6.6436     6.4145     6.5250
  191.5000     2.4707     0.0166   117.2278     8.1491     0.2868     0.1233   -87.6246     6.6433     6.4569     6.5754
  192.0000     2.4900     0.0174   116.8494     8.1475     0.2836     0.1174   -87.5204     6.8743     6.4996     6.6261
  192.5000     2.5025     0.0183   116.5520     8.1459     0.2787     0.1118   -87.3370     7.0209     6.5425     6.6772
  193.0000     2.4967     0.0190   116.7084     8.1442     0.2738     0.1080   -87.1539     6.8301     6.5838     6.7287
  193.5000     2.4867     0.0199   119.0573     8.1426     0.2715     0.1114   -86.9725     6.8301     6.5838     6.7677
  194.0000     2.4761     0.0157   118.6299     8.1409     0.2733     0.1178   -86.7835     7.0225     6.5838     6.7822
  194.5000     2.4690     0.0106   120.2016     8.1393     0.2757     0.1243   -86.9933     7.1511     6.6641     6.8046
  195.0000     2.4721     0.0082   119.1116     8.1376     0.2781     0.1243   -87.3887     7.0568     6.7059     6.8270
  195.5000     2.4758     0.0142   117.4999     8.1360     0.2805     0.1226   -87.7940     6.9686     6.7059     6.8301
  196.0000     2.4784     0.0195   117.3261     8.1343     0.2828     0.1208   -87.9239     6.9567     6.7059     6.8301
  196.5000     2.4918     0.0251   118.4936     8.1327     0.2802     0.1128   -87.8444     7.0390     6.7846     6.9008
  197.0000     2.5155     0.0306   118.9435     8.1310     0.2761     0.1014   -87.7274     7.1637     6.8763     7.0076
  197.5000     2.5164     0.0319   118.4181     8.1294     0.2720     0.0970   -87.6100     7.2906     6.9696     7.1161
  198.0000     2.4998     0.0249   117.5345     8.1277     0.2683     0.1050   -87.5375     7.4198     7.0641     7.2263
  198.5000     2.4842     0.0174   120.4378     8.1261     0.2683     0.1140   -87.6004     7.4870     7.1511     7.3508
  199.0000     2.4688     0.0098   122.3878     8.1244     0.2683     0.1229   -87.6605     7.4134     7.1511     7.2971
  199.5000     2.4653     0.0082   120.7296     8.1228     0.2697     0.1259   -87.7232     7.3567     7.1021     7.2199
  200.0000     2.4783     0.0131   119.7017     8.1212     0.2733     0.1202   -87.5595     7.3004     7.0693     7.1511
  200.5000     2.4920     0.0181   121.1796     8.1195     0.2770     0.1101   -87.3745     7.2836     7.0370     7.1511
  201.0000     2.4941     0.0232   119.1642     8.1178     0.2812     0.1142   -87.1886     7.2836     7.0204     7.1511
  201.5000     2.4887     0.0283   120.5721     8.1168     0.2820     0.1119   -87.0045     7.3818     7.0908     7.1511
  202.0000     2.5017     0.0333   122.8650     8.1169     0.2779     0.1048   -86.8215     7.5242     7.2313     7.2571
  202.5000     2.4971     0.0387   124.2110     8.1169     0.2730     0.1058   -86.8667     7.6692     7.3746     7.3759
  203.0000     2.5095     0.0385   121.8183     8.1169     0.2716     0.1059   -87.1434     7.8169     7.5207     7.4966
  203.5000     2.5008     0.0351   121.3225     8.1169     0.2742     0.1032   -87.4236     7.9675     7.6697     7.6193
  204.0000     2.4877     0.0322   120.8358     8.1170     0.2768     0.1134   -87.7198     8.1209     7.8217     7.7440
  204.5000     2.4748     0.0290   119.5524     8.1169     0.2794     0.1197   -87.3784     8.2773     7.9767     7.8708
  205.0000     2.4774     0.0308   117.4488     8.1201     0.2820     0.1176   -86.9883     8.4367     8.1347     8.0074
  205.5000     2.4845     0.0354   115.7749     8.1247     0.2820     0.1144   -86.6040     8.6975     8.2959     8.2042
  206.0000     2.4889     0.0316   115.1128     8.1292     0.2769     0.1155   -86.3230     9.1632     8.4603     8.4058
  206.5000     2.4739     0.0182   113.1369     8.1337     0.2708     0.1236   -86.3339     8.8159     8.6279     8.6124
  207.0000     2.4597     0.0043   111.4919     8.1383     0.2675     0.1345   -86.3025     8.1903     8.7989     8.8241
  207.5000     2.4485     0.0099   112.8466     8.1428     0.2788     0.1310   -85.6985     7.9111     8.9732     9.0410
  208.0000     2.4685     0.0220   114.3383     8.1474     0.2761     0.1265   -84.7818     8.0715     9.1653     9.2632
  208.5000     2.4873     0.0329   112.2387     8.1519     0.2707     0.1156   -84.6752     8.3592     9.1623     9.5060
  209.0000     2.4955     0.0428   110.3299     8.1564     0.2654     0.1123   -86.0755     8.9478     9.0860     9.5060
  209.5000     2.4880     0.0284   112.0347     8.1610     0.2601     0.1136   -85.1495     9.6239     9.0179     9.3696
  210.0000     2.4973     0.0137   112.2934     8.1655     0.2571     0.1128   -83.7836     9.9527     8.9506     9.2687
  210.5000     2.4708     0.0078   111.3021     8.1700     0.2617     0.1233   -82.4666     8.9097     8.8839     9.1689
  211.0000     2.4767     0.0164   113.2005     8.1746     0.2683     0.1204   -81.8463     8.2828     8.8176     9.0702
  211.5000     2.4844     0.0286   114.4188     8.1791     0.2668     0.1144   -81.4361     8.2828     8.7518     8.9726
  212.0000     2.4884     0.0269   113.2961     8.1836     0.2680     0.1204   -81.2139     8.5431     8.6865     8.8760
  212.5000     2.4697     0.0122   111.4607     8.1883     0.2701     0.1294   -80.9902     8.6737     8.6217     8.8327
  213.0000     2.4564     0.0082   112.5749     8.1926     0.2573     0.1307   -81.0399     8.5022     8.5927     8.8327
  213.5000     2.4615     0.0169   115.6035     8.1971     0.2571     0.1264   -81.6714     8.3557     8.5927     8.8327
  214.0000     2.4713     0.0238   117.3577     8.1911     0.2622     0.1221   -83.0084     8.2071     8.5926     8.8209
  214.5000     2.4808     0.0314   116.4551     8.1844     0.2667     0.1179   -84.2048     8.2071     8.5932     8.7456
