~VERSION INFORMATION
 VERS.                2.0:   CWLS LOG ASCII STANDARD - VERSION 2.0
 WRAP.                 NO:   ONE LINE PER DEPTH STEP
~WELL INFORMATION
#MNEM.UNIT      DATA TYPE    INFORMATION
#----------   ------------   ------------------------------
 STRT.F           64.0000:   START DEPTH
 STOP.F          795.0000:   STOP DEPTH
 STEP.F            0.5000:   STEP LENGTH
 NULL.          -999.2500:   NO VALUE
 COMP. LAWRENCE/ALLISON INC:   COMPANY
 WELL.      23-61 SX #2-2:   WELL
 FLD .             TEAPOT:   FIELD
 LOC .       S2 T38N R78W:   LOCATION
 CNTY.            NATRONA:   COUNTY
 STAT.            WYOMING:   STATE
 CTRY. UNITED STATES OF AMERICA:   COUNTRY
 SRVC.              Welex:   SERVICE COMPANY
 DATE.        14-AUG-1985:   LOGDATE
 API .       490251103800:   API NUMBER
~CURVE INFORMATION
#MNEM.UNIT       API CODE    CURVE DESCRIPTION
#----------   ------------   ------------------------------
 DEPT.F                  :   
 SPR .MV     07 010 01 00:   SPONTANEOUS POTENTIAL
 ILD .OHMM   07 120 46 00:   INDUCTION LOG DEEP
 ILM .OHMM   07 120 44 00:   INDUCTION LOG MEDIUM
 SGRD.OHMM   07 221 05 00:   SHALLOW SHORT GUARD RESISTIVITY
 DPHI.DEC    45 890 12 00:   DENSITY POROSITY SANDSTONE
 NPHI.DEC    42 890 03 00:   NEUTRON POROSITY SANDSTONE
 GRD .GAPI   45 310 01 00:   GAMMA RAY FROM DENSITY LOG
 CALD.IN     45 280 60 00:   CALIPER FROM DENSITY
 CORR.G/C3   45 356 01 00:   DENSITY CORRECTION
 RHOB.G/C3   45 350 01 00:   BULK DENSITY
~PARAMETER INFORMATION
#MNEM.UNIT          VALUE    DESCRIPTION
#----------   ------------   ------------------------------
 PD  .                 GL:   PERMANENT DATUM
 EPD .F              5112:   ELEVATION PERMANENT DATUM
 LMF .                 GL:   LOG MEASURED FROM
 DMF .                 GL:   DRILLING MEASURED FROM
 EGL .F              5112:   GROUND LEVEL
 DATE.        14-AUG-1985:   RUN DATE
 RUN .                  1:   RUN NUMBER
 DD  .F               800:   DEPTH DRILLER
 DL  .F               797:   DEPTH LOGGER
 BLI .F               795:   BOTTOM LOG INTERVAL
 TLI .F                76:   TOP LOG INTERVAL
 CS  .IN            8.625:   CASING SIZE
 CBD .F                76:   CASING BOTTOM DRILLER
 CBL .F                76:   CASING BOTTOM LOGGER
 BS  .IN            7.875:   BIT SIZE
 BSD .F               800:   BIT SIZE AT DEPTH
 DFT .                KCL:   DRILLING FLUID TYPE
 MSS .               TANK:   MUD SAMPLE SOURCE
 RMS .OHMM           0.22:   RESISTIVITY MUD SAMPLE
 MST .F                64:   MUD SAMPLE TEMPERATURE
 MFSS.               MEAS:   MUD FILTRATE SAMPLE SOURCE
 TCS .HRS            2230:   TIME CURCULATED STOPPED
 TLAB.HRS            0200:   TIME LOGGER AT BOTTOM
 LUN .               1892:   LOGGING UNIT NUMBER
 LUL .             CASPER:   LOGGING UNIT LOCATION
 ENGI.         T. QUINLAN:   RECORDING ENGINEER
 WITN.        N. JENNINGS:   WITNESSED BY
 CLNT.            A2DTECH:   CLIENT CODE
 ORIG.        2" 5" PRINT:   ORIGIN OF DATA
 UWI .       490251103800:   UNIQUE WELL ID
 DICO. A2D Technologies, Inc.:   DIGITIZING COMPANY
 R1  . POROSITY WITH SANDSTONE:   REMARKS 1
~OTHER INFORMATION
~A   DEPT      SPR        ILD        ILM       SGRD       DPHI       NPHI         GRD      CALD       CORR       RHOB   
# ...
   97.5000   -55.1347     2.0350     2.4194     3.6606     0.2859     0.4019    97.6767     8.0891     0.0332     2.2198
   98.0000   -53.6443     1.9639     2.2890     3.3170     0.3102     0.4076    99.7512     8.0879     0.0300     2.1895
   98.5000   -52.7518     1.9219     2.2246     3.0266     0.3275     0.4338    96.4628     8.0867     0.0329     2.1387
   99.0000   -52.9059     1.9612     2.2545     2.7617     0.3260     0.4599    96.4510     8.0558     0.0229     2.1235
   99.5000   -53.9567     2.0294     2.3494     2.6277     0.3106     0.4704    96.4393     8.0249    -0.0219     2.1651
  100.0000   -52.4664     2.1295     2.5530     2.5715     0.2886     0.4343    97.0258     8.0088    -0.0265     2.2316
  100.5000   -50.6775     2.2659     2.8159     3.7180     0.2435     0.3982    96.7135     7.9928     0.0718     2.2868
  101.0000   -49.7840     2.3944     3.1309     5.2288     0.2113     0.3767    94.9161     7.9767     0.0755     2.3224
  101.5000   -49.1905     2.6753     3.4641     5.8411     0.1989     0.3609    90.7377     7.9756     0.0724     2.3458
  102.0000   -49.1961     3.0525     3.7121     5.3671     0.2068     0.3552    85.0712     7.9744     0.0533     2.3381
  102.5000   -49.6490     3.2481     3.9228     5.2147     0.2111     0.3543    79.7023     7.9886     0.0479     2.3252
  103.0000   -50.6998     3.3377     4.0595     5.2100     0.2126     0.3559    85.3728     8.0018     0.0500     2.3221
  103.5000   -51.1527     3.3354     4.0855     5.2417     0.2139     0.3550    89.0354     8.0155     0.0499     2.3198
  104.0000   -50.8582     3.2869     4.0545     5.2738     0.2160     0.3538    93.2141     8.0441     0.0505     2.3141
  104.5000   -49.5173     3.2166     3.9680     5.1598     0.2188     0.3547    95.1316     8.0727     0.0459     2.3109
  105.0000   -48.6249     3.0819     3.8564     4.9094     0.2252     0.3587    93.3313     8.0864     0.0336     2.3017
  105.5000   -48.6294     2.9748     3.7470     4.6701     0.2367     0.3614    92.7243     8.1001     0.0213     2.2781
  106.0000   -50.5770     2.8887     3.6425     4.5363     0.2507     0.3609    93.6055     8.0838     0.0069     2.2651
  106.5000   -52.6742     2.7649     3.5081     4.3759     0.2532     0.3600    99.8437     8.0677     0.0084     2.2589
  107.0000   -52.8291     2.6517     3.3426     4.2171     0.2550     0.3682   105.7844     8.0666     0.0114     2.2550
  107.5000   -51.9332     2.5440     3.2440     4.1336     0.2563     0.3833   109.3441     8.0654     0.0156     2.2526
  108.0000   -52.2452     2.4723     3.0727     4.1292     0.2566     0.3976   111.1210     8.0642     0.0215     2.2502
  108.5000   -53.6175     2.4194     2.9449     4.0119     0.2663     0.4003   107.8326     8.0631     0.0214     2.2387
  109.0000   -54.6398     2.4177     2.8224     3.7381     0.2764     0.3967   105.7375     8.0619     0.0213     2.2189
  109.5000   -54.7936     2.4500     2.7430     3.4348     0.2806     0.3977   104.5353     8.0607     0.0265     2.2089
  110.0000   -52.9446     2.5352     2.7993     3.1561     0.2776     0.4149   106.0117     8.0596     0.0324     2.2191
  110.5000   -50.9251     2.6422     3.1499     3.2425     0.2601     0.4163   108.3809     8.0733     0.0467     2.2607
  111.0000   -48.5709     2.7528     3.5197     3.7771     0.2386     0.3903   109.5953     8.0718     0.0640     2.3220
  111.5000   -46.2924     2.9497     3.9056     5.6561     0.2017     0.3621   107.6150     8.0706     0.0820     2.3970
  112.0000   -45.6989     3.4850     4.2738     6.7280     0.1608     0.3315   101.9840     8.0846     0.0781     2.4120
  112.5000   -44.6570     3.6826     4.6118     6.5827     0.1590     0.3257    98.8073     8.0832     0.0704     2.4089
  113.0000   -44.0625     3.8913     4.7734     6.3513     0.1666     0.3294    97.3075     8.1118     0.0620     2.3974
  113.5000   -45.1144     4.1696     4.9390     6.2577     0.1709     0.3315    99.9744     8.1106     0.0535     2.3912
  114.0000   -47.3610     4.4368     5.0756     6.2972     0.1755     0.3337    96.0936     8.1094     0.0443     2.3850
  114.5000   -49.3087     4.5600     5.2525     6.3356     0.1752     0.3325    96.6771     8.1083     0.0351     2.3910
  115.0000   -48.1173     4.5887     5.4356     6.3742     0.1716     0.3289    99.0463     8.1071     0.0297     2.3976
  115.5000   -45.7301     4.5848     5.5472     6.4117     0.1695     0.3253   100.8233     8.1059     0.0258     2.3990
  116.0000   -47.2294     4.7113     5.6610     6.5414     0.1696     0.3256    98.4277     8.0899     0.0249     2.3959
  116.5000   -49.3265     4.8076     5.8993     6.7220     0.1711     0.3265    95.7374     8.0577     0.0248     2.3988
  117.0000   -51.7226     4.9403     6.1050     7.0999     0.1693     0.3266    95.4280     8.0429     0.0247     2.3969
  117.5000   -51.8754     5.1479     6.3620     7.5007     0.1721     0.3233    96.3092     8.0266     0.0230     2.3917
  118.0000   -49.4893     5.4019     6.6763     7.8691     0.1742     0.3206    97.1905     8.0105     0.0221     2.3863
  118.5000   -47.4011     5.6692     6.9574     8.0285     0.1734     0.3218    95.0924     8.0093     0.0219     2.3945
  119.0000   -46.0603     5.8655     7.0019     8.0774     0.1707     0.3258    93.5735     8.0082     0.0249     2.3996
  119.5000   -45.4668     5.9477     7.1454     8.1266     0.1652     0.3279    93.6240     8.0070     0.0286     2.4063
  120.0000   -45.1712     6.0232     7.1910     8.2333     0.1626     0.3282    95.9500     7.9910     0.0315     2.4100
  120.5000   -45.3263     6.0188     7.1865     8.1100     0.1614     0.3251    98.3193     7.9749     0.0337     2.4091
  121.0000   -45.9286     6.0138     7.1819     7.8815     0.1644     0.3243    99.4980     7.9737     0.0343     2.4037
  121.5000   -47.1289     6.0097     7.1275     7.6522     0.1678     0.3270    99.7839     7.9726     0.0342     2.4005
  122.0000   -48.0302     5.9638     7.0736     7.4332     0.1690     0.3292   100.3704     8.0012     0.0324     2.3974
  122.5000   -47.7357     5.9597     7.0693     7.4336     0.1700     0.3292   100.6563     8.0149     0.0291     2.3972
  123.0000   -47.4412     5.8322     7.1143     7.5840     0.1676     0.3257   101.8321     8.0137     0.0270     2.4016
  123.5000   -47.2951     5.7876     7.1597     7.6819     0.1628     0.3222   103.0109     8.0274     0.0329     2.4099
  124.0000   -48.1975     5.7434     7.1541     7.7305     0.1550     0.3198   103.8949     8.0408     0.0389     2.4234
  124.5000   -48.9494     5.7394     7.0506     7.6148     0.1473     0.3187   102.9874     8.0397     0.0478     2.4361
  125.0000   -48.3559     5.7355     6.9972     7.4504     0.1447     0.3249   101.1900     8.0236     0.0538     2.4413
  125.5000   -47.1646     5.7716     6.9928     7.3919     0.1451     0.3354    98.7973     8.0224     0.0567     2.4348
  126.0000   -46.2722     5.7676     6.9885     7.3853     0.1537     0.3454    98.1431     8.0213     0.0520     2.4082
  126.5000   -47.0240     5.8050     7.0330     7.3786     0.1643     0.3473    99.0715     7.9903     0.0443     2.4013
  127.0000   -47.4769     5.8000     7.0287     7.4236     0.1680     0.3422    96.9503     7.9594     0.0435     2.3983
  127.5000   -47.4814     5.8785     7.1241     7.4705     0.1665     0.3345    95.0891     7.9434     0.0501     2.4043
  128.0000   -46.7384     5.9569     7.1684     7.3587     0.1593     0.3267    94.2744     7.8976     0.0553     2.4140
  128.5000   -45.8460     5.9518     7.3166     7.3010     0.1533     0.3186    99.0217     7.8964     0.0605     2.4237
  129.0000   -44.9536     5.9904     7.5179     7.2944     0.1513     0.3162   102.5814     7.9250     0.0619     2.4274
  129.5000   -45.4130     6.1118     7.6721     7.4941     0.1526     0.3163   104.6530     7.9536     0.0572     2.4166
  130.0000   -45.5605     6.1503     7.8295     7.9172     0.1653     0.3187   101.0699     7.9970     0.0457     2.4036
  130.5000   -45.0897     6.2326     8.1024     8.1909     0.1693     0.3209    95.7010     8.0108     0.0343     2.3952
