~VERSION INFORMATION
 VERS.                2.0:   CWLS LOG ASCII STANDARD - VERSION 2.0
 WRAP.                 NO:   ONE LINE PER DEPTH STEP
~WELL INFORMATION
#MNEM.UNIT      DATA TYPE    INFORMATION
#----------   ------------   ------------------------------
 STRT.F           30.0000:   START DEPTH
 STOP.F          458.0000:   STOP DEPTH
 STEP.F            0.5000:   STEP LENGTH
 NULL.          -999.2500:   NO VALUE
 COMP. FENIX & SCISSON INC:   COMPANY
 WELL. NPR 3 #53 SX 10-10:   WELL
 FLD .             TEAPOT:   FIELD
 LOC .      S10 T38N R78W:   LOCATION
 CNTY.            NATRONA:   COUNTY
 STAT.            WYOMING:   STATE
 CTRY. UNITED STATES OF AMERICA:   COUNTRY
 SRVC.              Welex:   SERVICE COMPANY
 DATE.        16-APR-1977:   LOGDATE
 API .       490251033200:   API NUMBER
~CURVE INFORMATION
#MNEM.UNIT       API CODE    CURVE DESCRIPTION
#----------   ------------   ------------------------------
 DEPT.F                  :   
 SPR .MV     07 010 01 00:   SPONTANEOUS POTENTIAL FROM RES.
 ILD .OHMM   07 120 46 00:   INDUCTION LOG DEEP
 ILM .OHMM   07 120 44 00:   INDUCTION LOG MEDIUM
 SGRD.OHMM   07 220 05 00:   SHALLOW GUARD RESISTIVITY
 GRD .GAPI   45 310 01 00:   GAMMA RAY FROM DENSITY LOG
 CALD.IN     45 280 60 00:   CALIPER FROM DENSITY LOG
 CORR.G/C3   45 356 01 00:   DENSITY CORRECTION
 RHOB.G/C3   45 350 01 00:   BULK DENSITY
 DPHI.DEC    45 890 12 00:   DENSITY POROSITY SANDSTONE
~PARAMETER INFORMATION
#MNEM.UNIT          VALUE    DESCRIPTION
#----------   ------------   ------------------------------
 PD  .                 GL:   PERMANENT DATUM
 EPD .F              5180:   ELEVATION PERMANENT DATUM
 LMF .                 GL:   LOG MEASURED FROM
 DMF .                 GL:   DRILLING MEASURED FROM
 EGL .F              5180:   GROUND LEVEL
 DATE.        16-APR-1977:   RUN DATE
 RUN .                  1:   RUN NUMBER
 DD  .F               455:   DEPTH DRILLER
 DL  .F               461:   DEPTH LOGGER
 BLI .F               459:   BOTTOM LOG INTERVAL
 TLI .F                30:   TOP LOG INTERVAL
 CS  .IN            8.625:   CASING SIZE
 BS  .IN            7.875:   BIT SIZE
 BSD .F               455:   BIT SIZE AT DEPTH
 DFT .            KCL MUD:   DRILLING FLUID TYPE
 DFD .                8.9:   DRILLING FLUID DENSITY
 TCS .HRS            0600:   TIME CURCULATED STOPPED
 MRT .F                66:   MAXIMUM RECORDED TEMPERATURE
 ENGI.               DOAK:   RECORDING ENGINEER
 WITN.      B. HARRINGTON:   WITNESSED BY
 CLNT.            A2DTECH:   CLIENT CODE
 ORIG.           5" PRINT:   ORIGIN OF DATA
 UWI .       490251033200:   UNIQUE WELL ID
 DICO. A2D Technologies, Inc.:   DIGITIZING COMPANY
~OTHER INFORMATION
~A   DEPT      SPR        ILD        ILM       SGRD         GRD        CALD      CORR        RHOB     DPHI   
# ...
  431.5000   -42.0763     9.3273    14.1230    15.4120   107.9971     7.7106     0.0050     2.4583     0.1117
  432.0000   -42.0585     9.0159    14.3285    15.2108   110.7726     7.7114     0.0082     2.4644     0.1102
  432.5000   -41.8927     9.0215    14.5371    15.1138   110.2575     7.7123     0.0098     2.4675     0.1090
  433.0000   -41.8748     9.0271    14.5462    15.2319   106.1724     7.7132     0.0130     2.4729     0.1068
  433.5000   -42.0094     9.0327    13.9637    15.2424   103.5135     7.7141     0.0146     2.4768     0.1050
  434.0000   -42.4308     9.0384    13.5892    15.5727   103.1529     7.7150     0.0193     2.4829     0.0996
  434.5000   -42.5654     9.0440    13.5997    15.6916   105.0906     7.7159     0.0225     2.4913     0.0935
  435.0000   -42.5430     9.0496    13.9899    15.7025   106.9193     7.7019     0.0271     2.4951     0.0908
  435.5000   -42.5252     9.0553    14.0957    15.2847   110.3665     7.6879     0.0288     2.4960     0.0907
  436.0000   -42.3594     9.0609    14.0051    14.6737   113.2868     7.6739     0.0289     2.5014     0.0901
  436.5000   -42.3415     8.8804    13.6337    14.3799   112.3952     7.6748     0.0321     2.5037     0.0898
  437.0000   -42.0278     8.6435    13.1786    14.0968   114.3899     7.6757     0.0338     2.5016     0.0894
  437.5000   -42.0100     8.1271    12.8250    14.0070   117.4596     7.6915     0.0339     2.5017     0.0882
  438.0000   -42.1445     7.8016    12.2286    13.7289   116.2769     7.7073     0.0371     2.5048     0.0858
  438.5000   -42.2746     7.6981    12.1500    13.6437   111.0823     7.7082     0.0420     2.5102     0.0821
  439.0000   -42.4047     7.7041    12.2438    13.3729    94.7435     7.7240     0.0479     2.5171     0.0764
  439.5000   -42.5347     7.9251    12.5082    13.0171    68.7465     7.7398     0.0526     2.5239     0.0746
  440.0000   -42.5124     8.1968    12.3441    12.9363    50.2081     7.7407     0.0542     2.5214     0.0769
  440.5000   -42.3466     8.3773    11.9321    13.0374  -999.2500     7.7267     0.0529     2.5152     0.0826
  441.0000   -42.1808     8.3860    11.6944    13.0464  -999.2500     7.6829     0.0484     2.5032     0.0883
  441.5000   -41.8671     8.4529    11.6192    12.9632  -999.2500     7.6838     0.0425     2.4906     0.0940
  442.0000   -41.7013     8.8813    11.6283    12.8828  -999.2500     7.6697     0.0367     2.4877     0.0990
  442.5000   -41.6835     9.7942    11.5536    12.9820  -999.2500     7.6557     0.0293     2.4938     0.1059
  443.0000   -41.2218    12.4889    11.3234    12.9910  -999.2500     7.6417     0.0235     2.4729     0.1104
  443.5000   -40.7602    22.1935    11.0231    12.3871  -999.2500     7.6277     0.0191     2.4610     0.1133
  444.0000   -40.4465    19.0814    10.4364     7.9630  -999.2500     7.6286     0.0178     2.4544     0.1152
  444.5000   -40.2807    22.8633     9.8128     7.0836  -999.2500     7.6295     0.0179     2.4522     0.1154
  445.0000   -40.2629    26.8323    10.7424    10.5147  -999.2500     7.6304     0.0166     2.4553     0.1148
  445.5000   -40.0971    40.9535    13.4113    14.6637  -999.2500     7.6313     0.0152     2.4615     0.1129
  446.0000   -39.7594    14.7332    14.4801     6.8582  -999.2500     7.6322     0.0139     2.4755     0.1076
  446.5000   -38.3654    21.1302    14.8955     7.1044  -999.2500     7.6331     0.0125     2.4760     0.1068
  447.0000   -36.5621    41.9422    15.0082     7.3087  -999.2500     7.6340     0.0127     2.4772     0.1051
  447.5000   -32.4950   113.6409    15.0176     7.9465  -999.2500     7.6200     0.0128     2.4840     0.0999
  448.0000   -26.9485    17.1065    15.0254     8.8823  -999.2500     7.6209     0.0145     2.4913     0.0926
  448.5000   -20.0264    15.6521  -999.2500    10.7873  -999.2500     7.6218     0.0146     2.4974     0.0899
  449.0000    -9.8220    14.8252  -999.2500    13.3753  -999.2500     7.6227     0.0193     2.5013     0.0875
  449.5000    -3.2481    14.9435  -999.2500    14.1459  -999.2500     7.6236     0.0209     2.5044     0.0838
  450.0000    -1.0355    16.0300  -999.2500    14.3754  -999.2500     7.6245     0.0256     2.5098     0.0805
  450.5000    -0.7218    16.7264  -999.2500    15.5943  -999.2500     7.6254     0.0273     2.5136     0.0789
  451.0000    -1.1477    18.5737  -999.2500    16.0311  -999.2500     7.6263     0.0319     2.5167     0.0801
  451.5000    -1.5740    19.3806  -999.2500    16.4796  -999.2500     7.6421     0.0321     2.5138     0.0846
  452.0000    -1.8521    57.9613  -999.2500    17.0641  -999.2500     7.6429     0.0307     2.5019     0.0904
  452.5000    -1.6859   166.8020  -999.2500    17.2968  -999.2500     7.6438     0.0278     2.4931     0.0947
  453.0000    -1.5201  1125.8497  -999.2500    13.2084  -999.2500     7.6447     0.0265     2.4864     0.0968
  453.5000    -1.2064    49.1638  -999.2500    14.3616  -999.2500     7.6456     0.0251     2.4843     0.0968
  454.0000    -1.3373    20.4510  -999.2500    15.3872  -999.2500     7.6465     0.0268     2.4874     0.0934
  454.5000    -1.4710    20.4722  -999.2500    15.8099  -999.2500     7.6474     0.0345     2.4935     0.0892
  455.0000    -1.4487    20.4935  -999.2500    15.5927  -999.2500     7.6483     0.0452     2.4996     0.0871
  455.5000    -1.2829    20.5147  -999.2500    15.5927  -999.2500     7.6343     0.0529     2.5005     0.0894
  456.0000    -0.9692    20.3945  -999.2500    15.4853  -999.2500     7.5905     0.0591     2.4968     0.0945
  456.5000    -1.5430    20.5609  -999.2500    15.4853  -999.2500     7.5467     0.0637     2.4880     0.1005
  457.0000    -2.4655    20.5609  -999.2500    15.3786  -999.2500     7.4729     0.0669     2.4761     0.1070
  457.5000  -999.2500  -999.2500  -999.2500  -999.2500  -999.2500     7.1162     0.0701     2.4690     0.1109
  458.0000  -999.2500  -999.2500  -999.2500  -999.2500  -999.2500     6.0438     0.0717     2.4672     0.1112
