~VERSION INFORMATION
 VERS.                2.0:   CWLS LOG ASCII STANDARD - VERSION 2.0
 WRAP.                 NO:   ONE LINE PER DEPTH STEP
~WELL INFORMATION
#MNEM.UNIT      DATA TYPE    INFORMATION
#----------   ------------   ------------------------------
 STRT.F           30.0000:   START DEPTH
 STOP.F          580.0000:   STOP DEPTH
 STEP.F            0.5000:   STEP LENGTH
 NULL.          -999.2500:   NO VALUE
 COMP. FENIX & SCISSON INC:   COMPANY
 WELL.      87 SX 3 #87-3:   WELL
 FLD .             TEAPOT:   FIELD
 LOC .       S3 T38N R78W:   LOCATION
 CNTY.            NATRONA:   COUNTY
 STAT.            WYOMING:   STATE
 CTRY. UNITED STATES OF AMERICA:   COUNTRY
 SRVC.            Unknown:   SERVICE COMPANY
 DATE.        16-NOV-1978:   LOGDATE
 API .       490251074200:   API NUMBER
~CURVE INFORMATION
#MNEM.UNIT       API CODE    CURVE DESCRIPTION
#----------   ------------   ------------------------------
 DEPT.F                  :   
 CALD.IN     45 280 60 00:   CALIPER
 GRD .GAPI   45 310 01 00:   GAMMA RAY FROM DENSITY LOG
 RHOB.G/C3   45 350 01 00:   BULK DENSITY
 DPHI.DEC    45 890 12 00:   DENSITY POROSITY SANDSTONE
 CORR.G/C3   45 356 01 00:   DENSITY CORRECTION
 SFL .OHMM   05 221 01 00:   AMP. SHALLOW FOCUSED LOG RESISTIVITY
 ILD .OHMM   05 120 46 00:   INDUCTION LOG DEEP
 SPR .MV     05 010 01 00:   SPONTANEOUS POTENTIAL FROM RES.
~PARAMETER INFORMATION
#MNEM.UNIT          VALUE    DESCRIPTION
#----------   ------------   ------------------------------
 PD  .                 GL:   PERMANENT DATUM
 EPD .F              5120:   ELEVATION PERMANENT DATUM
 LMF .                 KB:   LOG MEASURED FROM
 DAPD.F                 4:   FEET ABOVE PERMANENT DATUM
 DMF .                 KB:   DRILLING MEASURED FROM
 EKB .F              5124:   KELLING BUSHING
 EGL .F              5120:   GROUND LEVEL
 DATE.           11-16-78:   RUN DATE
 RUN .                  1:   RUN NUMBER
 DD  .F               580:   DEPTH DRILLER
 DL  .F               574:   DEPTH LOGGER
 BLI .F               574:   BOTTOM LOG INTERVAL
 TLI .F                50:   TOP LOG INTERVAL
 CS  .IN            8.625:   CASING SIZE
 CBD .F                50:   CASING BOTTOM DRILLER
 CBL .F                50:   CASING BOTTOM LOGGER
 BS  .IN            7.875:   BIT SIZE
 BSD .F               580:   BIT SIZE AT DEPTH
 DFT .            SEA MUD:   DRILLING FLUID TYPE
 DFD .                8.7:   DRILLING FLUID DENSITY
 DFV .                 54:   DRILLING FLUID VISCOSITY
 DFPH.                9.8:   DRILLING FLUID PH
 MSS .           FLOWLINE:   MUD SAMPLE SOURCE
 RMS .OHMM            1.1:   RESISTIVITY MUD SAMPLE
 MST .F                56:   MUD SAMPLE TEMPERATURE
 RMF .OHMM             .9:   RESISTIVITY MUD FILTRATE SAMPLE
 MFST.F                60:   MUD FILTRATE SAMPLE TEMPERATURE
 RMC .OHMM            .95:   RESISTIVITY MUD CAKE
 MCST.F                60:   MUD CAKE SAMPLE TEMPERATURE
 MFSS.           MEASURED:   MUD FILTRATE SAMPLE SOURCE
 MCSS.           MEASURED:   MUD CAKE SAMPLE SOURCE
 RMB .OHMM            .93:   RESISTIVITY MUD AT BHT
 BHT .F                66:   BOTTOM HOLE TEMPERATURE
 TCS .HRS               1:   TIME CURCULATED STOPPED
 MRT .F                66:   MAXIMUM RECORDED TEMPERATURE
 LUN .               2958:   LOGGING UNIT NUMBER
 LUL .                CPR:   LOGGING UNIT LOCATION
 ENGI.             MILLER:   RECORDING ENGINEER
 WITN.           DINSMORE:   WITNESSED BY
 CLNT.            A2DTECH:   CLIENT CODE
 ORIG.       2", 5" PRINT:   ORIGIN OF DATA
 UWI .       490251074200:   UNIQUE WELL ID
 DICO. A2D Technologies, Inc.:   DIGITIZING COMPANY
~OTHER INFORMATION
~A   DEPT     CALD         GRD      RHOB       DPHI       CORR        SFL        ILD        SPR   
# ...
  313.5000     8.0454    54.3718     2.2406     0.2592     0.0066    42.7592    39.6501   -10.2225
  314.0000     7.9985    54.3815     2.2534     0.2522     0.0062    42.0187    37.7226   -10.1995
  314.5000     7.9514    55.8711     2.2644     0.2490     0.0058    41.2690    36.2268   -10.1765
  315.0000     7.9099    57.4681     2.2605     0.2491     0.0060    40.5326    35.8121   -10.1535
  315.5000     7.8722    59.2386     2.2575     0.2491     0.0074    39.8093    35.5656   -10.1305
  316.0000     7.8346    63.9372     2.2634     0.2455     0.0089    39.0990    35.5656   -10.1075
  316.5000     7.7971    68.5838     2.2785     0.2358     0.0103    38.4013    35.5656   -10.0845
  317.0000     7.7596    71.6395     2.2933     0.2260     0.0111    38.0284    35.3940   -10.0612
  317.5000     7.7220    70.0550     2.3081     0.2163     0.0083    37.7220    34.6811   -10.0384
  318.0000     7.6845    67.4290     2.3228     0.2063     0.0056    37.4181    33.9825   -10.0386
  318.5000     7.6497    65.6582     2.3301     0.2063     0.0028    37.1167    33.3449   -10.1543
  319.0000     7.6318    67.1351     2.3201     0.2173     0.0000    36.6263    33.3449   -10.2683
  319.5000     7.6160    69.5185     2.3077     0.2253     0.0007    35.6545    33.3559   -10.3819
  320.0000     7.6735    69.1292     2.2952     0.2333     0.0021    34.7088    33.3590   -10.4956
  320.5000     7.7133    68.2793     2.2827     0.2414     0.0036    33.7877    31.8304   -10.6092
  321.0000     7.7125    67.4414     2.2709     0.2415     0.0051    32.8912    30.7146   -10.7230
  321.5000     7.7578    66.9882     2.2699     0.2358     0.0066    32.0186    29.6346   -10.8366
  322.0000     7.8269    66.6584     2.3067     0.2175     0.0070    31.1691    28.5931   -10.9490
  322.5000     7.7490    66.8820     2.3335     0.1993     0.0056    30.3421    27.5881   -10.9605
  323.0000     7.7361    67.2816     2.3505     0.1955     0.0043    29.5371    26.6185   -10.8452
  323.5000     7.7411    69.8215     2.3454     0.2005     0.0044    28.7534    25.6830   -10.7313
  324.0000     7.7467    72.4539     2.3394     0.2048     0.0070    27.9905    24.9848   -10.6169
  324.5000     7.7521    75.1092     2.3333     0.2090     0.0095    27.2479    24.4542   -10.5025
  325.0000     7.7575    76.1678     2.3293     0.2109     0.0125    26.5250    23.9348   -10.3886
  325.5000     7.7629    74.2862     2.3304     0.2103     0.0181    26.2217    23.7500   -10.2739
  326.0000     7.7683    71.9984     2.3338     0.2061     0.0236    26.1843    23.5666   -10.2193
  326.5000     7.7737    70.9786     2.3404     0.2020     0.0291    26.1477    23.4843   -10.2182
  327.0000     7.7792    71.9914     2.3470     0.1979     0.0342    26.1110    23.4522   -10.2182
  327.5000     7.7845    72.6820     2.3479     0.1985     0.0375    26.0744    23.4202   -10.2183
  328.0000     7.7904    72.0743     2.3476     0.1995     0.0408    26.0374    23.3881   -10.2184
  328.5000     7.7613    71.4834     2.3473     0.2003     0.0458    26.0051    23.3564   -10.2186
  329.0000     7.7121    71.4156     2.3461     0.1984     0.0512    26.1330    23.3242   -10.2170
  329.5000     7.6624    71.4513     2.3530     0.1900     0.0566    26.2440    23.2825   -10.1235
  330.0000     7.6129    71.4900     2.3781     0.1686     0.0562    27.0378    23.7651    -9.8576
  330.5000     7.5717    71.5286     2.4068     0.1471     0.0546    27.7878    24.4728    -9.5954
  331.0000     7.5620    71.5589     2.4577     0.1257     0.0530    28.5585    25.5216    -9.3285
  331.5000     7.5276    71.2334     2.5079     0.1042     0.0512    30.1719    26.9019    -9.3398
  332.0000     7.3905    69.4916     2.5590     0.0828     0.0420    32.2150    28.3649    -9.5219
  332.5000     7.2561    66.4061     2.5669     0.0748     0.0328    34.3982    29.8990    -9.7073
  333.0000     7.1223    63.5224     2.5627     0.0811     0.0272    36.7447    31.2808    -9.8932
  333.5000     7.0151    63.3813     2.5529     0.0887     0.0266    38.5095    31.2794   -10.0777
  334.0000     7.0620    65.9455     2.5206     0.1106     0.0260    38.6394    31.2630   -10.2162
  334.5000     7.4147    68.9184     2.4767     0.1353     0.0256    36.0853    29.5924   -10.1872
  335.0000     7.4748    71.0289     2.4324     0.1600     0.0281    33.6535    28.4927   -10.1615
  335.5000     7.4761    70.9998     2.3899     0.1847     0.0346    31.3856    27.1043   -10.1362
  336.0000     7.4749    71.2595     2.3638     0.1956     0.0463    29.2705    25.7837   -10.1109
  336.5000     7.5077    71.8751     2.3492     0.1990     0.0580    27.2980    24.5264   -10.0855
  337.0000     7.5569    72.4918     2.3460     0.2009     0.0698    25.6597    23.3304   -10.0602
  337.5000     7.6069    72.3807     2.3431     0.2025     0.0716    24.3673    22.1929   -10.0349
  338.0000     7.6016    72.1453     2.3413     0.2041     0.0671    23.6282    21.7406   -10.0096
  338.5000     7.5847    71.9133     2.3400     0.2046     0.0619    23.1665    21.4074    -9.9843
  339.0000     7.6113    74.2607     2.3418     0.2043     0.0568    22.7138    21.0780    -9.9590
  339.5000     7.7714    75.0969     2.3477     0.1985     0.0516    22.2700    20.8463    -9.9336
  340.0000     7.8161    74.9990     2.3535     0.1931     0.0465    21.8349    20.5129    -9.9083
  340.5000     7.8565    76.1326     2.3594     0.1926     0.0414    21.4083    20.2080    -9.8829
  341.0000     7.8977    78.4667     2.3610     0.1931     0.0362    21.0276    19.9091    -9.8578
  341.5000     7.9119    78.3961     2.3575     0.1935     0.0334    20.9300    19.6165    -9.8318
  342.0000     7.9148    75.1104     2.3541     0.1963     0.0335    20.8195    19.3664    -9.8724
  342.5000     7.9174    73.0000     2.3507     0.1989     0.0334    20.6267    19.3979    -9.9607
  343.0000     7.9200    73.0102     2.3471     0.2016     0.0338    20.4363    19.4257   -10.0496
  343.5000     7.9226    73.2452     2.3467     0.2018     0.0412    20.2694    19.4541   -10.1385
  344.0000     7.9252    73.2102     2.3583     0.1914     0.0484    20.2271    19.4825   -10.2274
  344.5000     7.9278    72.8762     2.3697     0.1823     0.0556    20.1833    19.5107   -10.3163
  345.0000     7.9304    72.5499     2.3800     0.1825     0.0577    20.1397    19.5443   -10.4054
  345.5000     7.9330    72.3799     2.3787     0.1831     0.0542    20.0961    19.4376   -10.4942
  346.0000     7.9356    73.5428     2.3772     0.1837     0.0421    20.0527    19.3055   -10.5827
  346.5000     7.9383    75.5207     2.3758     0.1865     0.0292    20.0093    19.1738   -10.5468
  347.0000     7.9409    77.5041     2.3713     0.1902     0.0173    19.9660    19.0430   -10.3908
  347.5000     7.9435    79.4868     2.3633     0.1940     0.0120    19.9229    18.9132   -10.2355
  348.0000     7.9461    80.9133     2.3562     0.1949     0.0119    19.8798    18.7843   -10.0797
  348.5000     7.9487    80.3335     2.3558     0.1929     0.0124    19.8368    18.6651    -9.9241
  349.0000     7.9513    77.9786     2.3648     0.1898     0.0130    19.7939    18.6983    -9.7685
  349.5000     7.9539    77.2083     2.3746     0.1837     0.0135    19.7512    18.7293    -9.6128
  350.0000     7.9566    77.0262     2.3844     0.1777     0.0115    19.7084    18.7608    -9.4577
  350.5000     7.9592    76.8539     2.3954     0.1697     0.0093    19.6658    18.7924    -9.3014
  351.0000     7.9618    76.5828     2.4132     0.1570     0.0070    19.6236    18.8378    -9.2495
  351.5000     7.9644    75.9549     2.4314     0.1443     0.0048    19.5811    18.6904    -9.2907
  352.0000     7.9670    74.5602     2.4497     0.1384     0.0025    19.4989    18.4153    -9.3333
  352.5000     7.9698    73.1408     2.4577     0.1417     0.0015    19.1797    18.1443    -9.3761
  353.0000     7.9676    71.6689     2.4424     0.1517     0.0015    18.8668    17.8772    -9.4187
  353.5000     7.9640    71.4830     2.4214     0.1617     0.0015    18.5590    17.6140    -9.4613
