~VERSION INFORMATION
 VERS.                2.0:   CWLS LOG ASCII STANDARD - VERSION 2.0
 WRAP.                 NO:   ONE LINE PER DEPTH STEP
~WELL INFORMATION
#MNEM.UNIT      DATA TYPE    INFORMATION
#----------   ------------   ------------------------------
 STRT.F           57.5000:   START DEPTH
 STOP.F         4049.0000:   STOP DEPTH
 STEP.F            0.5000:   STEP LENGTH
 NULL.          -999.2500:   NO VALUE
 COMP. LAWRENCE/ALLISON INC:   COMPANY
 WELL.     NPR #3` #13-11:   WELL
 FLD .             NPR #3:   FIELD
 LOC .      S11 T38N R78W:   LOCATION
 CNTY.            NATRONA:   COUNTY
 STAT.            WYOMING:   STATE
 CTRY. UNITED STATES OF AMERICA:   COUNTRY
 SRVC.      Dresser Atlas:   SERVICE COMPANY
 DATE.        13-MAR-1986:   LOGDATE
 API .       490251106500:   API NUMBER
~CURVE INFORMATION
#MNEM.UNIT       API CODE    CURVE DESCRIPTION
#----------   ------------   ------------------------------
 DEPT.F                  :   
 CALR.IN     07 280 01 00:   CALIPER FROM RESISTIVITY
 GRR .GAPI   07 310 01 00:   GAMMA RAY FROM RESISTIVITY
 RILD.OHMM   07 120 46 00:   RESISTIVITY INDUCTION LOG DEEP
 RILM.OHMM   07 120 44 00:   RESISTIVITY INDUCTION LOG MEDIUM
 RFOC.OHMM   07 220 04 00:   RESISTIVITY FOCUSED LOG
 SPR .MV     07 010 01 00:   SPONTANEOUS POTENTIAL FROM RES.
 PORD.DEC    45 890 12 00:   POROSITY DENSITY SANDSTONE
 CNC .DEC    42 890 03 00:   COMPENSATED NEUTRON POROSITY SANDSTONE
 CORR.G/C3   45 356 01 00:   DENSITY CORRECTION
 DEN .G/C3   45 350 01 00:   COMPENSATED BULK DENSTIY
 DT  .US/F   60 520 00 00:   INTERVAL TRANSIT TIME
~PARAMETER INFORMATION
#MNEM.UNIT          VALUE    DESCRIPTION
#----------   ------------   ------------------------------
 PD  .                 GL:   PERMANENT DATUM
 EPD .F              5176:   ELEVATION PERMANENT DATUM
 LMF .                 KB:   LOG MEASURED FROM
 DAPD.F              11.8:   FEET ABOVE PERMANENT DATUM
 DMF .                 KB:   DRILLING MEASURED FROM
 EKB .F            5187.8:   KELLING BUSHING
 EGL .F              5176:   GROUND LEVEL
 DATE.        13-MAR-1986:   RUN DATE
 RUN .                  1:   RUN NUMBER
 DD  .F              4051:   DEPTH DRILLER
 DL  .F              4051:   DEPTH LOGGER
 BLI .F              4049:   BOTTOM LOG INTERVAL
 TLI .F               564:   TOP LOG INTERVAL
 CS  .IN            8.625:   CASING SIZE
 CBD .F               564:   CASING BOTTOM DRILLER
 CBL .F               564:   CASING BOTTOM LOGGER
 BS  .IN            7.875:   BIT SIZE
 BSD .F              4051:   BIT SIZE AT DEPTH
 DFT .          POLY- KCL:   DRILLING FLUID TYPE
 DFD .                8.9:   DRILLING FLUID DENSITY
 DFV .                 36:   DRILLING FLUID VISCOSITY
 DFPH.                8.5:   DRILLING FLUID PH
 DFL .               13.5:   DRILLING FLUID LOSS
 MSS .           FLOWLINE:   MUD SAMPLE SOURCE
 RMS .OHMM           .275:   RESISTIVITY MUD SAMPLE
 MST .F                55:   MUD SAMPLE TEMPERATURE
 RMF .OHMM           .206:   RESISTIVITY MUD FILTRATE SAMPLE
 MFST.F                55:   MUD FILTRATE SAMPLE TEMPERATURE
 RMC .OHMM           .344:   RESISTIVITY MUD CAKE
 MCST.F                55:   MUD CAKE SAMPLE TEMPERATURE
 MFSS.               CALC:   MUD FILTRATE SAMPLE SOURCE
 MCSS.               CALC:   MUD CAKE SAMPLE SOURCE
 RMB .OHMM           .092:   RESISTIVITY MUD AT BHT
 BHT .F               164:   BOTTOM HOLE TEMPERATURE
 TCS .HRS            0400:   TIME CURCULATED STOPPED
 MRT .F               164:   MAXIMUM RECORDED TEMPERATURE
 LUN .               6274:   LOGGING UNIT NUMBER
 LUL .           GILLETTE:   LOGGING UNIT LOCATION
 ENGI.             MILLER:   RECORDING ENGINEER
 WITN.             STRONG:   WITNESSED BY
 CLNT.            A2DTECH:   CLIENT CODE
 ORIG.         2.5" PRINT:   ORIGIN OF DATA
 UWI .       490251106500:   UNIQUE WELL ID
 DICO. A2D Technologies, Inc.:   DIGITIZING COMPANY
~OTHER INFORMATION
~A   DEPT     CALR         GRR      RILD       RILM       RFOC        SPR       PORD        CNC       CORR        DEN         DT   
# ...
 3321.0000     8.2630   133.8395     4.6053     5.0759     5.2965   -33.3118     0.1045     0.2116    -0.0121     2.4802    81.0674
 3321.5000     8.2630   136.1373     4.1783     4.8015     4.9419   -32.8471     0.1117     0.2161    -0.0202     2.4720    82.3903
 3322.0000     8.2630   137.3577     3.8976     4.5279     4.8741   -32.6890     0.1214     0.2242    -0.0263     2.4554    83.8585
 3322.5000     8.2630   137.1526     3.6358     4.1419     4.9426   -32.3857     0.1268     0.2359    -0.0344     2.4424    83.8593
 3323.0000     8.2764   135.3784     3.2987     3.5352     4.9430   -32.0904     0.1268     0.2557    -0.0385     2.4378    83.7093
 3323.5000     8.2936   133.5981     2.8311     3.2387     4.8080   -31.6295     0.1250     0.2683    -0.0315     2.4370    83.5596
 3324.0000     8.2936   137.0067     2.3631     2.5184     4.5489   -31.4756     0.1286     0.2659    -0.0195     2.4362    84.0121
 3324.5000     8.3547   144.5107     2.0565     2.2746     3.9600   -30.8692     0.1288     0.2595    -0.0105     2.4354    85.2177
 3325.0000     8.3853   157.3593     1.9452     2.0351     3.0852   -30.1067     0.1267     0.2576    -0.0166     2.4377    87.4775
 3325.5000     8.4411   167.5373     1.9451     2.1312     2.4713   -29.0412     0.1249     0.2580    -0.0157     2.4392    92.8999
 3326.0000     8.4952   199.5409     1.9721     2.2618     2.1514   -28.5833     0.1249     0.2740    -0.0097     2.4346    97.8706
 3326.5000     8.3362   202.2915     2.0559     2.4185     2.0927   -28.1296     0.1738     0.3039     0.0003     2.4064    98.5933
 3327.0000     8.2082   194.1491     2.1732     2.6600     2.3384   -28.4360     0.1905     0.3033     0.0214     2.3396    94.7094
 3327.5000     8.1713   163.2833     2.3294     2.8555     3.8001   -28.7424     0.2110     0.2788     0.1090     2.2834    87.9331
 3328.0000     8.2137   131.7300     2.7138     3.2108     6.9003   -28.7439     0.2215     0.2456     0.0807     2.3046    80.8555
 3328.5000     8.2441   131.0256     3.2962     3.6705     5.6828   -29.2099     0.1733     0.2358     0.0434     2.3991    80.4045
 3329.0000     8.2630   125.9920     4.0035     4.2272     5.5750   -30.2877     0.0862     0.2320     0.0544     2.4882    81.0076
 3329.5000     8.2936   116.9969     4.4738     5.0616     6.0078   -31.4924     0.0650     0.2290     0.0976     2.5269    81.2033
 3330.0000     8.2936   118.2818     5.1402     5.8011     7.6231   -32.1242     0.0590     0.2281     0.1278     2.5473    79.5031
 3330.5000     8.2936   122.5816     5.7440     6.3910     7.6757   -32.8787     0.0529     0.2325     0.0955     2.5644    79.2026
 3331.0000     8.2936   127.4459     6.3302     7.0310     6.9276   -33.7958     0.0499     0.2330     0.0189     2.5626    79.6552
 3331.5000     8.2936   128.0276     6.6915     7.4309     6.9763   -34.5741     0.0686     0.2317     0.0007     2.5412    79.2042
 3332.0000     8.3242   120.6040     7.0733     7.7419     8.0982   -35.4921     0.0789     0.2260     0.0168     2.5209    78.3013
 3332.5000     8.3547   113.8920     7.3738     7.9584     9.2986   -36.2422     0.0813     0.2175     0.0187     2.5175    77.5491
 3333.0000     8.3547   110.2270     7.6871     8.0671     9.7518   -37.4643     0.0795     0.2120     0.0146     2.5190    77.0980
 3333.5000     8.3547   110.8374     7.9031     8.0660     9.3696   -38.6863     0.0782     0.2111     0.0085     2.5205    77.0482
 3334.0000     8.3647   111.4478     7.7936     7.9533     9.2412   -39.4693     0.0782     0.2112    -0.0006     2.5203    77.4007
 3334.5000     8.3853   113.8988     7.6855     7.7336     9.2418   -39.7393     0.0873     0.2124    -0.0097     2.5029    77.8533
 3335.0000     8.3853   118.8036     7.4744     7.6255     9.3716   -39.7409     0.0957     0.2137    -0.0198     2.4821    77.8540
 3335.5000     8.4159   122.4816     7.2691     7.3123     9.3722   -39.7424     0.1006     0.2154    -0.0269     2.4772    77.7042
 3336.0000     8.4559   118.7975     6.9719     7.1103     9.2438   -39.7439     0.1036     0.2150     0.0032     2.4811    77.4037
 3336.5000     8.4771   117.5674     6.6868     6.8183     9.1790   -39.4406     0.0993     0.2115    -0.0009     2.4865    77.4045
 3337.0000     8.4589   118.1779     6.5941     6.6300     8.8063   -39.1372     0.0951     0.2099    -0.0070     2.4925    77.7065
 3337.5000     8.4159   118.7884     6.3245     6.5373     8.2753   -38.9609     0.0897     0.2169    -0.0091     2.5027    78.3096
 3338.0000     8.4071   121.2392     6.3241     6.4460     7.7782   -38.8354     0.0842     0.2241    -0.0091     2.5158    78.9128
 3338.5000     8.3853   126.1441     6.2364     6.4451     7.4099   -38.8369     0.0812     0.2292    -0.0102     2.5155    79.8172
 3339.0000     8.3853   127.3680     6.2359     6.6263     7.0581   -38.6576     0.0848     0.2182    -0.0133     2.5115    80.5709
 3339.5000     8.3853   124.9109     6.2355     6.8126     6.9169   -38.5351     0.0884     0.2159    -0.0204     2.5064    81.3247
 3340.0000     8.3853   121.8404     6.0642     6.8116     6.6367   -38.2320     0.0909     0.2360    -0.0295     2.5012    81.6265
 3340.5000     8.3853   119.3833     5.9802     6.8107     6.5326   -37.9287     0.0939     0.2512    -0.0366     2.4982    81.1182
 3341.0000     8.3853   116.9263     5.8972     6.5309     7.8602   -37.6253     0.0931     0.2547    -0.0045     2.5027    79.8556
 3341.5000     8.3853   117.5367     5.7352     6.3505     9.4265   -37.6268     0.0856     0.2507     0.0448     2.5178    78.8041
 3342.0000     8.3853   117.5869     5.5777     6.0054     8.8550   -37.6283     0.0737     0.2327     0.0256     2.5328    77.7528
 3342.5000     8.4159   116.3035     5.2759     5.5230     7.5620   -37.3247     0.0677     0.2201     0.0095     2.5404    77.4134
 3343.0000     8.4159   118.1410     5.0601     5.1506     6.5329   -36.7168     0.0642     0.2146     0.0024     2.5419    77.8223
 3343.5000     8.4230   119.9784     4.9211     4.9390     5.6430   -36.4134     0.0627     0.2219     0.0023     2.5433    80.3092
 3344.0000     8.4534   120.5890     4.7199     4.8026     5.3568   -36.1100     0.0668     0.2419     0.0053     2.5388    83.0781
 3344.5000     8.4771   120.5857     4.5270     4.6700     5.4186   -35.8067     0.0749     0.2437     0.0052     2.5131    85.7488
 3345.0000     8.4837   121.1963     4.4026     4.5410     5.6486   -35.5030     0.0870     0.2437     0.0092     2.5070    86.6868
 3345.5000     8.5076   123.6471     4.2817     4.4156     5.6961   -35.1997     0.0886     0.2588     0.0172     2.5070    86.9059
 3346.0000     8.5076   129.8568     4.1066     4.3539     5.6965   -34.8966     0.0877     0.2697     0.0443     2.5070    86.9879
 3346.5000     8.5382   125.4814     3.9938     4.1750     5.6183   -34.8981     0.0871     0.2752     0.0412     2.5070    87.0580
 3347.0000     8.5748   125.3948     3.8305     4.0597     5.4370   -34.2899     0.0873     0.2782     0.0260     2.5054    87.2184
 3347.5000     8.6052   127.3157     3.6232     3.8930     5.2627   -33.9865     0.0885     0.2806     0.0109     2.5039    87.9781
 3348.0000     8.6357   129.7666     3.4751     3.6305     5.0744   -33.9881     0.0910     0.2818    -0.0013     2.4948    89.1805
 3348.5000     8.6606   131.6041     3.3796     3.5302     5.0296   -33.9896     0.0971     0.2819     0.0077     2.4842    89.6988
 3349.0000     8.6911   132.2147     3.2868     3.5297     5.0061   -33.6860     0.1038     0.2770     0.0077     2.4766    89.7726
 3349.5000     8.7217   132.2114     3.2412     3.5292     4.8699   -33.6878     0.1108     0.2685    -0.0045     2.4675    90.0000
 3350.0000     8.6860   132.8218     3.2410     3.5287     4.7159   -33.6893     0.1156     0.2618    -0.0257     2.4600    90.0753
 3350.5000     8.6300   133.4323     3.2408     3.5282     4.4625   -33.6908     0.1198     0.2685    -0.0409     2.4539    90.5264
 3351.0000     8.5640   135.2697     3.2405     3.5277     4.2227   -33.6923     0.1230     0.2751    -0.0288     2.4478    91.4291
