~VERSION INFORMATION
 VERS.                2.0:   CWLS LOG ASCII STANDARD - VERSION 2.0
 WRAP.                 NO:   ONE LINE PER DEPTH STEP
~WELL INFORMATION
#MNEM.UNIT      DATA TYPE    INFORMATION
#----------   ------------   ------------------------------
 STRT.F            0.0000:   START DEPTH
 STOP.F          530.0000:   STOP DEPTH
 STEP.F            0.5000:   STEP LENGTH
 NULL.          -999.2500:   NO VALUE
 COMP.   LAWRENCE-ALLISON:   COMPANY
 WELL. NPR 3 #51-56SX10 OB3:   WELL
 FLD .             TEAPOT:   FIELD
 LOC .      S10 T38N R78W:   LOCATION
 CNTY.            NATRONA:   COUNTY
 STAT.            WYOMING:   STATE
 CTRY. UNITED STATES OF AMERICA:   COUNTRY
 SRVC.           Gearhart:   SERVICE COMPANY
 DATE.        28-JUN-1987:   LOGDATE
 API .       490251100800:   API NUMBER
~CURVE INFORMATION
#MNEM.UNIT       API CODE    CURVE DESCRIPTION
#----------   ------------   ------------------------------
 DEPT.F                  :   
 CALD.IN     45 280 60 00:   CALIPER ROM DENSITY LOG
 CNC .DEC    45 890 03 00:   NEUTRON POROSITY SANDSTONE
 CORR.G/C3   45 356 01 00:   DENSITY CORRECTION
 DEN .G/C3   45 350 01 00:   COMPENSATED BULK DENSTIY
 PORD.DEC    45 890 12 00:   POROSITY DENSITY SANDSTONE
 GRR .GAPI   07 310 01 00:   GAMMA RAY
 ILD .OHMM   07 120 46 00:   INDUCTION LOG DEEP
 ILM .OHMM   07 120 44 00:   INDUCTION LOG MEDIUM
 LL  .OHMM   07 220 00 00:   LATEROLOG RESISTIVITY
 SPR .MV     07 010 01 00:   SPONTANEOUS POTENTIAL
 DT  .US/F   60 520 00 00:   INTERVAL TRANSIT TIME
~PARAMETER INFORMATION
#MNEM.UNIT          VALUE    DESCRIPTION
#----------   ------------   ------------------------------
 PD  .                 GL:   PERMANENT DATUM
 EPD .F              5198:   ELEVATION PERMANENT DATUM
 LMF .                 KB:   LOG MEASURED FROM
 DAPD.F                 8:   FEET ABOVE PERMANENT DATUM
 DMF .                 KB:   DRILLING MEASURED FROM
 EKB .F              5206:   KELLING BUSHING
 EDF .F              5204:   DRILLING FLOOR
 EGL .F              5198:   GROUND LEVEL
 DATE.        28-JUN-1987:   RUN DATE
 RUN .                  1:   RUN NUMBER
 DD  .F               535:   DEPTH DRILLER
 DL  .F               536:   DEPTH LOGGER
 BLI .F               533:   BOTTOM LOG INTERVAL
 BS  .IN             7.87:   BIT SIZE
 BSD .F               535:   BIT SIZE AT DEPTH
 DFT .                MUD:   DRILLING FLUID TYPE
 RMS .OHMM           0.84:   RESISTIVITY MUD SAMPLE
 MST .F                57:   MUD SAMPLE TEMPERATURE
 RMF .OHMM           0.63:   RESISTIVITY MUD FILTRATE SAMPLE
 MFST.F                57:   MUD FILTRATE SAMPLE TEMPERATURE
 RMC .OHMM           1.05:   RESISTIVITY MUD CAKE
 MCST.F                57:   MUD CAKE SAMPLE TEMPERATURE
 MFSS.               CALC:   MUD FILTRATE SAMPLE SOURCE
 MCSS.               CALC:   MUD CAKE SAMPLE SOURCE
 RMB .OHMM           0.59:   RESISTIVITY MUD AT BHT
 BHT .F                80:   BOTTOM HOLE TEMPERATURE
 TCS .HRS            1200:   TIME CURCULATED STOPPED
 TLAB.HRS            1322:   TIME LOGGER AT BOTTOM
 LUN .               7650:   LOGGING UNIT NUMBER
 LUL .           GILLETTE:   LOGGING UNIT LOCATION
 ENGI. JOHNSTON/HUCKFELDT:   RECORDING ENGINEER
 WITN.             STRONG:   WITNESSED BY
 CLNT.            A2DTECH:   CLIENT CODE
 ORIG.      2.5" 5" PRINT:   ORIGIN OF DATA
 UWI .       490251100800:   UNIQUE WELL ID
 DICO. A2D Technologies, Inc.:   DIGITIZING COMPANY
~OTHER INFORMATION
~A    DEPT    CALD        CNC       CORR        DEN       PORD         GRR         ILD        ILM       LL        SPR         DT   
# ...
   91.5000     6.4758     0.2721     0.0439     2.4520     0.1350   107.4568     6.6979     5.8353     5.9163   -53.7538   104.5867
   92.0000     6.4764     0.2712     0.0365     2.4535     0.1350   102.6549     6.6080     5.8370     5.8779   -54.3544   105.8027
   92.5000     6.4770     0.2738     0.0005     2.4521     0.1344   100.8560     6.4304     5.8386     5.8385   -54.3544   105.8849
   93.0000     6.4777     0.2932     0.0037     2.4546     0.1313   101.4595     6.4321     5.9212     5.9214   -54.3544   105.8160
   93.5000     6.4783     0.3097     0.0156     2.4645     0.1271   102.0911     6.4338     5.9228     5.9230   -54.3544   105.5959
   94.0000     6.4789     0.3006     0.0371     2.4703     0.1268   102.0659     6.5249     6.0067     5.9246   -54.0541   104.9979
   94.5000     6.4794     0.2939     0.0569     2.4666     0.1292   102.0691     6.8023     6.0918     6.2622   -53.7538   105.6863
   95.0000     6.4800     0.2936     0.0645     2.4539     0.1340   102.2322     6.9943     6.3047     6.5284   -53.4535   106.1678
   95.5000     6.4806     0.2975     0.0647     2.4411     0.1445   104.0931     7.1992     6.4407     6.6220   -53.1532   106.4556
   96.0000     6.4812     0.2972     0.0588     2.4336     0.1472   105.6817     7.4976     6.5670     6.8078   -53.1532   106.1599
   96.5000     6.4818     0.3041     0.0514     2.4329     0.1469   102.1131     7.6224     6.6671     6.8097   -52.7277   105.7131
   97.0000     6.4824     0.3026     0.0455     2.4435     0.1390    99.9459     7.8185     6.7686     6.8330   -52.5526   105.4913
   97.5000     6.4681     0.2923     0.0321     2.4519     0.1363    99.6847     7.8207     6.8138     6.9080   -52.2523   105.8775
   98.0000     6.4537     0.2655     0.0081     2.4497     0.1383    99.6881     7.8229     6.8153     6.9099   -51.9520   105.8086
   98.5000     6.4396     0.2688    -0.0038     2.4452     0.1432    99.0904     7.8250     6.8172     6.9118   -49.5495   105.7380
   99.0000     6.4402     0.2808    -0.0037     2.4422     0.1456    97.8921     7.8272     6.7255     6.9137   -47.4474   105.5949
   99.5000     6.4556     0.2910    -0.0035     2.4355     0.1482    97.2943     7.8298     6.7275     7.0128   -45.9459   104.9971
  100.0000     6.4711     0.3002    -0.0034     2.4324     0.1480    98.1569     7.7246     6.6072     6.9177   -45.0494   104.3991
  100.5000     6.4721     0.3106     0.0026     2.4349     0.1444    99.0510     7.7076     6.4571     6.8238   -44.7447   104.2123
  101.0000     6.4736     0.3256     0.0086     2.4440     0.1370    99.9451     7.6568     6.4576     6.7313   -46.6106   104.1833
  101.5000     6.4747     0.3346     0.0105     2.4568     0.1321   100.9101     7.6185     6.4581     6.7323   -47.4955   104.3420
  102.0000     6.4908     0.3154     0.0227     2.4621     0.1291   101.5137     7.6185     6.5991     6.7332   -48.4124   104.3480
  102.5000     6.4919     0.2983     0.0273     2.4659     0.1260   103.3184     7.8315     6.6396     6.8276   -49.0290   104.3539
  103.0000     6.4931     0.2816     0.0289     2.4705     0.1251   103.3093     8.0505     6.8257     6.8285   -49.5495   104.4355
  103.5000     6.4943     0.2720     0.0275     2.4721     0.1257   100.2072     8.0505     7.0170     6.8343   -49.5495   105.1974
  104.0000     6.4805     0.2750     0.0276     2.4626     0.1320    95.8318     8.3904     7.2137     6.9252   -49.5495   105.8836
  104.5000     6.4571     0.2916     0.0292     2.4526     0.1362    93.6146     8.5069     7.5189     7.0381   -49.5495   106.0428
  105.0000     6.4383     0.2946     0.0293     2.4511     0.1346    93.1228     8.8662     7.6238     7.3419   -49.7097   106.5105
  105.5000     6.4395     0.2925     0.0475     2.4602     0.1298    92.5251     8.9893     7.8374     7.4789   -49.8498   106.7330
  106.0000     6.4381     0.2961     0.0476     2.4640     0.1303    92.5285     9.1158     8.0586     7.7721   -50.7508   106.5770
  106.5000     6.4421     0.3046     0.0462     2.4527     0.1361    93.1321     9.2496     8.4061     8.1076   -51.3514   106.0983
  107.0000     6.4462     0.2982     0.0358     2.4460     0.1394    93.7357     9.4990     8.6485     8.3418   -51.9520   104.9384
  107.5000     6.4742     0.2925     0.0299     2.4453     0.1405    94.0491     9.7894     8.8979     8.5827   -51.9520   104.7161
  108.0000     6.4753     0.2600     0.0119     2.4453     0.1404    94.3423    10.0376     9.1545     8.7641   -51.9520   104.7236
  108.5000     6.4765     0.2531     0.0074     2.4461     0.1401    94.3459    10.3607     9.4185     9.1357   -51.9520   104.8808
  109.0000     6.4925     0.2636     0.0482     2.4484     0.1395    94.3488    10.6067     9.5108     9.2638   -51.9520   105.0380
  109.5000     6.4937     0.2838     0.0453     2.4485     0.1388    94.3517    10.8152     9.6984     9.5519   -51.9520   105.1195
  110.0000     6.4797     0.2847     0.0379     2.4485     0.1385    93.1534    11.1263     9.9138     9.7155   -51.6517   105.0484
  110.5000     6.4812     0.2696     0.0380     2.4486     0.1373    85.3486    11.2081    10.0521     9.9288   -51.3514   105.0559
  111.0000     6.4824     0.2672     0.0397     2.4509     0.1339    81.7479    11.5480    10.0528     9.7942   -51.3514   105.0619
  111.5000     6.4835     0.2724     0.0431     2.4601     0.1294    81.7508    11.8436    10.0536     9.7958   -51.3514   104.9167
  112.0000     6.4847     0.2781     0.0573     2.4695     0.1221    81.7538    12.0081    10.0543     9.7972   -51.3514   104.9227
  112.5000     6.4859     0.3040     0.0686     2.4874     0.1157    81.7568    11.8436    10.0550     9.7985   -51.3514   104.9287
  113.0000     6.4871     0.2998     0.0627     2.4903     0.1142    81.7598    11.8436    10.0556     9.7998   -51.3514   104.9347
  113.5000     6.4885     0.2926     0.0296     2.4873     0.1152    81.7628    11.2081     9.9186     9.8011   -51.3514   104.9407
  114.0000     6.4748     0.2700     0.0252     2.4775     0.1217    83.4315    10.9033     9.9193     9.8024   -51.0511   104.9467
  114.5000     6.4608     0.2727     0.0178     2.4753     0.1228    89.7628    10.9033     9.9199     9.8037   -50.8869   104.9526
  115.0000     6.4623     0.2805     0.0058     2.4761     0.1219    90.7808    10.9033     9.7848     9.8050   -50.7508   104.9586
  115.5000     6.4634     0.2787     0.0044     2.4882     0.1155    91.0380    10.9033     9.7855     9.8012   -50.4505   105.1158
  116.0000     6.4646     0.2721     0.0362     2.4943     0.1119    91.3874    10.9033     9.7861     9.6734   -50.1502   105.1974
  116.5000     6.4658     0.2745     0.0513     2.4921     0.1116    93.8368    10.9033     9.7868     9.5422   -50.1502   106.0348
  117.0000     6.4669     0.2823     0.0560     2.4884     0.1130    94.9976    10.9033     9.9234     9.2327   -50.1502   106.0408
  117.5000     6.4681     0.2965     0.0621     2.4824     0.1181    94.3994    10.9512    10.0618     9.0326   -50.4505   106.2081
  118.0000     6.4841     0.2950     0.0788     2.4764     0.1214    93.8018    11.0546    10.0625     9.0340   -50.7508   106.6062
  118.5000     6.4853     0.2998     0.0819     2.4749     0.1226    93.8052    11.1206    10.0632     9.0815   -51.0511   107.8529
  119.0000     6.5013     0.3254     0.0666     2.4667     0.1250    93.8081    11.2081    10.0639     9.2158   -51.6597   109.1449
  119.5000     6.5025     0.3317     0.0381     2.4471     0.1364    92.6098    11.3637    10.1405     9.6779   -52.2763   110.3806
  120.0000     6.4889     0.3143    -0.0037     2.4303     0.1454    89.0091    11.2081    10.2052     9.8186   -52.5526   110.4607
  120.5000     6.4903     0.3083    -0.0036     2.4192     0.1562    86.6096    11.2081    10.0660     9.8199   -52.5526   109.7123
  121.0000     6.4914     0.3003     0.0026     2.4212     0.1552    84.0981    11.0546    10.0668     9.8215   -52.5526   108.8113
  121.5000     6.4775     0.2938     0.0132     2.4315     0.1513    79.3463    10.9033     9.9296     9.8228   -52.5526   107.9858
