~VERSION INFORMATION
 VERS.                2.0:   CWLS LOG ASCII STANDARD - VERSION 2.0
 WRAP.                 NO:   ONE LINE PER DEPTH STEP
~WELL INFORMATION
#MNEM.UNIT      DATA TYPE    INFORMATION
#----------   ------------   ------------------------------
 STRT.F            0.0000:   START DEPTH
 STOP.F          601.0000:   STOP DEPTH
 STEP.F            0.5000:   STEP LENGTH
 NULL.          -999.2500:   NO VALUE
 COMP. Fluor Daniel (NPOSR) Inc:   COMPANY
 WELL.  NPR ##3 84-STX-33:   WELL
 FLD .          N.P.R. #3:   FIELD
 LOC .      S33 T39N R78W:   LOCATION
 CNTY.            NATRONA:   COUNTY
 STAT.            WYOMING:   STATE
 CTRY. UNITED STATES OF AMERICA:   COUNTRY
 SRVC.      Western Atlas:   SERVICE COMPANY
 DATE.        31-JAN-1995:   LOGDATE
 API .       490252269500:   API NUMBER
~CURVE INFORMATION
#MNEM.UNIT       API CODE    CURVE DESCRIPTION
#----------   ------------   ------------------------------
 DEPT.F                  :   
 GRR .GAPI   07 310 01 00:   GAMMA RAY FROM RES. LOG.
 RILD.OHMM   07 120 46 00:   INDUCTION LOG DEEP RESISTIVITY
 RILM.OHMM   07 120 44 00:   INDUCTION LOG MEDIUM RESISTIVITY
 RFOC.OHMM   07 220 04 00:   RESISTIVITY FOCUSED LOG
~PARAMETER INFORMATION
#MNEM.UNIT          VALUE    DESCRIPTION
#----------   ------------   ------------------------------
 PD  .                 GL:   PERMANENT DATUM
 EPD .F              5105:   ELEVATION PERMANENT DATUM
 LMF .                 KB:   LOG MEASURED FROM
 DAPD.F                10:   FEET ABOVE PERMANENT DATUM
 DMF .                 KB:   DRILLING MEASURED FROM
 EKB .F              5115:   KELLING BUSHING
 EDF .F              5114:   DRILLING FLOOR
 EGL .F              5105:   GROUND LEVEL
 DATE.        31-JAN-1995:   RUN DATE
 RUN .                  1:   RUN NUMBER
 DD  .F               615:   DEPTH DRILLER
 DL  .F               609:   DEPTH LOGGER
 BLI .F               601:   BOTTOM LOG INTERVAL
 CS  .IN            9.625:   CASING SIZE
 CBD .F                54:   CASING BOTTOM DRILLER
 CBL .F                52:   CASING BOTTOM LOGGER
 BS  .IN             8.75:   BIT SIZE
 BSD .F               615:   BIT SIZE AT DEPTH
 DFT .              WATER:   DRILLING FLUID TYPE
 MRT .F                92:   MAXIMUM RECORDED TEMPERATURE
 LUN .            HL-6274:   LOGGING UNIT NUMBER
 LUL .             CASPER:   LOGGING UNIT LOCATION
 ENGI.             RAUTIO:   RECORDING ENGINEER
 WITN.             STRONG:   WITNESSED BY
 CLNT.            A2DTECH:   CLIENT CODE
 ORIG.       2", 5" PRINT:   ORIGIN OF DATA
 UWI .       490252269500:   UNIQUE WELL ID
 DICO. A2D Technologies, Inc.:   DIGITIZING COMPANY
~OTHER INFORMATION
~A    DEPT      GRR      RILD       RILM       RFOC   
# ...
  438.0000    69.7390    13.7234    12.6904    13.4181
  438.5000    70.5369    13.6609    12.6190    13.5515
  439.0000    70.9381    13.5986    12.5448    13.4130
  439.5000    72.0340    13.5367    12.4590    13.2949
  440.0000    72.7465    13.4750    12.7225    13.1758
  440.5000    70.6464    13.4250    12.9784    13.0792
  441.0000    67.7840    13.6957    13.2442    12.9826
  441.5000    65.8010    13.9284    13.5147    12.8862
  442.0000    66.0018    14.4477    13.7907    12.8099
  442.5000    66.1787    15.4342    14.0696    13.7306
  443.0000    65.2570    16.0438    14.8266    15.2940
  443.5000    63.3996    15.9845    15.5986    18.1992
  444.0000    61.5033    15.9426    15.0824    20.0940
  444.5000    60.9089    15.9009    14.3297    18.5525
  445.0000    62.8778    15.6909    13.7374    16.1041
  445.5000    64.9868    15.3819    13.1696    13.9788
  446.0000    64.7651    14.9927    12.6250    13.1960
  446.5000    64.5710    14.2953    12.2410    12.6475
  447.0000    65.2028    13.6404    12.0335    12.5042
  447.5000    66.0196    13.0816    11.8831    12.4239
  448.0000    67.0584    12.7754    11.8832    12.3525
  448.5000    68.6867    12.5479    11.8849    12.1549
  449.0000    70.5402    12.3244    11.7742    12.0635
  449.5000    71.5852    12.1049    11.6736    11.9689
  450.0000    70.1299    11.9959    11.6387    11.8751
  450.5000    68.7375    12.1166    11.6114    11.7730
  451.0000    70.0353    12.1978    11.5843    11.8100
  451.5000    72.0651    12.2377    11.5573    11.8635
  452.0000    73.0404    12.2590    11.5537    11.9173
  452.5000    70.8990    12.2803    11.5976    11.9713
  453.0000    68.8606    12.3018    11.6315    12.0256
  453.5000    67.8426    12.3217    11.6631    12.0800
  454.0000    68.3364    12.3388    11.5855    12.1090
  454.5000    68.8179    11.9497    11.5135    11.9438
  455.0000    69.2818    11.6538    11.3274    11.8328
  455.5000    70.0773    11.5542    11.3307    11.7013
  456.0000    72.1771    11.5542    11.2877    11.5542
  456.5000    75.0921    11.5543    11.2601    11.4946
  457.0000    75.6520    11.5542    11.2337    11.4382
  457.5000    74.0553    11.5540    11.1246    11.3821
  458.0000    73.3276    11.5553    11.0212    11.3395
  458.5000    73.7941    11.5556    10.9187    11.5542
  459.0000    73.5122    11.3693    10.8200    11.4534
  459.5000    72.9131    11.2217    10.7367    11.3565
  460.0000    71.6283    11.0756    10.6369    11.2605
  460.5000    73.3751    10.9323    10.6189    11.1653
  461.0000    75.5629    10.8207    10.6189    11.0709
  461.5000    76.8072    10.9652    10.6189    10.9772
  462.0000    75.4447    11.0864    10.6189    10.9220
  462.5000    74.4658    11.2089    10.7368    11.0556
  463.0000    76.6499    11.3328    10.8853    11.1516
  463.5000    78.3116    11.4580    11.0358    11.2485
  464.0000    76.4562    11.5846    11.1288    11.3462
  464.5000    73.8188    11.6831    11.1756    11.4464
  465.0000    71.1939    11.7352    11.2337    11.4966
  465.5000    69.3844    11.7875    11.0814    11.5478
  466.0000    69.3182    11.8401    10.9220    11.5993
  466.5000    70.9370    11.8844    11.0221    11.6631
  467.0000    72.3058    11.8644    11.1288    11.5739
  467.5000    70.8858    11.7411    11.0117    11.4586
  468.0000    67.5224    11.6101    10.8608    11.3395
  468.5000    67.0331    11.4632    10.7113    11.2478
  469.0000    68.8632    11.3181    10.5640    11.1527
  469.5000    70.8726    11.1748    10.4188    10.9682
  470.0000    71.6684    11.0249    10.2969    10.7568
  470.5000    72.4332    10.8194    10.2168    10.6022
  471.0000    73.0318    10.6050    10.1379    10.5528
  471.5000    72.6161    10.3948    10.0586    10.4929
  472.0000    71.9882    10.1325     9.9935    10.4115
  472.5000    72.2175    10.1493     9.9328    10.3308
  473.0000    73.1307    10.1726     9.8725    10.2507
  473.5000    75.3725    10.1960     9.8125    10.1712
  474.0000    77.5850    10.2195     9.7593    10.1325
  474.5000    78.1764    10.2430     9.8227    10.1325
  475.0000    76.0238    10.2665     9.8802    10.1625
  475.5000    73.7513    10.2901     9.9381    10.2628
  476.0000    73.7693    10.3138     9.9963    10.3644
  476.5000    74.2037    10.3375    10.0548    10.4655
  477.0000    73.7964    10.3613    10.1137    10.5883
  477.5000    70.2116    10.3852    10.1325    10.7190
  478.0000    66.4623    10.4094    10.1325    11.2337
  478.5000    64.6092    10.4210    10.0344    11.0232
  479.0000    63.5521    10.3758     9.8876    10.7186
  479.5000    62.1639    10.3450     9.7432    10.4224
  480.0000    60.1104    10.3142     9.6678    10.3243
  480.5000    59.2801    10.2835     9.7612    10.2279
  481.0000    59.2645    10.2529    10.1076    10.1325
  481.5000    59.2733    10.2224    10.2279    10.1325
  482.0000    59.8103    10.1919    10.2279    10.9318
  482.5000    61.3155    10.1616    10.1668    11.6631
  483.0000    62.7935    10.1325    10.0299    11.4905
  483.5000    63.7659    10.0483     9.8948    10.6562
  484.0000    63.6145     9.9677     9.7615    10.2653
  484.5000    60.8183     9.8877     9.6301    10.1327
  485.0000    58.5874     9.8083     9.5003    10.1188
  485.5000    60.3943     9.7296     9.3525    10.1036
  486.0000    62.4311     9.6683     9.0539    10.0880
  486.5000    64.2020     9.7035     9.1186    10.0723
  487.0000    64.1616     9.7384     9.2257    10.0567
  487.5000    64.1549     9.7734     9.3343    10.0379
  488.0000    64.1413     9.8086     9.4275    10.0957
  488.5000    64.6674     9.8440     9.4976    10.1685
  489.0000    64.2984     9.8794     9.5677    10.2279
  489.5000    63.0771     9.9149     9.6683    10.2212
  490.0000    63.3723     9.9441     9.6367    10.2155
  490.5000    64.8815     9.9181     9.5829    10.2098
  491.0000    66.1106     9.8960     9.5293    10.2041
  491.5000    63.5392     9.8741     9.4757    10.1985
  492.0000    61.2520     9.8516     9.4000    10.1928
  492.5000    62.2109     9.8336     9.4437    10.1871
  493.0000    63.7849     9.8152     9.5218    10.1815
  493.5000    63.6201     9.7969     9.6006    10.1758
  494.0000    62.5760     9.7786     9.6679    10.1701
  494.5000    62.1038     9.7604     9.6252    10.1645
  495.0000    61.5051     9.7422     9.5878    10.1588
  495.5000    59.9667     9.7240     9.5162    10.1532
  496.0000    59.1709     9.7058     9.4327    10.1475
  496.5000    60.2903     9.6875     9.3125    10.1418
  497.0000    61.3574     9.6680     9.3945    10.1363
  497.5000    62.2074     9.7197     9.5544    10.1325
  498.0000    62.4524     9.7916     9.8058    10.2793
  498.5000    63.0116     9.8637    10.1903    10.5752
  499.0000    63.6644     9.9412    10.6011    11.1612
  499.5000    63.3268    10.2342    10.9474    11.9130
  500.0000    60.3933    11.2357    11.2836    12.3215
  500.5000    57.5629    12.2231    11.6631    12.2583
  501.0000    58.5625    11.7730    11.3623    17.0524
  501.5000    60.8483    11.7730    10.9909    15.2282
  502.0000    62.1405    11.3850    10.6208    12.4035
  502.5000    63.0182    11.0302    10.4085    11.2337
  503.0000    64.3373    10.7589    10.2439    10.9890
  503.5000    66.3876    10.5566    10.1325    10.7234
  504.0000    66.8212    10.3811    10.0211    10.4642
  504.5000    63.4224    10.2344     9.9209    10.2113
  505.0000    62.0429    10.0927     9.8513    10.0230
  505.5000    64.7141     9.9530     9.6501     9.9736
  506.0000    67.7067     9.8152     9.4708     9.9245
  506.5000    68.6614     9.6793     9.3100     9.8757
  507.0000    67.7294     9.5453     9.2992     9.8270
  507.5000    65.3731     9.4000     9.2867     9.7786
  508.0000    63.7649     9.4000     9.2747     9.7305
  508.5000    65.5318     9.4000     9.2626     9.6826
  509.0000    69.3374     9.4000     9.2506     9.6155
  509.5000    70.2463     9.4000     9.2385     9.5780
  510.0000    68.4727     9.6556     9.2253     9.9209
  510.5000    64.0451     9.8939     9.7593    10.1562
