~VERSION INFORMATION
 VERS.                2.0:   CWLS LOG ASCII STANDARD - VERSION 2.0
 WRAP.                 NO:   ONE LINE PER DEPTH STEP
~WELL INFORMATION
#MNEM.UNIT      DATA TYPE    INFORMATION
#----------   ------------   ------------------------------
 STRT.F           30.0000:   START DEPTH
 STOP.F          507.0000:   STOP DEPTH
 STEP.F            0.5000:   STEP LENGTH
 NULL.          -999.2500:   NO VALUE
 COMP. FENIX & SCISSON INC:   COMPANY
 WELL.      NPR-3 #42S-10:   WELL
 FLD .             TEAPOT:   FIELD
 LOC .      S10 T38N R78W:   LOCATION
 CNTY.            NATRONA:   COUNTY
 STAT.            WYOMING:   STATE
 CTRY. UNITED STATES OF AMERICA:   COUNTRY
 SRVC.            Unknown:   SERVICE COMPANY
 DATE.        15-JUL-1978:   LOGDATE
 API .       490251065700:   API NUMBER
~CURVE INFORMATION
#MNEM.UNIT       API CODE    CURVE DESCRIPTION
#----------   ------------   ------------------------------
 DEPT.F                  :   
 SPR .MV     07 010 01 00:   SPONTANEOUS POTENTIAL
 ILD .OHMM   07 120 46 00:   INDUCTION LOG DEEP
 SN  .OHMM   07 040 16 00:   SHORT NORMAL
 CALD.IN     45 280 60 00:   CALIPER FROM DENSITY LOG
 GRD .GAPI   45 310 01 00:   GAMMA RAY FROM DENSITY LOG
 CORR.G/C3   45 356 01 00:   DENSITY CORRECTION
 RHOB.G/C3   45 350 01 00:   BULK DENSITY
 DPHI.DEC    45 890 12 00:   DENSITY POROSITY SANDSTONE
~PARAMETER INFORMATION
#MNEM.UNIT          VALUE    DESCRIPTION
#----------   ------------   ------------------------------
 PD  .                 GL:   PERMANENT DATUM
 EPD .F              5204:   ELEVATION PERMANENT DATUM
 LMF .                 KB:   LOG MEASURED FROM
 DAPD.F                 4:   FEET ABOVE PERMANENT DATUM
 DMF .                 KB:   DRILLING MEASURED FROM
 EKB .F              5208:   KELLING BUSHING
 EGL .F              5204:   GROUND LEVEL
 DATE.        15-JUL-1978:   RUN DATE
 RUN .                  1:   RUN NUMBER
 DD  .F               500:   DEPTH DRILLER
 DL  .F               511:   DEPTH LOGGER
 BLI .F               504:   BOTTOM LOG INTERVAL
 TLI .F                30:   TOP LOG INTERVAL
 CS  .IN            8.625:   CASING SIZE
 CBD .F                40:   CASING BOTTOM DRILLER
 CBL .F                40:   CASING BOTTOM LOGGER
 BS  .IN            7.875:   BIT SIZE
 BSD .F               500:   BIT SIZE AT DEPTH
 DFT .                KCL:   DRILLING FLUID TYPE
 DFD .                8.7:   DRILLING FLUID DENSITY
 DFV .                 32:   DRILLING FLUID VISCOSITY
 DFPH.                9.0:   DRILLING FLUID PH
 RMS .OHMM           0.18:   RESISTIVITY MUD SAMPLE
 MST .F                78:   MUD SAMPLE TEMPERATURE
 RMF .OHMM           0.16:   RESISTIVITY MUD FILTRATE SAMPLE
 MFST.F                88:   MUD FILTRATE SAMPLE TEMPERATURE
 RMC .OHMM           0.28:   RESISTIVITY MUD CAKE
 MCST.F                88:   MUD CAKE SAMPLE TEMPERATURE
 MFSS.               MEAS:   MUD FILTRATE SAMPLE SOURCE
 MCSS.               MEAS:   MUD CAKE SAMPLE SOURCE
 TCS .HRS               1:   TIME CURCULATED STOPPED
 LUN .               2958:   LOGGING UNIT NUMBER
 LUL .               CASP:   LOGGING UNIT LOCATION
 ENGI.              HONEA:   RECORDING ENGINEER
 WITN.           MCGINLEY:   WITNESSED BY
 CLNT.            A2DTECH:   CLIENT CODE
 ORIG.           5" PRINT:   ORIGIN OF DATA
 UWI .       490251065700:   UNIQUE WELL ID
 DICO. A2D Technologies, Inc.:   DIGITIZING COMPANY
~OTHER INFORMATION
~A   DEPT      SPR        ILD         SN       CALD        GRD       CORR       RHOB       DPHI   
# ...
  273.0000   -32.5232     8.1100     6.9368     9.0424    83.5672     0.0157     2.4817     0.1209
  273.5000   -32.5144     8.0598     6.9302     9.0592    84.9351     0.0174     2.4826     0.1190
  274.0000   -32.6568     8.0642     6.9236     9.0761    86.5940     0.0192     2.4879     0.1153
  274.5000   -32.6459     8.0685     6.9170     9.1226    87.5100     0.0208     2.4962     0.1133
  275.0000   -32.7883     8.0729     6.9103     9.1543    87.8316     0.0194     2.4985     0.1163
  275.5000   -32.7774     8.0208     6.9037     9.2009    88.7476     0.0181     2.4971     0.1177
  276.0000   -32.9180     8.0816     6.8971     9.2330    89.8267     0.0138     2.4853     0.1168
  276.5000   -32.9089     8.0860     6.8905     9.2499    90.1400     0.0140     2.4913     0.1221
  277.0000   -33.0492     8.0903     6.8839     9.2667    89.7125     0.0157     2.4917     0.1218
  277.5000   -33.0402     8.1505     6.8810     9.2687    89.2913     0.0188     2.4788     0.1176
  278.0000   -33.0313     8.2112     6.8857     9.2707    89.4704     0.0220     2.4800     0.1140
  278.5000   -33.0207     8.2723     6.8894     9.2728    89.6435     0.0192     2.4940     0.1143
  279.0000   -33.0119     8.4559     6.8794     9.2748    89.0736     0.0164     2.4918     0.1246
  279.5000   -33.0031     8.9328     6.8554     9.2769    85.0794     0.0136     2.4882     0.1327
  280.0000   -32.9944     9.7061     6.8315     9.2793    78.7213     0.0122     2.4748     0.1449
  280.5000   -32.8366    10.4023     6.8076     9.2813    80.6835     0.0065     2.4675     0.1574
  281.0000   -32.8278     9.7836     6.7837     9.2833    81.0052     0.0037     2.4138     0.1786
  281.5000   -32.6700     8.9521     6.7597     9.2853    84.5958     0.0023     2.3758     0.2027
  282.0000   -32.5122     8.0241     6.7358     9.2725    92.3468     0.0070     2.3520     0.2176
  282.5000   -32.5034     6.9494     6.5044     9.2596    93.7086     0.0161     2.3222     0.2237
  283.0000   -32.1966     6.5360     6.1572     9.2469    97.5964     0.0376     2.3324     0.2008
  283.5000   -32.0387     6.4494     5.9488     9.2661    99.9985     0.0739     2.4120     0.1732
  284.0000   -31.8808     6.4538     5.7959    10.5274    95.0052     0.0331     2.4495     0.1423
  284.5000   -31.7210     6.4572     5.9616    10.7959    85.4916     0.0108     2.4765     0.1207
  285.0000   -31.5632     6.5053     5.9648     9.0620    82.3957     0.0126     2.4833     0.1224
  285.5000   -31.4054     6.6040     6.1769     9.0794    81.2315     0.0127     2.4856     0.1218
  286.0000   -31.2476     7.0247     6.6660     9.1259    80.8102     0.0129     2.4857     0.1250
  286.5000   -30.9408     8.0643     7.0955     9.1428    80.6800     0.0131     2.4843     0.1265
  287.0000   -30.7830     9.9848     7.4495     9.1893    81.1563     0.0133     2.4807     0.1327
  287.5000   -30.6252    11.3058     7.7676     9.2235    83.9054     0.0149     2.4693     0.1360
  288.0000   -30.4674    12.2845     8.0437     9.2828    85.9662     0.0197     2.4607     0.1312
  288.5000   -30.3096    12.6338     8.2162     9.3442    86.2878     0.0332     2.4698     0.1276
  289.0000   -30.1518    11.0171     8.3918     9.3907    82.5976     0.0394     2.4758     0.1325
  289.5000   -29.9940    10.7226     8.5233     9.4521    82.1702     0.0381     2.4670     0.1397
  290.0000   -29.8361    11.0290     8.6958     9.5135    82.4979     0.0367     2.4521     0.1472
  290.5000   -29.6781    11.5788     8.8819     9.5748    81.4823     0.0399     2.4470     0.1498
  291.0000   -29.0713    12.2399     9.0720     9.6378    76.4547     0.0445     2.4426     0.1483
  291.5000   -28.4664    13.0362     9.3301     9.7277    67.3833     0.0537     2.4427     0.1435
  292.0000   -27.7125    14.1875     9.6617     9.7891    51.8441     0.0703     2.4541     0.1363
  292.5000   -26.8096    15.2101    10.0052     9.8208    45.9250     0.0779     2.4626     0.1225
  293.0000   -26.0556    16.3737    10.3609     9.8673    43.7145     0.0781     2.4819     0.1196
  293.5000   -25.1527    17.4280    10.7292     9.8990    49.6887     0.0514     2.4969     0.1513
  294.0000   -24.3988    18.8069    10.9588     9.9307    52.6849     0.0247     2.4208     0.1945
  294.5000   -23.6448    20.1559    11.1202     9.9178    54.7896     0.0369     2.3641     0.2054
  295.0000   -23.1890    20.5870    11.3547     9.9050    56.9093     0.0430     2.3530     0.2119
  295.5000   -22.7331    20.7402    11.4405     9.9075    58.7514     0.0432     2.3426     0.2128
  296.0000   -22.4223    21.4769    11.5257     9.9244    59.1721     0.0434     2.3435     0.2131
  296.5000   -22.1192    21.7859    11.6115     9.9412    58.6022     0.0405     2.3414     0.2136
  297.0000   -21.8104    21.7977    11.6178     9.9432    58.7813     0.0242     2.3369     0.2175
  297.5000   -21.5036    21.6601    11.6240     9.9453    59.5487     0.0138     2.3324     0.2228
  298.0000   -21.3458    21.0803    11.6303     9.9473    60.6133     0.0068     2.3290     0.2201
  298.5000   -21.0390    20.3686    11.7169     9.9344    61.3807     0.0070     2.3336     0.2168
  299.0000   -20.8812    19.9534    11.7232     9.9068    59.2491     0.0027     2.3396     0.2250
  299.5000   -20.7234    19.8514    11.7295     9.8940    51.4804     0.0013     2.3352     0.2310
  300.0000   -20.5168    19.8919    11.7358     9.8960    52.8915     0.0109     2.3208     0.2302
  300.5000   -20.2587    20.2566    11.7184     9.8846    53.6078     0.0142     2.3189     0.2237
  301.0000   -20.1009    20.5953    11.7010     9.8741    53.9297     0.0168     2.3199     0.2130
  301.5000   -19.9431    20.8695    11.6835     9.8636    54.2516     0.0184     2.3349     0.2081
  302.0000   -19.4872    20.3118    11.6661     9.8613    57.8525     0.0156     2.3493     0.2204
  302.5000   -18.8822    19.4990    11.6487     9.8644    58.4615     0.0142     2.3299     0.2266
  303.0000   -18.4262    19.1069    11.6312     9.8519    51.8059     0.0174     2.3181     0.2268
  303.5000   -18.2683    19.3812    11.6144     9.8545    50.3448     0.0251     2.3152     0.2232
  304.0000   -18.2593    20.6263    11.6213     9.8569    49.9175     0.0282     2.3332     0.2097
  304.5000   -18.2487    22.1028    11.6268     9.8446    49.6451     0.0209     2.3483     0.2124
  305.0000   -18.0909    22.8849    11.6323     9.8031    49.5212     0.0150     2.3379     0.2210
  305.5000   -17.7840    23.2087    11.6378     9.7462    49.5521     0.0137     2.3268     0.2218
  306.0000   -17.1791    22.5908    11.6265     9.7036    49.7254     0.0229     2.3300     0.2224
  306.5000   -16.8722    22.2914    11.6133     9.6912    50.3445     0.0290     2.3293     0.2289
  307.0000   -17.0124    22.4584    11.6000     9.8130    52.3009     0.0247     2.3195     0.2295
  307.5000   -17.3017    23.1056    11.5868     9.8748    55.1488     0.0264     2.3131     0.2264
  308.0000   -17.5932    23.4189    11.5736     9.8476    54.3992     0.0444     2.3267     0.2177
  308.5000   -17.7334    23.5920    11.5604     9.8352    53.2666     0.0610     2.3544     0.1974
  309.0000   -17.7224    23.4375    11.5471     9.8377    53.7433     0.0582     2.3642     0.2000
  309.5000   -17.7136    23.4494    11.5339     9.8402    54.5109     0.0523     2.3621     0.2000
  310.0000   -17.7048    23.2958    11.5207     9.8278    55.7244     0.0525     2.3525     0.1916
  310.5000   -17.8450    22.9871    11.5074     9.8457    56.3434     0.0557     2.3698     0.1870
  311.0000   -17.8361    23.4779    11.4942     9.8327    55.6252     0.0573     2.3789     0.1918
  311.5000   -17.8455    23.9767    11.4810     9.8358    54.3127     0.0529     2.3781     0.2010
  312.0000   -18.1167    23.9864    11.4677     9.8382    53.8854     0.0368     2.3637     0.2057
  312.5000   -18.4037    23.8314    11.4545     9.8407    54.6593     0.0235     2.3546     0.2072
  313.0000   -18.5461    23.8414    11.4413     9.8432    56.0213     0.0162     2.3524     0.2053
