~VERSION INFORMATION
 VERS.                2.0:   CWLS LOG ASCII STANDARD - VERSION 2.0
 WRAP.                 NO:   ONE LINE PER DEPTH STEP
~WELL INFORMATION
#MNEM.UNIT      DATA TYPE    INFORMATION
#----------   ------------   ------------------------------
 STRT.F           34.5000:   START DEPTH
 STOP.F          756.0000:   STOP DEPTH
 STEP.F            0.5000:   STEP LENGTH
 NULL.          -999.2500:   NO VALUE
 COMP. FENIX & SCISSON INC:   COMPANY
 WELL.    36 SX 11 #36-11:   WELL
 FLD .        TEAPOT DOME:   FIELD
 LOC .      S11 T38N R78W:   LOCATION
 CNTY.            NATRONA:   COUNTY
 STAT.            WYOMING:   STATE
 CTRY. UNITED STATES OF AMERICA:   COUNTRY
 SRVC.           BIRDWELL:   SERVICE COMPANY
 DATE.        21-FEB-1978:   LOGDATE
 API .       490251059700:   API NUMBER
~CURVE INFORMATION
#MNEM.UNIT       API CODE    CURVE DESCRIPTION
#----------   ------------   ------------------------------
 DEPT.F                  :   
 SPR .MV     05 010 01 00:   SPONTANEOUS POTENTIAL FROM RES.
 SN  .OHMM   05 040 16 00:   SHORT NORMAL 16"
 ILD .OHMM   05 120 46 00:   INDUCTION LOG DEEP
 RHOB.G/C3   45 350 01 00:   BULK DENSITY
 DPHI.DEC    45 890 12 00:   DENSITY POROSITY SANDSTONE
 GRD .GAPI   45 310 01 00:   GAMMA RAY FROM DENSITY LOG
 CALD.IN     45 280 60 00:   CALIPER
 CORR.G/C3   45 356 01 00:   DENSITY CORRECTION
~PARAMETER INFORMATION
#MNEM.UNIT          VALUE    DESCRIPTION
#----------   ------------   ------------------------------
 PD  .                 GL:   PERMANENT DATUM
 EPD .F              5175:   ELEVATION PERMANENT DATUM
 LMF .                 KB:   LOG MEASURED FROM
 DAPD.F                 4:   FEET ABOVE PERMANENT DATUM
 DMF .                 KB:   DRILLING MEASURED FROM
 EKB .F              5179:   KELLING BUSHING
 EGL .F              5175:   GROUND LEVEL
 DATE.          2-21-1978:   RUN DATE
 RUN .                  1:   RUN NUMBER
 DD  .F               765:   DEPTH DRILLER
 DL  .F               760:   DEPTH LOGGER
 BLI .F               754:   BOTTOM LOG INTERVAL
 TLI .F                40:   TOP LOG INTERVAL
 CS  .IN            8.625:   CASING SIZE
 CBD .F                39:   CASING BOTTOM DRILLER
 CBL .F                40:   CASING BOTTOM LOGGER
 BS  .IN            7.875:   BIT SIZE
 BSD .F               765:   BIT SIZE AT DEPTH
 DFT .         LIGNO/SULF:   DRILLING FLUID TYPE
 DFD .                8.6:   DRILLING FLUID DENSITY
 DFV .                 33:   DRILLING FLUID VISCOSITY
 DFPH.               10.5:   DRILLING FLUID PH
 DFL .                 84:   DRILLING FLUID LOSS
 MSS .          FLOW LINE:   MUD SAMPLE SOURCE
 RMS .OHMM            1.8:   RESISTIVITY MUD SAMPLE
 MST .F                56:   MUD SAMPLE TEMPERATURE
 RMF .OHMM            1.8:   RESISTIVITY MUD FILTRATE SAMPLE
 MFST.F                58:   MUD FILTRATE SAMPLE TEMPERATURE
 RMC .OHMM              4:   RESISTIVITY MUD CAKE
 MCST.F                62:   MUD CAKE SAMPLE TEMPERATURE
 MFSS.               MEAS:   MUD FILTRATE SAMPLE SOURCE
 RMB .OHMM           1.48:   RESISTIVITY MUD AT BHT
 BHT .F                68:   BOTTOM HOLE TEMPERATURE
 TCS .HRS               5:   TIME CURCULATED STOPPED
 MRT .F                68:   MAXIMUM RECORDED TEMPERATURE
 LUN .               2958:   LOGGING UNIT NUMBER
 LUL .               CASP:   LOGGING UNIT LOCATION
 ENGI.            POINTER:   RECORDING ENGINEER
 WITN.           MCGINLEY:   WITNESSED BY
 CLNT.            A2DTECH:   CLIENT CODE
 ORIG.       2", 5" PRINT:   ORIGIN OF DATA
 UWI .       490251059700:   UNIQUE WELL ID
 DICO. A2D Technologies, Inc.:   DIGITIZING COMPANY
~OTHER INFORMATION
~A   DEPT      SPR         SN        ILD       RHOB       DPHI         GRD      CALD       CORR   
# ...
  358.5000   -27.3437     8.8226     8.2294     2.4430     0.1394    83.1403     7.9868     0.0224
  359.0000   -27.5478     8.8228     8.2233     2.4283     0.1375    81.4760     7.9872     0.0222
  359.5000   -27.7152     8.8228     8.2172     2.4281     0.1340    81.6266     7.9874     0.0196
  360.0000   -27.4947     8.8230     8.2112     2.4547     0.1310    84.0997     7.9877     0.0171
  360.5000   -27.2758     8.8231     8.2051     2.4458     0.1406    86.7452     7.9880     0.0147
  361.0000   -27.1111     8.8243     8.1988     2.4341     0.1412    88.5860     7.9883     0.0121
  361.5000   -26.9944     8.7188     8.1937     2.4318     0.1414    89.9219     7.9886     0.0110
  362.0000   -26.7376     8.6268     8.0954     2.4329     0.1411    90.3696     7.9889     0.0110
  362.5000   -26.8927     8.5357     7.9910     2.4332     0.1394    91.3406     7.9892     0.0110
  363.0000   -27.1426     8.4459     7.8880     2.4315     0.1377    93.1486     7.9895     0.0110
  363.5000   -27.3983     8.2464     7.7394     2.4339     0.1366    94.9506     7.9898     0.0107
  364.0000   -27.5180     8.0184     7.5145     2.4407     0.1347    95.5384     7.9901     0.0103
  364.5000   -27.5202     7.7968     7.2961     2.4469     0.1327    92.4774     7.9904     0.0099
  365.0000   -27.5204     7.5813     7.0840     2.4456     0.1348    98.3204     7.9907     0.0096
  365.5000   -27.5203     7.3718     6.9362     2.4423     0.1410   104.6373     7.9910     0.0092
  366.0000   -27.5203     7.2656     6.8102     2.4344     0.1484   108.9216     7.9913     0.0090
  366.5000   -27.5077     7.2656     6.8529     2.4230     0.1528   106.8233     7.9916     0.0080
  367.0000   -27.4246     7.2656     6.9051     2.4119     0.1543   102.8585     7.9919     0.0072
  367.5000   -27.3420     7.2656     6.9578     2.4132     0.1499    98.8850     7.9921     0.0091
  368.0000   -27.2596     7.4038     7.0109     2.4224     0.1406    94.9498     7.9925     0.0108
  368.5000   -27.1772     7.4877     7.0644     2.4322     0.1330    94.2354     7.9927     0.0127
  369.0000   -27.0947     7.5726     7.1184     2.4423     0.1303    94.5728     7.9930     0.0124
  369.5000   -27.0124     7.6585     7.1727     2.4514     0.1306    96.4310     7.9933     0.0117
  370.0000   -26.9271     7.7453     7.2274     2.4525     0.1286   100.8774     7.9936     0.0109
  370.5000   -27.0373     7.8235     7.2879     2.4497     0.1270   105.6790     7.9939     0.0102
  371.0000   -27.2292     7.8652     7.3612     2.4540     0.1402   102.9080     7.9922     0.0095
  371.5000   -27.4231     7.9112     7.4353     2.4432     0.1375    99.3832     7.9903     0.0100
  372.0000   -27.6160     7.9575     7.5100     2.4319     0.1328    98.2785     7.9884     0.0158
  372.5000   -27.7050     8.0041     7.5855     2.4357     0.1286    98.2735     7.9865     0.0215
  373.0000   -27.6235     8.0674     7.6621     2.4446     0.1300    95.5738     7.9846     0.0246
  373.5000   -27.5454     8.2195     7.7434     2.4532     0.1314    92.6436     7.9827     0.0234
  374.0000   -27.4679     8.3745     7.8274     2.4514     0.1284    91.3033     7.9808     0.0223
  374.5000   -27.3923     8.5024     7.8962     2.4482     0.1222    90.2848     7.9789     0.0212
  375.0000   -27.2694     8.5024     7.8962     2.4604     0.1358    91.9135     7.9770     0.0229
  375.5000   -27.1775     8.5026     7.8962     2.4493     0.1322    94.3004     7.9751     0.0285
  376.0000   -27.3612     8.5024     7.8962     2.4417     0.1262    92.2041     7.9757     0.0327
  376.5000   -27.5504     8.5026     7.8962     2.4606     0.1202    90.4572     7.9826     0.0359
  377.0000   -27.7392     8.5033     7.8334     2.4562     0.1197    93.0798     7.9892     0.0383
  377.5000   -27.9288     8.5042     7.7336     2.4550     0.1180    95.8257     7.9851     0.0490
  378.0000   -28.1166     8.3719     7.6356     2.4678     0.1074    98.2378     7.9536     0.0621
  378.5000   -28.0897     8.2493     7.5389     2.4813     0.1100   101.1534     7.9219     0.0751
  379.0000   -27.9806     8.1281     7.4696     2.4834     0.1132   102.7589     7.9275     0.0825
  379.5000   -27.8736     8.0434     7.4699     2.4814     0.1129   101.0749     7.9475     0.0887
  380.0000   -27.7649     8.0826     7.4700     2.4813     0.1118    98.2035     7.9677     0.0912
  380.5000   -27.6650     8.1186     7.4700     2.4759     0.1168    99.5246     7.9882     0.0812
  381.0000   -27.5104     8.1548     7.4700     2.4613     0.1230   101.0239     7.9939     0.0688
  381.5000   -27.3581     8.1937     7.4700     2.4729     0.1200   101.3329     7.9940     0.0654
  382.0000   -27.2063     8.1430     7.4700     2.4647     0.1178   101.6760     7.9940     0.0598
  382.5000   -27.1175     8.0888     7.4700     2.4508     0.1219   103.5039     7.9939     0.0533
  383.0000   -27.1599     8.0351     7.4699     2.4484     0.1258   104.8741     7.9940     0.0511
  383.5000   -27.2023     7.9816     7.4706     2.4536     0.1270   100.9810     7.9940     0.0536
  384.0000   -27.2445     7.9286     7.4299     2.4567     0.1262    97.4944     7.9939     0.0560
  384.5000   -27.2853     7.8758     7.3610     2.4574     0.1228    94.1127     7.9484     0.0585
  385.0000   -27.3294     7.8235     7.2925     2.4593     0.1242    90.9178     7.8581     0.0652
  385.5000   -27.5614     7.7715     7.2247     2.4619     0.1220    90.0545     7.7902     0.0814
  386.0000   -27.7941     7.7198     7.1767     2.4649     0.1206    93.2062     7.8360     0.0975
  386.5000   -28.0257     7.6648     7.1412     2.4598     0.1321    91.9879     7.8979     0.1004
  387.0000   -28.2588     7.5980     7.1058     2.4471     0.1350    90.4505     7.9533     0.0918
  387.5000   -28.2892     7.5318     7.0706     2.4427     0.1290    89.1431     7.9539     0.0835
  388.0000   -28.1387     7.4661     7.0356     2.4552     0.1350    86.6491     7.9532     0.0587
  388.5000   -27.9926     7.4010     7.0007     2.4460     0.1286    84.1007     7.9513     0.0334
  389.0000   -27.8474     7.3363     6.9661     2.4355     0.1414    83.6199     7.9495     0.0214
  389.5000   -27.7237     7.2731     6.9317     2.4353     0.1358    85.5800     7.9477     0.0184
  390.0000   -27.7710     7.2151     6.8973     2.4435     0.1312    84.9996     7.9459     0.0193
  390.5000   -27.8161     7.1594     6.8250     2.4515     0.1263    86.5966     7.9441     0.0366
  391.0000   -27.8598     7.0395     6.6667     2.4592     0.1214    86.8837     7.9423     0.0534
  391.5000   -27.9064     6.8625     6.5037     2.4679     0.1174    84.4588     7.9405     0.0701
  392.0000   -27.6991     6.6771     6.2800     2.4766     0.1183    83.9081     7.9387     0.0791
  392.5000   -27.3088     6.4725     6.0500     2.4710     0.1266    89.9814     7.9369     0.0796
  393.0000   -26.9253     6.2741     5.8281     2.4636     0.1334    96.2022     7.9350     0.0802
  393.5000   -27.2157     6.0817     5.6144     2.4558     0.1395   102.4398     7.9351     0.0808
  394.0000   -27.7250     5.9281     5.4030     2.4387     0.1452   108.6103     7.9504     0.0807
  394.5000   -27.8179     5.9281     5.4698     2.4243     0.1509   114.1880     7.9660     0.0747
  395.0000   -27.5656     5.9381     5.5560     2.4187     0.1567   109.0389     7.9666     0.0580
  395.5000   -27.3117     5.9634     5.6437     2.4021     0.1630   105.6983     7.9522     0.0312
  396.0000   -27.0576     6.0388     5.7323     2.3866     0.1649   104.6863     7.9378     0.0260
  396.5000   -26.9183     6.3939     5.9837     2.4166     0.1404   105.6260     7.9234     0.0635
  397.0000   -27.0207     6.7474     6.3501     2.4488     0.1276   107.0904     7.9141     0.0871
  397.5000   -27.1229     6.8204     6.5629     2.4631     0.1206   106.0164     7.9180     0.0979
  398.0000   -27.2235     6.8898     6.6238     2.4680     0.1300   104.5577     7.9216     0.1010
  398.5000   -27.3073     6.9602     6.5911     2.4536     0.1377   101.9173     7.9252     0.1010
