~VERSION INFORMATION
 VERS.                2.0:   CWLS LOG ASCII STANDARD - VERSION 2.0
 WRAP.                 NO:   ONE LINE PER DEPTH STEP
~WELL INFORMATION
#MNEM.UNIT      DATA TYPE    INFORMATION
#----------   ------------   ------------------------------
 STRT.F           42.0000:   START DEPTH
 STOP.F          612.0000:   STOP DEPTH
 STEP.F            0.5000:   STEP LENGTH
 NULL.          -999.2500:   NO VALUE
 COMP. FENIX AND SCISSON INCORPORATED:   COMPANY
 WELL. RES 3 TEAPOT DOM #25SX11-11:   WELL
 FLD .             TEAPOT:   FIELD
 LOC .      S11 T38N R78W:   LOCATION
 CNTY.            NATRONA:   COUNTY
 STAT.            WYOMING:   STATE
 CTRY. UNITED STATES OF AMERICA:   COUNTRY
 SRVC.            Unknown:   SERVICE COMPANY
 DATE.        16-FEB-1978:   LOGDATE
 API .       490251058000:   API NUMBER
~CURVE INFORMATION
#MNEM.UNIT       API CODE    CURVE DESCRIPTION
#----------   ------------   ------------------------------
 DEPT.F                  :   
 ILD .OHMM   05 120 46 00:   INDUCTION LOG DEEP
 SN  .OHMM   05 040 16 00:   SHORT NORMAL 16"
 SPR .MV     05 010 01 00:   SPONTANEOUS POTENTIAL FROM RES.
 CALD.IN     45 280 60 00:   CALIPER FROM DENSITY LOG
 CORR.G/C3   45 356 01 00:   DENSITY CORRECTION
 DPHI.DEC    45 890 12 00:   DENSITY POROSITY SANDSTONE
 GRD .GAPI   45 310 01 00:   GAMMA RAY FROM DENSITY LOG
 RHOB.G/C3   45 350 01 00:   BULK DENSITY
~PARAMETER INFORMATION
#MNEM.UNIT          VALUE    DESCRIPTION
#----------   ------------   ------------------------------
 PD  .                 GL:   PERMANENT DATUM
 EPD .F              5167:   ELEVATION PERMANENT DATUM
 LMF .                 KB:   LOG MEASURED FROM
 DAPD.F                 3:   FEET ABOVE PERMANENT DATUM
 DMF .                 KB:   DRILLING MEASURED FROM
 EKB .F              5170:   KELLING BUSHING
 EGL .F              5167:   GROUND LEVEL
 DATE.        16-FEB-1978:   RUN DATE
 RUN .                  1:   RUN NUMBER
 DD  .F               610:   DEPTH DRILLER
 DL  .F               615:   DEPTH LOGGER
 BLI .F               610:   BOTTOM LOG INTERVAL
 TLI .F                40:   TOP LOG INTERVAL
 CS  .IN            8.625:   CASING SIZE
 CBD .F                40:   CASING BOTTOM DRILLER
 CBL .F                40:   CASING BOTTOM LOGGER
 BS  .IN            7.875:   BIT SIZE
 BSD .F               610:   BIT SIZE AT DEPTH
 DFT .        LIGNO/ SULF:   DRILLING FLUID TYPE
 DFD .                8.7:   DRILLING FLUID DENSITY
 DFV .                 30:   DRILLING FLUID VISCOSITY
 DFPH.                 10:   DRILLING FLUID PH
 DFL .                4.6:   DRILLING FLUID LOSS
 MSS .           FLOWLINE:   MUD SAMPLE SOURCE
 RMS .OHMM            1.7:   RESISTIVITY MUD SAMPLE
 MST .F                69:   MUD SAMPLE TEMPERATURE
 RMF .OHMM            1.5:   RESISTIVITY MUD FILTRATE SAMPLE
 MFST.F                70:   MUD FILTRATE SAMPLE TEMPERATURE
 RMC .OHMM            2.5:   RESISTIVITY MUD CAKE
 MCST.F                70:   MUD CAKE SAMPLE TEMPERATURE
 MFSS.               MEAS:   MUD FILTRATE SAMPLE SOURCE
 RMB .OHMM            1.6:   RESISTIVITY MUD AT BHT
 BHT .F                70:   BOTTOM HOLE TEMPERATURE
 TCS .HRS               3:   TIME CURCULATED STOPPED
 MRT .F                70:   MAXIMUM RECORDED TEMPERATURE
 LUN .               2958:   LOGGING UNIT NUMBER
 LUL .             CASPER:   LOGGING UNIT LOCATION
 ENGI.            POINTER:   RECORDING ENGINEER
 WITN.           MCGINLEY:   WITNESSED BY
 CLNT.            A2DTECH:   CLIENT CODE
 ORIG.           5" PRINT:   ORIGIN OF DATA
 UWI .       490251058000:   UNIQUE WELL ID
 DICO. A2D Technologies, Inc.:   DIGITIZING COMPANY
~OTHER INFORMATION
~A   DEPT      ILD         SN         SPR      CALD       CORR       DPHI        GRD       RHOB   
# ...
  568.5000    11.2605    11.6156   -26.8368     7.8954     0.0203     0.1208    86.1183     2.4553
  569.0000    11.1733    11.5305   -26.6951     7.8797     0.0247     0.1211    82.7952     2.4575
  569.5000    11.0118    11.5259   -26.4041     7.8641     0.0263     0.1199    82.4837     2.4597
  570.0000    10.9282    11.5212   -26.4144     7.8636     0.0290     0.1184    84.3939     2.4589
  570.5000    10.8452    11.5166   -26.4247     7.8631     0.0305     0.1172    88.5109     2.4588
  571.0000    10.8379    11.5119   -26.4350     7.8625     0.0304     0.1152    89.4110     2.4610
  571.5000    10.8306    11.4275   -26.4454     7.8620     0.0304     0.1119    89.5582     2.4632
  572.0000    10.8233    11.5026   -26.7740     7.8615     0.0303     0.1086    89.4013     2.4669
  572.5000    10.8159    11.4968   -27.0765     7.8609     0.0272     0.1056    89.3965     2.4714
  573.0000    10.8069    11.4127   -27.2388     7.8603     0.0212     0.1059    89.2408     2.4751
  573.5000    10.7996    11.4887   -27.5531     7.8598     0.0166     0.1105    89.3868     2.4780
  574.0000    10.7923    11.4829   -27.5634     7.8593     0.0151     0.1261    88.4757     2.4682
  574.5000    10.7104    11.4783   -27.5737     7.8739     0.0180     0.1252    86.9626     2.4538
  575.0000    10.7032    11.4737   -27.4320     7.8884     0.0240     0.1219    86.3556     2.4485
  575.5000    10.6960    11.3790   -27.1383     7.8879     0.0299     0.1186    88.1595     2.4500
  576.0000    10.6148    11.2269   -26.9968     7.8874     0.0296     0.1148    87.7022     2.4552
  576.5000    10.6076    11.2223   -26.8551     7.8867     0.0238     0.1142    89.8089     2.4604
  577.0000    10.6002    11.3759   -27.0200     7.9014     0.0237     0.1157    91.6140     2.4573
  577.5000    10.5915    11.4506   -27.0303     7.9008     0.0236     0.1160    89.6472     2.4535
  578.0000    10.5111    11.4448   -27.0406     7.9003     0.0236     0.1182    85.7208     2.4549
  578.5000    10.5040    11.4402   -27.0509     7.9149     0.0250     0.1173    82.5485     2.4609
  579.0000    10.4243    11.4355   -26.9093     7.9143     0.0295     0.1137    83.9011     2.4677
  579.5000    10.4173    11.4298   -26.7675     7.9138     0.0309     0.1101    86.7620     2.4645
  580.0000    10.4102    11.4252   -26.9301     7.9132     0.0293     0.1065    88.5671     2.4772
  580.5000    10.4032    11.2630   -27.0948     7.9277     0.0278     0.1044    89.4888     2.4809
  581.0000    10.3960    11.1032   -26.9506     7.9272     0.0247     0.1048    89.3103     2.4794
  581.5000    10.3155    10.8698   -26.9635     7.9267     0.0232     0.1066    86.5906     2.4778
  582.0000    10.2372    10.7902   -26.8192     7.9262     0.0231     0.1108    85.8328     2.4725
  582.5000    10.1595    10.5634   -26.6801     7.9257     0.0261     0.1144    88.0892     2.4702
  583.0000    10.0126    10.4859   -26.6905     7.9251     0.0290     0.1145    89.2909     2.4710
  583.5000     9.7995    10.3362   -26.5486     7.9246     0.0334     0.1121    90.3452     2.4776
  584.0000     9.6578    10.1895   -26.4072     7.9240     0.0333     0.1037    91.0912     2.4843
  584.5000     9.5181    10.0449   -26.4201     7.9234     0.0333     0.0966    90.7835     2.4895
  585.0000     9.3112     9.9023   -26.5824     7.9229     0.0332     0.0953    91.0803     2.4932
  585.5000     9.1158     9.7618   -26.7446     7.9376     0.0347     0.0980    92.2821     2.4969
  586.0000     8.9840     9.6232   -26.7550     7.9369     0.0331     0.1134    93.3342     2.4758
  586.5000     8.8540     9.4821   -26.7653     7.9364     0.0316     0.1125    92.4232     2.4847
  587.0000     8.6656     9.1582   -26.7756     7.9358     0.0330     0.1086    92.2641     2.4884
  587.5000     8.4812     9.0282   -26.7859     7.9202     0.0314     0.1038    92.1116     2.4876
  588.0000     8.0732     8.8385   -26.7964     7.9046     0.0314     0.1063    92.2578     2.4868
  588.5000     7.7924     8.5928   -26.8319     7.9040     0.0328     0.1222    93.6092     2.4702
  589.0000     7.4665     8.1251   -26.8169     7.9035     0.0313     0.1243    95.8668     2.4581
  589.5000     6.9422     7.7903   -26.2193     7.9030     0.0402     0.1409   104.4592     2.4500
  590.0000     6.4011     7.3152   -25.7737     7.9021     0.0536     0.1508   113.2025     2.4272
  590.5000     5.3029     7.0008   -25.6320     7.8867     0.0565     0.1511   113.9518     2.3971
  591.0000     5.2627     6.1435   -25.6449     7.8862     0.0475     0.1379   112.5882     2.4030
  591.5000     5.4073     5.9728   -25.6553     7.8857     0.0369     0.1196   107.6060     2.4210
  592.0000     5.5568     5.9704   -25.9696     7.8851     0.0309     0.0860    91.3116     2.4563
  592.5000     5.6690     5.9680   -26.2842     7.8847     0.0338     0.0911    91.4575     2.4992
  593.0000     5.8654     6.0071   -26.2967     7.8841     0.0353     0.0923    96.1284     2.5050
  593.5000     6.5700     6.1312   -26.3070     7.8987     0.0352     0.0900   101.2518     2.5011
  594.0000     7.5203     7.1216   -26.4693     7.9140     0.0367     0.0906   100.2754     2.4958
  594.5000     8.0001     8.8517   -26.6316     7.9428     0.0366     0.0885    94.4535     2.4995
  595.0000     8.5697     9.4189   -26.7939     7.9496     0.0334     0.0912    93.3929     2.5047
  595.5000     8.8666     9.7479   -26.8042     7.9570     0.0275     0.0937    93.5400     2.5114
  596.0000     8.9224     9.8129   -26.8166     7.9564     0.0244     0.0955    93.8369     2.5029
  596.5000     8.8546     9.9461   -26.9772     7.9558     0.0244     0.0967    93.9828     2.4948
  597.0000     8.8487    10.0105   -27.2937     7.9553     0.0258     0.0973    94.1277     2.4955
  597.5000     8.9705    10.0761   -27.3040     7.9548     0.0257     0.0976    94.1143     2.4977
  598.0000     9.0857    10.1422   -27.3143     7.9542     0.0272     0.0977    93.9658     2.4991
  598.5000     9.2066    10.2088   -27.4766     7.9689     0.0286     0.0971    93.8102     2.4855
  599.0000     9.3291    10.3475   -27.6389     7.9833     0.0301     0.0956    93.2020     2.4832
  599.5000     9.5175    10.5600   -27.8012     7.9828     0.0345     0.0875    92.7459     2.4929
  600.0000     9.5790    10.9287   -28.2675     7.9823     0.0329     0.0830    94.2481     2.5004
  600.5000     9.8661    11.2323   -28.2810     7.9818     0.0328     0.0843    96.3549     2.5086
  601.0000    10.1898    11.4028   -28.4441     7.9812     0.0327     0.0857    97.4158     2.5123
  601.5000    10.4017    11.6189   -28.7599     7.9806     0.0341     0.0863    96.7964     2.5092
  602.0000    10.5610    11.8590   -28.9258     7.9650     0.0384     0.0851    94.3783     2.5084
  602.5000    10.6894    12.0258   -28.9369     7.9494     0.0413     0.0839    91.8093     2.5137
  603.0000    10.9108    12.2688   -28.9483     7.9488     0.0412     0.0842    91.5041     2.5150
  603.5000    11.0832    12.4357   -28.9628     7.9332     0.0426     0.0851    92.1025     2.5105
  604.0000    11.2907    12.5161   -28.9738     7.9327     0.0424     0.0854    91.6440     2.5112
  604.5000    11.3658    12.5984   -28.9849     7.9170     0.0423     0.0860    91.3256     2.5111
  605.0000    11.4419    12.6814   -28.9564     7.9165     0.0422     0.0890    88.7673     2.5102
  605.5000    11.5178    12.7637   -28.8551     7.9008     0.0421     0.0968    85.1425     2.5057
  606.0000    11.5149    12.8474   -28.7179     7.8852     0.0420     0.0917    89.2101     2.4974
  606.5000    11.5120    12.8420   -28.7295     7.8846     0.0403     0.0866    92.5235     2.4943
  607.0000    11.5893    12.9271   -28.7437     7.8690     0.0387     0.0893    93.4248     2.5003
  607.5000    11.5052    13.0108   -28.6028     7.8534     0.0371     0.0890    92.6646     2.5062
  608.0000    11.5023    13.0962   -28.6140     7.8377     0.0370     0.0893    94.9755     2.5099
  608.5000    11.5796    13.1825   -28.4730     7.8197     0.0384     0.0920    96.2748     2.5091
