~VERSION INFORMATION
 VERS.                2.0:   CWLS LOG ASCII STANDARD - VERSION 2.0
 WRAP.                 NO:   ONE LINE PER DEPTH STEP
~WELL INFORMATION
#MNEM.UNIT      DATA TYPE    INFORMATION
#----------   ------------   ------------------------------
 STRT.F            0.0000:   START DEPTH
 STOP.F          700.0000:   STOP DEPTH
 STEP.F            0.5000:   STEP LENGTH
 NULL.          -999.2500:   NO VALUE
 COMP. FENIX & SCISSON INC:   COMPANY
 WELL. 37-11 SX 11 WP #11-11:   WELL
 FLD .             TEAPOT:   FIELD
 LOC .      S11 T38N R78W:   LOCATION
 CNTY.            NATRONA:   COUNTY
 STAT.            WYOMING:   STATE
 CTRY. UNITED STATES OF AMERICA:   COUNTRY
 SRVC.      Dresser Atlas:   SERVICE COMPANY
 DATE.        21-AUG-1980:   LOGDATE
 API .       490251084200:   API NUMBER
~CURVE INFORMATION
#MNEM.UNIT       API CODE    CURVE DESCRIPTION
#----------   ------------   ------------------------------
 DEPT.F                  :   
 SPR .MV     07 010 01 00:   SPONTANEOUS POTENTIAL
 RFOC.OHMM   07 220 04 00:   RESISTIVITY FOCUSED LOG
 RILD.OHMM   07 120 46 00:   INDUCTION LOG DEEP RESISTIVITY
 RILM.OHMM   07 120 44 00:   INDUCTION LOG MEDIUM RESISTIVITY
 GRD .GAPI   45 310 01 00:   GAMMA RAY FROM DENSITY LOG
 CALD.IN     45 280 60 00:   CALIPER
 RHOB.G/C3   45 350 01 00:   BULK DENSITY
 CORR.G/C3   45 356 01 00:   DENSITY CORRECTION
 CNC .DEC    42 890 03 00:   NEUTRON POROSITY SANDSTONE
 PORD.DEC    45 890 12 00:   POROSITY DENSITY SANDSTONE
~PARAMETER INFORMATION
#MNEM.UNIT          VALUE    DESCRIPTION
#----------   ------------   ------------------------------
 PD  .                 GL:   PERMANENT DATUM
 EPD .F              5194:   ELEVATION PERMANENT DATUM
 LMF .                 KB:   LOG MEASURED FROM
 DAPD.F                 5:   FEET ABOVE PERMANENT DATUM
 DMF .                 KB:   DRILLING MEASURED FROM
 EKB .F              5199:   KELLING BUSHING
 EDF .F              5198:   DRILLING FLOOR
 EGL .F              5194:   GROUND LEVEL
 DATE.            8-21-80:   RUN DATE
 RUN .                  1:   RUN NUMBER
 DD  .F               695:   DEPTH DRILLER
 DL  .F               700:   DEPTH LOGGER
 BLI .F               699:   BOTTOM LOG INTERVAL
 BS  .IN            7.875:   BIT SIZE
 BSD .F               695:   BIT SIZE AT DEPTH
 DFT .      DISPERSED KCL:   DRILLING FLUID TYPE
 DFD .               2.68:   DRILLING FLUID DENSITY
 DFV .                 50:   DRILLING FLUID VISCOSITY
 DFPH.                 14:   DRILLING FLUID PH
 DFL .                 18:   DRILLING FLUID LOSS
 MSS .           FLOWLINE:   MUD SAMPLE SOURCE
 RMS .OHMM           .256:   RESISTIVITY MUD SAMPLE
 MST .F                70:   MUD SAMPLE TEMPERATURE
 RMF .OHMM           .393:   RESISTIVITY MUD FILTRATE SAMPLE
 MFST.F                66:   MUD FILTRATE SAMPLE TEMPERATURE
 RMC .OHMM           .858:   RESISTIVITY MUD CAKE
 MCST.F                66:   MUD CAKE SAMPLE TEMPERATURE
 MFSS.               MEAS:   MUD FILTRATE SAMPLE SOURCE
 MCSS.               MEAS:   MUD CAKE SAMPLE SOURCE
 RMB .OHMM            .53:   RESISTIVITY MUD AT BHT
 BHT .F                99:   BOTTOM HOLE TEMPERATURE
 TCS .HRS               3:   TIME CURCULATED STOPPED
 MRT .F                99:   MAXIMUM RECORDED TEMPERATURE
 LUN .               9369:   LOGGING UNIT NUMBER
 LUL .       ROCK SPRINGS:   LOGGING UNIT LOCATION
 ENGI.            PAULSON:   RECORDING ENGINEER
 WITN.              SCOTT:   WITNESSED BY
 CLNT.            A2DTECH:   CLIENT CODE
 ORIG.       2", 5" PRINT:   ORIGIN OF DATA
 UWI .       490251084200:   UNIQUE WELL ID
 DICO. A2D Technologies, Inc.:   DIGITIZING COMPANY
~OTHER INFORMATION
~A    DEPT     SPR       RFOC       RILD       RILM        GRD       CALD       RHOB       CORR        CNC         PORD 
# ...
   33.5000   -11.4696    17.5837     6.8120     6.6372    86.0610     8.4166     2.0389    -0.0244     0.3103     0.3811
   34.0000   -10.8811    16.6439     6.4109     6.2330    86.3396     8.4091     2.0433    -0.0220     0.3231     0.3837
   34.5000   -10.2620    15.9001     6.0334     5.8543    86.1021     8.4566     2.0483    -0.0129     0.3288     0.3720
   35.0000    -9.6763    15.5332     5.6781     5.4985    84.6705     8.5144     2.0443    -0.0092     0.3151     0.3608
   35.5000    -9.8005    15.1420     5.3437     5.1637    81.8905     8.5722     2.0383    -0.0150     0.3058     0.3551
   36.0000    -9.9556    14.4265     5.0291     4.8507    82.3402     8.6357     2.0351    -0.0209     0.2974     0.3640
   36.5000   -10.1076    13.4836     4.8619     4.6477    83.6066     8.7104     2.0476    -0.0072     0.3008     0.3851
   37.0000   -10.2589    12.4354     4.7937     4.6045    85.1619     8.7848     2.0722     0.0082     0.3058     0.3979
   37.5000   -10.4087    11.4688     4.7487     4.5760    84.9172     8.8652     2.0840     0.0123     0.3250     0.4033
   38.0000   -10.6487    10.9445     4.7499     4.6129    84.3927     8.9494     2.0644     0.0047     0.3336     0.4047
   38.5000   -10.9387    11.2325     4.7496     4.6455    84.6643     8.9735     2.0380    -0.0027     0.3173     0.3922
   39.0000   -11.2292    11.6327     4.7496     4.6781    85.1208     8.9739     2.0136    -0.0101     0.3074     0.3892
   39.5000   -11.5204    11.8974     4.7496     4.7058    85.1435     8.9738     2.0008    -0.0175     0.2991     0.3720
   40.0000   -11.7656    11.3816     4.7497     4.7058    85.1453     8.9738     2.0044    -0.0231     0.2892     0.3434
   40.5000   -12.1530    10.6948     4.7496     4.7058    84.8068     8.9738     2.0178    -0.0269     0.2791     0.3495
   41.0000   -12.5327    10.0493     4.7058     4.5490    84.2858     8.9738     2.0325    -0.0291     0.2648     0.3614
   41.5000   -12.9113     9.4429     4.5487     4.3544    84.8907     8.9738     2.0594    -0.0165     0.2531     0.3745
   42.0000   -13.2901     9.0878     4.3553     4.1681    86.3900     8.9774     2.0949    -0.0031     0.2852     0.3793
   42.5000   -13.6695     9.0962     4.1702     3.9898    86.7990     8.9838     2.1007     0.0074     0.2982     0.3643
   43.0000   -14.0464     9.0971     3.9929     3.8191    85.2332     8.9900     2.0800     0.0012     0.2930     0.3573
   43.5000   -14.3322     8.1543     3.8231     3.6558    81.6448     8.9740     2.0542    -0.0076     0.2869     0.3460
   44.0000   -14.3495     7.4506     3.6606     3.4994    79.0070     8.9281     2.0420    -0.0159     0.2676     0.3398
   44.5000   -14.8060     6.8832     3.5050     3.3497    80.1573     8.8828     2.0556    -0.0126     0.3033     0.3373
   45.0000   -15.2273     6.9724     3.3560     3.2064    80.9900     8.8406     2.0801    -0.0042     0.3221     0.3400
   45.5000   -15.5543     7.0817     3.2133     3.0692    79.9304     8.8058     2.1034    -0.0011     0.3409     0.3521
   46.0000   -15.7357     7.1433     3.0767     2.9379    77.3034     8.7729     2.1088    -0.0010     0.3598     0.3622
   46.5000   -15.6126     6.5669     2.9459     2.8122    74.6063     8.7720     2.1136    -0.0013     0.3682     0.3632
   47.0000   -15.4500     6.0596     2.8206     2.7029    74.1550     8.7721     2.1066    -0.0079     0.3437     0.3655
   47.5000   -15.2842     5.5915     2.7006     2.6282    74.0100     8.7722     2.0895    -0.0143     0.3234     0.3668
   48.0000   -15.1715     5.2584     2.5859     2.5556    72.2192     8.7721     2.0721    -0.0207     0.3165     0.3640
   48.5000   -15.7333     5.0521     2.5278     2.5045    70.9304     8.7772     2.0694    -0.0232     0.3384     0.3493
   49.0000   -16.2846     4.8540     2.5278     2.4813    73.1481     8.7837     2.0656    -0.0233     0.3643     0.3419
   49.5000   -16.4097     4.6636     2.5817     2.5573    76.2685     8.7900     2.0623    -0.0234     0.3779     0.3423
   50.0000   -16.0913     4.5344     2.7873     2.6685    77.8571     8.8072     2.0779    -0.0177     0.3446     0.3433
   50.5000   -15.7670     4.5344     3.0055     2.8172    77.5201     8.8285     2.0997    -0.0096     0.3187     0.3460
   51.0000   -15.5796     4.5344     3.2416     3.0522    76.9036     8.8498     2.1044    -0.0013     0.3246     0.3489
   51.5000   -15.3937     4.5344     3.4960     3.3071    75.7285     8.8742     2.1036     0.0027     0.3272     0.3517
   52.0000   -15.0362     4.5344     3.8372     3.5850    74.5866     8.9877     2.1027     0.0065     0.3006     0.3605
   52.5000   -14.3305     4.7014     3.8105     3.8372    74.4976     9.1091     2.0983     0.0106     0.3071     0.4466
   53.0000   -13.1859     5.4548     3.7780     3.4844    76.2657     9.2275     2.0974     0.0055     0.3189     0.4982
   53.5000   -12.3369     6.5090     3.7306     3.0032    77.6062     9.4579     2.0000    -0.0016     0.3312     0.5390
   54.0000   -12.2709     7.2099     3.8020     2.5995    76.3976     9.8832     2.0020    -0.0085     0.3475     0.5409
   54.5000   -12.5510     4.9758     3.9737     2.5725    74.7919    10.5577     2.0000    -0.0304     0.3916     0.4869
   55.0000   -12.8381     3.7023     4.1531     3.0318    71.5076    12.0306     2.0000    -0.0383     0.4187     0.4705
   55.5000   -13.1250     2.9322     4.2889     3.5194    69.5827    13.6286     2.0006    -0.0060     0.4241     0.4154
   56.0000   -13.4115     3.1203     4.1408     3.9090    67.7085    13.2296     2.0019     0.0031     0.3758     0.3625
   56.5000   -13.6971     3.9090     4.2298     3.6633    61.9343    12.0709     2.0029    -0.0095     0.3424     0.3322
   57.0000   -13.9838     3.8853     4.6521     4.5719    55.9391    10.9847     2.0054    -0.0100     0.3477     0.3068
   57.5000   -14.1235     3.8398     5.3498     5.4194    54.5007    10.4060     2.0529    -0.0009     0.3805     0.2814
   58.0000   -13.9211     3.8017     6.1332     6.4238    56.2641     9.8550     2.1041     0.0121     0.4010     0.2772
   58.5000   -13.5374     4.5146     7.0312     7.6144    59.5779     9.3577     2.1551     0.0268     0.4056     0.2830
   59.0000   -13.7858     5.4030     8.0603     8.0587    62.8634     8.8778     2.1981     0.0212     0.3769     0.2898
   59.5000   -14.4149     6.6943     8.6088     7.9394    65.9602     8.6883     2.2121     0.0061     0.3572     0.2989
   60.0000   -15.3264     6.5729     8.3460     7.7912    65.5259     8.5571     2.2154    -0.0062     0.3404     0.2992
   60.5000   -16.3540     6.3787     7.9283     7.7394    64.5311     8.4565     2.2074    -0.0064     0.3278     0.2988
   61.0000   -17.5786     6.2734     7.5300     7.7025    65.0112     8.3861     2.1923     0.0055     0.3286     0.2955
   61.5000   -19.1742     6.3967     7.1518     7.4027    66.7914     8.3166     2.1780     0.0184     0.3383     0.2857
   62.0000   -20.4684     6.4833     6.7926     6.9730    66.9113     8.2603     2.1714     0.0309     0.3503     0.2742
   62.5000   -22.2345     6.5106     6.4514     6.5712    66.7943     8.2061     2.1783     0.0411     0.3582     0.2591
   63.0000   -23.9124     5.9280     6.1013     6.1927    68.2693     8.1502     2.1879     0.0361     0.3329     0.2441
   63.5000   -25.1701     5.4082     5.9398     5.8359    69.7381     8.1274     2.2029     0.0270     0.3216     0.2301
   64.0000   -26.3871     5.4294     5.7686     5.5918    71.1955     8.1270     2.2215     0.0190     0.3199     0.2215
   64.5000   -27.6357     5.4689     5.6023     5.5313    72.7114     8.1270     2.2450     0.0117     0.3233     0.1967
   65.0000   -28.1716     5.5086     5.4408     5.4715    75.1890     8.1270     2.2690     0.0079     0.3235     0.1939
   65.5000   -27.6675     5.5489     5.2840     5.4123    80.2452     8.1270     2.2910     0.0059     0.3172     0.1910
   66.0000   -27.0008     5.5899     5.1624     5.3538    83.9412     8.1270     2.3124     0.0040     0.3117     0.1864
   66.5000   -26.3429     5.6123     5.1587     5.3069    85.9423     8.1270     2.3338     0.0043     0.3341     0.1762
