~VERSION INFORMATION
 VERS.                2.0:   CWLS LOG ASCII STANDARD - VERSION 2.0
 WRAP.                 NO:   ONE LINE PER DEPTH STEP
~WELL INFORMATION
#MNEM.UNIT      DATA TYPE    INFORMATION
#----------   ------------   ------------------------------
 STRT.F            2.0000:   START DEPTH
 STOP.F          482.5000:   STOP DEPTH
 STEP.F            0.5000:   STEP LENGTH
 NULL.          -999.2500:   NO VALUE
 COMP. LAWRENCE/ALLISON INC:   COMPANY
 WELL. NPR 3 #52-45-SX-10:   WELL
 FLD .             TEAPOT:   FIELD
 LOC .      S10 T38N R78W:   LOCATION
 CNTY.            NATRONA:   COUNTY
 STAT.            WYOMING:   STATE
 CTRY. UNITED STATES OF AMERICA:   COUNTRY
 SRVC.           Gearhart:   SERVICE COMPANY
 DATE.        30-MAY-1988:   LOGDATE
 API .       490251122800:   API NUMBER
~CURVE INFORMATION
#MNEM.UNIT       API CODE    CURVE DESCRIPTION
#----------   ------------   ------------------------------
 DEPT.F                  :   
 GRR .GAPI   07 310 01 00:   GAMMA RAY FROM RES. LOG.
 RILD.OHMM   07 120 46 00:   INDUCTION LOG DEEP RESISTIVITY
 RILM.OHMM   07 120 44 00:   INDUCTION LOG MEDIUM RESISTIVITY
~PARAMETER INFORMATION
#MNEM.UNIT          VALUE    DESCRIPTION
#----------   ------------   ------------------------------
 PD  .                 GL:   PERMANENT DATUM
 EPD .F              5176:   ELEVATION PERMANENT DATUM
 LMF .                 KB:   LOG MEASURED FROM
 DAPD.F                10:   FEET ABOVE PERMANENT DATUM
 DMF .                 KB:   DRILLING MEASURED FROM
 EKB .F              5186:   KELLING BUSHING
 EGL .F              5176:   GROUND LEVEL
 DATE.            5-30-88:   RUN DATE
 RUN .                  1:   RUN NUMBER
 DD  .F               490:   DEPTH DRILLER
 DL  .F               491:   DEPTH LOGGER
 BLI .F               483:   BOTTOM LOG INTERVAL
 TLI .F                49:   TOP LOG INTERVAL
 CS  .IN            8.625:   CASING SIZE
 CBD .F                49:   CASING BOTTOM DRILLER
 CBL .F                49:   CASING BOTTOM LOGGER
 BS  .IN            7.875:   BIT SIZE
 BSD .F               490:   BIT SIZE AT DEPTH
 DFT .                AIR:   DRILLING FLUID TYPE
 TCS .HRS            0148:   TIME CURCULATED STOPPED
 MRT .F                70:   MAXIMUM RECORDED TEMPERATURE
 LUN .               7597:   LOGGING UNIT NUMBER
 LUL .           GILLETTE:   LOGGING UNIT LOCATION
 ENGI.          HUCKFELDT:   RECORDING ENGINEER
 WITN.             STRONG:   WITNESSED BY
 CLNT.            A2DTECH:   CLIENT CODE
 ORIG. 1", 2.5", 5" PRINT:   ORIGIN OF DATA
 UWI .       490251122800:   UNIQUE WELL ID
 DICO. A2D Technologies, Inc.:   DIGITIZING COMPANY
~OTHER INFORMATION
~A    DEPT      GRR      RILD       RILM   
# ...
  184.0000   129.3263     6.8829     6.4449
  184.5000   129.6056     7.1809     6.7477
  185.0000   130.1129     7.4782     7.0646
  185.5000   128.3771     7.7839     7.3964
  186.0000   126.6066     8.1036     7.7438
  186.5000   125.6742     8.2853     7.8937
  187.0000   125.0486     8.4095     7.9227
  187.5000   124.4888     8.4878     7.9519
  188.0000   123.9358     8.3385     7.9548
  188.5000   123.7523     8.2395     7.9548
  189.0000   124.1111     8.1416     7.9155
  189.5000   124.8986     8.0448     7.7117
  190.0000   124.5226     7.8817     7.5246
  190.5000   124.4771     7.7088     7.3846
  191.0000   124.2923     7.5395     7.2258
  191.5000   124.1408     7.3740     7.0705
  192.0000   124.1470     7.2139     6.9185
  192.5000   124.3012     6.9374     6.6884
  193.0000   124.6438     6.5169     6.4279
  193.5000   125.2727     6.1198     6.3687
  194.0000   127.7303     5.7476     6.0701
  194.5000   130.2030     5.3980     5.8065
  195.0000   132.6831     5.0697     5.5938
  195.5000   134.9717     4.8231     5.5938
  196.0000   134.5450     4.8231     5.5938
  196.5000   132.3719     5.0084     5.5938
  197.0000   130.2713     5.3808     5.9755
  197.5000   130.1672     5.7809     6.3544
  198.0000   130.2148     6.2107     6.7572
  198.5000   128.7725     6.6725     7.1839
  199.0000   126.9942     7.1686     7.2904
  199.5000   125.3852     7.7016     7.3981
  200.0000   126.1355     7.9548     7.5073
  200.5000   127.7741     7.9994     7.6182
  201.0000   129.4053     8.1380     7.7306
  201.5000   130.9664     8.2788     7.8451
  202.0000   131.6344     8.3423     7.9544
  202.5000   130.2276     8.3572     7.9513
  203.0000   127.7734     8.3726     7.9473
  203.5000   125.2329     8.3881     7.9434
  204.0000   123.7533     8.4095     7.9397
  204.5000   125.1452     8.3956     7.9360
  205.0000   128.2329     8.3726     7.9323
  205.5000   131.2970     8.3498     7.9286
  206.0000   132.4059     8.3271     7.9249
  206.5000   132.7388     8.3045     7.9212
  207.0000   132.0986     8.2819     7.9175
  207.5000   132.1993     8.2594     7.9138
  208.0000   132.9807     8.2369     7.9101
  208.5000   133.7737     8.2146     7.9064
  209.0000   133.6833     8.1923     7.9028
  209.5000   130.1852     8.1791     7.8991
  210.0000   126.7536     8.1790     7.8954
  210.5000   124.4779     8.1790     7.8917
  211.0000   126.2097     8.1790     7.8881
  211.5000   128.2901     8.1325     7.8851
  212.0000   129.8397     8.0491     7.8834
  212.5000   129.9456     7.9666     7.8208
  213.0000   130.0795     7.8013     7.5740
  213.5000   130.5068     7.5754     7.3351
  214.0000   132.1762     7.3560     7.1036
  214.5000   133.1578     7.1839     6.8587
  215.0000   133.4768     6.9983     6.7912
  215.5000   133.8270     6.8727     6.6832
  216.0000   134.8602     6.7523     6.5131
  216.5000   135.7747     6.6065     6.2073
  217.0000   135.0326     6.4102     5.9158
  217.5000   133.5558     6.0704     5.6381
  218.0000   132.4514     5.7536     5.3734
  218.5000   132.1899     5.5423     5.1207
  219.0000   132.1905     5.4911     4.8800
  219.5000   131.7936     5.4911     4.6036
  220.0000   131.3421     5.5228     4.7594
  220.5000   130.6875     5.5761     5.0300
  221.0000   129.1346     5.7336     5.3160
  221.5000   127.6916     6.0376     5.6183
  222.0000   126.9236     6.3576     5.9377
  222.5000   126.1506     6.6946     6.2756
  223.0000   125.2374     7.0495     6.6322
  223.5000   124.6846     7.3183     7.0093
  224.0000   125.8894     7.3183     7.1381
  224.5000   127.2347     7.2508     7.1839
  225.0000   128.5132     6.8693     6.6030
  225.5000   127.8327     6.4945     6.2028
  226.0000   127.0827     6.1402     5.8269
  226.5000   126.5016     5.8591     5.4738
  227.0000   129.1893     5.7515     5.1421
  227.5000   131.4515     5.7507     5.0052
  228.0000   128.5369     5.7514     5.0052
  228.5000   125.7087     5.7511     5.2636
  229.0000   126.5706     5.7801     5.5280
  229.5000   128.1381     6.0819     5.8057
  230.0000   129.1575     6.3986     6.0974
  230.5000   127.7986     6.7318     6.4037
  231.0000   126.0366     7.0823     6.7254
  231.5000   124.1181     7.4511     7.0632
  232.0000   122.4874     7.8391     7.4181
  232.5000   122.7274     8.2043     7.7907
  233.0000   122.9770     8.3386     8.1790
  233.5000   123.2260     8.4792     8.1790
  234.0000   123.3361     8.6213     8.2150
  234.5000   123.1884     8.7660     8.2701
  235.0000   122.7793     8.8903     8.3255
  235.5000   122.3738     8.8704     8.3813
  236.0000   121.9663     8.8358     8.4375
  236.5000   121.5591     8.8015     8.4941
  237.0000   121.1663     8.7672     8.5674
  237.5000   121.4795     8.7331     8.5669
  238.0000   122.7864     8.6991     8.5244
  238.5000   124.0850     8.6652     8.4686
  239.0000   125.3699     8.6466     8.4132
  239.5000   126.1880     8.6613     8.3582
  240.0000   124.3532     8.8126     8.3314
  240.5000   121.3951     8.9665     8.4584
  241.0000   120.0873     9.1230     8.5954
  241.5000   119.6584     9.2826     8.7344
  242.0000   119.1626     9.3995     8.8755
  242.5000   117.8352     9.4016     8.8903
  243.0000   115.4290     9.4050     8.3752
  243.5000   112.9859     8.9725     7.7262
  244.0000   112.1410     7.9688     7.1274
  244.5000   115.7784     7.0775     6.5750
  245.0000   124.7595     6.6091     6.0655
  245.5000   133.5670     6.6633     5.5954
  246.0000   139.2160     6.7653     5.3903
  246.5000   133.7019     6.8688     5.8881
  247.0000   126.3529     6.9739     6.4225
  247.5000   118.9210     7.2178     7.0054
  248.0000   114.9992     8.0477     7.6412
  248.5000   114.2120     8.9730     8.3347
  249.0000   113.6577    10.0048     9.0911
  249.5000   112.9683    10.6178     9.3820
  250.0000   112.4694    10.8780     9.6320
  250.5000   113.3738    11.1446     9.8887
  251.0000   114.3782    11.4178    10.1522
  251.5000   115.3834    11.6976    10.4227
  252.0000   116.1092    11.9589    10.7004
  252.5000   115.0460    12.9448    11.0020
  253.0000   111.3748    13.9228    11.1755
  253.5000   105.7329    14.9746    12.2023
  254.0000    97.1780    16.4396    14.6392
  254.5000    84.6815    18.2459    16.4670
  255.0000    73.8051    20.2507    18.3750
  255.5000    65.9489    22.4757    20.5042
  256.0000    60.5884    24.9452    22.8801
  256.5000    61.9363    27.6860    25.5313
  257.0000    63.9408    30.4880    28.8645
  257.5000    65.9507    30.3500    28.8288
  258.0000    67.8877    30.1182    29.1031
  258.5000    71.0865    29.8882    28.9472
  259.0000    73.9699    29.6521    28.8392
  259.5000    72.7549    29.6521    29.0024
  260.0000    68.8451    30.2001    29.2144
  260.5000    65.2511    30.4715    29.4280
  261.0000    64.7797    30.7452    29.6431
  261.5000    67.0936    31.0215    29.8598
  262.0000    69.7481    31.2995    30.0780
  262.5000    71.7023    31.5806    30.2979
  263.0000    73.1583    31.8613    30.6277
  263.5000    73.4053    32.8629    31.6353
  264.0000    72.0539    34.1277    32.6760
  264.5000    70.5672    35.4411    33.7510
  265.0000    70.6205    36.8046    34.9144
  265.5000    71.1845    38.2233    36.4220
  266.0000    71.7650    39.7741    38.0071
  266.5000    70.8277    41.4402    39.5189
  267.0000    68.2325    42.9622    39.5189
  267.5000    66.3885    43.3679    39.5189
  268.0000    65.8531    41.5389    38.6942
  268.5000    66.2591    40.2541    37.8659
  269.0000    67.9881    38.9911    37.0565
  269.5000    69.9782    37.6383    36.2657
  270.0000    73.4196    36.3569    35.4915
  270.5000    76.8574    36.1487    35.1476
  271.0000    80.3067    35.8988    34.8919
  271.5000    81.8725    35.6507    34.6392
  272.0000    80.8577    35.4042    34.3880
  272.5000    79.1165    35.1599    34.1384
  273.0000    77.8424    34.9173    33.8907
  273.5000    78.3687    34.6250    33.6447
  274.0000    79.3195    34.0504    33.3649
  274.5000    79.4591    33.4846    32.9413
