~VERSION INFORMATION
 VERS.                2.0:   CWLS LOG ASCII STANDARD - VERSION 2.0
 WRAP.                 NO:   ONE LINE PER DEPTH STEP
~WELL INFORMATION
#MNEM.UNIT      DATA TYPE    INFORMATION
#----------   ------------   ------------------------------
 STRT.M         1049.9000:   START DEPTH
 STOP.M         2123.5000:   STOP DEPTH
 STEP.M            0.1000:   STEP LENGTH
 NULL.          -999.2500:   NO VALUE
 COMP. BROWN JOHN E&C INC:   COMPANY
 WELL. NAVAL PETROLEUM RESERVE 3 STX- #34-3:   WELL
 FLD .            WILDCAT:   FIELD
 LOC .       S3 T38N R78W:   LOCATION
 CNTY.            NATRONA:   COUNTY
 STAT.            WYOMING:   STATE
 CTRY. UNITED STATES OF AMERICA:   COUNTRY
 SRVC.            Unknown:   SERVICE COMPANY
 DATE.        04-SEP-1991:   LOGDATE
 API .       490251090400:   API NUMBER
~CURVE INFORMATION
#MNEM.UNIT       API CODE    CURVE DESCRIPTION
#----------   ------------   ------------------------------
 DEPT.M                  :   
 ROP .MIN/FT 91 810 01 00:   RAT OF DRILLING PENETRATION
 TGAS.UNITS  91 830 01 00:   TOTAL GAS FROM HOTWIRE
~PARAMETER INFORMATION
#MNEM.UNIT          VALUE    DESCRIPTION
#----------   ------------   ------------------------------
 EKB .F              5189:   KELLING BUSHING
 EGL .F              5179:   GROUND LEVEL
 DATE.             9-4-91:   RUN DATE
 DD  .F              2123:   DEPTH DRILLER
 CS  .IN            9.625:   CASING SIZE
 BS  .IN             8.75:   BIT SIZE
 BSD .F              2123:   BIT SIZE AT DEPTH
 ENGI.              TOWER:   RECORDING ENGINEER
 WITN.               HUSK:   WITNESSED BY
 CLNT.            A2DTECH:   CLIENT CODE
 ORIG.           5" PRINT:   ORIGIN OF DATA
 UWI .       490251090400:   UNIQUE WELL ID
 DICO. A2D Technologies, Inc.:   DIGITIZING COMPANY
~OTHER INFORMATION
~A  DEPT       ROP         TGAS 
# ...
 1268.6000     0.4285     1.2857
 1268.7000     0.4284     1.2857
 1268.8000     0.4282     1.2857
 1268.9000     0.4280     1.2857
 1269.0000     0.4278     1.2857
 1269.1000     0.4277     1.2857
 1269.2000     0.4275     1.2857
 1269.3000     0.4273     1.2857
 1269.4000     0.4272     1.2857
 1269.5000     0.4270     1.2857
 1269.6000     0.4268     1.2857
 1269.7000     0.4266     1.2857
 1269.8000     0.4276     1.2857
 1269.9000     0.4319     1.4256
 1270.0000     0.4361     1.5000
 1270.1000     0.4403     1.5000
 1270.2000     0.4446     1.5000
 1270.3000     0.4497     1.5000
 1270.4000     0.4561     1.5000
 1270.5000     0.4626     1.6150
 1270.6000     0.4690     1.7143
 1270.7000     0.4755     1.7143
 1270.8000     0.4795     1.7143
 1270.9000     0.4815     1.7143
 1271.0000     0.4835     1.7143
 1271.1000     0.4856     1.7143
 1271.2000     0.4876     1.7143
 1271.3000     0.4911     1.7143
 1271.4000     0.4954     1.7143
 1271.5000     0.4996     1.7143
 1271.6000     0.5038     1.7143
 1271.7000     0.5088     1.7143
 1271.8000     0.5069     1.7143
 1271.9000     0.5045     1.7143
 1272.0000     0.5021     1.7143
 1272.1000     0.4998     1.7143
 1272.2000     0.4973     1.7945
 1272.3000     0.4950     1.9286
 1272.4000     0.4926     1.9286
 1272.5000     0.4903     1.9286
 1272.6000     0.4879     1.9286
 1272.7000     0.4855     1.9286
 1272.8000     0.4832     1.9286
 1272.9000     0.4808     1.9286
 1273.0000     0.4784     1.9286
 1273.1000     0.4760     1.9286
 1273.2000     0.4721     1.9286
 1273.3000     0.4631     1.9286
 1273.4000     0.4542     1.9286
 1273.5000     0.4452     1.9286
 1273.6000     0.4362     1.9286
 1273.7000     0.4289     1.9286
 1273.8000     0.4243     1.9286
 1273.9000     0.4197     1.9286
 1274.0000     0.4151     1.9286
 1274.1000     0.4106     1.9286
 1274.2000     0.4116     1.9286
 1274.3000     0.4180     1.9286
 1274.4000     0.4245     1.9286
 1274.5000     0.4309     1.9286
 1274.6000     0.4373     1.9286
 1274.7000     0.4452     1.9286
 1274.8000     0.4538     1.9286
 1274.9000     0.4625     1.9286
 1275.0000     0.4711     1.9286
 1275.1000     0.4797     1.9286
 1275.2000     0.4866     1.9286
 1275.3000     0.4931     1.9286
 1275.4000     0.4995     1.9286
 1275.5000     0.5059     1.9286
 1275.6000     0.5129     1.9286
 1275.7000     0.5208     1.9286
 1275.8000     0.5295     1.9286
 1275.9000     0.5381     1.9286
 1276.0000     0.5468     1.9286
 1276.1000     0.5555     1.9286
 1276.2000     0.5667     1.9286
 1276.3000     0.5778     1.9286
 1276.4000     0.5870     1.9286
 1276.5000     0.5890     1.9286
 1276.6000     0.5910     1.9286
 1276.7000     0.5931     1.9286
 1276.8000     0.5951     1.9286
 1276.9000     0.5963     1.9286
 1277.0000     0.5961     1.9286
 1277.1000     0.5960     1.9286
 1277.2000     0.5958     1.9286
 1277.3000     0.5956     1.9286
 1277.4000     0.5944     1.9286
 1277.5000     0.5920     1.9286
 1277.6000     0.5896     1.9286
 1277.7000     0.5872     1.9286
 1277.8000     0.5849     1.9286
 1277.9000     0.5839     1.9286
 1278.0000     0.5837     1.9286
 1278.1000     0.5858     1.9286
 1278.2000     0.5967     1.9286
 1278.3000     0.6075     1.9286
 1278.4000     0.6183     1.9286
 1278.5000     0.6292     1.9286
 1278.6000     0.6408     1.9286
 1278.7000     0.6538     1.9286
 1278.8000     0.6668     1.9286
 1278.9000     0.6799     1.9286
 1279.0000     0.6929     1.9286
 1279.1000     0.7060     1.9286
 1279.2000     0.7190     1.9286
 1279.3000     0.7321     1.9286
 1279.4000     0.7451     1.9286
 1279.5000     0.7581     1.9286
 1279.6000     0.7712     1.9286
 1279.7000     0.7842     1.9286
 1279.8000     0.7948     1.9286
 1279.9000     0.7815     1.9286
 1280.0000     0.7703     1.9286
 1280.1000     0.7592     1.9286
 1280.2000     0.7480     1.9286
 1280.3000     0.7382     1.9286
 1280.4000     0.7315     1.9286
 1280.5000     0.7247     1.9286
 1280.6000     0.7179     1.9286
 1280.7000     0.7111     1.9286
 1280.8000     0.7043     1.9286
 1280.9000     0.6976     1.9286
 1281.0000     0.6908     1.9286
 1281.1000     0.6840     1.9286
 1281.2000     0.6772     1.9286
 1281.3000     0.6718     1.9286
 1281.4000     0.6672     1.9286
 1281.5000     0.6626     1.9286
 1281.6000     0.6581     1.9286
 1281.7000     0.6535     1.9286
 1281.8000     0.6522     1.9286
 1281.9000     0.6520     1.9286
 1282.0000     0.6518     1.9286
 1282.1000     0.6516     1.9286
 1282.2000     0.6515     1.9286
 1282.3000     0.6532     1.9286
 1282.4000     0.6553     1.9286
 1282.5000     0.6573     1.9286
 1282.6000     0.6593     1.9286
 1282.7000     0.6613     1.9286
 1282.8000     0.6612     1.9286
 1282.9000     0.6610     1.9286
 1283.0000     0.6608     1.9901
 1283.1000     0.6606     2.1429
 1283.2000     0.6608     2.1429
 1283.3000     0.6628     2.1429
 1283.4000     0.6649     2.1429
 1283.5000     0.6669     2.1429
 1283.6000     0.6689     2.1429
 1283.7000     0.6703     2.1429
 1283.8000     0.6701     2.1429
 1283.9000     0.6700     2.1429
 1284.0000     0.6698     2.1429
 1284.1000     0.6696     2.1429
 1284.2000     0.6676     2.1429
 1284.3000     0.6630     2.1429
 1284.4000     0.6584     2.1429
 1284.5000     0.6539     2.1429
 1284.6000     0.6493     2.1429
 1284.7000     0.6447     2.1429
 1284.8000     0.6401     2.1429
 1284.9000     0.6356     2.1429
 1285.0000     0.6310     2.1429
 1285.1000     0.6264     2.1429
 1285.2000     0.6234     2.1429
 1285.3000     0.6210     2.1429
 1285.4000     0.6186     2.1429
 1285.5000     0.6163     2.1429
 1285.6000     0.6135     2.1429
 1285.7000     0.6115     2.1429
 1285.8000     0.6091     2.1429
 1285.9000     0.6068     2.1429
 1286.0000     0.6044     2.1429
 1286.1000     0.6020     2.1429
 1286.2000     0.6018     2.1429
 1286.3000     0.6016     2.1429
 1286.4000     0.6015     2.1429
 1286.5000     0.6013     2.1429
 1286.6000     0.6011     2.1429
 1286.7000     0.6034     2.1429
 1286.8000     0.6054     2.1429
 1286.9000     0.6075     2.1429
 1287.0000     0.6095     2.1429
 1287.1000     0.6110     2.1429
 1287.2000     0.6108     2.1429
 1287.3000     0.6106     2.1429
 1287.4000     0.6104     2.1429
 1287.5000     0.6103     2.1429
 1287.6000     0.6101     2.1429
 1287.7000     0.6099     2.1429
 1287.8000     0.6098     2.1429
 1287.9000     0.6096     2.1429
 1288.0000     0.6094     2.1429
 1288.1000     0.6081     2.1429
 1288.2000     0.6057     2.1429
 1288.3000     0.6033     2.1429
 1288.4000     0.6010     2.1429
 1288.5000     0.5986     2.1429
 1288.6000     0.5947     2.1429
 1288.7000     0.5902     2.1429
 1288.8000     0.5856     2.0360
 1288.9000     0.5810     1.9286
 1289.0000     0.5756     1.9286
 1289.1000     0.5701     1.9286
 1289.2000     0.5633     1.9286
 1289.3000     0.5565     1.9286
 1289.4000     0.5498     1.9286
 1289.5000     0.5426     1.9286
 1289.6000     0.5362     1.9286
 1289.7000     0.5294     1.9286
 1289.8000     0.5227     1.9286
 1289.9000     0.5159     1.9286
 1290.0000     0.5093     1.9286
 1290.1000     0.5047     1.9286
 1290.2000     0.5001     1.9286
 1290.3000     0.4956     1.9286
 1290.4000     0.4910     1.9286
 1290.5000     0.4874     1.9286
 1290.6000     0.4872     1.9286
 1290.7000     0.4870     1.9286
 1290.8000     0.4869     1.9286
 1290.9000     0.4867     1.9286
 1291.0000     0.4865     1.9286
 1291.1000     0.4863     1.9286
 1291.2000     0.4862     1.9286
 1291.3000     0.4860     1.9286
 1291.4000     0.4858     1.9286
 1291.5000     0.4857     1.9286
 1291.6000     0.4855     1.9286
 1291.7000     0.4853     1.9286
 1291.8000     0.4851     1.9286
 1291.9000     0.4850     1.9286
 1292.0000     0.4848     1.9286
 1292.1000     0.4846     1.9286
 1292.2000     0.4845     1.9286
 1292.3000     0.4843     1.9286
 1292.4000     0.4841     1.9286
 1292.5000     0.4873     1.9286
 1292.6000     0.4916     1.9286
 1292.7000     0.4958     1.9286
 1292.8000     0.5000     1.9286
