~VERSION INFORMATION
 VERS.                2.0:   CWLS LOG ASCII STANDARD - VERSION 2.0
 WRAP.                 NO:   ONE LINE PER DEPTH STEP
~WELL INFORMATION
#MNEM.UNIT      DATA TYPE    INFORMATION
#----------   ------------   ------------------------------
 STRT.F            2.0000:   START DEPTH
 STOP.F          832.0000:   STOP DEPTH
 STEP.F            0.5000:   STEP LENGTH
 NULL.          -999.2500:   NO VALUE
 COMP. U S NAVY-INTEX OIL:   COMPANY
 WELL.        NPR #46-S-2:   WELL
 FLD .             TEAPOT:   FIELD
 LOC .       S2 T38N R78W:   LOCATION
 CNTY.            NATRONA:   COUNTY
 STAT.            WYOMING:   STATE
 CTRY. UNITED STATES OF AMERICA:   COUNTRY
 SRVC.      NL McCullough:   SERVICE COMPANY
 DATE.        13-AUG-1961:   LOGDATE
 API .       490250641500:   API NUMBER
~CURVE INFORMATION
#MNEM.UNIT       API CODE    CURVE DESCRIPTION
#----------   ------------   ------------------------------
 DEPT.F                  :   
 GR  .MG/TON 35 310 30 00:   GAMMA RAY
 NEUT.NAPI   35 330 01 00:   NEUTRON
~PARAMETER INFORMATION
#MNEM.UNIT          VALUE    DESCRIPTION
#----------   ------------   ------------------------------
 PD  .                 GL:   PERMANENT DATUM
 EPD .F              5150:   ELEVATION PERMANENT DATUM
 LMF .                 KB:   LOG MEASURED FROM
 DAPD.F                 6:   FEET ABOVE PERMANENT DATUM
 DMF .                 KB:   DRILLING MEASURED FROM
 EKB .F              5156:   KELLING BUSHING
 EGL .F              5150:   GROUND LEVEL
 DATE.        13-AUG-1961:   RUN DATE
 RUN .                  1:   RUN NUMBER
 DD  .F               830:   DEPTH DRILLER
 DL  .F               834:   DEPTH LOGGER
 BLI .F             832.5:   BOTTOM LOG INTERVAL
 BS  .IN            7.875:   BIT SIZE
 BSD .F               830:   BIT SIZE AT DEPTH
 DFT .       OIL EMULSION:   DRILLING FLUID TYPE
 DFD .                9.5:   DRILLING FLUID DENSITY
 TCS .HRS               1:   TIME CURCULATED STOPPED
 LUN .               1296:   LOGGING UNIT NUMBER
 ENGI.            JACKSON:   RECORDING ENGINEER
 WITN.          JORGENSEN:   WITNESSED BY
 CLNT.            A2DTECH:   CLIENT CODE
 ORIG.        2" 5" PRINT:   ORIGIN OF DATA
 UWI .       490250641500:   UNIQUE WELL ID
 DICO. A2D Technologies, Inc.:   DIGITIZING COMPANY
~OTHER INFORMATION
~A    DEPT        GR     NEUT   
# ...
  731.0000     4.7206   439.1325
  731.5000     4.7547   445.1399
  732.0000     4.8065   452.6454
  732.5000     4.7689   471.3868
  733.0000     4.7537   478.1432
  733.5000     4.5448   466.1731
  734.0000     4.6190   450.4576
  734.5000     4.5442   457.2140
  735.0000     4.4173   454.9817
  735.5000     4.5809   454.2474
  736.0000     4.5657   443.7754
  736.5000     4.6102   433.3033
  737.0000     4.4831   467.9155
  737.5000     4.6617   475.2806
  738.0000     4.6689   443.7452
  738.5000     4.6462   440.8534
  739.0000     4.6459   439.3738
  739.5000     4.6456   436.3924
  740.0000     4.5857   431.1638
  740.5000     4.7940   422.1899
  741.0000     4.8682   440.9313
  741.5000     4.9004   443.9424
  742.0000     4.8675   443.9572
  742.5000     4.8599   452.2118
  743.0000     5.1204   470.2004
  743.5000     4.9562   441.0055
  744.0000     4.5833   428.2863
  744.5000     4.4861   433.5409
  745.0000     4.7409   429.8104
  745.5000     4.8209   463.5368
  746.0000     4.7610   456.0610
  746.5000     5.0112   460.5703
  747.0000     5.0435   462.8323
  747.5000     4.9632   462.7091
  748.0000     4.7895   465.2186
  748.5000     4.8786   443.4012
  749.0000     4.9454   427.6856
  749.5000     4.9898   412.7193
  750.0000     4.9151   402.2448
  750.5000     5.0492   426.9904
  751.0000     4.9599   412.7804
  751.5000     4.9078   403.0592
  752.0000     4.9675   424.8098
  752.5000     5.0048   417.3414
  753.0000     5.0198   423.3561
  753.5000     5.2732   433.1161
  754.0000     4.9664   412.9136
  754.5000     4.9530   424.3666
  755.0000     4.9382   436.4294
  755.5000     4.8339   447.4372
  756.0000     4.8489   477.4220
  756.5000     4.7670   466.2082
  757.0000     4.5435   499.9438
  757.5000     4.4467   507.4567
  758.0000     4.1338   469.2767
  758.5000     4.0743   491.0217
  759.0000     4.0669   512.0177
  759.5000     4.1341   501.5530
  760.0000     4.0447   515.0584
  760.5000     3.8734   503.8447
  761.0000     4.0076   488.1365
  761.5000     4.0226   506.1363
  762.0000     4.0897   518.8926
  762.5000     4.0600   526.4054
  763.0000     3.9781   534.6674
  763.5000     4.0535   533.1914
  764.0000     4.0897   544.4496
  764.5000     4.4180   542.1792
  765.0000     4.5522   525.0683
  765.5000     4.6044   486.9925
  766.0000     4.6268   467.6554
  766.5000     4.4630   458.4239
  767.0000     4.2917   456.9424
  767.5000     4.2098   458.4683
  768.0000     4.4632   480.9624
  768.5000     4.8060   533.4191
  769.0000     4.7763   552.1679
  769.5000     4.8434   539.4561
  770.0000     5.4396   492.2872
  770.5000     4.9926   475.0810
  771.0000     4.7319   467.6125
  771.5000     4.6724   460.1386
  772.0000     4.6571   439.1926
  772.5000     4.6054   418.2410
  773.0000     4.5992   407.7763
  773.5000     4.1656   404.8023
  774.0000     4.5014   400.3301
  774.5000     4.5089   398.8542
  775.0000     4.7996   395.8801
  775.5000     4.8220   392.9061
  776.0000     4.7252   436.6543
  776.5000     4.6731   444.0971
  777.0000     4.8967   447.0460
  777.5000     4.9042   437.9443
  778.0000     4.8596   431.2194
  778.5000     4.8075   431.9962
  779.0000     4.7480   428.2732
  779.5000     4.9730   433.5388
  780.0000     4.8246   464.2726
  780.5000     5.0910   460.5495
  781.0000     5.1432   457.5699
  781.5000     5.1664   451.6052
  782.0000     5.2626   447.8765
  782.5000     4.9422   489.8519
  783.0000     4.9368   492.1212
  783.5000     4.6891   507.8738
  784.0000     4.4805   541.6039
  784.5000     4.6892   535.6336
  785.0000     4.7191   498.9517
  785.5000     4.6670   490.7342
  786.0000     4.8087   476.9536
  786.5000     4.6299   457.8198
  787.0000     4.4958   466.8315
  787.5000     4.3320   457.7404
  788.0000     4.7419   424.1841
  788.5000     4.8612   425.7045
  789.0000     4.9656   428.7230
  789.5000     5.0178   456.4605
  790.0000     5.0328   489.4415
  790.5000     4.6826   497.7035
  791.0000     4.5858   500.7164
  791.5000     4.5561   482.0175
  792.0000     4.7096   467.0585
  792.5000     4.9139   462.5863
  793.0000     4.9885   458.8576
  793.5000     4.9663   454.3911
  794.0000     5.1824   462.6529
  794.5000     5.2347   506.1208
  795.0000     4.8472   521.1243
  795.5000     5.2572   533.8806
  796.0000     5.6671   512.9290
  796.5000     5.6373   525.7239
  797.0000     5.4064   530.2020
  797.5000     5.4586   478.9893
  798.0000     5.5556   505.1495
  798.5000     5.4290   528.7760
  799.0000     5.3910   493.5922
  799.5000     5.5111   495.8616
  800.0000     5.5708   531.8352
  800.5000     5.1688   534.8574
  801.0000     5.1319   538.6250
  801.5000     5.0951   532.6548
  802.0000     5.0433   529.6808
  802.5000     5.2821   521.4634
  803.0000     5.3719   507.2534
  803.5000     5.4095   471.3206
  804.0000     5.2458   454.8635
  804.5000     5.3431   439.8989
  805.0000     5.2243   433.9343
  805.5000     5.2247   425.7168
  806.0000     5.4635   454.9526
  806.5000     5.6800   450.4805
  807.0000     5.7995   442.2630
  807.5000     5.4795   464.0081
  808.0000     5.5703   470.0229
  808.5000     5.5846   483.5284
  809.0000     5.3168   473.8128
  809.5000     5.1829   462.5991
  810.0000     5.3920   475.4555
  810.5000     5.3402   475.3011
  811.0000     5.3555   477.1092
  811.5000     5.3856   484.8094
  812.0000     5.5574   469.4576
  812.5000     5.6099   456.7458
  813.0000     5.7892   458.2661
  813.5000     5.7001   459.7810
  814.0000     5.4992   450.8145
  814.5000     5.6934   473.3087
  815.0000     5.7310   463.5931
  815.5000     5.7612   480.1003
  816.0000     5.8301   471.8829
  816.5000     5.7545   435.9501
  817.0000     5.7623   435.9724
  817.5000     5.4124   427.7549
  818.0000     5.8072   409.7941
  818.5000     5.9538   397.8369
  819.0000     6.0694   397.1046
  819.5000     6.0250   382.9002
  820.0000     5.8912   367.1921
  820.5000     6.0779   364.2181
  821.0000     6.3093   375.2956
  821.5000     6.3544   359.7683
  822.0000     6.3622   353.0490
  822.5000     6.4222   346.3297
  823.0000     6.3927   323.5257
  823.5000     6.0950   295.4379
  824.0000     6.3935   307.4452
  824.5000     6.3491   283.7601
  825.0000     5.8800   265.2935
  825.5000     6.7224   267.0681
  826.0000     6.7894   333.0080
  826.5000  -999.2500   365.9890
  827.0000  -999.2500   433.4271
  827.5000  -999.2500   486.6328
  828.0000  -999.2500   538.3405
  828.5000  -999.2500   555.5912
  829.0000  -999.2500   564.6023
  829.5000  -999.2500   538.4073
  830.0000  -999.2500   512.9558
  830.5000  -999.2500   569.1635
  831.0000  -999.2500   558.6988
  831.5000  -999.2500   541.4926
  832.0000  -999.2500   537.7640
