~VERSION INFORMATION
 VERS.                2.0:   CWLS LOG ASCII STANDARD - VERSION 2.0
 WRAP.                 NO:   ONE LINE PER DEPTH STEP
~WELL INFORMATION
#MNEM.UNIT      DATA TYPE    INFORMATION
#----------   ------------   ------------------------------
 STRT.F            8.0000:   START DEPTH
 STOP.F          916.0000:   STOP DEPTH
 STEP.F            0.5000:   STEP LENGTH
 NULL.          -999.2500:   NO VALUE
 COMP. LAWRENCE/ALLISON INC:   COMPANY
 WELL.    41-66 SX #11-11:   WELL
 FLD .             NPR #3:   FIELD
 LOC .      S11 T38N R78W:   LOCATION
 CNTY.            NATRONA:   COUNTY
 STAT.            WYOMING:   STATE
 CTRY. UNITED STATES OF AMERICA:   COUNTRY
 SRVC.           Gearhart:   SERVICE COMPANY
 DATE.        13-MAY-1987:   LOGDATE
 API .       490251112600:   API NUMBER
~CURVE INFORMATION
#MNEM.UNIT       API CODE    CURVE DESCRIPTION
#----------   ------------   ------------------------------
 DEPT.F                  :   
 GRR .GAPI   07 310 01 00:   GAMMA RAY FROM RES. LOG.
 RILM.OHMM   07 120 44 00:   INDUCTION LOG MEDIUM RESISTIVITY
 RILD.OHMM   07 120 46 00:   INDUCTION LOG DEEP RESISTIVITY
~PARAMETER INFORMATION
#MNEM.UNIT          VALUE    DESCRIPTION
#----------   ------------   ------------------------------
 PD  .                 GL:   PERMANENT DATUM
 EPD .F              5166:   ELEVATION PERMANENT DATUM
 LMF .                 KB:   LOG MEASURED FROM
 DAPD.F                 8:   FEET ABOVE PERMANENT DATUM
 DMF .                 KB:   DRILLING MEASURED FROM
 EKB .F              5174:   KELLING BUSHING
 EDF .F              5174:   DRILLING FLOOR
 EGL .F              5166:   GROUND LEVEL
 DATE.            5-13-87:   RUN DATE
 RUN .                  1:   RUN NUMBER
 DD  .F               945:   DEPTH DRILLER
 DL  .F               930:   DEPTH LOGGER
 BLI .F               921:   BOTTOM LOG INTERVAL
 TLI .F                49:   TOP LOG INTERVAL
 CS  .IN            8.625:   CASING SIZE
 CBD .F                47:   CASING BOTTOM DRILLER
 CBL .F                49:   CASING BOTTOM LOGGER
 BS  .IN            7.875:   BIT SIZE
 BSD .F               945:   BIT SIZE AT DEPTH
 DFT .           AIR FOAM:   DRILLING FLUID TYPE
 TCS .HRS            2230:   TIME CURCULATED STOPPED
 TLAB.HRS            1105:   TIME LOGGER AT BOTTOM
 MRT .F                80:   MAXIMUM RECORDED TEMPERATURE
 LUN .               7597:   LOGGING UNIT NUMBER
 LUL .                GLT:   LOGGING UNIT LOCATION
 ENGI.            WANGLER:   RECORDING ENGINEER
 WITN.             STRONG:   WITNESSED BY
 CLNT.            A2DTECH:   CLIENT CODE
 ORIG.       2", 5" PRINT:   ORIGIN OF DATA
 UWI .       490251112600:   UNIQUE WELL ID
 DICO. A2D Technologies, Inc.:   DIGITIZING COMPANY
~OTHER INFORMATION
~A    DEPT      GRR      RILM       RILD   
# ...
  736.0000    76.0898    16.1920    15.7075
  736.5000    77.2188    16.2715    15.7839
  737.0000    78.7074    16.3514    15.8606
  737.5000    80.2234    16.4317    15.9377
  738.0000    79.2795    16.5123    16.0152
  738.5000    76.5210    16.5938    16.0930
  739.0000    75.0178    16.6417    16.1713
  739.5000    74.6194    16.6556    16.2499
  740.0000    75.1815    16.6690    16.3289
  740.5000    76.0832    16.6827    16.4082
  741.0000    77.0892    16.6963    16.4880
  741.5000    78.0675    16.7099    16.5681
  742.0000    80.1628    16.7236    16.6487
  742.5000    80.6113    16.7372    16.7296
  743.0000    80.2916    16.7509    16.8109
  743.5000    79.9517    16.7646    16.8923
  744.0000    79.6313    16.7785    16.9548
  744.5000    79.9057    16.7962    16.7699
  745.0000    80.2328    16.7174    16.6213
  745.5000    80.4425    16.5614    16.4739
  746.0000    81.6886    16.4068    16.3279
  746.5000    82.8447    16.2536    16.1831
  747.0000    82.2424    16.1019    16.0397
  747.5000    81.6547    15.9516    15.8975
  748.0000    81.8439    15.8027    15.7563
  748.5000    82.0352    15.6552    15.5623
  749.0000    82.7945    15.5091    15.3523
  749.5000    83.9638    15.3268    15.1454
  750.0000    84.1201    15.1007    14.9414
  750.5000    83.9943    14.8779    14.7402
  751.0000    83.0582    14.6584    14.5416
  751.5000    82.4791    14.4421    14.3457
  752.0000    82.4823    14.2290    14.1525
  752.5000    82.5009    14.0392    13.9073
  753.0000    82.8653    14.1015    13.9745
  753.5000    83.2193    14.2224    14.0694
  754.0000    83.5819    14.3443    14.1649
  754.5000    83.3284    14.4672    14.2611
  755.0000    82.5821    14.5792    14.3580
  755.5000    81.2367    14.5792    14.4423
  756.0000    79.8985    14.4901    14.3061
  756.5000    79.7999    14.3721    14.1871
  757.0000    80.8094    14.2550    14.0691
  757.5000    81.8230    14.1389    13.9521
  758.0000    82.8341    14.0237    13.8360
  758.5000    81.6803    13.9095    13.7209
  759.0000    80.3303    13.7962    13.6068
  759.5000    79.9221    13.6838    13.4936
  760.0000    81.2579    13.5729    13.3921
  760.5000    82.0357    13.5171    13.3921
  761.0000    80.8217    13.7444    13.5191
  761.5000    79.6210    13.9467    13.6946
  762.0000    77.9800    14.1517    13.9204
  762.5000    78.4728    14.3597    14.1500
  763.0000    78.8215    14.5707    14.3067
  763.5000    78.8228    14.7848    14.1742
  764.0000    79.3111    14.9979    14.0752
  764.5000    80.1740    14.5424    13.9533
  765.0000    81.5946    14.0100    13.6473
  765.5000    82.9032    13.4972    13.0401
  766.0000    83.2482    13.0031    12.5097
  766.5000    82.6490    12.5361    12.2495
  767.0000    80.8284    12.4114    12.1217
  767.5000    80.4488    12.3958    11.9569
  768.0000    80.4519    12.3802    11.9670
  768.5000    80.1858    12.3646    11.9824
  769.0000    79.3372    12.3491    11.9983
  769.5000    78.0693    12.3336    12.0142
  770.0000    78.6854    12.3180    12.0304
  770.5000    78.8674    12.3004    12.0466
  771.0000    77.1220    12.1447    12.0603
  771.5000    75.3259    11.9803    12.0717
  772.0000    73.9804    11.8181    11.7686
  772.5000    73.9183    11.6581    11.6476
  773.0000    73.8833    11.5002    11.5276
  773.5000    75.5068    11.3445    11.4074
  774.0000    77.2434    11.1939    11.3206
  774.5000    78.4979    11.4072    11.2334
  775.0000    78.6966    11.3437    11.1467
  775.5000    79.0406    11.2956    11.0607
  776.0000    79.5315    11.2628    10.9753
  776.5000    81.0955    11.2301    10.8906
  777.0000    82.9086    11.1975    10.8066
  777.5000    83.6933    11.1650    10.7792
  778.0000    83.7099    11.1326    10.8258
  778.5000    83.7077    11.1002    10.8621
  779.0000    83.7034    11.0680    10.8985
  779.5000    83.7186    11.0358    10.9350
  780.0000    84.3960    11.0038    10.9717
  780.5000    84.0395    10.9719    11.0084
  781.0000    83.4062    10.9400    11.0453
  781.5000    83.8570    10.9082    11.3000
  782.0000    85.0838    10.8766    11.2800
  782.5000    85.3036    10.8450    11.2486
  783.0000    83.8085    10.8135    11.2173
  783.5000    82.2048    10.7821    11.1861
  784.0000    80.6168    10.7508    11.1549
  784.5000    80.7050    10.7196    11.1239
  785.0000    81.8578    10.6884    11.0929
  785.5000    83.6761    10.6574    11.0620
  786.0000    84.5437    10.6264    11.0312
  786.5000    85.3717    10.5956    11.0005
  787.0000    86.2035    10.5648    10.9699
  787.5000    87.0372    10.5342    10.9393
  788.0000    87.8698    10.5036    10.9089
  788.5000    88.7143    10.4711    10.8785
  789.0000    88.7576    10.4302    10.8482
  789.5000    87.8662    10.3893    10.8180
  790.0000    86.3510    10.3486    10.7879
  790.5000    84.8296    10.3081    10.7792
  791.0000    83.3262    10.2824    10.8961
  791.5000    83.6629    10.3093    11.0216
  792.0000    84.1262    10.3760    11.1486
  792.5000    84.4877    10.4433    11.2769
  793.0000    84.1001    10.5109    11.4068
  793.5000    83.6621    10.5790    11.5459
  794.0000    81.9359    10.6475    11.7243
  794.5000    81.4102    10.7165    11.9055
  795.0000    81.1086    10.7792    12.0717
  795.5000    80.8119    11.2014    12.8152
  796.0000    80.5238    11.6010    13.5285
  796.5000    79.7033    12.1775    14.1633
  797.0000    78.0217    13.2695    14.8557
  797.5000    75.3685    14.4593    15.5552
  798.0000    73.0013    15.5748    16.2886
  798.5000    72.6899    16.1992    17.0571
  799.0000    72.3266    16.8892    17.8618
  799.5000    71.9587    17.6085    18.7044
  800.0000    71.5904    18.3715    18.9884
  800.5000    71.2218    18.4584    18.9884
  801.0000    70.8525    18.4584    18.9884
  801.5000    70.4863    18.4584    18.9884
  802.0000    70.2665    18.4584    18.9884
  802.5000    70.5409    18.4584    18.9886
  803.0000    71.6344    18.4586    18.9863
  803.5000    72.8346    18.4582    18.9816
  804.0000    72.6716    18.4595    18.9990
  804.5000    72.0241    18.3113    18.7262
  805.0000    72.2116    18.0401    18.4832
  805.5000    72.6276    17.7726    18.2434
  806.0000    73.0464    17.5093    18.0067
  806.5000    73.4309    17.2499    17.7731
  807.0000    74.8398    17.1162    17.6077
  807.5000    76.4304    16.7451    17.0839
  808.0000    76.2555    16.2292    16.6169
  808.5000    75.6396    15.7292    16.1607
  809.0000    77.7767    15.2446    15.7195
  809.5000    80.0720    14.7743    15.7234
  810.0000    81.3692    14.1627    15.7225
  810.5000    81.0269    14.3157    15.7225
  811.0000    80.2858    14.4819    15.9174
  811.5000    79.4721    14.5792    16.0676
  812.0000    77.9576    14.7358    16.2191
  812.5000    75.5993    15.1774    16.3721
  813.0000    74.5592    15.6322    16.5266
  813.5000    73.5717    16.1006    16.6815
  814.0000    72.5863    16.6384    16.7943
  814.5000    71.8572    16.2477    16.3636
  815.0000    73.1138    15.6997    16.0332
  815.5000    76.0769    15.1702    15.7091
  816.0000    79.0994    14.6586    15.3226
  816.5000    80.0208    14.1642    14.8970
  817.0000    79.6220    13.6865    14.4833
  817.5000    79.1916    13.2249    14.0811
  818.0000    78.9026    12.7788    13.6901
  818.5000    79.6454    12.5487    13.3099
  819.0000    79.2429    12.3455    13.1280
  819.5000    78.8124    12.2836    13.1030
  820.0000    78.4620    12.2592    13.0781
  820.5000    79.5988    12.2357    13.0533
  821.0000    80.3862    12.2120    13.0285
  821.5000    79.4399    12.1883    13.0038
  822.0000    77.5386    12.1647    12.9791
  822.5000    75.9469    12.1411    12.9544
  823.0000    76.1141    12.1176    12.9297
  823.5000    76.4676    12.0941    12.9046
  824.0000    76.6473    12.0707    12.8509
  824.5000    76.5037    12.0473    12.7792
  825.0000    76.3439    12.0239    12.7079
  825.5000    76.1912    12.0007    12.6369
  826.0000    76.0445    11.9773    12.5664
  826.5000    76.3772    11.9583    12.4963
