~VERSION INFORMATION
 VERS.                2.0:   CWLS LOG ASCII STANDARD - VERSION 2.0
 WRAP.                 NO:   ONE LINE PER DEPTH STEP
~WELL INFORMATION
#MNEM.UNIT      DATA TYPE    INFORMATION
#----------   ------------   ------------------------------
 STRT.F           35.0000:   START DEPTH
 STOP.F          484.0000:   STOP DEPTH
 STEP.F            0.5000:   STEP LENGTH
 NULL.          -999.2500:   NO VALUE
 COMP. LAWRENCE/ALLISON INC:   COMPANY
 WELL.     73-1 STX #1-10:   WELL
 FLD .              NPR-3:   FIELD
 LOC .      S10 T38N R78W:   LOCATION
 CNTY.            NATRONA:   COUNTY
 STAT.            WYOMING:   STATE
 CTRY. UNITED STATES OF AMERICA:   COUNTRY
 SRVC.              Welex:   SERVICE COMPANY
 DATE.        04-APR-1977:   LOGDATE
 API .       490251032400:   API NUMBER
~CURVE INFORMATION
#MNEM.UNIT       API CODE    CURVE DESCRIPTION
#----------   ------------   ------------------------------
 DEPT.F                  :   
 CALD.IN     45 280 60 00:   CALIPER
 GRD .GAPI   45 310 01 00:   GAMMA RAY FROM DENSITY LOG
 RHOB.G/C3   45 350 01 00:   BULK DENSITY
 DPHI.DEC    45 890 12 00:   DENSITY POROSITY SANDSTONE
 CORR.G/C3   45 356 01 00:   DENSITY CORRECTION
 SPR .MV     07 010 01 00:   SPONTANEOUS POTENTIAL
 SGRD.OHMM   07 220 05 00:   SHALLOW RESISTIVITY
 ILD .OHMM   07 120 46 00:   INDUCTION LOG DEEP
 ILM .OHMM   07 120 44 00:   INDUCTION LOG MEDIUM
~PARAMETER INFORMATION
#MNEM.UNIT          VALUE    DESCRIPTION
#----------   ------------   ------------------------------
 PD  .                 GL:   PERMANENT DATUM
 EPD .F              5170:   ELEVATION PERMANENT DATUM
 LMF .                 GL:   LOG MEASURED FROM
 DMF .                 GL:   DRILLING MEASURED FROM
 EGL .F              5170:   GROUND LEVEL
 DATE.             4-4-77:   RUN DATE
 RUN .                  1:   RUN NUMBER
 DD  .F               490:   DEPTH DRILLER
 DL  .F               487:   DEPTH LOGGER
 BLI .F               485:   BOTTOM LOG INTERVAL
 TLI .F                35:   TOP LOG INTERVAL
 CS  .IN            8.625:   CASING SIZE
 CBD .F                42:   CASING BOTTOM DRILLER
 CBL .F                42:   CASING BOTTOM LOGGER
 BS  .IN            7.875:   BIT SIZE
 BSD .F               490:   BIT SIZE AT DEPTH
 DFT .            KCL MUD:   DRILLING FLUID TYPE
 DFD .                8.4:   DRILLING FLUID DENSITY
 DFV .                 32:   DRILLING FLUID VISCOSITY
 DFPH.                8.5:   DRILLING FLUID PH
 DFL .                 17:   DRILLING FLUID LOSS
 RMS .OHMM            .48:   RESISTIVITY MUD SAMPLE
 MST .F                48:   MUD SAMPLE TEMPERATURE
 RMF .OHMM            .44:   RESISTIVITY MUD FILTRATE SAMPLE
 MFST.F                48:   MUD FILTRATE SAMPLE TEMPERATURE
 RMC .OHMM            .62:   RESISTIVITY MUD CAKE
 MCST.F                48:   MUD CAKE SAMPLE TEMPERATURE
 MFSS.          FANN TEST:   MUD FILTRATE SAMPLE SOURCE
 MCSS.          FANN TEST:   MUD CAKE SAMPLE SOURCE
 BHT .F                58:   BOTTOM HOLE TEMPERATURE
 TCS .HRS               2:   TIME CURCULATED STOPPED
 MRT .F                58:   MAXIMUM RECORDED TEMPERATURE
 LUN .               8611:   LOGGING UNIT NUMBER
 LUL .           GILLETTE:   LOGGING UNIT LOCATION
 ENGI.               DOAK:   RECORDING ENGINEER
 WITN.      B. HARRINGTON:   WITNESSED BY
 CLNT.            A2DTECH:   CLIENT CODE
 ORIG.        2" 5" PRINT:   ORIGIN OF DATA
 UWI .       490251032400:   UNIQUE WELL ID
 DICO. A2D Technologies, Inc.:   DIGITIZING COMPANY
~OTHER INFORMATION
~A   DEPT     CALD        GRD       RHOB       DPHI       CORR        SPR       SGRD        ILD        ILM   
# ...
  290.5000     7.9375    71.6615     2.3539     0.1719    -0.0010   -46.8130    42.0576    21.4124    46.1143
  291.0000     7.9357    71.9020     2.3535     0.1771    -0.0026   -46.8048    40.5715    20.8919    42.8544
  291.5000     7.9339    71.9035     2.3533     0.1755    -0.0056   -46.8060    40.3860    20.3841    42.0118
  292.0000     7.9321    71.9003     2.3558     0.1732    -0.0085   -46.8064    40.2057    19.8886    41.7783
  292.5000     7.9304    71.8940     2.3542     0.1741    -0.0115   -46.8064    40.0172    19.4052    41.5593
  293.0000     7.9286    71.9022     2.3417     0.1789    -0.0143   -46.8063    39.8296    19.0383    41.3384
  293.5000     7.9268    73.2967     2.3363     0.1836    -0.0149   -46.8065    39.6428    18.8646    41.1186
  294.0000     7.9250    74.9048     2.3553     0.1843    -0.0097   -46.8066    39.4570    18.6953    40.8945
  294.5000     7.9232    76.5039     2.3833     0.1625     0.0006   -46.8304    39.2720    18.3152    40.6747
  295.0000     7.9215    76.6998     2.3967     0.1452     0.0049   -46.8755    38.3179    17.9428    38.8390
  295.5000     7.9197    75.8873     2.3833     0.1534     0.0072   -46.9211    35.1084    17.5781    36.5665
  296.0000     7.9179    74.9594     2.3898     0.1619     0.0079   -46.9664    31.9762    17.2208    34.4270
  296.5000     7.9161    74.3199     2.3958     0.1471     0.0083   -46.9834    30.5384    16.8710    32.2717
  297.0000     7.9143    75.2100     2.3837     0.1574     0.0088   -46.7945    31.3957    16.5769    32.6042
  297.5000     7.9125    76.0611     2.3893     0.1594     0.0093   -46.6029    31.9485    16.3876    33.0698
  298.0000     7.9107    76.5004     2.3992     0.1453     0.0115   -46.4121    31.7202    16.2010    33.4198
  298.5000     7.9090    76.2550     2.4093     0.1397     0.0156   -46.2214    31.4936    16.0481    32.3040
  299.0000     7.9072    75.7537     2.4193     0.1366     0.0196   -46.0307    31.2685    16.1465    31.2836
  299.5000     7.9054    75.3051     2.4293     0.1335     0.0237   -45.8400    31.0451    16.2454    30.2966
  300.0000     7.9036    75.3046     2.4344     0.1307     0.0278   -45.6493    30.8233    16.3349    29.4349
  300.5000     7.9018    75.8389     2.4271     0.1345     0.0315   -45.4585    30.5384    16.1997    30.2839
  301.0000     7.9001    77.0547     2.4148     0.1396     0.0320   -45.2678    30.6380    16.0507    31.2565
  301.5000     7.8983    78.2501     2.4091     0.1443     0.0325   -45.0771    30.7799    15.8902    32.2603
  302.0000     7.8965    79.4311     2.4191     0.1396     0.0331   -44.8864    30.9224    16.2473    33.1749
  302.5000     7.8947    80.1418     2.4259     0.1348     0.0333   -44.6957    31.0655    16.5467    30.4823
  303.0000     7.8929    79.6794     2.4180     0.1379     0.0292   -44.5050    31.2094    16.8517    28.1114
  303.5000     7.8911    79.3145     2.4073     0.1396     0.0253   -44.3143    31.3931    17.1622    31.4005
  304.0000     7.8893    79.6426     2.3966     0.1484     0.0212   -44.1234    31.2690    17.4785    35.3950
  304.5000     7.8876    81.8956     2.3859     0.1566     0.0106   -43.9326    31.0995    17.8006    42.1901
  305.0000     7.8858    84.0912     2.3752     0.1648     0.0041   -43.7428    30.9310    18.1287    38.4159
  305.5000     7.8840    85.2927     2.3645     0.1708    -0.0013   -43.6062    30.7633    18.4630    30.7136
  306.0000     7.8822    84.0847     2.3538     0.1764    -0.0065   -43.5954    30.5966    18.7527    24.5855
  306.5000     7.8804    82.6769     2.3432     0.1820    -0.0106   -43.5822    30.4308    18.3129    19.6800
  307.0000     7.8788    81.2533     2.3373     0.1855    -0.0105   -43.5690    30.2587    17.8606    15.4576
  307.5000     7.8813    79.9116     2.3459     0.1817    -0.0107   -43.5559    29.4164    17.4190    17.9219
  308.0000     7.8839    80.7236     2.3602     0.1727    -0.0069   -43.5428    28.3631    16.9886    21.7899
  308.5000     7.8864    82.0200     2.3757     0.1637    -0.0033   -43.5296    28.7072    16.5688    25.6402
  309.0000     7.8889    83.3154     2.3913     0.1547     0.0003   -43.5164    29.6983    16.1594    23.7062
  309.5000     7.8914    84.6277     2.4070     0.1456     0.0040   -43.5033    29.2505    15.7601    22.1302
  310.0000     7.8939    85.0983     2.4244     0.1341     0.0074   -43.4901    28.7883    15.3707    22.5599
  310.5000     7.8964    83.1172     2.4192     0.1383     0.0056   -43.4770    28.3335    14.9909    23.7358
  311.0000     7.8989    80.5777     2.4111     0.1424     0.0037   -43.4638    27.8857    14.7620    24.3877
  311.5000     7.9014    78.0403     2.4122     0.1404     0.0022   -43.4508    27.4451    14.7171    23.4934
  312.0000     7.9039    76.5626     2.4016     0.1575    -0.0078   -43.4380    27.0956    14.6718    22.8016
  312.5000     7.9064    78.4909     2.3631     0.1690    -0.0192   -43.4246    27.3460    14.6276    22.1302
  313.0000     7.9089    80.4717     2.3385     0.1806    -0.0289   -43.3804    27.0922    14.7118    22.9641
  313.5000     7.9114    82.5542     2.3256     0.1921    -0.0320   -43.1626    26.4774    14.8179    24.2631
  314.0000     7.9140    86.8668     2.3129     0.2036    -0.0355   -42.9438    25.8823    14.9247    23.2645
  314.5000     7.9165    91.1959     2.2997     0.2111    -0.0369   -42.7256    26.5828    15.0323    22.3348
  315.0000     7.9182    90.6180     2.2972     0.2095    -0.0347   -42.5074    27.2926    15.1407    25.3882
  315.5000     7.9029    89.6905     2.3150     0.1973    -0.0279   -42.2892    27.8573    15.2499    28.7922
  316.0000     7.8867    88.7738     2.3334     0.1849    -0.0198   -42.0710    27.5071    15.3599    31.6542
  316.5000     7.8706    87.8645     2.3443     0.1777    -0.0162   -41.8528    27.1695    15.4706    27.7854
  317.0000     7.8546    86.9553     2.3443     0.1819    -0.0215   -41.6343    26.8474    15.6007    24.9223
  317.5000     7.8385    86.0402     2.3580     0.1758    -0.0197   -41.4152    26.8474    15.4399    23.5905
  318.0000     7.8226    85.1314     2.3716     0.1679    -0.0162   -41.1989    26.6255    15.1899    22.5616
  318.5000     7.8065    85.0960     2.3852     0.1599    -0.0126   -41.0307    26.1306    14.9441    21.5775
  319.0000     7.8145    85.1000     2.3911     0.1551    -0.0124   -41.1539    25.6448    14.7023    20.6364
  319.5000     7.8416    84.8806     2.3817     0.1595    -0.0153   -41.2709    25.1681    14.4646    19.7362
  320.0000     7.8688    83.3517     2.3680     0.1677    -0.0189   -41.3869    24.7002    14.2306    18.9258
  320.5000     7.8961    81.8270     2.3542     0.1758    -0.0226   -41.5033    24.2411    14.0005    23.0499
  321.0000     7.9235    80.5083     2.3404     0.1840    -0.0263   -41.6196    23.8207    13.7742    22.2650
  321.5000     7.9515    81.4940     2.3268     0.1943    -0.0299   -41.7360    24.0737    13.5522    21.2600
  322.0000     7.9586    83.3533     2.3205     0.1905    -0.0301   -41.8519    24.3132    13.3339    20.3004
  322.5000     7.9594    85.2126     2.3395     0.1834    -0.0213   -41.9688    24.4874    13.1863    19.8168
  323.0000     7.9599    86.9243     2.3543     0.1762    -0.0128   -41.9885    23.7747    13.0606    20.3897
  323.5000     7.9605    86.9458     2.3640     0.1691    -0.0043   -41.9447    23.2319    12.9378    20.9350
  324.0000     7.9611    85.5747     2.3724     0.1627     0.0033   -41.9002    22.7015    12.8161    21.3305
  324.5000     7.9617    84.1922     2.3809     0.1623     0.0027   -41.8552    22.1832    12.6956    20.7592
  325.0000     7.9623    83.3803     2.3783     0.1617     0.0014   -41.8104    21.5277    12.5762    20.2493
  325.5000     7.9629    83.1291     2.3754     0.1611     0.0001   -41.7656    21.7100    12.4579    19.7519
  326.0000     7.9635    82.8739     2.3787     0.1605    -0.0011   -41.7209    22.0777    12.3410    19.2666
  326.5000     7.9641    82.6218     2.3819     0.1588    -0.0023   -41.6761    22.3348    12.1687    18.7525
