~VERSION INFORMATION
 VERS.                2.0:   CWLS LOG ASCII STANDARD - VERSION 2.0
 WRAP.                 NO:   ONE LINE PER DEPTH STEP
~WELL INFORMATION
#MNEM.UNIT      DATA TYPE    INFORMATION
#----------   ------------   ------------------------------
 STRT.F           28.0000:   START DEPTH
 STOP.F          791.0000:   STOP DEPTH
 STEP.F            0.5000:   STEP LENGTH
 NULL.          -999.2500:   NO VALUE
 COMP. LAWRENCE/ALLISON INC:   COMPANY
 WELL.    34-61 SX #11-11:   WELL
 FLD .             TEAPOT:   FIELD
 LOC .      S11 T38N R78W:   LOCATION
 CNTY.            NATRONA:   COUNTY
 STAT.            WYOMING:   STATE
 CTRY. UNITED STATES OF AMERICA:   COUNTRY
 SRVC.           Gearhart:   SERVICE COMPANY
 DATE.        29-JUL-1987:   LOGDATE
 API .       490251112500:   API NUMBER
~CURVE INFORMATION
#MNEM.UNIT       API CODE    CURVE DESCRIPTION
#----------   ------------   ------------------------------
 DEPT.F                  :   
 GRR .GAPI   07 310 01 00:   GAMMA RAY FROM RESISTIVITY
 RILD.OHMM   07 120 46 00:   RESISTIVITY INDUCTION LOG DEEP
 RILM.OHMM   07 120 44 00:   RESISTIVITY INDUCTION LOG MEDIUM
 RLL .OHMM   07 220 00 00:   RESISTIVITY LATEROLOG
~PARAMETER INFORMATION
#MNEM.UNIT          VALUE    DESCRIPTION
#----------   ------------   ------------------------------
 PD  .                 GL:   PERMANENT DATUM
 EPD .F              5172:   ELEVATION PERMANENT DATUM
 LMF .                 KB:   LOG MEASURED FROM
 DAPD.F                 7:   FEET ABOVE PERMANENT DATUM
 DMF .                 KB:   DRILLING MEASURED FROM
 EKB .F              5180:   KELLING BUSHING
 EDF .F              5178:   DRILLING FLOOR
 EGL .F              5172:   GROUND LEVEL
 DATE.        29-JUL-1987:   RUN DATE
 RUN .                  1:   RUN NUMBER
 DD  .F               793:   DEPTH DRILLER
 DL  .F               792:   DEPTH LOGGER
 BLI .F               791:   BOTTOM LOG INTERVAL
 TLI .F                30:   TOP LOG INTERVAL
 CS  .IN            8.625:   CASING SIZE
 CBL .F                50:   CASING BOTTOM LOGGER
 BS  .IN            7.875:   BIT SIZE
 BSD .F               793:   BIT SIZE AT DEPTH
 DFT .                MUD:   DRILLING FLUID TYPE
 DFD .                0.5:   DRILLING FLUID DENSITY
 MSS .           FLOWLINE:   MUD SAMPLE SOURCE
 RMS .OHMM           1.92:   RESISTIVITY MUD SAMPLE
 MST .F                71:   MUD SAMPLE TEMPERATURE
 RMF .OHMM            1.4:   RESISTIVITY MUD FILTRATE SAMPLE
 MFST.F                72:   MUD FILTRATE SAMPLE TEMPERATURE
 RMC .OHMM            2.2:   RESISTIVITY MUD CAKE
 MCST.F                72:   MUD CAKE SAMPLE TEMPERATURE
 MFSS.              CHART:   MUD FILTRATE SAMPLE SOURCE
 MCSS.              CHART:   MUD CAKE SAMPLE SOURCE
 TCS .HRS            2200:   TIME CURCULATED STOPPED
 MRT .F                60:   MAXIMUM RECORDED TEMPERATURE
 LUN .               7397:   LOGGING UNIT NUMBER
 LUL .           GILLETTE:   LOGGING UNIT LOCATION
 ENGI.         WEATHERMON:   RECORDING ENGINEER
 WITN.             STRONG:   WITNESSED BY
 CLNT.            A2DTECH:   CLIENT CODE
 ORIG.           5" PRINT:   ORIGIN OF DATA
 UWI .       490251112500:   UNIQUE WELL ID
 DICO. A2D Technologies, Inc.:   DIGITIZING COMPANY
~OTHER INFORMATION
~A   DEPT      GRR       RILD       RILM        RLL   
# ...
  612.0000    68.2693    15.3094    15.2788    14.0779
  612.5000    68.5781    15.3062    15.3850    14.1767
  613.0000    68.2753    15.3031    15.3828    13.9745
  613.5000    67.9541    15.2999    15.3806    13.7757
  614.0000    67.6167    15.0815    15.2694    13.6764
  614.5000    67.3668    15.0783    15.2673    13.5778
  615.0000    67.3705    15.0745    15.2652    13.4799
  615.5000    66.7618    14.9650    15.1552    13.2881
  616.0000    65.8466    14.9619    15.0461    13.0990
  616.5000    65.2380    14.9588    14.9377    13.0042
  617.0000    65.2417    14.8501    14.8301    12.9105
  617.5000    65.8563    14.7422    14.7233    12.8174
  618.0000    66.7768    14.6351    14.6168    12.7250
  618.5000    67.0862    14.6321    14.5115    12.7233
  619.0000    67.3950    14.4177    14.3052    12.7215
  619.5000    67.7038    14.2172    14.1018    12.5405
  620.0000    68.0126    14.0137    13.8031    12.3621
  620.5000    68.0156    13.8136    13.6069    12.3569
  621.0000    68.3243    13.6165    13.4135    12.2712
  621.5000    68.3273    13.4221    13.3169    12.1824
  622.0000    67.1070    13.2305    13.2209    12.0091
  622.5000    64.6331    13.2278    13.2187    11.9225
  623.0000    65.2789    13.1317    13.3109    11.9209
  623.5000    67.7283    13.1289    13.2150    12.0045
  624.0000    70.7894    13.1262    13.2132    12.0025
  624.5000    71.4040    13.1228    13.2114    12.0008
  625.0000    68.6547    13.0275    13.2096    11.9991
  625.5000    66.5170    13.0248    13.2078    11.9974
  626.0000    65.6025    13.0221    13.2059    11.9954
  626.5000    66.2171    13.0194    13.2037    11.9089
  627.0000    66.8318    13.0167    13.2018    11.9073
  627.5000    67.1412    12.9221    13.1068    11.8215
  628.0000    67.7558    12.9195    13.0124    11.7363
  628.5000    67.7588    12.8183    12.8274    11.6517
  629.0000    66.5385    12.6419    12.7350    11.5677
  629.5000    65.9292    12.4614    12.6433    11.4031
  630.0000    65.6263    12.2836    12.5522    11.3155
  630.5000    67.1591    12.1943    12.3737    11.1598
  631.0000    68.4019    12.1057    12.2842    11.0790
  631.5000    69.6115    11.9329    12.1096    10.9992
  632.0000    67.4746    11.9305    12.0224    10.9976
  632.5000    64.7252    11.8438    11.9358    10.9961
  633.0000    62.8934    11.7577    11.9341    10.9946
  633.5000    63.5079    11.7552    11.8482    11.0718
  634.0000    65.9574    11.7522    11.7629    11.1487
  634.5000    69.0185    11.8340    11.7612    11.2265
  635.0000    71.7738    11.8309    11.7596    11.3854
  635.5000    73.0000    11.9132    11.8413    11.5465
  636.0000    71.7308    11.9101    11.9243    11.7095
  636.5000    70.2536    11.9929    12.0071    11.7917
  637.0000    69.0341    12.0751    12.0913    11.9586
  637.5000    67.8138    12.0726    12.1756    12.1274
  638.0000    67.2044    12.1650    12.2602    12.1257
  638.5000    66.9016    12.1527    12.2584    12.1240
  639.0000    68.4344    12.0644    12.1615    11.9516
  639.5000    70.2722    11.9768    11.9967    11.7737
  640.0000    71.8247    11.8898    11.9103    11.4498
  640.5000    73.0312    11.8873    11.8246    11.2869
  641.0000    71.5051    11.7176    11.7394    11.1263
  641.5000    69.9790    11.6325    11.6548    11.0461
  642.0000    69.3696    11.5480    11.5709    10.8890
  642.5000    69.3734    11.4640    11.4064    10.8105
  643.0000    69.0698    11.3668    11.3242    10.8090
  643.5000    68.7247    11.2178    11.2426    10.7311
  644.0000    70.6055    11.0576    11.1613    10.6537
  644.5000    73.1079    10.8998    11.0810    10.6402
  645.0000    75.8110    10.8975    10.9234    10.5751
  645.5000    76.7314    10.8953    10.9219    10.5737
  646.0000    75.8169    11.0485    10.9204    10.6479
  646.5000    73.6792    11.2038    11.0749    10.7218
  647.0000    72.4590    11.3635    11.2315    10.7971
  647.5000    70.9329    11.6139    11.5598    10.9495
  648.0000    68.1836    12.1038    12.3121    11.1835
  648.5000    64.8226    12.5376    12.8454    11.4248
  649.0000    63.6024    13.0794    13.4018    11.8435
  649.5000    63.9119    13.7415    14.1821    12.4339
  650.0000    64.9086    14.6567    15.0204    13.2375
  650.5000    65.4464    16.1666    15.6746    14.2066
  651.0000    62.6978    17.2275    16.6869    15.1586
  651.5000    60.5601    18.3580    17.7840    16.5370
  652.0000    59.9507    19.1513    18.9532    17.4620
  652.5000    59.9543    20.2855    20.1993    17.9610
  653.0000    59.9573    21.4403    21.3753    18.2140
  653.5000    59.6544    22.0521    22.1515    18.3399
  654.0000    59.0092    22.3633    22.7776    18.4668
  654.5000    58.7429    22.3576    22.7737    18.5945
  655.0000    59.3582    22.1952    22.4499    18.5897
  655.5000    59.6670    22.0339    22.1308    18.7192
  656.0000    59.9758    21.8729    21.9714    18.5821
  656.5000    60.5903    21.5608    21.8132    18.3165
  657.0000    60.8991    21.4042    21.3511    18.0547
  657.5000    61.2385    21.0987    21.0470    17.7966
  658.0000    63.0464    20.7976    20.8954    17.5414
  658.5000    64.5784    20.5007    20.5984    17.2907
  659.0000    66.1104    20.2072    20.3056    17.1649
  659.5000    67.0308    19.9188    20.1594    17.0409
  660.0000    66.4222    19.7742    19.8728    17.2800
  660.5000    63.6728    19.6305    19.7296    17.4028
  661.0000    61.1805    19.6265    19.7263    17.3951
  661.5000    59.3974    19.4839    19.7236    16.9048
  662.0000    59.4011    19.3415    19.5816    16.6632
  662.5000    60.3215    19.3376    19.4406    16.5420
  663.0000    61.2419    19.3336    19.4379    16.4217
  663.5000    61.8564    19.3297    19.4352    16.4183
  664.0000    61.8594    19.1893    19.4319    16.5318
  664.5000    61.5565    19.1853    19.4293    16.4116
  665.0000    61.2537    19.1805    19.4266    16.5251
  665.5000    60.3399    19.1765    19.2867    16.6394
  666.0000    60.3429    19.0373    19.1479    16.6351
  666.5000    60.9575    18.8990    19.0100    16.7502
  667.0000    61.5720    18.3672    18.7264    16.8659
  667.5000    62.1866    18.1050    18.3422    16.9826
  668.0000    61.5780    17.8458    17.9537    16.5031
  668.5000    61.2751    17.5911    17.5735    15.8120
  669.0000    61.5846    17.4633    17.4469    15.2577
  669.5000    61.8934    17.2141    17.3213    14.9333
  670.0000    61.8963    17.0891    17.0750    14.7198
  670.5000    62.5109    16.9650    16.9520    14.9264
  671.0000    64.6545    16.7220    16.8294    15.1367
  671.5000    66.8105    16.6006    16.7083    15.2421
  672.0000    68.0734    16.4800    16.7060    15.0235
  672.5000    68.6397    16.2448    16.5857    14.8088
  673.0000    68.9484    16.1269    16.3499    14.5971
  673.5000    69.5630    16.0086    16.1117    14.2860
  674.0000    70.7892    15.6690    15.7756    13.9822
  674.5000    71.4038    15.3364    15.4414    13.7824
  675.0000    70.1835    15.1175    15.2219    13.5854
  675.5000    68.6147    14.5884    14.8995    13.3912
  676.0000    66.5204    14.2787    14.3786    13.2938
  676.5000    64.3827    13.9755    13.9746    13.1970
  677.0000    61.9392    13.8589    13.7759    13.1937
  677.5000    62.5537    13.6753    13.7736    13.1910
  678.0000    64.3916    13.6725    13.7717    13.1883
  678.5000    65.6178    13.5732    13.6726    13.1856
  679.0000    66.5382    13.5705    13.6707    13.1829
  679.5000    66.2353    13.4719    13.6688    13.1802
  680.0000    65.9324    13.4691    13.5704    13.1769
  680.5000    65.6296    13.3707    13.3774    12.9885
  681.0000    65.9391    13.2736    13.2807    12.8029
  681.5000    66.2478    13.1772    13.1851    12.6199
  682.0000    66.2508    13.1745    13.1833    12.4395
  682.5000    66.2538    13.0788    13.1815    12.3490
  683.0000    65.9509    13.0760    13.1797    12.2586
  683.5000    65.3430    12.9805    13.0847    12.3440
  684.0000    64.7343    12.8862    12.9901    12.0811
  684.5000    65.0431    12.7023    12.8966    12.0786
