~VERSION INFORMATION
 VERS.                2.0:   CWLS LOG ASCII STANDARD - VERSION 2.0
 WRAP.                 NO:   ONE LINE PER DEPTH STEP
~WELL INFORMATION
#MNEM.UNIT      DATA TYPE    INFORMATION
#----------   ------------   ------------------------------
 STRT.F           36.0000:   START DEPTH
 STOP.F          592.0000:   STOP DEPTH
 STEP.F            0.5000:   STEP LENGTH
 NULL.          -999.2500:   NO VALUE
 COMP. FENIX & SCISSON INC:   COMPANY
 WELL.           S #35-10:   WELL
 FLD .              NPR-3:   FIELD
 LOC .      S10 T38N R78W:   LOCATION
 CNTY.            NATRONA:   COUNTY
 STAT.            WYOMING:   STATE
 CTRY. UNITED STATES OF AMERICA:   COUNTRY
 SRVC.              Welex:   SERVICE COMPANY
 DATE.        07-MAR-1977:   LOGDATE
 API .       490251029000:   API NUMBER
~CURVE INFORMATION
#MNEM.UNIT       API CODE    CURVE DESCRIPTION
#----------   ------------   ------------------------------
 DEPT.F                  :   
 SPR .MV     07 010 01 00:   SPONTANEOUS POTENTIAL
 ILM .OHMM   07 120 44 00:   INDUCTION LOG MEDIUM
 ILD .OHMM   07 120 46 00:   INDUCTION LOG DEEP
 SGRD.OHMM   07 220 05 00:   SHALLOW GUARD RESISTIVITY
 CALD.IN     45 280 60 00:   CALIPER FROM DENSITY LOG
 RHOB.G/C3   45 350 01 00:   BULK DENSITY
 CORR.G/C3   45 356 01 00:   DENSITY CORRECTION
 DPHI.DEC    45 890 12 00:   DENSITY POROSITY SANDSTONE
 GRD .GAPI   45 310 01 00:   GAMMA RAY FROM DENSITY LOG
~PARAMETER INFORMATION
#MNEM.UNIT          VALUE    DESCRIPTION
#----------   ------------   ------------------------------
 PD  .                 GL:   PERMANENT DATUM
 EPD .F              5234:   ELEVATION PERMANENT DATUM
 LMF .                 GL:   LOG MEASURED FROM
 DMF .                 GL:   DRILLING MEASURED FROM
 EGL .F              5234:   GROUND LEVEL
 DATE.             3-7-77:   RUN DATE
 RUN .                  1:   RUN NUMBER
 DD  .F               600:   DEPTH DRILLER
 DL  .F               593:   DEPTH LOGGER
 BLI .F               591:   BOTTOM LOG INTERVAL
 TLI .F                35:   TOP LOG INTERVAL
 CS  .IN            8.625:   CASING SIZE
 CBD .F                42:   CASING BOTTOM DRILLER
 CBL .F                42:   CASING BOTTOM LOGGER
 BS  .IN            7.875:   BIT SIZE
 BSD .F               600:   BIT SIZE AT DEPTH
 DFT .            KCL MUD:   DRILLING FLUID TYPE
 MSS .          FLOW LINE:   MUD SAMPLE SOURCE
 RMS .OHMM            .40:   RESISTIVITY MUD SAMPLE
 MST .F                58:   MUD SAMPLE TEMPERATURE
 RMF .OHMM            .33:   RESISTIVITY MUD FILTRATE SAMPLE
 MFST.F                58:   MUD FILTRATE SAMPLE TEMPERATURE
 RMC .OHMM            .44:   RESISTIVITY MUD CAKE
 MCST.F                58:   MUD CAKE SAMPLE TEMPERATURE
 MFSS.           FANN KIT:   MUD FILTRATE SAMPLE SOURCE
 MCSS.           FANN KIT:   MUD CAKE SAMPLE SOURCE
 RMB .OHMM            .31:   RESISTIVITY MUD AT BHT
 BHT .F                62:   BOTTOM HOLE TEMPERATURE
 TCS .HRS               3:   TIME CURCULATED STOPPED
 MRT .F                62:   MAXIMUM RECORDED TEMPERATURE
 LUN .               8611:   LOGGING UNIT NUMBER
 LUL .           GILLETTE:   LOGGING UNIT LOCATION
 ENGI.            C. DOAK:   RECORDING ENGINEER
 WITN.      L. STUEBINGER:   WITNESSED BY
 CLNT.            A2DTECH:   CLIENT CODE
 ORIG.        2" 5" PRINT:   ORIGIN OF DATA
 UWI .       490251029000:   UNIQUE WELL ID
 DICO. A2D Technologies, Inc.:   DIGITIZING COMPANY
~OTHER INFORMATION
~A   DEPT      SPR        ILM        ILD       SGRD         CALD       RHOB      CORR        DPHI       GRD  
   36.0000  -999.2500  -999.2500  -999.2500  -999.2500     7.9384     2.1759    -0.3201     0.2839    99.8448
   36.5000  -999.2500  -999.2500  -999.2500  -999.2500     7.9384     2.1837    -0.3181     0.2782    95.3486
   37.0000  -999.2500  -999.2500  -999.2500  -999.2500     7.9384     2.1961    -0.3140     0.2710    90.8525
   37.5000  -999.2500  -999.2500  -999.2500  -999.2500     7.9382     2.2068    -0.3096     0.2653    87.2956
   38.0000  -999.2500  -999.2500  -999.2500  -999.2500     7.9366     2.2228    -0.2975     0.2550    83.8984
   38.5000  -999.2500  -999.2500  -999.2500  -999.2500     7.9559     2.2389    -0.2832     0.2418    83.0879
   39.0000  -999.2500  -999.2500  -999.2500  -999.2500     7.9782     2.2504    -0.2663     0.2378    84.0519
   39.5000  -999.2500  -999.2500  -999.2500  -999.2500     8.0192     2.2535    -0.2451     0.2338    85.5424
   40.0000  -999.2500  -999.2500  -999.2500  -999.2500     8.0207     2.2639    -0.2092     0.2265    89.0877
   40.5000  -999.2500  -999.2500  -999.2500  -999.2500     8.0229     2.2769    -0.1643     0.2188    92.6533
   41.0000  -999.2500  -999.2500  -999.2500  -999.2500     8.0252     2.2874    -0.1192     0.2163    96.1972
   41.5000  -999.2500  -999.2500  -999.2500  -999.2500     8.0275     2.2885    -0.0765     0.2139    98.8033
   42.0000  -999.2500     0.3943  1590.1145     9.4262     8.0299     2.2977    -0.0349     0.2081    97.0274
   42.5000  -999.2500     0.6829  1373.0406     4.1855     8.0318     2.3082     0.0156     0.1999    95.3824
   43.0000  -999.2500     1.2505   554.5300     1.6166     8.0338     2.3177     0.0727     0.1971    95.7064
   43.5000  -999.2500     2.0290   258.5986     1.1834     8.0390     2.3018     0.0986     0.2067    99.0023
   44.0000    -1.4911     3.7158     7.9457     0.6442     8.2799     2.2714     0.0794     0.2239   110.3800
   44.5000   -10.7214     5.1215     0.4367    17.3491     8.8273     2.3242     0.0420     0.1833   121.5878
   45.0000   -16.9814     5.9360     0.2850    13.3577     9.3503     2.4186     0.0334     0.1280   128.7802
   45.5000   -20.6228     6.9402     0.2449     8.2888     8.7997     2.5055     0.0467     0.0949   128.6121
   46.0000   -24.9728     7.1683     0.2236     8.5881     8.1012     2.5163     0.0589     0.0779   126.3826
   46.5000   -28.0288     7.6164     0.5665     8.9775     7.9876     2.5006     0.0522     0.0861   124.1596
   47.0000   -31.0675     8.1169     0.8962     9.3845     7.9754     2.4904     0.0450     0.0934   122.6656
   47.5000   -32.5295     8.6520     1.4178     9.8100     7.9640     2.4867     0.0396     0.0964   124.6795
   48.0000   -33.9224     9.0363     5.8145    10.2547     7.9512     2.4754     0.0345     0.1027   127.8978
   48.5000   -35.1772     8.9151     6.3142    10.7196     7.9384     2.4636     0.0296     0.1089   130.8321
   49.0000   -35.5112     8.8212     6.2320    11.3399     7.9255     2.4551     0.0315     0.1122   133.0759
   49.5000   -35.8698     8.7283     6.1307    11.1224     7.9127     2.4518     0.0336     0.1146   134.4163
   50.0000   -36.2303     8.6385     6.0410    10.6690     7.8999     2.4523     0.0356     0.1131   130.8858
   50.5000   -36.6023     8.9487     7.8079    10.8199     7.8986     2.4532     0.0353     0.1147   126.6597
   51.0000   -36.6801     9.1947     8.9624    11.0677     7.8986     2.4524     0.0347     0.1166   122.4729
   51.5000   -36.6814     9.4472     8.8736    10.8665     7.8986     2.4485     0.0340     0.1177   119.8524
   52.0000   -36.6776     9.7338     8.7242    11.2300     7.8986     2.4453     0.0333     0.1173   121.6638
   52.5000   -36.8348     9.7338     8.5774    11.6929     7.8986     2.4464     0.0327     0.1167   124.7337
   53.0000   -37.0558     9.7338     8.5606    12.1749     7.8986     2.4501     0.0320     0.1161   124.7985
   53.5000   -37.2803     9.6822     8.8302    12.7004     7.8987     2.4517     0.0314     0.1159   123.1952
   54.0000   -37.5044     9.3379     9.0450    12.5845     7.8991     2.4482     0.0307     0.1177   123.6545
   54.5000   -37.7284     9.0059     8.3810    11.9558     7.8812     2.4443     0.0301     0.1194   122.3144
   55.0000   -37.9521     8.6857     7.3566    11.4591     7.8601     2.4404     0.0313     0.1211   120.5495
   55.5000   -38.1766     8.4050     6.9300    10.9877     7.8897     2.4366     0.0347     0.1228   120.7461
   56.0000   -38.3446     8.1853     6.8516    10.6597     7.9244     2.4338     0.0381     0.1241   122.0738
   56.5000   -38.4751     8.0567     6.8058    10.5715     7.9590     2.4370     0.0416     0.1226   123.2308
   57.0000   -38.6045     7.7977     6.6809    10.6694     7.9934     2.4429     0.0450     0.1198   123.7406
   57.5000   -38.7338     7.4087     6.5642    10.7970     8.0047     2.4488     0.0484     0.1164   124.6962
   58.0000   -38.8633     7.0391     6.4798    10.9260     8.0122     2.4547     0.0481     0.1113   127.1325
   58.5000   -38.9927     6.8689     6.4427    11.0677     8.0197     2.4545     0.0444     0.1136   129.2836
   59.0000   -39.1217     7.0579     6.4027    10.7359     8.0273     2.4496     0.0406     0.1159   130.4035
   59.5000   -39.2522     7.1942     6.3631    10.3793     8.0348     2.4447     0.0369     0.1182   132.1106
   60.0000   -39.4974     7.2621     6.3246    10.5655     8.0424     2.4397     0.0331     0.1204   133.8059
   60.5000   -39.7567     7.0537     6.2716    10.8840     8.0501     2.4349     0.0294     0.1227   134.0372
   61.0000   -40.0153     6.8593     6.2198    11.2121     8.0572     2.4340     0.0258     0.1241   132.8657
   61.5000   -40.2742     6.6214     6.1684    11.3765     8.0483     2.4380     0.0306     0.1204   133.1263
   62.0000   -40.5324     6.6860     6.1182    10.8364     8.0385     2.4470     0.0377     0.1154   133.7327
   62.5000   -41.2019     6.8062     6.0967    10.2845     8.0288     2.4559     0.0438     0.1121   131.5556
   63.0000   -42.2411     6.9285     6.1837    10.1521     8.0191     2.4581     0.0432     0.1132   129.0540
   63.5000   -42.9918     6.9961     6.2576    10.0054     8.0093     2.4554     0.0426     0.1146   126.7616
   64.0000   -43.5705     7.2795     6.3324    10.3228     7.9994     2.4526     0.0421     0.1157   125.1030
   64.5000   -44.1459     7.5613     6.4080    10.6974     8.0068     2.4545     0.0419     0.1132   124.6179
   65.0000   -44.7214     7.8061     6.4848    11.0855     8.0171     2.4602     0.0454     0.1101   124.8600
   65.5000   -45.2939     7.9792     6.5516    11.4814     7.9678     2.4660     0.0489     0.1077   125.0502
   66.0000   -45.6429     8.1518     6.6163    11.2837     7.9123     2.4714     0.0518     0.1048   122.5757
   66.5000   -45.6737     8.3291     6.6817    11.0479     7.8764     2.4686     0.0518     0.1062   119.9538
   67.0000   -45.7077     8.5115     6.7477    10.8170     7.8715     2.4654     0.0493     0.1081   119.9408
   67.5000   -45.7406     8.6088     6.8144    10.6690     7.8663     2.4623     0.0465     0.1100   119.9975
   68.0000   -45.7739     8.6988     6.8689    10.8907     7.8611     2.4626     0.0437     0.1109   119.3948
   68.5000   -45.8089     8.7897     6.8418    11.0865     7.8560     2.4685     0.0424     0.1074   119.9330
   69.0000   -45.9029     8.8815     6.8148    11.2726     7.8508     2.4745     0.0445     0.1036   121.2894
   69.5000   -46.0667     8.9743     6.7879    10.9761     7.8456     2.4805     0.0465     0.0998   121.8436
   70.0000   -46.2299     9.0687     6.7611    10.6459     7.8402     2.4811     0.0454     0.0974   119.4459
   70.5000   -46.3935     9.1299     6.7343    10.3793     7.8390     2.4689     0.0403     0.1074   117.0734
   71.0000   -46.5571     8.7384     6.7077    10.4750     7.8390     2.4585     0.0397     0.1109   116.1636
   71.5000   -46.7209     8.4180     6.6812    10.3064     7.8390     2.4568     0.0397     0.1123   116.1976
   72.0000   -46.8845     8.2269     6.6548     9.9812     7.8390     2.4543     0.0398     0.1137   118.6076
