~VERSION INFORMATION
 VERS.                2.0:   CWLS LOG ASCII STANDARD - VERSION 2.0
 WRAP.                 NO:   ONE LINE PER DEPTH STEP
~WELL INFORMATION
#MNEM.UNIT      DATA TYPE    INFORMATION
#----------   ------------   ------------------------------
 STRT.F           99.0000:   START DEPTH
 STOP.F          761.5000:   STOP DEPTH
 STEP.F            0.5000:   STEP LENGTH
 NULL.          -999.2500:   NO VALUE
 COMP.          U.S. NAVY:   COMPANY
 WELL. RES 3 TEAPOT DOM #48S-11:   WELL
 FLD .             TEAPOT:   FIELD
 LOC .      S11 T38N R78W:   LOCATION
 CNTY.            NATRONA:   COUNTY
 STAT.            WYOMING:   STATE
 CTRY. UNITED STATES OF AMERICA:   COUNTRY
 SRVC.       Schlumberger:   SERVICE COMPANY
 DATE.        14-JUL-1963:   LOGDATE
 API .       490250632500:   API NUMBER
~CURVE INFORMATION
#MNEM.UNIT       API CODE    CURVE DESCRIPTION
#----------   ------------   ------------------------------
 DEPT.F                  :   
 SPR .MV     05 010 01 00:   SPONTANEOUS POTENTIAL FROM RES.
 ILD .OHMM   05 120 46 00:   INDUCTION LOG DEEP
 CILD.MMHO   05 110 46 00:   CONDUCTIVITY INDUCTION LOG DEEP
 GR  .GAPI   30 310 01 00:   GAMMA RAY
 ASN .OHMM   05 041 16 00:   AMPLIFIED SHORT NORMAL 16"
~PARAMETER INFORMATION
#MNEM.UNIT          VALUE    DESCRIPTION
#----------   ------------   ------------------------------
 PD  .                 GL:   PERMANENT DATUM
 EPD .F              5187:   ELEVATION PERMANENT DATUM
 LMF .                 KB:   LOG MEASURED FROM
 DAPD.F                 5:   FEET ABOVE PERMANENT DATUM
 DMF .                 KB:   DRILLING MEASURED FROM
 EKB .F              5192:   KELLING BUSHING
 EGL .F              5187:   GROUND LEVEL
 DATE.            7-14-63:   RUN DATE
 RUN .                  1:   RUN NUMBER
 DD  .F               762:   DEPTH DRILLER
 DL  .F               761:   DEPTH LOGGER
 BLI .F               760:   BOTTOM LOG INTERVAL
 TLI .F               100:   TOP LOG INTERVAL
 CS  .IN            8.625:   CASING SIZE
 CBD .F                10:   CASING BOTTOM DRILLER
 BS  .IN            7.875:   BIT SIZE
 BSD .F               762:   BIT SIZE AT DEPTH
 DFT .            GEL-OIL:   DRILLING FLUID TYPE
 DFD .                 10:   DRILLING FLUID DENSITY
 DFV .                 55:   DRILLING FLUID VISCOSITY
 DFPH.                9.5:   DRILLING FLUID PH
 DFL .                  4:   DRILLING FLUID LOSS
 MSS .          FLOW LINE:   MUD SAMPLE SOURCE
 RMS .OHMM           3.11:   RESISTIVITY MUD SAMPLE
 MST .F                78:   MUD SAMPLE TEMPERATURE
 RMF .OHMM           2.31:   RESISTIVITY MUD FILTRATE SAMPLE
 MFST.F                78:   MUD FILTRATE SAMPLE TEMPERATURE
 RMC .OHMM           3.82:   RESISTIVITY MUD CAKE
 MCST.F                78:   MUD CAKE SAMPLE TEMPERATURE
 MFSS.                  M:   MUD FILTRATE SAMPLE SOURCE
 MCSS.                  M:   MUD CAKE SAMPLE SOURCE
 TCS .HRS               1:   TIME CURCULATED STOPPED
 LUN .               4507:   LOGGING UNIT NUMBER
 ENGI.             KNOBEL:   RECORDING ENGINEER
 WITN.          JORGENSEN:   WITNESSED BY
 CLNT.            A2DTECH:   CLIENT CODE
 ORIG.       2", 5" PRINT:   ORIGIN OF DATA
 UWI .       490250632500:   UNIQUE WELL ID
 DICO. A2D Technologies, Inc.:   DIGITIZING COMPANY
~OTHER INFORMATION
~A   DEPT      SPR        ILD       CILD         GR        ASN   
# ...
  160.0000   -31.3088     3.2063   321.3432  -999.2500     4.3988
  160.5000   -31.1823     2.6421   377.7750  -999.2500     3.8821
  161.0000   -31.0562     2.2046   434.0632  -999.2500     3.3564
  161.5000   -30.9305     2.1669   457.1429  -999.2500     3.1207
  162.0000   -30.8047     2.0256   466.8342  -999.2500     3.0854
  162.5000   -30.6789     1.8673   463.5176  -999.2500     3.1454
  163.0000   -30.5524     1.9077   452.4623  -999.2500     3.2052
  163.5000   -30.4280     2.0133   432.4623  -999.2500     3.1940
  164.0000   -30.3616     2.2454   391.5913  -999.2500     3.1536
  164.5000   -30.2854     2.8129   350.7203  -999.2500     3.2913
  165.0000   -30.2481     3.5070   305.2764  -999.2500     4.1021
  165.5000   -30.4458     4.2025   251.1868  -999.2500     4.6067
  166.0000   -30.6413     4.4974   215.9644  -999.2500     4.7583
  166.5000   -30.8361     4.7737   201.9055  -999.2500     4.7544
  167.0000   -31.0310     4.7846   198.4394  -999.2500     4.7366
  167.5000   -31.2270     4.8713   201.9878  -999.2500     4.7656
  168.0000   -31.4187     4.9602   207.0391  -999.2500     4.7654
  168.5000   -31.4271     5.0520   210.5648  -999.2500     4.7558
  169.0000   -31.4260     4.9743   210.5528  -999.2500     4.8354
  169.5000   -31.4257     4.8350   210.0502  -999.2500     4.9141
  170.0000   -31.4257     4.7027   209.5477  -999.2500     4.9159
  170.5000   -31.4258     4.5702   212.4506  -999.2500     4.8642
  171.0000   -31.4265     4.4380   218.4957  -999.2500     4.7929
  171.5000   -31.4258     4.2420   227.3680  -999.2500     4.7206
  172.0000   -31.3683     3.9820   245.1065    59.7731     4.5992
  172.5000   -31.0305     3.7221   262.8141    56.7050     4.4720
  173.0000   -30.8209     3.4622   280.5217    52.2436     4.3442
  173.5000   -30.8236     3.2019   298.2292    50.8345     4.1813
  174.0000   -30.8230     2.9364   315.2638    53.9484     3.9804
  174.5000   -30.8235     2.7718   329.0201    55.7604     3.7847
  175.0000   -30.8218     2.8665   328.8945    54.8583     3.7466
  175.5000   -30.9518     2.9702   316.3317    71.9135     3.7843
  176.0000   -31.1622     3.1181   303.7688    65.9843     3.9204
  176.5000   -31.3745     3.3772   291.2179    55.2061     3.9998
  177.0000   -31.5898     3.6781   278.6687    60.9873     4.0368
  177.5000   -31.6267     3.9801   258.9765    66.3417     4.1641
  178.0000   -31.6270     4.2691   236.2074    62.6530     4.6754
  178.5000   -31.6267     4.5533   213.4621    59.0458     5.0265
  179.0000   -31.6272     4.8378   190.7167    56.7551     5.1938
  179.5000   -31.6229     5.1223   182.3788    65.1688     5.3169
  180.0000   -31.5175     5.3757   176.3906    71.5514     5.4420
  180.5000   -31.4091     5.3617   176.8620    62.5728     5.4926
  181.0000   -31.3012     5.3269   177.3162    60.2075     5.5242
  181.5000   -31.1934     5.2934   180.1691    60.3645     5.5556
  182.0000   -31.0856     5.0724   183.3609    52.7813     5.5175
  182.5000   -30.9919     4.6640   202.7028    53.4530     5.3567
  183.0000   -30.9176     4.2557   224.2120    55.2255     5.1569
  183.5000   -30.8431     3.8487   254.8367    56.9915     4.9540
  184.0000   -30.7683     3.4488   289.1960    61.4564     4.5795
  184.5000   -30.6935     3.1439   315.8292    66.5623     4.1837
  185.0000   -30.6255     2.9935   322.0477    62.8315     3.8064
  185.5000   -30.7197     2.8371   321.4196    61.3819     3.7596
  186.0000   -30.9452     2.6713   322.5413    55.3226     3.9509
  186.5000   -31.1695     2.5623   325.1256    50.0319     3.9799
  187.0000   -31.3936     2.6711   320.6030    46.4882     3.8769
  187.5000   -31.3777     2.9531   306.5327    49.7800     3.8616
  188.0000   -31.1473     3.2764   283.9196    49.7568     4.2186
  188.5000   -30.9245     3.6002   253.7688    46.9406     4.4000
  189.0000   -30.6826     3.9235   229.4807    51.8778     4.4409
  189.5000   -30.8444     4.2457   215.3266    57.9650     4.5186
  190.0000   -30.9973     4.5143   211.1390    58.4935     4.7466
  190.5000   -31.1681     4.6429   206.9514    60.0047     4.9794
  191.0000   -31.3341     4.7741   202.7638    61.5634     5.1362
  191.5000   -31.3330     4.9043   201.5075    59.6006     5.2028
  192.0000   -31.1304     5.0396   200.9997    60.7897     5.2302
  192.5000   -30.9302     4.9710   200.9897    59.2972     5.2173
  193.0000   -30.8228     4.8133   203.2442    64.4115     5.1717
  193.5000   -30.8231     4.5849   206.5089    58.6818     5.0854
  194.0000   -30.8231     4.3548   215.0452    52.8674     4.9292
  194.5000   -30.8253     4.1249   228.4413    53.9106     4.7169
  195.0000   -30.9344     3.8952   243.9927    53.6090     4.5044
  195.5000   -31.1688     3.6656   259.0173    49.3095     4.2929
  196.0000   -31.3982     3.4322   273.5343    45.7291     4.1546
  196.5000   -31.3720     3.3231   279.8995    57.0151     4.0543
  197.0000   -31.1388     3.1654   281.9095    58.6528     3.9898
  197.5000   -30.9141     3.0086   284.4221    61.7735     4.0131
  198.0000   -30.6886     2.9860   293.8263    53.6124     3.9097
  198.5000   -30.6668     3.0149   308.5068    55.5472     3.6738
  199.0000   -30.8482     3.0453   313.1730    51.8756     3.6277
  199.5000   -31.0236     3.0650   317.8392    56.0709     3.6871
  200.0000   -31.1985     2.9027   322.3159    49.2397     3.5901
  200.5000   -31.3757     2.7209   336.2231    50.7029     3.4765
  201.0000   -31.3413     2.5389   365.7377    62.1116     3.3867
  201.5000   -31.1744     2.3559   395.2523    59.8458     3.2617
  202.0000   -31.0238     2.1698   424.7668    60.5268     3.0383
  202.5000   -31.0847     2.1593   451.7588    62.4865     2.9431
  203.0000   -31.1722     2.1603   441.8844    60.8307     2.9026
  203.5000   -31.2596     2.1600   423.2697    59.1227     2.9168
  204.0000   -31.3470     2.1642   404.7705    53.7616     3.0180
  204.5000   -31.4467     2.2380   386.2714    56.5455     3.1220
  205.0000   -31.6319     2.3752   365.7063    54.0393     3.1725
  205.5000   -31.6983     2.6644   343.2161    48.0491     3.2080
  206.0000   -31.7626     2.9841   313.9980    49.7697     3.4043
  206.5000   -31.8273     3.3062   283.0540    46.2274     3.9546
  207.0000   -31.8923     3.6323   250.7538    51.2254     4.1649
  207.5000   -31.9578     3.8709   241.7085    48.8600     4.1893
  208.0000   -32.0208     3.7208   243.0271    53.4857     4.1682
  208.5000   -31.8998     3.5607   251.0995    52.9205     4.1377
  209.0000   -31.7560     3.4027   260.7458    55.4386     4.0553
  209.5000   -31.6121     3.2450   278.0058    58.4628     3.9732
  210.0000   -31.4668     3.0873   295.2658    63.2664     3.8894
  210.5000   -31.3489     2.9297   312.5258    56.7463     3.7742
  211.0000   -31.1938     2.7719   333.0937    62.9910     3.6565
  211.5000   -31.0394     2.6142   358.9134    65.0741     3.5337
  212.0000   -30.8846     2.4576   384.7331    70.5537     3.4074
  212.5000   -30.7313     2.3607   410.5528    69.9789     3.2853
  213.0000   -30.6562     2.3601   410.5528    75.5996     3.1887
  213.5000   -30.7851     2.3559   397.0005    80.7950     3.2101
  214.0000   -30.9105     2.5270   377.9408    78.9104     3.3088
  214.5000   -31.0515     2.6989   358.8811    75.1573     3.3329
  215.0000   -31.3185     2.8669   340.2010    67.4362     3.3550
  215.5000   -31.5873     3.0279   315.9733    61.3464     3.5998
  216.0000   -31.8232     3.4517   282.7617    59.3395     4.1282
  216.5000   -31.7971     3.9206   238.0800    52.8272     4.7264
  217.0000   -31.7673     4.3691   218.5170    52.8779     4.9182
  217.5000   -31.7384     4.5562   204.5226    56.5902     5.0934
  218.0000   -31.7097     4.7319   199.8350    61.4064     5.2435
  218.5000   -31.6811     4.9091   194.2547    56.9860     5.3793
  219.0000   -31.6522     5.0705   188.7048    57.5561     5.5160
  219.5000   -31.6267     5.2048   183.3817    58.4511     5.6503
  220.0000   -31.5424     5.3947   176.5122    55.5184     5.8852
  220.5000   -31.3748     5.5884   169.9721    61.2829     6.1636
