~VERSION INFORMATION
 VERS.                2.0:   CWLS LOG ASCII STANDARD - VERSION 2.0
 WRAP.                 NO:   ONE LINE PER DEPTH STEP
~WELL INFORMATION
#MNEM.UNIT      DATA TYPE    INFORMATION
#----------   ------------   ------------------------------
 STRT.F           84.0000:   START DEPTH
 STOP.F          860.0000:   STOP DEPTH
 STEP.F            0.5000:   STEP LENGTH
 NULL.          -999.2500:   NO VALUE
 COMP.               NAVY:   COMPANY
 WELL. 52-S-11  NPR #3 #52S-11:   WELL
 FLD .        TEAPOT DOME:   FIELD
 LOC .      S11 T38N R78W:   LOCATION
 CNTY.            NATRONA:   COUNTY
 STAT.            WYOMING:   STATE
 CTRY. UNITED STATES OF AMERICA:   COUNTRY
 SRVC.       Schlumberger:   SERVICE COMPANY
 DATE.        01-JUL-1962:   LOGDATE
 API .       490250637300:   API NUMBER
~CURVE INFORMATION
#MNEM.UNIT       API CODE    CURVE DESCRIPTION
#----------   ------------   ------------------------------
 DEPT.F                  :   
 ASN .OHMM   05 041 16 00:   AMPLIFIED SHORT NORMAL 16"
 CILD.MMHO   05 110 46 00:   CONDUCTIVITY INDUCTION LOG DEEP
 ILD .OHMM   05 120 46 00:   INDUCTION LOG DEEP
 SPR .MV     05 010 01 00:   SPONTANEOUS POTENTIAL FROM RES.
 GR  .GAPI   30 310 01 00:   GAMMA RAY
~PARAMETER INFORMATION
#MNEM.UNIT          VALUE    DESCRIPTION
#----------   ------------   ------------------------------
 LMF .                 KB:   LOG MEASURED FROM
 DMF .                 KB:   DRILLING MEASURED FROM
 EKB .F              5191:   KELLING BUSHING
 EGL .F              5186:   GROUND LEVEL
 DATE.           7-1-1962:   RUN DATE
 RUN .                  1:   RUN NUMBER
 DD  .F               860:   DEPTH DRILLER
 DL  .F               861:   DEPTH LOGGER
 BLI .F               860:   BOTTOM LOG INTERVAL
 TLI .F                91:   TOP LOG INTERVAL
 CBD .F                10:   CASING BOTTOM DRILLER
 BS  .IN             6.75:   BIT SIZE
 BSD .F               860:   BIT SIZE AT DEPTH
 DFT .            GEL-OIL:   DRILLING FLUID TYPE
 DFD .               10.2:   DRILLING FLUID DENSITY
 DFV .                 45:   DRILLING FLUID VISCOSITY
 DFL .                  4:   DRILLING FLUID LOSS
 MSS .           FLOWLINE:   MUD SAMPLE SOURCE
 RMS .OHMM           5.54:   RESISTIVITY MUD SAMPLE
 MST .F                75:   MUD SAMPLE TEMPERATURE
 RMB .OHMM           5.19:   RESISTIVITY MUD AT BHT
 BHT .F                80:   BOTTOM HOLE TEMPERATURE
 TCS .HRS               1:   TIME CURCULATED STOPPED
 MRT .F                80:   MAXIMUM RECORDED TEMPERATURE
 LUN .               2503:   LOGGING UNIT NUMBER
 LUL .              CSPR.:   LOGGING UNIT LOCATION
 ENGI.             KNOBEL:   RECORDING ENGINEER
 WITN.          JORGENSEN:   WITNESSED BY
 CLNT.            A2DTECH:   CLIENT CODE
 ORIG.      2" & 5" PRINT:   ORIGIN OF DATA
 UWI .       490250637300:   UNIQUE WELL ID
 DICO. A2D Technologies, Inc.:   DIGITIZING COMPANY
~OTHER INFORMATION
~A   DEPT      ASN       CILD        ILD        SPR         GR   
# ...
  633.0000     3.1439   371.7328     3.4482   -22.9125    85.2321
  633.5000     3.8227   340.7720     3.7514   -23.3773    77.3383
  634.0000     4.2913   288.5628     4.1143   -23.9946    82.3429
  634.5000     4.5024   238.2920     4.5643   -24.6118    84.6161
  635.0000     4.7589   213.1071     4.8626   -24.9242    88.8619
  635.5000     5.0003   203.3264     5.0104   -25.3890    88.3920
  636.0000     5.3477   195.0585     5.1569   -25.7013    85.5804
  636.5000     5.6043   186.7906     5.2276   -25.8612    76.4281
  637.0000     5.6489   181.5484     5.2982   -26.0214    71.3985
  637.5000     5.6476   177.8191     5.3689   -26.1814    71.6990
  638.0000     5.7375   177.1023     5.2865   -26.1904    66.9919
  638.5000     5.8577   178.6812     5.2812   -26.3485    67.1406
  639.0000     5.9324   182.5162     5.2001   -26.2035    75.0286
  639.5000     5.9616   191.8849     5.1190   -26.2129    74.8739
  640.0000     5.9151   213.2059     4.8862   -25.9136    82.3064
  640.5000     5.4898   221.2658     4.6482   -25.3132    82.2559
  641.0000     5.2440   227.3701     4.3343   -24.8615    82.7728
  641.5000     5.1544   235.7436     4.0346   -24.5641    77.5928
  642.0000     5.2746   246.3865     3.8776   -24.5735    73.4926
  642.5000     5.0005   254.0036     3.7965   -24.5810    73.0344
  643.0000     4.8177   255.5693     3.7155   -24.5885    73.1832
  643.5000     5.1197   254.8657     3.8620   -24.5960    73.4836
  644.0000     5.2401   248.8671     4.0857   -24.6036    76.8198
  644.5000     5.1933   239.8428     4.3826   -24.4585    77.5748
  645.0000     5.2074   229.1268     4.7568   -24.4678    81.6696
  645.5000     5.4337   215.4325     5.2068   -24.3229    75.5963
  646.0000     5.7508   200.6802     5.5809   -23.7206    74.6828
  646.5000     5.9922   190.1430     5.8033   -23.1183    86.1155
  647.0000     6.2677   181.1187     6.1016   -22.5161    87.5863
  647.5000     6.4785   172.8508     6.2481   -22.5236    81.8054
  648.0000     6.7007   165.3393     6.4705   -23.5981    87.5687
  648.5000     6.9057   159.3407     6.5511   -24.8251    89.8818
  649.0000     7.0718   153.3421     6.6877   -25.5948    79.8234
  649.5000     7.1415   149.6128     6.7570   -26.2120    84.3728
  650.0000     7.1103   146.6399     6.7426   -26.6768    82.3704
  650.5000     7.0642   147.4498     6.5966   -27.2931    75.2593
  651.0000     7.0332   149.1175     6.5928   -27.1451    77.9812
  651.5000     7.0022   152.8631     6.5891   -27.3051    78.2791
  652.0000     6.9561   155.9416     6.5854   -27.9208    75.5401
  652.5000     6.8192   159.7766     6.5817   -28.3841    80.8411
  653.0000     6.6823   162.8552     6.5021   -27.9066    79.7714
  653.5000     6.5302   167.4466     6.4225   -26.4954    70.0528
  654.0000     6.4690   171.2816     6.2670   -25.0499    68.0507
  654.5000     6.4069   175.8730     6.1115   -24.2937    72.4656
  655.0000     6.3121   181.9772     5.8801   -23.9934    74.8860
  655.5000     6.1489   194.1330     5.5622   -24.0008    74.8785
  656.0000     6.0271   207.8892     4.8855   -24.1593    76.9953
  656.5000     5.7843   219.5909     4.5024   -24.7750    72.5872
  657.0000     5.4356   235.5358     4.1952   -25.3908    69.5448
  657.5000     5.0869   246.1541     4.0397   -25.8541    65.5918
  658.0000     4.7685   248.4532     3.9601   -26.1650    73.9290
  658.5000     4.8736   244.7320     4.0322   -26.3234    89.8547
  659.0000     5.2057   241.7441     4.2561   -26.1769    90.6059
  659.5000     5.0386   238.0230     4.4041   -25.1159    92.5710
  660.0000     5.1135   232.7802     4.7039   -25.2845    99.3939
  660.5000     5.4921   220.6020     5.0037   -25.7586    97.8689
  661.0000     5.9524   199.7262     5.3793   -26.0500    91.1001
  661.5000     6.2234   183.0751     5.7565   -25.9035    82.9822
  662.0000     6.3962   171.7900     6.1376   -25.1473    78.8756
  662.5000     6.5014   162.7708     6.3545   -24.8469    78.1094
  663.0000     6.6065   157.5280     6.4266   -25.0069    77.4948
  663.5000     6.6966   155.3064     6.4988   -25.0129    76.4734
  664.0000     6.7715   154.5843     6.5709   -25.0189    70.3432
  664.5000     6.8161   156.1502     6.6421   -24.5675    72.1683
  665.0000     6.8608   156.1945     6.6384   -23.3540    73.0702
  665.5000     6.9205   155.4834     6.6347   -22.4454    76.6083
  666.0000     6.9954   155.5287     6.7078   -22.2988    79.7737
  666.5000     7.0552   155.5830     6.7031   -22.3049    91.8591
  667.0000     7.1007   154.8609     6.6994   -22.4704    84.8503
  667.5000     7.1445   155.6715     6.7716   -22.9623    79.8031
  668.0000     7.1740   155.7157     6.7678   -24.6110    80.9367
  668.5000     7.1884   155.7600     6.7641   -25.0743    81.2067
  669.0000     7.1572   155.8042     6.7603   -24.9278    80.1370
  669.5000     7.1414   155.8485     6.6798   -24.3241    81.1917
  670.0000     7.0952   155.8927     6.6761   -24.0237    74.5054
  670.5000     7.0491   155.1817     6.6923   -24.9458    74.3462
  671.0000     6.9878   155.2266     6.7455   -25.5616    71.4580
  671.5000     6.9115   155.3901     6.6649   -26.1773    75.5475
  672.0000     6.9712   156.0808     6.5853   -26.3357    72.2004
  672.5000     7.0007   156.1250     6.5816   -26.1890    75.2352
  673.0000     7.0000   156.1693     6.4261   -26.1953    80.0754
  673.5000     6.9690   156.9688     6.3465   -26.0487    85.8342
  674.0000     6.9354   158.5236     6.2669   -25.9024    88.5599
  674.5000     6.8463   165.3654     6.1115   -25.7560    84.1502
  675.0000     6.6489   175.2284     5.7284   -25.7875    84.1427
  675.5000     6.3758   188.1125     5.3397   -26.3792    80.1888
  676.0000     5.8759   202.5469     5.0380   -26.8425    75.4790
  676.5000     5.6331   207.2705     4.8817   -27.1534    83.3603
  677.0000     5.8594   211.6703     4.8779   -26.7020    88.9693
  677.5000     5.6316   214.7357     4.9510   -26.2507    87.8976
  678.0000     5.2072   215.5352     5.0232   -26.1028    89.1059
  678.5000     5.4637   213.3136     5.0185   -26.8725    88.6413
  679.0000     5.9319   208.8261     4.9389   -27.4882    85.2953
  679.5000     6.0824   204.3386     4.9352   -27.9515    85.1360
  680.0000     6.0363   208.1593     4.8556   -28.2624    83.7628
  680.5000     5.8540   214.2458     4.8519   -28.2684    80.2651
  681.0000     5.5507   215.0502     4.8481   -27.6626    80.2576
  681.5000     5.3678   210.4909     4.8444   -26.5918    80.4036
  682.0000     5.4203   208.3474     4.9166   -25.9553    91.0164
  682.5000     5.6997   209.9022     4.9127   -25.2436    90.2501
  683.0000     5.4567   210.7017     4.9980   -24.7938    87.6953
  683.5000     5.3199   209.2354     5.2838   -24.1900    82.6465
  684.0000     5.5763   201.7268     5.5077   -23.4338    83.3977
  684.5000     6.1202   188.9311     5.8075   -22.5251    91.1291
  685.0000     6.3766   176.8908     6.0314   -21.9214    92.6390
  685.5000     6.5120   170.1375     6.1803   -21.7734   102.8003
  686.0000     6.5417   161.8736     6.3274   -22.6956    94.5973
  686.5000     6.5408   158.8967     6.3237   -25.4455    96.1072
  687.0000     6.5249   161.4398     6.3200   -27.1283   105.6596
  687.5000     6.5242   172.5914     6.1645   -30.0306   111.8755
  688.0000     6.4617   186.9861     5.7055   -27.7500   109.4381
  688.5000     6.3164   201.3808     5.1707   -25.1472    88.7926
  689.0000     5.7502   210.4885     4.8594   -23.4358    77.1026
  689.5000     5.4318   215.8197     4.6223   -21.9768    79.8246
  690.0000     5.3857   218.8851     4.3999   -22.1352    76.3288
  690.5000     5.5818   220.4399     4.3961   -23.6656    77.8368
  691.0000     5.2480   220.4842     4.4692   -24.5863    84.5079
  691.5000     5.3834   217.4532     4.7680   -23.6776    82.9829
  692.0000     6.0635   206.4370     4.9919   -22.9214    87.9830
  692.5000     6.1989   188.1507     5.3676   -24.4518    81.6003
  693.0000     6.4705   175.3550     6.0467   -24.6102    74.6124
  693.5000     6.8177   164.0700     6.5741   -24.6162    77.0328
