~VERSION INFORMATION
 VERS.                2.0:   CWLS LOG ASCII STANDARD - VERSION 2.0
 WRAP.                 NO:   ONE LINE PER DEPTH STEP
~WELL INFORMATION
#MNEM.UNIT      DATA TYPE    INFORMATION
#----------   ------------   ------------------------------
 STRT.F           70.0000:   START DEPTH
 STOP.F         1088.0000:   STOP DEPTH
 STEP.F            0.5000:   STEP LENGTH
 NULL.          -999.2500:   NO VALUE
 COMP. U S NAVY/INTEX OIL CO:   COMPANY
 WELL. RES 3 TEAPOT DOME #66S-11:   WELL
 FLD .             TEAPOT:   FIELD
 LOC .      S11 T38N R78W:   LOCATION
 CNTY.            NATRONA:   COUNTY
 STAT.            WYOMING:   STATE
 CTRY. UNITED STATES OF AMERICA:   COUNTRY
 SRVC.         Lane Wells:   SERVICE COMPANY
 DATE.        06-MAR-1960:   LOGDATE
 API .       490250633400:   API NUMBER
~CURVE INFORMATION
#MNEM.UNIT       API CODE    CURVE DESCRIPTION
#----------   ------------   ------------------------------
 DEPT.F                  :   
 SPR .MV     05 010 01 00:   SPONTANEOUS POTENTIAL FROM RES.
 ILD .OHMM   05 120 46 00:   INDUCTION LOG DEEP
 CILD.MMHO   05 110 00 00:   CONDUCTIVITY INDUCTION LOG
 ASN .OHMM   05 041 16 00:   AMPLIFIED SHORT NORMAL 16"
~PARAMETER INFORMATION
#MNEM.UNIT          VALUE    DESCRIPTION
#----------   ------------   ------------------------------
 PD  .                 GL:   PERMANENT DATUM
 EPD .F              5238:   ELEVATION PERMANENT DATUM
 LMF .                 KB:   LOG MEASURED FROM
 DAPD.F                 5:   FEET ABOVE PERMANENT DATUM
 DMF .                 KB:   DRILLING MEASURED FROM
 EKB .F              5243:   KELLING BUSHING
 EGL .F              5238:   GROUND LEVEL
 DATE.             3-6-60:   RUN DATE
 RUN .                  1:   RUN NUMBER
 DD  .F              1085:   DEPTH DRILLER
 DL  .F              1087:   DEPTH LOGGER
 BLI .F              1085:   BOTTOM LOG INTERVAL
 TLI .F                70:   TOP LOG INTERVAL
 CS  .IN            8.625:   CASING SIZE
 CBD .F                12:   CASING BOTTOM DRILLER
 BS  .IN            7.875:   BIT SIZE
 BSD .F              1085:   BIT SIZE AT DEPTH
 DFT .   GEL/OIL EMULSION:   DRILLING FLUID TYPE
 DFD .               10.3:   DRILLING FLUID DENSITY
 DFV .                 37:   DRILLING FLUID VISCOSITY
 DFPH.                8.5:   DRILLING FLUID PH
 DFL .                7.2:   DRILLING FLUID LOSS
 MSS .          FLOW LINE:   MUD SAMPLE SOURCE
 RMS .OHMM           1.65:   RESISTIVITY MUD SAMPLE
 MST .F                70:   MUD SAMPLE TEMPERATURE
 RMF .OHMM            1.2:   RESISTIVITY MUD FILTRATE SAMPLE
 MFST.F                68:   MUD FILTRATE SAMPLE TEMPERATURE
 RMC .OHMM            1.8:   RESISTIVITY MUD CAKE
 MCST.F                68:   MUD CAKE SAMPLE TEMPERATURE
 MFSS.              PRESS:   MUD FILTRATE SAMPLE SOURCE
 MCSS.              PRESS:   MUD CAKE SAMPLE SOURCE
 RMB .OHMM            1.5:   RESISTIVITY MUD AT BHT
 BHT .F                74:   BOTTOM HOLE TEMPERATURE
 MRT .F                74:   MAXIMUM RECORDED TEMPERATURE
 LUN .               4474:   LOGGING UNIT NUMBER
 LUL .             CASPER:   LOGGING UNIT LOCATION
 ENGI.      NELSON/GRIGGS:   RECORDING ENGINEER
 WITN.   JORGENSEN/HUDSON:   WITNESSED BY
 CLNT.            A2DTECH:   CLIENT CODE
 ORIG.       2", 5" PRINT:   ORIGIN OF DATA
 UWI .       490250633400:   UNIQUE WELL ID
 DICO. A2D Technologies, Inc.:   DIGITIZING COMPANY
~OTHER INFORMATION
~A   DEPT      SPR          ILD      CILD         ASN 
# ...
  435.0000   -39.1292     2.7298   384.2181     2.6188
  435.5000   -39.0158     2.5801   401.2817     2.5116
  436.0000   -38.9014     2.4898   418.1775     2.4384
  436.5000   -38.8004     2.4026   412.1206     2.4614
  437.0000   -38.9345     2.4933   400.4375     2.6335
  437.5000   -39.0752     2.7187   388.7544     2.8137
  438.0000   -39.2148     2.9711   372.0685     3.1719
  438.5000   -39.3541     3.2226   351.6091     3.5244
  439.0000   -39.4934     3.4743   331.1490     3.8612
  439.5000   -39.6328     3.7256   310.6725     4.0045
  440.0000   -39.7721     3.9649   290.2806     4.1560
  440.5000   -39.9114     4.0984   271.6547     4.3082
  441.0000   -40.0507     4.2363   262.6361     4.4604
  441.5000   -40.1904     4.3745   253.6176     4.6126
  442.0000   -40.3296     4.5048   244.5990     4.7645
  442.5000   -40.4418     4.6052   235.5805     4.9169
  443.0000   -40.2984     4.7056   228.8315     5.0826
  443.5000   -40.1130     4.8061   222.8717     5.3129
  444.0000   -39.9269     4.9067   216.9119     5.5386
  444.5000   -39.7410     5.0072   210.9521     5.7644
  445.0000   -39.5553     5.1077   204.9923     5.9913
  445.5000   -39.3695     5.2083   199.0325     6.0743
  446.0000   -39.1838     5.3088   194.7462     6.1301
  446.5000   -38.9977     5.4095   193.5164     6.1856
  447.0000   -38.8117     5.5095   192.2821     6.1657
  447.5000   -38.6200     5.5699   191.1279     6.1361
  448.0000   -38.5173     5.5248   190.0722     6.1063
  448.5000   -38.7397     5.4757   189.0124     6.0764
  449.0000   -38.9570     5.4264   187.9341     6.0479
  449.5000   -39.1759     5.3772   188.4314     6.0714
  450.0000   -39.3945     5.3281   188.9639     6.0979
  450.5000   -39.6130     5.2790   189.4924     6.1246
  451.0000   -39.8320     5.2297   190.0196     6.1159
  451.5000   -40.0510     5.2076   190.5471     6.0767
  452.0000   -40.2521     5.2221   191.0746     6.0371
  452.5000   -40.1415     5.2484   191.5563     5.9976
  453.0000   -39.9470     5.2747   191.5553     5.9580
  453.5000   -39.7522     5.3011   191.5553     5.9185
  454.0000   -39.5574     5.3274   191.5553     5.8784
  454.5000   -39.3628     5.3538   191.5573     5.8650
  455.0000   -39.1682     5.3798   191.5625     5.8749
  455.5000   -38.9736     5.4224   191.5422     5.9360
  456.0000   -38.7789     5.4710   190.1053     6.0485
  456.5000   -38.5839     5.5202   187.9755     6.1782
  457.0000   -38.3894     5.5693   185.8680     6.3095
  457.5000   -38.2370     5.6184   183.7595     6.4406
  458.0000   -38.4741     5.6675   181.6513     6.5552
  458.5000   -38.7657     5.7172   179.5431     6.6300
  459.0000   -38.9053     5.8090   177.4199     6.7039
  459.5000   -38.6499     5.8415   177.0552     6.7768
  460.0000   -38.4075     5.8417   177.0447     6.8256
  460.5000   -38.3741     5.8402   178.8645     6.8448
  461.0000   -38.7558     5.7801   182.0735     6.7885
  461.5000   -39.1375     5.6581   185.7629     6.6883
  462.0000   -38.9920     5.4948   189.7424     6.5890
  462.5000   -38.8039     5.3093   194.2748     6.4804
  463.0000   -38.9217     5.1252   199.1940     6.1092
  463.5000   -39.0633     4.9429   204.2462     5.7101
  464.0000   -39.2059     4.8363   218.0067     5.4259
  464.5000   -39.3260     4.5213   232.1494     5.0704
  465.0000   -38.9700     4.1904   245.9447     4.6426
  465.5000   -38.5956     3.8610   275.4093     4.2141
  466.0000   -38.2235     3.5319   304.3298     3.7854
  466.5000   -37.8508     3.2021   333.1931     3.3556
  467.0000   -37.4784     2.8723   362.0312     2.9265
  467.5000   -37.1393     2.5504   390.8757     2.5310
  468.0000   -37.1755     2.3933   414.4246     2.5077
  468.5000   -37.3918     2.4259   434.8011     2.5580
  469.0000   -37.6076     2.5164   440.5338     2.7592
  469.5000   -37.8228     2.7529   421.0442     2.9581
  470.0000   -38.0379     3.2214   394.9714     3.2285
  470.5000   -38.2530     3.6889   369.1455     4.4792
  471.0000   -38.4681     4.1560   324.6641     6.2007
  471.5000   -38.6832     4.6228   273.0124     6.7773
  472.0000   -38.8985     5.0898   228.0179     7.3538
  472.5000   -39.1165     5.5570   201.4542     7.9196
  473.0000   -39.2262     6.0254   174.8905     8.4856
  473.5000   -39.3121     6.3821   163.8349     9.0515
  474.0000   -39.3975     6.7101   156.4561     9.6202
  474.5000   -39.4837     6.9255   149.0449     9.7276
  475.0000   -39.5697     7.0183   146.2136     9.4490
  475.5000   -39.6517     6.9556   148.9990     8.7692
  476.0000   -39.5297     6.7087   157.1894     8.0953
  476.5000   -39.0800     6.4629   165.3880     7.4225
  477.0000   -38.6351     6.2166   173.5867     6.7502
  477.5000   -38.1885     5.9711   181.7854     6.0792
  478.0000   -37.7368     5.8407   187.9294     5.6984
  478.5000   -37.3397     5.8399   187.9294     5.7339
  479.0000   -37.3440     6.0247   186.1164     6.2742
  479.5000   -37.8001     6.3691   182.3726     6.8378
  480.0000   -38.2677     6.6947   180.6775     7.3973
  480.5000   -38.7326     7.0175   167.4065     7.9566
  481.0000   -39.1970     7.3399   154.7571     8.5174
  481.5000   -39.6614     7.6624   142.1077     9.0497
  482.0000   -40.1258     7.9849   134.2262     9.3593
  482.5000   -40.5901     8.3074   129.4016     9.6663
  483.0000   -41.0545     8.6299   124.5770     9.9818
  483.5000   -41.5192     8.9530   119.7524    10.3150
  484.0000   -41.9854     9.2767   114.9278    10.6543
  484.5000   -42.4481     9.5190   110.1032    10.9254
  485.0000   -42.7519     9.7248   105.9828    11.1341
  485.5000   -42.3951     9.9322   104.3431    11.3129
  486.0000   -42.0532    10.1438   102.7033    11.3957
  486.5000   -41.7120    10.2587   101.0636    11.4691
  487.0000   -41.3706    10.3512    99.4194    11.5444
  487.5000   -41.0356    10.4430    98.2526    11.5573
  488.0000   -40.8751    10.5353    97.1969    11.5534
  488.5000   -41.1307    10.6284    96.1435    11.7190
  489.0000   -41.3727    10.6671    95.0894    11.9131
  489.5000   -41.3775    10.7415    94.0353    12.1078
  490.0000   -40.9465    10.8150    92.9812    12.3020
  490.5000   -40.5191    10.8887    91.8416    12.4962
  491.0000   -40.0867    10.9624    91.5808    12.6904
  491.5000   -40.0760    11.0138    91.2970    12.8846
  492.0000   -40.5483    11.0365    91.0132    13.0787
  492.5000   -41.0550    11.0596    90.7294    13.2740
  493.0000   -41.5600    11.0825    90.4456    13.4258
  493.5000   -42.0642    11.1749    90.1618    13.5366
  494.0000   -42.5694    11.3329    89.3760    13.6470
  494.5000   -43.0759    11.4909    88.1461    13.7576
  495.0000   -43.5289    11.6489    86.9164    13.8663
  495.5000   -43.4108    11.8069    85.6865    14.0187
  496.0000   -43.2843    11.9643    84.5897    14.3144
  496.5000   -43.1159    12.1236    83.6796    14.6013
  497.0000   -42.6746    12.2133    82.2038    14.8863
  497.5000   -42.2172    12.4607    80.7281    15.1724
  498.0000   -42.3829    12.7069    79.2523    15.4595
  498.5000   -42.8211    12.9445    77.7765    15.8370
  499.0000   -43.2682    13.3107    76.6416    16.2600
  499.5000   -43.7164    13.7549    73.3467    16.6742
  500.0000   -44.1744    14.2046    70.0519    17.5703
  500.5000   -44.1724    14.7776    66.7570    20.1146
  501.0000   -43.7263    15.8490    63.4622    22.6189
  501.5000   -43.2924    16.8814    60.1673    25.3844
  502.0000   -42.8592    17.9295    56.8724    28.2289
  502.5000   -42.4265    18.9626    53.5752    31.0719
  503.0000   -42.0015    20.0007    50.2777    33.9346
  503.5000   -41.8315    21.0288    46.9695    36.1262
  504.0000   -41.9890    21.6257    46.5172    36.7634
  504.5000   -41.7160    20.6082    48.3427    32.0877
  505.0000   -41.4472    19.3648    53.1555    28.6650
  505.5000   -41.1855    18.1159    57.9682    25.7289
  506.0000   -41.9244    16.8709    62.7810    22.8459
  506.5000   -42.7627    15.6265    67.5937    19.8068
  507.0000   -43.6041    14.3787    72.4241    18.9366
  507.5000   -44.4298    13.4171    77.3224    18.0165
