~VERSION INFORMATION
 VERS.                2.0:   CWLS LOG ASCII STANDARD - VERSION 2.0
 WRAP.                 NO:   ONE LINE PER DEPTH STEP
~WELL INFORMATION
#MNEM.UNIT      DATA TYPE    INFORMATION
#----------   ------------   ------------------------------
 STRT.F           40.0000:   START DEPTH
 STOP.F          490.0000:   STOP DEPTH
 STEP.F            0.5000:   STEP LENGTH
 NULL.          -999.2500:   NO VALUE
 COMP.    FENIX & SCISSON:   COMPANY
 WELL. RES 3 TEAPOT DOM #76-10:   WELL
 FLD .        TEAPOT DOME:   FIELD
 LOC .      S10 T38N R78W:   LOCATION
 CNTY.            NATRONA:   COUNTY
 STAT.            WYOMING:   STATE
 CTRY. UNITED STATES OF AMERICA:   COUNTRY
 SRVC.           BIRDWELL:   SERVICE COMPANY
 DATE.        19-JUN-1978:   LOGDATE
 API .       490251065100:   API NUMBER
~CURVE INFORMATION
#MNEM.UNIT       API CODE    CURVE DESCRIPTION
#----------   ------------   ------------------------------
 DEPT.F                  :   
 CALD.IN     45 280 60 00:   CALIPER FROM DENSITY LOG
 CORR.G/C3   45 356 01 00:   DENSITY CORRECTION
 DPHI.DEC    45 890 12 00:   DENSITY POROSITY SANDSTONE
 GRD .GAPI   45 310 01 00:   GAMMA RAY FROM DENSITY LOG
 RHOB.G/C3   45 350 01 00:   BULK DENSITY
 ILD .OHMM   05 120 46 00:   INDUCTION LOG DEEP
 SN  .OHMM   05 040 16 00:   SHORT NORMAL 16"
 SPR .MV     05 010 01 00:   SPONTANEOUS POTENTIAL FROM RES.
~PARAMETER INFORMATION
#MNEM.UNIT          VALUE    DESCRIPTION
#----------   ------------   ------------------------------
 PD  .                 GL:   PERMANENT DATUM
 EPD .F              5185:   ELEVATION PERMANENT DATUM
 LMF .                 KB:   LOG MEASURED FROM
 DAPD.F                 4:   FEET ABOVE PERMANENT DATUM
 DMF .                 KB:   DRILLING MEASURED FROM
 EKB .F              5189:   KELLING BUSHING
 EGL .F              5185:   GROUND LEVEL
 DATE.        19-JUN-1978:   RUN DATE
 RUN .                  1:   RUN NUMBER
 DD  .F               485:   DEPTH DRILLER
 DL  .F               490:   DEPTH LOGGER
 BLI .F               490:   BOTTOM LOG INTERVAL
 TLI .F                50:   TOP LOG INTERVAL
 CS  .IN            8.625:   CASING SIZE
 CBD .F                30:   CASING BOTTOM DRILLER
 CBL .F                30:   CASING BOTTOM LOGGER
 BS  .IN            7.875:   BIT SIZE
 BSD .F               485:   BIT SIZE AT DEPTH
 DFT .                KCL:   DRILLING FLUID TYPE
 DFD .                8.7:   DRILLING FLUID DENSITY
 DFV .                 34:   DRILLING FLUID VISCOSITY
 DFPH.               10.5:   DRILLING FLUID PH
 MSS .           FLOWLINE:   MUD SAMPLE SOURCE
 RMS .OHMM           0.24:   RESISTIVITY MUD SAMPLE
 MST .F                70:   MUD SAMPLE TEMPERATURE
 RMF .OHMM           0.24:   RESISTIVITY MUD FILTRATE SAMPLE
 MFST.F                72:   MUD FILTRATE SAMPLE TEMPERATURE
 RMC .OHMM           0.28:   RESISTIVITY MUD CAKE
 MCST.F                78:   MUD CAKE SAMPLE TEMPERATURE
 MFSS.               MEAS:   MUD FILTRATE SAMPLE SOURCE
 MCSS.               MEAS:   MUD CAKE SAMPLE SOURCE
 RMB .OHMM           0.27:   RESISTIVITY MUD AT BHT
 BHT .F                74:   BOTTOM HOLE TEMPERATURE
 TCS .HRS               1:   TIME CURCULATED STOPPED
 MRT .F                74:   MAXIMUM RECORDED TEMPERATURE
 LUN .               2958:   LOGGING UNIT NUMBER
 LUL .               CASP:   LOGGING UNIT LOCATION
 ENGI.           REYNOLDS:   RECORDING ENGINEER
 WITN.           MCGINLEY:   WITNESSED BY
 CLNT.            A2DTECH:   CLIENT CODE
 ORIG.           5" PRINT:   ORIGIN OF DATA
 UWI .       490251065100:   UNIQUE WELL ID
 DICO. A2D Technologies, Inc.:   DIGITIZING COMPANY
~OTHER INFORMATION
~A   DEPT     CALD       CORR       DPHI        GRD       RHOB        ILD         SN        SPR   
# ...
  323.5000     7.3581     0.0035     0.1761    92.2500     2.3665    13.0965    15.0141   -33.4965
  324.0000     7.3388     0.0066     0.1770    92.5547     2.3658    13.0939    14.9107   -33.5008
  324.5000     7.3088     0.0096     0.1779    93.1600     2.3643    13.1286    14.7582   -33.6566
  325.0000     7.2789     0.0097     0.1805    92.5604     2.3613    13.1793    14.6512   -33.6618
  325.5000     7.2789     0.0098     0.1863    90.5527     2.3606    13.2760    14.6048   -33.8175
  326.0000     7.2939     0.0054     0.1871    88.3498     2.3621    13.3570    14.5042   -33.7354
  326.5000     7.2994     0.0025     0.1844    87.5989     2.3606    13.3537    14.5042   -33.6747
  327.0000     7.3088     0.0011     0.1820    89.1085     2.3584    13.3510    14.5508   -33.6792
  327.5000     7.3238    -0.0003     0.1858    88.8108     2.3561    13.2567    14.6048   -33.5325
  328.0000     7.3088    -0.0002     0.1891    87.0064     2.3539    13.2048    14.6048   -33.6889
  328.5000     7.2938     0.0014     0.1903    87.9128     2.3532    13.1485    14.6048   -33.6933
  329.0000     7.2789     0.0037     0.1915    88.5181     2.3517    13.0671    14.5483   -33.8489
  329.5000     7.2939     0.0061     0.1927    88.2203     2.3517    12.9744    14.5042   -34.0065
  330.0000     7.2939     0.0061     0.1939    87.9212     2.3532    12.9718    14.5042   -34.3125
  330.5000     7.3088     0.0077     0.1926    88.9790     2.3577    12.7917    14.5042   -34.3169
  331.0000     7.3088     0.0108     0.1854    91.8439     2.3690    12.7258    14.3822   -34.1688
  331.5000     7.3238     0.0109     0.1782    94.2564     2.3720    12.6109    14.2843   -34.4768
  332.0000     7.3388     0.0110     0.1769    94.8616     2.3698    12.6087    14.2067   -34.9350
  332.5000     7.3538     0.0111     0.1808    94.4126     2.3675    12.5758    14.1409   -35.0908
  333.0000     7.3388     0.0067     0.1817    94.0869     2.3691    12.4308    14.1089   -35.0960
  333.5000     7.3088     0.0053     0.1808    93.8158     2.3728    12.4232    14.1089   -35.1004
  334.0000     7.3088     0.0039     0.1805    94.5723     2.3743    12.2552    14.1089   -35.2560
  334.5000     7.3088     0.0010     0.1804    96.5337     2.3728    12.0850    14.1089   -35.1089
  335.0000     7.3238     0.0011     0.1768    97.5907     2.3669    11.9996    14.1089   -35.1135
  335.5000     7.3173     0.0002     0.1801    96.6899     2.3639    11.9148    14.0117   -35.1188
  336.0000     7.3088     0.0012     0.1864    93.0582     2.3669    11.8306    14.0117   -35.1225
  336.5000     7.2939     0.0013     0.1846    91.5758     2.3692    11.8281    13.9623   -35.1271
  337.0000     7.2789     0.0014     0.1827    90.5244     2.3699    11.8253    13.8194   -35.1318
  337.5000     7.2789     0.0030     0.1812    89.6235     2.3692    11.8229    13.7243   -35.1362
  338.0000     7.2823     0.0061     0.1800    91.1331     2.3700    11.7394    13.6762   -35.2929
  338.5000     7.3088     0.0093     0.1794    92.7925     2.3700    11.7371    13.5359   -35.4485
  339.0000     7.3240     0.0137     0.1803    92.9452     2.3715    11.7347    13.4331   -35.6041
  339.5000     7.3538     0.0123     0.1808    92.3464     2.3722    11.7319    13.3501   -35.7597
  340.0000     7.3688     0.0124     0.1811    92.6511     2.3753    11.7295    13.3501   -36.0666
  340.5000     7.3838     0.0110     0.1784    92.9551     2.3790    11.7272    13.3501   -36.2224
  341.0000     7.3538     0.0111     0.1778    93.1085     2.3790    11.6443    13.3501   -36.2277
  341.5000     7.3088     0.0127     0.1780    93.2626     2.3783    11.6045    13.3501   -36.2320
  342.0000     7.2789     0.0143     0.1777    92.8136     2.3784    11.5597    13.3501   -36.3876
  342.5000     7.2489     0.0144     0.1765    90.8586     2.3821    11.5569    13.3501   -36.3920
  343.0000     7.2639     0.0129     0.1747    89.1998     2.3881    11.3964    13.3039   -36.3964
  343.5000     7.2834     0.0086     0.1728    92.2204     2.3911    11.3943    13.2582   -36.4009
  344.0000     7.3088     0.0086     0.1677    93.4273     2.3874    11.3136    13.2582   -36.4061
  344.5000     7.2789     0.0087     0.1686    92.2260     2.3836    11.3114    13.2582   -36.5617
  345.0000     7.2639     0.0088     0.1740    91.4758     2.3822    11.2309    13.1669   -36.8686
  345.5000     7.2489     0.0089     0.1776    92.9853     2.3831    11.2287    13.0763   -37.0242
  346.0000     7.2795     0.0105     0.1751    91.9339     2.3874    11.1282    12.9862   -37.4835
  346.5000     7.3388     0.0121     0.1715    91.3343     2.3892    10.9189    12.8968   -37.6391
  347.0000     7.3388     0.0122     0.1703    92.3921     2.3905    10.7673    12.7198   -37.6435
  347.5000     7.2939     0.0088     0.1706    92.6961     2.4017    10.6104    12.6322   -37.7991
  348.0000     7.2489     0.0118     0.1666    92.6989     2.4152    10.3264    12.6322   -37.8034
  348.5000     7.2339     0.0119     0.1597    93.0036     2.4182    10.2534    12.4589   -37.6565
  349.0000     7.2489     0.0119     0.1557    93.3076     2.4183    10.1110    12.3731   -37.6619
  349.5000     7.2789     0.0119     0.1543    93.7622     2.4175    10.0396    12.2879   -37.6662
  350.0000     7.3238     0.0120     0.1500    94.5181     2.4168    10.0109    12.2393   -37.5182
  350.5000     7.3365     0.0135     0.1524    97.5336     2.4180     9.8976    11.9529   -37.6702
  351.0000     7.3327     0.0120     0.1536    97.8377     2.4191     9.7673    12.0358   -37.5189
  351.5000     7.3289     0.0091     0.1449    97.8405     2.4243     9.7689    12.0358   -37.6702
  352.0000     7.3246     0.0076     0.1430    97.6727     2.4251     9.7027    12.0358   -38.1241
  352.5000     7.3118     0.0107     0.1461    92.7263     2.4206     9.5711    12.0358   -38.2753
  353.0000     7.2975     0.0122     0.1499    91.9754     2.4191     9.5068    11.9529   -38.2753
  353.5000     7.2981     0.0122     0.1514    93.1837     2.4221     9.3782    11.9529   -38.4266
  354.0000     7.2987     0.0108     0.1499    90.6270     2.4222     9.2509    11.6991   -38.5779
  354.5000     7.2915     0.0078     0.1480    88.5214     2.4222     9.2521    11.6123   -38.5779
  355.0000     7.3000     0.0034     0.1465    87.1688     2.4213     9.1898    11.5470   -38.5779
  355.5000     7.3005     0.0034     0.1453    87.9951     2.4200     9.1693    11.5470   -38.5779
  356.0000     7.3209     0.0034     0.1510    91.5426     2.4192     9.1087    11.5407   -38.5779
  356.5000     7.3317     0.0050     0.1522    95.4805     2.4170     9.0054    11.4675   -38.4259
  357.0000     7.3322     0.0035     0.1521    96.3885     2.4170     9.0066    11.3886   -38.2753
  357.5000     7.3117     0.0036     0.1524    96.9963     2.4208     9.0080    11.3886   -38.2753
  358.0000     7.2885     0.0006     0.1517    97.3018     2.4290     9.0091    11.3101   -38.2753
  358.5000     7.2844    -0.0009     0.1449    96.2519     2.4313     9.0727    11.3101   -38.2753
  359.0000     7.2747    -0.0008     0.1436    93.8465     2.4314     9.0741    11.3101   -38.2753
  359.5000     7.2753     0.0007     0.1433    91.8825     2.4328     9.0129    11.3101   -38.2753
  360.0000     7.2760     0.0037     0.1424    94.6092     2.4358     9.0613    11.3101   -38.2753
  360.5000     7.2765     0.0068     0.1417    99.7329     2.4373     9.1435    11.3101   -38.2753
  361.0000     7.2727     0.0083     0.1413    94.0154     2.4396     9.2689    11.3101   -38.2753
  361.5000     7.2626     0.0128     0.1407    92.1904     2.4405     9.2700    11.3608   -38.2753
  362.0000     7.2483     0.0129     0.1403    96.4658     2.4434     9.3354    11.3886   -38.2753
  362.5000     7.2489     0.0114     0.1394    97.6428     2.4449     9.3367    11.3101   -38.2753
  363.0000     7.2496     0.0085     0.1349    95.8410     2.4464     9.3626    11.3101   -38.2514
  363.5000     7.2501     0.0070     0.1313    95.2418     2.4487     9.4690    11.3101   -38.1241
