~VERSION INFORMATION
 VERS.                2.0:   CWLS LOG ASCII STANDARD - VERSION 2.0
 WRAP.                 NO:   ONE LINE PER DEPTH STEP
~WELL INFORMATION
#MNEM.UNIT      DATA TYPE    INFORMATION
#----------   ------------   ------------------------------
 STRT.F           32.0000:   START DEPTH
 STOP.F          551.0000:   STOP DEPTH
 STEP.F            0.5000:   STEP LENGTH
 NULL.          -999.2500:   NO VALUE
 COMP.    FENIX & SCISSON:   COMPANY
 WELL.   NPR ##3 84-SX-10:   WELL
 FLD .              NPR 3:   FIELD
 LOC .      S10 T38N R78W:   LOCATION
 CNTY.            NATRONA:   COUNTY
 STAT.            WYOMING:   STATE
 CTRY. UNITED STATES OF AMERICA:   COUNTRY
 SRVC.              Welex:   SERVICE COMPANY
 DATE.        25-JAN-1978:   LOGDATE
 API .       490251033700:   API NUMBER
~CURVE INFORMATION
#MNEM.UNIT       API CODE    CURVE DESCRIPTION
#----------   ------------   ------------------------------
 DEPT.F                  :   
 SPR .MV     07 010 01 00:   SPONTANEOUS POTENTIAL FROM RES.
 ILD .OHMM   07 120 46 00:   INDUCTION LOG DEEP
 ILM .OHMM   07 120 44 00:   INDUCTION LOG MEDIUM
 SGRD.OHMM   07 220 05 00:   SHALLOW GUARD RESISTIVITY
 CALD.IN     45 280 60 00:   CALIPER FROM DENSITY LOG
 GRD .GAPI   45 310 01 00:   GAMMA RAY FROM DENSITY LOG
 CORR.G/C3   45 356 01 00:   DENSITY CORRECTION
 RHOB.G/C3   45 350 01 00:   BULK DENSITY
 DPHI.DEC    45 890 12 00:   DENSITY POROSITY SANDSTONE
~PARAMETER INFORMATION
#MNEM.UNIT          VALUE    DESCRIPTION
#----------   ------------   ------------------------------
 CLNT.            A2DTECH:   CLIENT CODE
 ORIG.           5" PRINT:   ORIGIN OF DATA
 UWI .       490251033700:   UNIQUE WELL ID
 DICO. A2D Technologies, Inc.:   DIGITIZING COMPANY
~OTHER INFORMATION
~A   DEPT      SPR        ILD        ILM       SGRD         CALD      GRD       CORR       RHOB       DPHI   
   32.0000  -999.2500  -999.2500  -999.2500  -999.2500     8.6791   110.7687  -999.2500  -999.2500  -999.2500
   32.5000  -999.2500  -999.2500  -999.2500  -999.2500     8.6635   112.1323  -999.2500  -999.2500  -999.2500
   33.0000  -999.2500  -999.2500  -999.2500  -999.2500     8.6479   114.0881  -999.2500  -999.2500  -999.2500
   33.5000  -999.2500  -999.2500  -999.2500  -999.2500     8.6473   113.6121  -999.2500  -999.2500  -999.2500
   34.0000  -999.2500  -999.2500  -999.2500  -999.2500     8.6619   111.9575  -999.2500  -999.2500  -999.2500
   34.5000  -999.2500  -999.2500  -999.2500  -999.2500     8.6612   110.4531  -999.2500  -999.2500  -999.2500
   35.0000  -999.2500  -999.2500  -999.2500  -999.2500     8.6606   110.6003    -0.0689  -999.2500  -999.2500
   35.5000  -999.2500  -999.2500  -999.2500  -999.2500     8.6600   112.0989    -0.0763  -999.2500  -999.2500
   36.0000  -999.2500  -999.2500  -999.2500  -999.2500     8.6746   113.2972     0.0943  -999.2500  -999.2500
   36.5000  -999.2500  -999.2500  -999.2500  -999.2500     8.6890   114.7958     0.1662  -999.2500  -999.2500
   37.0000  -999.2500  -999.2500  -999.2500  -999.2500     8.7033   116.0180     0.1407  -999.2500  -999.2500
   37.5000  -999.2500  -999.2500  -999.2500  -999.2500     8.7326   117.3674     0.0838     1.8746  -999.2500
   38.0000  -999.2500  -999.2500  -999.2500  -999.2500     8.7620   118.3899     0.0629     1.9243  -999.2500
   38.5000  -999.2500  -999.2500  -999.2500  -999.2500     8.8065   118.9875     0.0494     1.9618  -999.2500
   39.0000  -999.2500  -999.2500  -999.2500  -999.2500     8.8510   118.9846     0.0494     1.9858  -999.2500
   39.5000  -999.2500  -999.2500  -999.2500  -999.2500     8.8806   118.2309     0.0494     1.9942  -999.2500
   40.0000  -999.2500  -999.2500  -999.2500  -999.2500     8.9399   116.8767     0.0464     2.0000  -999.2500
   40.5000  -999.2500     2.9025     2.8618  -999.2500     8.9392   115.6726     0.0494     2.0075  -999.2500
   41.0000  -999.2500     2.7914     2.7949  -999.2500     8.9386   114.0180     0.0524     2.0195  -999.2500
   41.5000  -999.2500     2.6957     2.7365  -999.2500     8.8779   112.7918     0.0584     2.0286  -999.2500
   42.0000  -999.2500     2.6397     2.6980  -999.2500     8.8173   111.7592     0.0569     2.0337  -999.2500
   42.5000  -999.2500     2.5848     2.6417  -999.2500     8.7416   111.9071     0.0554     2.0374  -999.2500
   43.0000  -999.2500     2.5310     2.5688  -999.2500     8.7260   112.6542     0.0524     2.0433  -999.2500
   43.5000  -999.2500     2.4782     2.5152  -999.2500     8.7255   114.4531     0.0494     2.0486  -999.2500
   44.0000  -999.2500     2.4100     2.4970  -999.2500     8.7849   115.5012     0.0434     2.0365  -999.2500
   44.5000  -999.2500     2.3436     2.4618  -999.2500     8.8444   116.2498     0.0344     2.0279  -999.2500
   45.0000  -999.2500     2.2948     2.4610  -999.2500     8.9037   113.6936     0.0464     2.0255  -999.2500
   45.5000  -999.2500     2.3263     2.4264  -999.2500     8.9333   110.8378     0.0554     2.0225  -999.2500
   46.0000  -999.2500     2.4253     2.4089  -999.2500     8.9626   107.4478     0.0715     2.0130  -999.2500
   46.5000  -999.2500     2.5440     2.3751  -999.2500     8.9620   101.9724     0.0921     1.9637  -999.2500
   47.0000  -999.2500     2.6150     2.3580  -999.2500     8.9615    97.6151     0.1060     1.9396  -999.2500
   47.5000  -999.2500     2.6693     2.3571  -999.2500     8.9459    93.7083     0.1163     1.9112  -999.2500
   48.0000  -999.2500     2.5599     2.3401  -999.2500     8.9002    87.6994     0.1237     1.8620  -999.2500
   48.5000  -999.2500     2.4894     2.3394  -999.2500     8.8246    83.7925     0.1251     1.8259  -999.2500
   49.0000  -999.2500     2.4375     2.3386  -999.2500     8.6286    79.2851     0.1219     1.8010  -999.2500
   49.5000  -999.2500     2.3539     2.3542  -999.2500     8.2677    71.4744     0.1157     1.8085  -999.2500
   50.0000  -999.2500     2.3534     2.3535  -999.2500     7.3062    71.7718     0.0971     1.8475  -999.2500
   50.5000  -999.2500     2.4022     2.3882  -999.2500     7.3656    92.4960     0.0721     1.8887  -999.2500
   51.0000  -999.2500     2.5035     2.5031  -999.2500     7.6053   118.0115     0.0435     1.9780  -999.2500
   51.5000  -999.2500     2.6091     2.6266  -999.2500     8.2654   122.8141     0.0195     2.0001  -999.2500
   52.0000  -999.2500     2.7380     2.7754  -999.2500     9.2107    77.4658     0.0420     2.0008  -999.2500
   52.5000  -999.2500     2.9226     2.9735  -999.2500    10.7117    92.3270     0.0526     2.0361  -999.2500
   53.0000  -999.2500     3.1431     3.1419  -999.2500    10.0654   103.8857     0.0480     2.1304  -999.2500
   53.5000  -999.2500     3.3444     3.2997    83.3043     8.8635   108.3872     0.0526     2.2182  -999.2500
   54.0000  -999.2500     3.5834     3.4118   157.6383     8.8028   111.9879     0.0556     2.2494  -999.2500
   54.5000  -999.2500     3.7866     3.4347   419.0315     8.8023   115.1471     0.0616     2.2652     0.2337
   55.0000  -999.2500     3.9463     3.4816   783.3138     8.7867   117.7677     0.0661     2.2832     0.2242
   55.5000  -999.2500     4.0880     3.5536   832.1693     8.7260   120.3868     0.0721     2.3043     0.2089
   56.0000  -999.2500     4.1691     3.6520   843.5161     8.6504   121.4350     0.0736     2.3291     0.1981
   56.5000  -999.2500     4.0540     3.7555   910.1480     8.5897   123.3840     0.0721     2.3606     0.1873
   57.0000  -999.2500     4.0530     3.9657  1016.6954     8.5441   125.0327     0.0631     2.3707     0.1771
   57.5000  -999.2500     4.0804     4.1327  1120.0713     8.5285   126.0809     0.0586     2.3794     0.1690
   58.0000  -999.2500     4.1361     4.2475  1051.6268     8.5728   127.5794     0.0601     2.3869     0.1629
   58.5000  -999.2500     4.2841     4.3654  1044.4734     8.6323   128.6276     0.0661     2.3981     0.1558
   59.0000  -999.2500     4.4303     4.4557  1103.7010     8.6767   129.3754     0.0736     2.4139     0.1377
   59.5000  -999.2500     4.5537     4.5807  1065.8038     8.6762   130.2963     0.0781     2.4304     0.1242
   60.0000  -999.2500     4.6481     4.7063   595.0471     8.6005   131.0212     0.0766     2.4546     0.1178
   60.5000  -999.2500     4.7121     4.8370   287.1920     8.5098   131.6182     0.0661     2.4604     0.1161
   61.0000  -999.2500     4.8096     4.9370   107.0543     8.4492   129.9636     0.0619     2.4559     0.1194
   61.5000  -999.2500     4.9435     5.0391    66.4358     8.4036   128.7595     0.0550     2.4499     0.1224
   62.0000  -999.2500     5.1162     5.1791    99.3022     8.3578   129.9577     0.0458     2.4453     0.1259
   62.5000  -999.2500     5.2951     5.2862   992.7616     8.3122   131.3062     0.0398     2.4438     0.1293
   63.0000  -999.2500     5.4426     5.4014   348.2666     8.3116   132.6546     0.0428     2.4535     0.1252
   63.5000  -999.2500     5.6330     5.5834    85.1828     8.2960   130.5135     0.0412     2.4657     0.1194
   64.0000  -999.2500     5.8706     5.7385    39.1898     8.2954   129.7959     0.0427     2.4663     0.1122
   64.5000  -999.2500     6.0789     5.8983    15.4572     8.2798   131.7442     0.0517     2.4775     0.1075
   65.0000  -999.2500     6.3318     6.1038    10.0524     8.2792   132.3426     0.0577     2.4948     0.0996
   65.5000  -999.2500     6.5081     6.3169     8.3336     8.2786   129.4861     0.0591     2.5083     0.0921
   66.0000  -999.2500     6.6893     6.5484     7.9366     8.2931   126.4802     0.0591     2.5128     0.0873
   66.5000  -999.2500     6.8755     6.7652     8.1013     8.2923   125.1259     0.0576     2.5105     0.0879
   67.0000  -999.2500     7.0670     7.0014     8.4499     8.2917   124.8227     0.0545     2.5105     0.0882
   67.5000  -999.2500     7.2662     7.1959     8.8605     8.3063   124.5195     0.0530     2.5105     0.0888
   68.0000  -999.2500     7.5174     7.4471     9.2345     8.3056   122.5406     0.0545     2.5135     0.0881
