~VERSION INFORMATION
 VERS.                2.0:   CWLS LOG ASCII STANDARD - VERSION 2.0
 WRAP.                 NO:   ONE LINE PER DEPTH STEP
~WELL INFORMATION
#MNEM.UNIT      DATA TYPE    INFORMATION
#----------   ------------   ------------------------------
 STRT.F            0.0000:   START DEPTH
 STOP.F         3315.0000:   STOP DEPTH
 STEP.F            0.5000:   STEP LENGTH
 NULL.          -999.2500:   NO VALUE
 COMP. LAWRENCE/ALLISON INC     84-AX-:   COMPANY
 WELL.          SHX3 #1-3:   WELL
 FLD .            WILDCAT:   FIELD
 LOC .       S3 T38N R78W:   LOCATION
 CNTY.            NATRONA:   COUNTY
 STAT.            WYOMING:   STATE
 CTRY. UNITED STATES OF AMERICA:   COUNTRY
 SRVC.      Dresser Atlas:   SERVICE COMPANY
 DATE.        20-JAN-1986:   LOGDATE
 API .       490251104200:   API NUMBER
~CURVE INFORMATION
#MNEM.UNIT       API CODE    CURVE DESCRIPTION
#----------   ------------   ------------------------------
 DEPT.F                  :   
 SPR .MV     07 010 01 00:   SPONTANEOUS POTENTIAL
 RILD.OHMM   07 120 46 00:   INDUCTION LOG DEEP RESISTIVITY
 RILM.OHMM   07 120 44 00:   INDUCTION LOG MEDIUM RESISTIVITY
 RFOC.OHMM   07 220 04 00:   RESISTIVITY FOCUSED LOG
 AC  .US/F   60 520 00 00:   ACCOUSTIC
 CALD.IN     45 280 60 00:   CALIPER FROM DENSITY
 CORR.G/C3   45 356 01 00:   DENSITY CORRECTION
 DEN .G/C3   45 350 01 00:   COMPENSATED BULK DENSTIY
 PORD.DEC    45 890 12 00:   POROSITY DENSITY SANDSTONE
 CNC .DEC    42 890 03 00:   NEUTRON POROSITY SANDSTONE
 GRR .GAPI   07 310 01 00:   GAMMA RAY
~PARAMETER INFORMATION
#MNEM.UNIT          VALUE    DESCRIPTION
#----------   ------------   ------------------------------
 PD  .                 GL:   PERMANENT DATUM
 EPD .F              5136:   ELEVATION PERMANENT DATUM
 LMF .                 KB:   LOG MEASURED FROM
 DAPD.F                11:   FEET ABOVE PERMANENT DATUM
 DMF .                 KB:   DRILLING MEASURED FROM
 EKB .F              5147:   KELLING BUSHING
 EGL .F              5136:   GROUND LEVEL
 DATE.        26-JAN-1986:   RUN DATE
 RUN .                  1:   RUN NUMBER
 DD  .F              3320:   DEPTH DRILLER
 DL  .F              3317:   DEPTH LOGGER
 BLI .F              3315:   BOTTOM LOG INTERVAL
 CS  .IN            8.625:   CASING SIZE
 CBD .F               550:   CASING BOTTOM DRILLER
 CBL .F               592:   CASING BOTTOM LOGGER
 BS  .IN            7.875:   BIT SIZE
 BSD .F              3320:   BIT SIZE AT DEPTH
 DFT .        POLYMER KCL:   DRILLING FLUID TYPE
 DFD .                9.1:   DRILLING FLUID DENSITY
 DFV .                 38:   DRILLING FLUID VISCOSITY
 DFPH.                 10:   DRILLING FLUID PH
 DFL .                8.5:   DRILLING FLUID LOSS
 MSS .           FLOWLINE:   MUD SAMPLE SOURCE
 RMS .OHMM           .435:   RESISTIVITY MUD SAMPLE
 MST .F                72:   MUD SAMPLE TEMPERATURE
 RMF .OHMM           .352:   RESISTIVITY MUD FILTRATE SAMPLE
 MFST.F                72:   MUD FILTRATE SAMPLE TEMPERATURE
 RMC .OHMM            .54:   RESISTIVITY MUD CAKE
 MCST.F                72:   MUD CAKE SAMPLE TEMPERATURE
 MFSS.               MEAS:   MUD FILTRATE SAMPLE SOURCE
 MCSS.               MEAS:   MUD CAKE SAMPLE SOURCE
 RMB .OHMM            .29:   RESISTIVITY MUD AT BHT
 BHT .F               108:   BOTTOM HOLE TEMPERATURE
 TCS .HRS               3:   TIME CURCULATED STOPPED
 MRT .F               108:   MAXIMUM RECORDED TEMPERATURE
 LUN .               6274:   LOGGING UNIT NUMBER
 LUL .               GLTE:   LOGGING UNIT LOCATION
 ENGI.             RAUTIO:   RECORDING ENGINEER
 WITN.             STRONG:   WITNESSED BY
 CLNT.            A2DTECH:   CLIENT CODE
 ORIG.       2", 5" PRINT:   ORIGIN OF DATA
 UWI .       490251104200:   UNIQUE WELL ID
 DICO. A2D Technologies, Inc.:   DIGITIZING COMPANY
~OTHER INFORMATION
~A    DEPT     SPR       RILD       RILM       RFOC         AC       CALD       CORR        DEN       PORD        CNC        GRR   
# ...
 2684.0000   -29.4946    14.3551    12.9323    16.4336    74.7429     8.6057     0.0152     2.3646     0.1692     0.1988    38.3839
 2684.5000   -29.3388    14.2598    13.1139    13.9147    75.5745     8.6045     0.0227     2.3721     0.1706     0.2006    39.7530
 2685.0000   -29.9395    13.9698    13.2062    12.5407    77.5339     8.6188     0.0332     2.3871     0.1661     0.2021    41.5745
 2685.5000   -30.6965    13.6784    13.2071    11.8647    78.6662     8.6175     0.0452     2.4021     0.1574     0.2196    43.2447
 2686.0000   -31.3021    13.2117    12.8463    11.8655    78.8962     8.6165     0.0602     2.4201     0.1468     0.2199    43.5518
 2686.5000   -31.9078    12.7750    12.4090    12.1158    78.9007     8.6154     0.0557     2.4412     0.1361     0.2082    42.8029
 2687.0000   -32.4933    12.4295    11.9037    12.0327    78.5202     8.5992     0.0030     2.4517     0.1255     0.2043    43.2628
 2687.5000   -33.1189    12.1758    11.4985    11.8678    77.8381     8.5982    -0.0331     2.4403     0.1196     0.2013    45.0842
 2688.0000   -33.8448    12.0113    11.1844    11.8688    77.1690     8.5971    -0.0421     2.4350     0.1211     0.1980    46.7544
 2688.5000   -34.5967    11.9315    11.0310    12.7220    76.7286     8.5961     0.0165     2.4357     0.1305     0.1983    47.0615
 2689.0000   -35.1974    11.9356    11.1086    13.1718    76.4419     8.5950     0.0646     2.4364     0.1305     0.2046    44.7997
 2689.5000   -35.4966    11.9389    11.2646    12.9913    76.6988     8.5940     0.0796     2.4356     0.1302     0.2074    43.5955
 2690.0000   -35.3396    11.9421    11.3439    11.8720    77.8806     8.5929     0.0555     2.4318     0.1302     0.2065    44.2067
 2690.5000   -35.0326    11.8620    11.3446    11.0773    78.3362     8.5919     0.0239     2.4265     0.1320     0.2017    44.3640
 2691.0000   -34.7255    11.8661    11.1890    10.8499    78.1903     8.5908     0.0103     2.4204     0.1336     0.1993    43.1597
 2691.5000   -34.7210    11.7864    11.0322    11.0788    77.1422     8.5898     0.0088     2.4188     0.1390     0.1996    41.0477
 2692.0000   -34.7165    11.6271    10.8089    12.4750    76.3196     8.5887     0.0133     2.4210     0.1396     0.2040    39.8420
 2692.5000   -34.8633    11.4700    10.7262    13.1843    76.0985     8.5877     0.0193     2.4240     0.1375     0.2191    42.5727
 2693.0000   -35.1614    11.3150    10.6500    13.0593    76.5541     8.5866     0.0253     2.4262     0.1351     0.2250    46.2096
 2693.5000   -35.4605    11.1628    10.5883    11.9127    77.7616     8.5856     0.0297     2.4260     0.1342     0.2141    48.0310
 2694.0000   -35.6073    11.1659    10.5892    10.8264    78.8939     8.5845     0.0247     2.4205     0.1342     0.2114    46.8268
 2694.5000   -35.4504    11.0916    10.6637    10.2695    79.7255     8.5835     0.0158     2.4161     0.1369     0.2133    44.8661
 2695.0000   -35.4459    11.0947    10.8135    10.5591    79.8052     8.5824     0.0176     2.4177     0.1421     0.2148    44.7193
 2695.5000   -35.5927    11.1751    11.0418    10.9324    79.6593     8.5814     0.0251     2.4274     0.1409     0.2109    44.2730
 2696.0000   -35.7406    11.3344    11.2749    11.4770    79.0622     8.5803     0.0296     2.4372     0.1342     0.1985    42.9175
 2696.5000   -36.0387    11.5761    11.5931    11.6379    78.7660     8.5793     0.0220     2.4461     0.1264     0.1889    42.7707
 2697.0000   -36.4880    11.8290    12.0033    11.0874    78.6201     8.5782     0.0160     2.4566     0.1191     0.1823    42.9295
 2697.5000   -37.0876    12.1690    12.4280    10.8596    78.3990     8.5772     0.0144     2.4686     0.1139     0.1778    43.0853
 2698.0000   -37.6882    12.5188    12.6904    10.9362    78.0275     8.5761     0.0144     2.4746     0.1084     0.1787    40.5210
 2698.5000   -38.1377    12.6839    12.6913    12.2205    76.5283     8.5748     0.0174     2.4602     0.1068     0.1855    39.9204
 2699.0000   -38.4357    12.6874    12.3446    13.8463    75.0290     8.5892     0.0249     2.4474     0.1177     0.1950    41.8946
 2699.5000   -38.2798    12.6909    12.0911    15.7977    74.5824     8.5879     0.0324     2.4293     0.1219     0.1977    43.2622
 2700.0000   -37.8215    12.6057    11.9252    15.0501    74.4353     8.5870     0.0368     2.4161     0.1328     0.1941    44.3273
 2700.5000   -37.3614    12.3481    11.7410    13.2248    75.4208     8.5864     0.0008     2.4089     0.1463     0.1977    42.6692
 2701.0000   -37.1479    12.0116    11.5402    12.1402    76.4050     8.5858     0.0068     2.4066     0.1472     0.2039    41.8582
 2701.5000   -36.9343    11.6844    11.2834    11.7273    77.0884     8.5852    -0.0038     2.4081     0.1448     0.2125    42.9883
 2702.0000   -36.5749    11.3660    11.2041    11.4072    77.1703     8.5845    -0.0113     2.4111     0.1436     0.2058    44.8112
 2702.5000   -36.4145    11.2105    11.0524    11.2506    77.7033     8.5839     0.0068     2.4125     0.1430     0.1983    45.8777
 2703.0000   -36.4054    11.1345    11.0500    11.0964    77.7852     8.5833     0.0248     2.4118     0.1430     0.1981    44.8262
 2703.5000   -36.3964    11.1364    10.9775    11.1746    77.7919     8.5827     0.0338     2.4072     0.1433     0.2045    43.9260
 2704.0000   -36.7142    11.0609    10.8983    11.4103    77.6482     8.5821     0.0188     2.4049     0.1472     0.2156    43.6309
 2704.5000   -37.3130    10.9859    10.7527    11.0989    77.6549     8.5815     0.0053     2.4144     0.1430     0.2168    44.0923
 2705.0000   -38.0315    10.9114    10.6791    10.5737    77.6617     8.5809     0.0048     2.4266     0.1312     0.2157    45.0126
 2705.5000   -38.7789    10.8374    10.6006    10.4285    77.7461     8.5803     0.0338     2.4433     0.1237     0.2063    46.2576
 2706.0000   -39.5263    10.8390    10.5275    10.5020    77.9008     8.5797     0.0594     2.4568     0.1195     0.1954    47.4755
 2706.5000   -40.1224    10.8405    10.4612    10.6495    78.0579     8.5791     0.0465     2.4628     0.1152     0.1840    47.6018
 2707.0000   -40.5672    10.9175    10.5348    10.7989    78.0644     8.5938    -0.0060     2.4635     0.1125     0.1797    47.3068
 2707.5000   -40.5582    10.9950    10.6089    11.1035    77.2192     8.5930    -0.0173     2.4575     0.1122     0.1803    47.9213
 2708.0000   -40.5491    11.1503    10.7580    11.6566    76.6510     8.5924     0.0023     2.4492     0.1128     0.1830    48.6852
 2708.5000   -40.2375    11.2299    10.9091    11.7644    76.5056     8.5918    -0.0068     2.4431     0.1195     0.1890    48.2388
 2709.0000   -39.7747    11.3093    10.9950    11.1058    76.5140     8.6064    -0.0308     2.4378     0.1261     0.2002    45.9771
 2709.5000   -39.4630    11.3144    11.0728    11.1838    76.5207     8.6057    -0.0248     2.4310     0.1315     0.2071    45.3775
 2710.0000   -39.1514    11.3912    11.2186    11.7410    76.6026     8.6052    -0.0083     2.4227     0.1340     0.2138    45.3869
 2710.5000   -38.9911    11.3071    11.2193    12.3259    76.6093     8.6197     0.0068     2.4129     0.1382     0.2141    45.2431
 2711.0000   -38.9821    11.2372    11.2201    12.7617    76.7664     8.6191     0.0188     2.4084     0.1418     0.2099    44.9462
 2711.5000   -39.1266    11.2388    11.2209    12.1519    77.2995     8.6032     0.0023     2.4046     0.1469     0.2023    45.7120
 2712.0000   -39.2689    11.2404    11.2217    11.2532    78.1332     8.6026    -0.0083     2.4046     0.1478     0.1960    45.8707
 2712.5000   -39.5624    11.2419    11.0677    10.5784    78.4407     8.6020    -0.0098     2.4106     0.1469     0.1930    45.2731
 2713.0000   -39.8559    11.2435    10.9919    10.4395    77.9963     8.6014    -0.0038     2.4203     0.1409     0.1939    45.1274
 2713.5000   -39.9982    11.1676    10.8277    10.5967    77.4015     8.6008    -0.0053     2.4263     0.1349     0.1972    44.9836
 2714.0000   -39.8356    11.0148    10.6047    11.3097    76.4307     8.6002    -0.0083     2.4309     0.1322     0.2057    45.1443
