~VERSION INFORMATION
 VERS.                2.0:   CWLS LOG ASCII STANDARD - VERSION 2.0
 WRAP.                 NO:   ONE LINE PER DEPTH STEP
~WELL INFORMATION
#MNEM.UNIT      DATA TYPE    INFORMATION
#----------   ------------   ------------------------------
 STRT.F            8.0000:   START DEPTH
 STOP.F          500.0000:   STOP DEPTH
 STEP.F            0.5000:   STEP LENGTH
 NULL.          -999.2500:   NO VALUE
 COMP. FENIX & SCISSON INC:   COMPANY
 WELL. 65 12 SX 3FI #65-3:   WELL
 FLD .             TEAPOT:   FIELD
 LOC .       S3 T38N R78W:   LOCATION
 CNTY.            NATRONA:   COUNTY
 STAT.            WYOMING:   STATE
 CTRY. UNITED STATES OF AMERICA:   COUNTRY
 SRVC.              Welex:   SERVICE COMPANY
 DATE.        01-JUN-1980:   LOGDATE
 API .       490251082400:   API NUMBER
~CURVE INFORMATION
#MNEM.UNIT       API CODE    CURVE DESCRIPTION
#----------   ------------   ------------------------------
 DEPT.F                  :   
 GRD .GAPI   45 310 01 00:   GAMMA RAY FROM DENSITY LOG
 CALD.IN     45 280 60 00:   CALIPER
 RHOB.G/C3   45 350 01 00:   BULK DENSITY
 CORR.G/C3   45 356 01 00:   DENSITY CORRECTION
 DPHI.DEC    45 890 12 00:   DENSITY POROSITY SANDSTONE
 NPHI.DEC    42 890 03 00:   NEUTRON POROSITY SANDSTONE
 SPR .MV     07 010 01 00:   SPONTANEOUS POTENTIAL
 SGRD.OHMM   07 220 05 00:   SHALLOW GUARD RESISTIVITY
 ILD .OHMM   07 120 46 00:   INDUCTION LOG DEEP
 ILM .OHMM   07 120 44 00:   INDUCTION LOG MEDIUM
~PARAMETER INFORMATION
#MNEM.UNIT          VALUE    DESCRIPTION
#----------   ------------   ------------------------------
 PD  .                 GL:   PERMANENT DATUM
 EPD .F              5155:   ELEVATION PERMANENT DATUM
 LMF .                 KB:   LOG MEASURED FROM
 DAPD.F                 4:   FEET ABOVE PERMANENT DATUM
 DMF .                 KB:   DRILLING MEASURED FROM
 EKB .F              5159:   KELLING BUSHING
 EGL .F              5155:   GROUND LEVEL
 DATE.             6-1-80:   RUN DATE
 RUN .                  1:   RUN NUMBER
 DD  .F               505:   DEPTH DRILLER
 DL  .F               502:   DEPTH LOGGER
 BLI .F               500:   BOTTOM LOG INTERVAL
 TLI .F                20:   TOP LOG INTERVAL
 BS  .IN            9.875:   BIT SIZE
 BSD .F               505:   BIT SIZE AT DEPTH
 DFT .      OIL BASED MUD:   DRILLING FLUID TYPE
 MSS .            MUD PIT:   MUD SAMPLE SOURCE
 RMS .OHMM             .9:   RESISTIVITY MUD SAMPLE
 MST .F                65:   MUD SAMPLE TEMPERATURE
 RMF .OHMM            .72:   RESISTIVITY MUD FILTRATE SAMPLE
 MFST.F                65:   MUD FILTRATE SAMPLE TEMPERATURE
 RMC .OHMM           1.08:   RESISTIVITY MUD CAKE
 MCST.F                65:   MUD CAKE SAMPLE TEMPERATURE
 MFSS.           MEASURED:   MUD FILTRATE SAMPLE SOURCE
 MCSS.           MEASURED:   MUD CAKE SAMPLE SOURCE
 RMB .OHMM            .71:   RESISTIVITY MUD AT BHT
 BHT .F                76:   BOTTOM HOLE TEMPERATURE
 TCS .HRS               2:   TIME CURCULATED STOPPED
 MRT .F                76:   MAXIMUM RECORDED TEMPERATURE
 LUN .               9685:   LOGGING UNIT NUMBER
 LUL .             CASPER:   LOGGING UNIT LOCATION
 ENGI.               REIN:   RECORDING ENGINEER
 WITN.            RHOADES:   WITNESSED BY
 CLNT.            A2DTECH:   CLIENT CODE
 ORIG.        2" 5" PRINT:   ORIGIN OF DATA
 UWI .       490251082400:   UNIQUE WELL ID
 DICO. A2D Technologies, Inc.:   DIGITIZING COMPANY
~OTHER INFORMATION
~A    DEPT     GRD       CALD       RHOB       CORR       DPHI       NPHI        SPR        SGRD         ILD        ILM 
# ...
   41.5000   104.2121    10.7896     2.3861     0.0554     0.1729     0.3351   -18.3103     8.3078     4.0851     5.0038
   42.0000   105.4014    10.8096     2.4072     0.0522     0.1629     0.3351   -18.8110     8.5075     4.1227     5.1450
   42.5000   106.5963    10.8192     2.4166     0.0492     0.1544     0.3351   -19.3115     8.7120     4.2309     5.2900
   43.0000   107.7910    10.7719     2.4267     0.0521     0.1469     0.3351   -19.8119     8.9624     4.3419     5.4392
   43.5000   108.9806    10.5513     2.4367     0.0553     0.1401     0.3351   -20.3124     8.7695     4.4559     5.5926
   44.0000   110.1858     9.9546     2.4392     0.0532     0.1461     0.3364   -20.8124     8.5362     4.5729     5.7503
   44.5000   110.1428     9.5834     2.4325     0.0444     0.1518     0.3383   -21.2803     8.3091     4.6929     5.8234
   45.0000   109.1611     9.6572     2.4218     0.0356     0.1575     0.3422   -21.6283     8.0881     4.8466     5.7900
   45.5000   108.1668     9.7201     2.4077     0.0267     0.1595     0.3483   -21.9766     7.8729     4.8357     5.7678
   46.0000   107.1710     9.7071     2.4050     0.0262     0.1609     0.3494   -22.3249     7.6635     4.8214     5.7456
   46.5000   106.1769     9.6901     2.4088     0.0297     0.1604     0.3482   -22.6734     7.4596     4.8066     5.7235
   47.0000   105.4903     9.6738     2.4124     0.0333     0.1579     0.3467   -23.0219     7.3920     4.7917     5.7015
   47.5000   104.9913     9.6791     2.4154     0.0369     0.1582     0.3454   -23.3704     7.4193     4.7771     5.6796
   48.0000   104.4937     9.7151     2.4106     0.0368     0.1587     0.3453   -23.7188     7.6567     4.7592     5.6653
   48.5000   104.2308     9.7498     2.4160     0.0349     0.1551     0.3424   -24.0673     7.9018     4.8423     5.9963
   49.0000   103.7044     9.8213     2.4188     0.0367     0.1565     0.3373   -24.4160     8.1546     4.9531     6.2550
   49.5000   102.9827     9.9079     2.4142     0.0294     0.1598     0.3314   -24.7661     8.4156     5.0665     6.5247
   50.0000   101.3080     9.9953     2.4098     0.0145     0.1494     0.3327   -25.1094     8.6849     5.1825     6.6739
   50.5000    99.5672    10.0829     2.4271     0.0069     0.1349     0.3250   -25.2481     8.8806     5.3011     6.8063
   51.0000    97.7286    10.1740     2.4476     0.0192     0.1401     0.3165   -25.3860     8.7818     5.4225     6.9414
   51.5000    98.3578    10.1824     2.4498     0.0273     0.1485     0.3073   -25.5276     8.7062     5.5467     7.1256
   52.0000   100.3280    10.1665     2.4286     0.0077     0.1568     0.3089   -25.4343     8.6312     5.6738     7.1146
   52.5000   103.1042    10.1503     2.4090    -0.0115     0.1606     0.3143   -25.3092     8.5569     5.8239     7.0980
   53.0000   104.6051    10.1163     2.4132    -0.0057     0.1531     0.3180   -25.1834     8.4832     5.8020     7.0815
   53.5000   105.7908    10.0821     2.4162     0.0020     0.1591     0.3095   -25.0582     8.4101     5.7692     7.0650
   54.0000   104.7413    10.0481     2.4099    -0.0095     0.1575     0.3081   -24.9330     8.3377     5.7365     7.0486
   54.5000   103.3840    10.0141     2.4029     0.0012     0.1624     0.3172   -24.8074     8.2657     5.7041     7.0322
   55.0000   102.0662     9.9800     2.3958    -0.0054     0.1654     0.3248   -24.6803     8.2016     5.6718     7.0159
   55.5000   100.2960     9.9461     2.4007    -0.0142     0.1606     0.3258   -24.5665     8.1379     5.6397     6.9995
   56.0000    98.7709     9.9197     2.4109    -0.0001     0.1486     0.3210   -24.7882     8.1029     5.6135     6.9961
   56.5000    98.6442     9.9251     2.4358     0.0148     0.1329     0.3137   -25.0267     8.5556     5.7306     6.9961
   57.0000    98.9064     9.9299     2.4650     0.0331     0.1171     0.3056   -25.2639     8.8990     5.8316     7.1126
   57.5000    98.6704     9.9347     2.4885     0.0566     0.1122     0.2986   -25.5008     9.4515     5.9343     7.4430
   58.0000    96.5244     9.9390     2.4825     0.0684     0.1186     0.2952   -25.7377    10.4286     6.0389     7.7888
   58.5000    94.6055     9.9391     2.4875     0.0535     0.1157     0.2924   -25.9713    11.5872     6.1453     8.1768
   59.0000    94.2418     9.9391     2.4879     0.0487     0.1123     0.2899   -26.1296    10.3394     6.2536     8.0832
   59.5000    94.6615     9.9391     2.4867     0.0397     0.1213     0.2963   -26.1022     9.0450     6.3637     7.9837
   60.0000    95.7292     9.9391     2.4735     0.0404     0.1396     0.3065   -26.0789     8.9061     6.4417     7.8855
   60.5000    98.3837     9.9391     2.4566     0.0226     0.1295     0.3166   -26.0550     8.7411     6.4199     7.7884
   61.0000   102.8367     9.9391     2.4585     0.0111     0.1329     0.3258   -26.0312     8.4824     6.4033     7.6926
   61.5000   105.0662     9.9390     2.4573     0.0172     0.1373     0.3281   -26.0074     8.5271     6.3867     7.5979
   62.0000   107.2960     9.9447     2.4446     0.0109     0.1406     0.3280   -25.9833     8.5934     6.3701     7.5044
   62.5000   108.6263     9.9523     2.4406     0.0060     0.1364     0.3254   -25.9588     8.6602     6.3536     7.4120
   63.0000   107.7174     9.9600     2.4539     0.0151     0.1349     0.3248   -25.9418     8.7277     6.3372     7.3245
   63.5000   106.8150     9.9676     2.4513     0.0201     0.1377     0.3228   -26.0531     8.7956     6.3239     7.4407
   64.0000   105.9113     9.9752     2.4448     0.0080     0.1291     0.3200   -26.1666     8.8641     6.3215     7.5542
   64.5000   105.0323     9.9829     2.4566     0.0133     0.1267     0.3188   -26.2794     8.9331     6.3191     7.6694
   65.0000   104.8287     9.9905     2.4676     0.0248     0.1301     0.3155   -26.3920     9.0026     6.3166     7.7864
   65.5000   105.1715     9.9981     2.4625     0.0227     0.1242     0.3114   -26.5047     9.0458     6.3142     7.8102
   66.0000   105.6192    10.0057     2.4577     0.0337     0.1141     0.3073   -26.6174     9.0003     6.3117     7.6533
   66.5000   106.0686    10.0134     2.4948     0.0499     0.1040     0.3133   -26.7300     8.9547     6.3093     7.5982
   67.0000   106.5177    10.0210     2.5071     0.0663     0.0948     0.3192   -26.8427     8.9096     6.3068     7.6850
   67.5000   106.9628    10.0287     2.5188     0.0777     0.0995     0.3215   -26.9553     8.8646     6.3044     7.7068
   68.0000   107.4341    10.0364     2.5202     0.0778     0.1085     0.3193   -27.0680     8.8204     6.3019     7.7389
   68.5000   106.5966    10.0333     2.5004     0.0632     0.1185     0.3171   -27.1806     8.7824     6.2995     7.6878
   69.0000   105.1776    10.0287     2.4832     0.0489     0.1198     0.3163   -27.2933     8.7505     6.2970     7.5931
   69.5000   103.7322    10.0239     2.4746     0.0341     0.1214     0.3157   -27.4059     8.7188     6.2946     7.4997
   70.0000   102.5375    10.0193     2.4723     0.0197     0.1214     0.3169   -27.5186     8.6872     6.2922     7.4074
   70.5000   103.9410    10.0146     2.4784     0.0241     0.1160     0.3199   -27.6312     8.6557     6.2897     7.3245
   71.0000   105.3226    10.0099     2.4862     0.0316     0.1255     0.3232   -27.7439     8.6243     6.2873     7.3979
   71.5000   104.3621    10.0052     2.4792     0.0394     0.1374     0.3265   -27.8566     8.5930     6.2848     7.5062
   72.0000   103.2163    10.0005     2.4643     0.0417     0.1523     0.3299   -27.9692     8.5618     6.2824     7.6161
   72.5000   102.4189     9.9959     2.4280     0.0040     0.1485     0.3299   -28.0819     8.5308     6.2800     7.7276
   73.0000   103.6313     9.9912     2.4265    -0.0062     0.1414     0.3299   -28.1945     8.4999     6.2775     7.8822
   73.5000   105.1409     9.9865     2.4364     0.0031     0.1341     0.3327   -28.3072     8.4824     6.2751     7.8174
   74.0000   105.3820     9.9818     2.4471     0.0114     0.1377     0.3301   -28.4198     8.4824     6.2727     7.7166
   74.5000   105.6206     9.9771     2.4509     0.0091     0.1293     0.3283   -28.5325     8.4824     6.2702     7.6171
