~VERSION INFORMATION
 VERS.                2.0:   CWLS LOG ASCII STANDARD - VERSION 2.0
 WRAP.                 NO:   ONE LINE PER DEPTH STEP
~WELL INFORMATION
#MNEM.UNIT      DATA TYPE    INFORMATION
#----------   ------------   ------------------------------
 STRT.F           31.0000:   START DEPTH
 STOP.F          662.0000:   STOP DEPTH
 STEP.F            0.5000:   STEP LENGTH
 NULL.          -999.2500:   NO VALUE
 COMP. FENIX & SCISSON INC:   COMPANY
 WELL.   NPR-3 #83SX15-15:   WELL
 FLD .             TEAPOT:   FIELD
 LOC .      S15 T38N R78W:   LOCATION
 CNTY.            NATRONA:   COUNTY
 STAT.            WYOMING:   STATE
 CTRY. UNITED STATES OF AMERICA:   COUNTRY
 SRVC.            Unknown:   SERVICE COMPANY
 DATE.        17-MAY-1978:   LOGDATE
 API .       490251062500:   API NUMBER
~CURVE INFORMATION
#MNEM.UNIT       API CODE    CURVE DESCRIPTION
#----------   ------------   ------------------------------
 DEPT.F                  :   
 SN  .OHMM   07 040 16 00:   SHORT NORMAL 16'
 ILD .OHMM   07 120 46 00:   INDUCTION LOG DEEP
 CALD.IN     45 280 60 00:   CALIPER
 GRD .GAPI   45 310 01 00:   GAMMA RAY FROM DENSITY LOG
 RHOB.G/C3   45 350 01 00:   BULK DENSITY
 DPHI.DEC    45 890 10 00:   DENSITY POROSITY SANDSTONE
 CORR.G/C3   45 356 01 00:   DENSITY CORRECTION
~PARAMETER INFORMATION
#MNEM.UNIT          VALUE    DESCRIPTION
#----------   ------------   ------------------------------
 PD  .                 GL:   PERMANENT DATUM
 EPD .F              5265:   ELEVATION PERMANENT DATUM
 LMF .                 KB:   LOG MEASURED FROM
 DMF .                 KB:   DRILLING MEASURED FROM
 EKB .F              5269:   KELLING BUSHING
 EGL .F              5265:   GROUND LEVEL
 DATE.          5-17-1978:   RUN DATE
 RUN .                  1:   RUN NUMBER
 DD  .F               670:   DEPTH DRILLER
 DL  .F               668:   DEPTH LOGGER
 BLI .F               662:   BOTTOM LOG INTERVAL
 TLI .F                40:   TOP LOG INTERVAL
 CS  .IN            8.625:   CASING SIZE
 CBD .F                40:   CASING BOTTOM DRILLER
 BS  .IN            7.875:   BIT SIZE
 BSD .F               670:   BIT SIZE AT DEPTH
 DFT .                KCL:   DRILLING FLUID TYPE
 DFD .                8.6:   DRILLING FLUID DENSITY
 DFV .                 31:   DRILLING FLUID VISCOSITY
 DFPH.                 10:   DRILLING FLUID PH
 BHT .F                75:   BOTTOM HOLE TEMPERATURE
 TCS .HRS               2:   TIME CURCULATED STOPPED
 MRT .F                75:   MAXIMUM RECORDED TEMPERATURE
 LUN .               3006:   LOGGING UNIT NUMBER
 LUL .                CPR:   LOGGING UNIT LOCATION
 ENGI.             MILLER:   RECORDING ENGINEER
 WITN.           MCGINLEY:   WITNESSED BY
 CLNT.            A2DTECH:   CLIENT CODE
 ORIG.      2" & 5" PRINT:   ORIGIN OF DATA
 UWI .       490251062500:   UNIQUE WELL ID
 DICO. A2D Technologies, Inc.:   DIGITIZING COMPANY
~OTHER INFORMATION
~A   DEPT       SN        ILD       CALD         GRD      RHOB       DPHI       CORR   
   31.0000  -999.2500  -999.2500  -999.2500    52.1000  -999.2500  -999.2500  -999.2500
   31.5000  -999.2500  -999.2500  -999.2500    52.1000  -999.2500  -999.2500  -999.2500
   32.0000  -999.2500  -999.2500  -999.2500    51.7326  -999.2500  -999.2500  -999.2500
   32.5000  -999.2500  -999.2500  -999.2500    52.0141  -999.2500  -999.2500  -999.2500
   33.0000  -999.2500  -999.2500  -999.2500    53.4906  -999.2500  -999.2500  -999.2500
   33.5000  -999.2500  -999.2500  -999.2500    53.1707  -999.2500  -999.2500  -999.2500
   34.0000  -999.2500  -999.2500  -999.2500    51.0543  -999.2500  -999.2500  -999.2500
   34.5000  -999.2500  -999.2500  -999.2500    51.7006  -999.2500  -999.2500  -999.2500
   35.0000  -999.2500  -999.2500  -999.2500    52.9850  -999.2500  -999.2500  -999.2500
   35.5000  -999.2500  -999.2500  -999.2500    54.0802  -999.2500  -999.2500  -999.2500
   36.0000  -999.2500  -999.2500  -999.2500    54.1002  -999.2500  -999.2500  -999.2500
   36.5000  -999.2500  -999.2500  -999.2500    54.1053  -999.2500  -999.2500  -999.2500
   37.0000  -999.2500  -999.2500  -999.2500    54.5937  -999.2500  -999.2500  -999.2500
   37.5000  -999.2500  -999.2500  -999.2500    56.7169  -999.2500  -999.2500  -999.2500
   38.0000  -999.2500  -999.2500  -999.2500    57.4693  -999.2500  -999.2500  -999.2500
   38.5000  -999.2500  -999.2500  -999.2500    55.7001  -999.2500  -999.2500  -999.2500
   39.0000  -999.2500  -999.2500  -999.2500    53.8898  -999.2500  -999.2500  -999.2500
   39.5000  -999.2500  -999.2500  -999.2500    52.8510  -999.2500  -999.2500  -999.2500
   40.0000  -999.2500  -999.2500     7.0581    52.3743  -999.2500  -999.2500  -999.2500
   40.5000  -999.2500  -999.2500     6.9506    51.8807  -999.2500  -999.2500  -999.2500
   41.0000  -999.2500  -999.2500     6.8431    51.8534  -999.2500  -999.2500  -999.2500
   41.5000  -999.2500  -999.2500     6.8555    51.7466  -999.2500  -999.2500  -999.2500
   42.0000  -999.2500  -999.2500     6.9835    51.6379  -999.2500  -999.2500  -999.2500
   42.5000  -999.2500  -999.2500     7.1013    51.5288  -999.2500  -999.2500  -999.2500
   43.0000  -999.2500  -999.2500     7.1396    51.4186  -999.2500  -999.2500  -999.2500
   43.5000  -999.2500  -999.2500     7.1746    51.3035  -999.2500  -999.2500  -999.2500
   44.0000  -999.2500  -999.2500     7.2097    51.5457  -999.2500  -999.2500  -999.2500
   44.5000  -999.2500  -999.2500     7.2492    51.8206  -999.2500  -999.2500  -999.2500
   45.0000  -999.2500  -999.2500     7.3517    52.5381     2.2748     0.2026     0.1570
   45.5000  -999.2500  -999.2500     7.4544    53.4108     2.3378     0.2043     0.1570
   46.0000  -999.2500  -999.2500     7.4378    54.1289     2.3248     0.2190     0.1650
   46.5000  -999.2500  -999.2500     7.2050    66.5986     2.3362     0.2046     0.1708
   47.0000  -999.2500  -999.2500     7.0138    66.9845     2.3643     0.1830     0.1438
   47.5000  -999.2500     4.5498     6.9980    65.9277     2.3678     0.1954     0.1134
   48.0000  -999.2500     4.4784     6.9790    64.6951     2.3565     0.1994     0.0843
   48.5000  -999.2500     4.4364     6.9597    63.4606     2.3333     0.2118     0.0704
   49.0000  -999.2500     4.5295     6.9405    63.2631     2.3005     0.2351     0.0560
   49.5000  -999.2500     4.6029     6.9196    63.8331     2.2611     0.2547     0.0444
   50.0000  -999.2500     5.1408     6.8624    66.9770     2.2434     0.2610     0.0409
   50.5000  -999.2500     3.8882     6.8180    70.1708     2.2370     0.2630     0.0405
   51.0000  -999.2500     2.6331     6.8051    70.8974     2.2338     0.2786     0.0391
   51.5000  -999.2500     2.1829     6.7915    70.9130     2.2115     0.2843     0.0427
   52.0000  -999.2500     2.1018     6.7779    70.0322     2.2060     0.2866     0.0471
   52.5000  -999.2500     2.0825     6.7644    68.5804     2.2081     0.2841     0.0583
   53.0000  -999.2500     2.0821     6.7517    69.6952     2.2110     0.2671     0.0699
   53.5000  -999.2500     2.2186     6.7834    70.9370     2.2994     0.2304     0.0703
   54.0000  -999.2500     2.3583     6.8854    72.1175     2.3528     0.1937     0.0531
   54.5000  -999.2500     2.5086     6.9861    70.6755     2.3709     0.1802     0.0373
   55.0000  -999.2500     2.6617     7.0566    69.2302     2.3683     0.1874     0.0365
   55.5000  -999.2500     2.8127     7.1000    69.1102     2.3655     0.1899     0.0362
   56.0000  -999.2500     3.2348     7.1978    69.2409     2.3629     0.1882     0.0358
   56.5000  -999.2500     3.5742     7.3073    69.3777     2.3628     0.1903     0.0355
   57.0000  -999.2500     3.6598     7.4178    69.5807     2.3600     0.1953     0.0351
   57.5000     0.3301     3.5332     7.5265    70.2949     2.3505     0.1990     0.0363
   58.0000     1.0694     3.2056     7.5853    72.2175     2.3411     0.2016     0.0381
   58.5000     1.5960     2.9582     7.5599    73.4608     2.3316     0.2106     0.0399
   59.0000     0.7999     2.9042     7.5401    73.4427     2.3201     0.2197     0.0418
   59.5000     0.5848     2.7489     7.5197    73.3773     2.3032     0.2288     0.0436
   60.0000     1.4029     2.5366     7.5005    73.2506     2.2855     0.2378     0.0449
   60.5000     2.7701     2.3407     7.4999    71.9325     2.2714     0.2437     0.0443
   61.0000     3.8094     2.1598     7.5000    70.8137     2.2680     0.2456     0.0438
   61.5000     1.3472     2.0926     7.5000    74.5710     2.2498     0.2664     0.0434
   62.0000     0.9037     2.0541     7.5000    79.6787     2.2317     0.2713     0.0520
   62.5000     4.4364     2.0163     7.5000    80.6483     2.2304     0.2740     0.0709
   63.0000     0.2774     1.9730     7.5000    81.1979     2.2401     0.2286     0.0906
   63.5000     2.1542     2.0704     7.4998    83.5393     2.3455     0.1456     0.0929
   64.0000     2.9856     2.1955     7.4984    84.0180     2.4243     0.1467     0.0779
   64.5000     0.9355     2.3293     7.5689    74.7538     2.4382     0.1470     0.0680
   65.0000     2.2864     2.4605     7.6602    67.6243     2.4411     0.1466     0.0714
   65.5000     2.3862     2.9179     7.7521    66.3501     2.4431     0.1433     0.0745
   66.0000     3.2077     3.5566     7.8450    68.2929     2.4495     0.1371     0.0750
   66.5000     3.5047     3.7904     7.8989    70.3542     2.4505     0.1334     0.0635
   67.0000     3.6900     4.0508     7.8705    71.8621     2.4433     0.1482     0.0547
   67.5000     3.8639     4.1979     7.8041    72.3161     2.4379     0.1502     0.0544
   68.0000     3.9722     4.2367     7.7386    72.6592     2.4403     0.1460     0.0539
   68.5000     4.0460     4.2759     7.6797    74.2671     2.4454     0.1412     0.0534
   69.0000     4.1213     4.3679     7.6790    74.2393     2.4502     0.1374     0.0524
   69.5000     4.2605     4.4975     7.6797    73.6060     2.4509     0.1370     0.0474
   70.0000     4.4191     4.6309     7.6581    71.9843     2.4487     0.1391     0.0423
   70.5000     4.5835     4.7684     7.6290    69.7376     2.4457     0.1419     0.0372
   71.0000     4.7541     4.9101     7.6012    69.4668     2.4427     0.1451     0.0322
   71.5000     5.0023     5.0545     7.6265    70.0117     2.4366     0.1484     0.0289
   72.0000     5.0489     5.1884     7.6551    71.6087     2.4302     0.1510     0.0326
   72.5000     5.0486     5.1884     7.6837    74.9778     2.4333     0.1506     0.0386
   73.0000     5.0375     5.1884     7.7210    75.5971     2.4364     0.1496     0.0446
   73.5000     5.0311     5.1884     7.6994    72.4515     2.4384     0.1469     0.0507
   74.0000     5.0248     5.1884     7.6686    69.7084     2.4465     0.1439     0.0567
   74.5000     5.0184     5.1884     7.6376    69.2730     2.4529     0.1409     0.0604
   75.0000     5.0121     5.1884     7.6071    69.4032     2.4522     0.1396     0.0571
   75.5000     5.0057     5.1884     7.5809    72.4864     2.4535     0.1385     0.0540
   76.0000     4.9994     5.1883     7.6526    76.0495     2.4566     0.1348     0.0510
