~VERSION INFORMATION
 VERS.                2.0:   CWLS LOG ASCII STANDARD - VERSION 2.0
 WRAP.                 NO:   ONE LINE PER DEPTH STEP
~WELL INFORMATION
#MNEM.UNIT      DATA TYPE    INFORMATION
#----------   ------------   ------------------------------
 STRT.F           84.0000:   START DEPTH
 STOP.F         1141.0000:   STOP DEPTH
 STEP.F            0.5000:   STEP LENGTH
 NULL.          -999.2500:   NO VALUE
 COMP.           U S NAVY:   COMPANY
 WELL.     NPR#3 #78-S-11:   WELL
 FLD .             TEAPOT:   FIELD
 LOC .      S11 T38N R78W:   LOCATION
 CNTY.            NATRONA:   COUNTY
 STAT.            WYOMING:   STATE
 CTRY. UNITED STATES OF AMERICA:   COUNTRY
 SRVC.       Schlumberger:   SERVICE COMPANY
 DATE.        28-AUG-1966:   LOGDATE
 API .       490250970700:   API NUMBER
~CURVE INFORMATION
#MNEM.UNIT       API CODE    CURVE DESCRIPTION
#----------   ------------   ------------------------------
 DEPT.F                  :   
 SPR .MV     05 010 01 00:   SPONTANEOUS POTENTIAL FROM RES.
 ASN .OHMM   05 041 16 00:   AMPLIFIED SHORT NORMAL 16"
 ILD .OHMM   05 120 46 00:   INDUCTION LOG DEEP
 CILD.MMHO   05 110 46 00:   CONDUCTIVITY INDUCTION LOG DEEP
 GRD .GAPI   45 310 01 00:   GAMMA RAY FROM DENSITY LOG
 CALD.IN     45 280 60 00:   CALIPER FROM DENSITY LOG
 DPHI.DEC    45 890 12 00:   DENSITY POROSITY SANDSTONE
 RHOB.G/C3   45 350 01 00:   BULK DENSITY
~PARAMETER INFORMATION
#MNEM.UNIT          VALUE    DESCRIPTION
#----------   ------------   ------------------------------
 PD  .                 GL:   PERMANENT DATUM
 EPD .F              5245:   ELEVATION PERMANENT DATUM
 LMF .                 KB:   LOG MEASURED FROM
 DAPD.F                 5:   FEET ABOVE PERMANENT DATUM
 DMF .                 KB:   DRILLING MEASURED FROM
 EKB .F              5250:   KELLING BUSHING
 EGL .F              5245:   GROUND LEVEL
 DATE.            8-28-66:   RUN DATE
 RUN .                  1:   RUN NUMBER
 DD  .F              1142:   DEPTH DRILLER
 DL  .F              1142:   DEPTH LOGGER
 BLI .F              1141:   BOTTOM LOG INTERVAL
 TLI .F                85:   TOP LOG INTERVAL
 CS  .IN            8.625:   CASING SIZE
 CBD .F                10:   CASING BOTTOM DRILLER
 BS  .IN             6.75:   BIT SIZE
 BSD .F              1142:   BIT SIZE AT DEPTH
 DFT .           CHEM GEL:   DRILLING FLUID TYPE
 DFD .               10.7:   DRILLING FLUID DENSITY
 DFV .                 40:   DRILLING FLUID VISCOSITY
 MSS .          FLOW LINE:   MUD SAMPLE SOURCE
 RMS .OHMM           1.58:   RESISTIVITY MUD SAMPLE
 MST .F                70:   MUD SAMPLE TEMPERATURE
 RMF .OHMM            .93:   RESISTIVITY MUD FILTRATE SAMPLE
 MFST.F                70:   MUD FILTRATE SAMPLE TEMPERATURE
 MFSS.                  M:   MUD FILTRATE SAMPLE SOURCE
 RMB .OHMM           1.19:   RESISTIVITY MUD AT BHT
 BHT .F                94:   BOTTOM HOLE TEMPERATURE
 TCS .HRS               1:   TIME CURCULATED STOPPED
 MRT .F                94:   MAXIMUM RECORDED TEMPERATURE
 LUN .               4507:   LOGGING UNIT NUMBER
 LUL .               CSPR:   LOGGING UNIT LOCATION
 ENGI.             KNOBEL:   RECORDING ENGINEER
 WITN.         MAY/TUTTLE:   WITNESSED BY
 CLNT.            A2DTECH:   CLIENT CODE
 ORIG.           5" PRINT:   ORIGIN OF DATA
 UWI .       490250970700:   UNIQUE WELL ID
 DICO. A2D Technologies, Inc.:   DIGITIZING COMPANY
~OTHER INFORMATION
~A   DEPT      SPR          ASN        ILD      CILD       GRD       CALD       DPHI       RHOB   
# ...
  489.0000   -37.0886     4.1625     3.2187   331.4143   102.9791     7.3976     0.1432     2.3921
  489.5000   -37.0979     3.5767     2.8403   344.9557   103.1684     7.3978     0.1582     2.3772
  490.0000   -37.2561     3.3213     2.6872   352.4820   107.2862     7.3830     0.1695     2.3511
  490.5000   -37.4144     3.4728     2.6091   355.4969   110.3327     7.3682     0.1970     2.3235
  491.0000   -37.4219     3.6223     2.8314   351.7450   109.0934     7.3684     0.2087     2.3071
  491.5000   -37.5801     3.5131     3.0536   341.9781   102.1399     7.3536     0.1910     2.3348
  492.0000   -37.5876     3.4088     3.4260   322.4367    96.6149     7.3389     0.1958     2.3251
  492.5000   -37.7459     3.4507     3.7984   281.8427    91.8042     7.3391     0.1886     2.3446
  493.0000   -37.9042     4.0411     4.0957   254.0306    88.2435     7.3094     0.1482     2.3783
  493.5000   -37.9116     4.1761     4.4681   238.2486    90.2185     7.2946     0.1409     2.4232
  494.0000   -37.9190     4.3111     4.8405   227.7298    96.1221     7.2650     0.1568     2.3978
  494.5000   -37.7738     4.4254     5.0628   221.7222    98.0971     7.2801     0.1616     2.3837
  495.0000   -37.9339     4.5360     5.1356   217.9684    97.9266     7.2951     0.1648     2.3710
  495.5000   -37.7906     4.7311     5.1319   214.9703    99.1900     7.3251     0.1699     2.3830
  496.0000   -37.9488     4.8360     5.2048   214.9778   101.7008     7.3401     0.1501     2.4015
  496.5000   -37.9563     4.9410     5.2768   214.2330   101.8901     7.3403     0.1490     2.4142
  497.0000   -37.6621     5.0309     5.3489   215.7446    99.7579     7.3404     0.1389     2.4233
  497.5000   -37.5188     5.0758     5.4203   223.2709    98.8731     7.3406     0.1360     2.4191
  498.0000   -37.3753     4.9405     5.2672   230.0453    99.7794     7.3258     0.1508     2.4007
  498.5000   -37.0538     4.6551     4.9639   242.0828    98.0044     7.3260     0.1418     2.4105
  499.0000   -36.9377     4.4898     4.7357   251.8647    99.4437     7.3261     0.1381     2.4207
  499.5000   -36.7943     4.3845     4.3573   273.6767   102.1330     7.3263     0.1540     2.3937
  500.0000   -36.6478     4.2150     3.9790   284.2105   100.7152     7.3413     0.1692     2.3729
  500.5000   -36.6085     4.0077     3.9000   282.7421    96.9759     7.3563     0.1748     2.3647
  501.0000   -36.5692     3.8730     3.8209   281.2738    96.6268     7.3565     0.1703     2.3805
  501.5000   -36.5319     3.9926     3.7377   281.9778    96.2831     7.3566     0.1568     2.3918
  502.0000   -36.3914     4.0373     3.7325   289.5040    95.0438     7.3568     0.1652     2.3799
  502.5000   -36.4044     3.5563     3.6522   304.5490    91.8394     7.3569     0.1873     2.3328
  503.0000   -36.4148     3.4508     3.5720   316.6059    91.1286     7.3571     0.1951     2.3358
  503.5000   -36.2717     3.7355     3.4917   321.9048    93.4680     7.3423     0.1891     2.3673
  504.0000   -36.2847     3.7201     3.4114   328.0602    96.5144     7.3425     0.1558     2.3827
  504.5000   -36.2951     3.5545     3.3291   344.6069    97.0609     7.3426     0.1756     2.3442
  505.0000   -36.3055     3.3288     3.1006   363.9864    96.7143     7.3428     0.1941     2.3256
  505.5000   -36.4667     3.2082     3.0954   382.7908    97.6181     7.3578     0.2112     2.3077
  506.0000   -36.4770     2.9225     3.0901   373.0238    99.2359     7.3580     0.2195     2.2868
  506.5000   -36.4874     2.8739     3.0849   360.2492   101.0324     7.3581     0.2237     2.2741
  507.0000   -36.7994     2.9817     3.0035   349.7303   102.8288     7.3583     0.2201     2.2869
  507.5000   -36.9607     3.1314     3.0747   337.7077   102.1253     7.3584     0.2153     2.2914
  508.0000   -35.9152     3.1009     3.0682   331.7000    98.3860     7.3586     0.2093     2.3079
  508.5000   -35.7748     3.2098     3.1393   322.6849    99.2896     7.3587     0.1976     2.3281
  509.0000   -35.6343     3.4054     3.2092   313.6698   101.4432     7.3589     0.1631     2.3760
  509.5000   -35.4965     3.6448     3.0526   312.9234   102.8825     7.3590     0.1485     2.4119
  510.0000   -35.5068     3.6697     2.7471   325.7147   104.3218     7.3592     0.1516     2.3746
  510.5000   -35.8189     3.4439     2.6668   354.2935   106.6539     7.3593     0.1785     2.3500
  511.0000   -35.8292     3.3384     2.5865   382.8723   109.1647     7.3595     0.1904     2.3291
  511.5000   -35.9905     3.0827     2.6577   384.4285   109.7111     7.3596     0.2002     2.3224
  512.0000   -36.0008     3.0373     2.6512   372.2401   109.5429     7.3598     0.1996     2.3187
  512.5000   -36.0112     3.5472     2.6460   350.2495   109.3754     7.3450     0.2027     2.3091
  513.0000   -36.1724     3.5017     2.9411   337.4734   107.4219     7.3601     0.2110     2.2986
  513.5000   -36.3336     3.3212     3.3112   328.0240   104.7541     7.3900     0.2166     2.2919
  514.0000   -36.3440     3.7411     3.6814   279.1593   102.9791     8.0161     0.2096     2.3353
  514.5000   -36.3591     4.3262     3.9014   246.8359   100.8469     7.6586     0.1668     2.3982
  515.0000   -36.5159     4.7012     4.9473   225.0388   100.1429     7.3905     0.1336     2.4348
  515.5000   -36.5264     4.8659     5.0923   209.2567   102.1184     7.4055     0.1135     2.4723
  516.0000   -36.6898     5.0156     5.0870   202.4954   100.8791     7.4057     0.1072     2.4843
  516.5000   -36.7001     5.1653     5.1569   204.7603   100.7086     7.4207     0.0979     2.5075
  517.0000   -36.7105     5.2549     5.3018   207.0233   100.7220     7.4209     0.0913     2.5240
  517.5000   -36.7209     5.4947     5.3766   204.0232    99.3042     7.4210     0.1119     2.4765
  518.0000   -36.7313     5.6444     5.5917   195.0081    96.4578     7.4212     0.1227     2.4447
  518.5000   -36.8925     5.7791     5.6616   184.4892    98.0757     7.4213     0.1293     2.4300
  519.0000   -37.2045     6.0189     5.8065   179.2334    99.5150     7.4215     0.1299     2.4238
  519.5000   -37.5139     6.4400     6.1003   174.7296    99.5257     7.4216     0.1277     2.4318
  520.0000   -37.3735     6.6226     6.3954   170.2257    99.0007     7.4218     0.1122     2.4662
  520.5000   -37.3865     6.8617     6.5417   167.9775    96.8686     7.4219     0.1184     2.4624
  521.0000   -37.3968     6.9654     6.6866   166.4811    98.8436     7.4221     0.1268     2.4286
  521.5000   -37.2564     6.9776     6.7552   165.7366    98.3186     7.4371     0.1319     2.4197
  522.0000   -36.9651     6.9320     6.7500   165.7444    98.6865     7.4373     0.1357     2.4137
  522.5000   -36.8246     6.9166     6.7448   165.7533   100.1258     7.4374     0.1276     2.4348
  523.0000   -37.2901     6.9161     6.7396   165.7607   101.9223     7.4376     0.1168     2.4617
  523.5000   -37.4513     6.9308     6.7344   165.7682   103.3615     7.4377     0.0989     2.4916
  524.0000   -37.4617     6.9604     6.7292   165.7756   104.6223     7.4379     0.0926     2.5174
  524.5000   -37.4721     6.9750     6.7240   165.7830   104.8116     7.4380     0.1069     2.4873
  525.0000   -37.6333     7.0046     6.6437   165.7904   104.1080     7.4382     0.1114     2.4701
  525.5000   -37.6437     7.0341     6.6385   165.7978   101.6188     7.4383     0.1045     2.4858
  526.0000   -37.5006     7.0186     6.4832   165.8052   103.7724     7.4385     0.0949     2.5180
  526.5000   -37.0611     6.9881     6.4780   165.8126   103.4259     7.4535     0.1008     2.4964
  527.0000   -36.6190     6.9426     6.4727   166.5719   101.2938     7.4537     0.1083     2.4770
  527.5000   -35.8748     6.9121     6.4675   170.3387    98.9804     7.4538     0.1134     2.4621
  528.0000   -35.5837     6.9117     6.3873   173.3537   100.9581     7.4540     0.1005     2.4965
  528.5000   -35.5943     6.9112     6.3821   174.8649   103.4689     7.4541     0.0939     2.5070
  529.0000   -35.7557     6.9108     6.3769   174.8723   102.5868     7.4543     0.1031     2.4847
