~VERSION INFORMATION
 VERS.                2.0:   CWLS LOG ASCII STANDARD - VERSION 2.0
 WRAP.                 NO:   ONE LINE PER DEPTH STEP
~WELL INFORMATION
#MNEM.UNIT      DATA TYPE    INFORMATION
#----------   ------------   ------------------------------
 STRT.F            6.0000:   START DEPTH
 STOP.F         2600.0000:   STOP DEPTH
 STEP.F            0.5000:   STEP LENGTH
 NULL.          -999.2500:   NO VALUE
 COMP. FENIX & SCISSON INC:   COMPANY
 WELL.   NPR 3 SH #17 -34:   WELL
 FLD .             TEAPOT:   FIELD
 LOC .      S34 T39N R78W:   LOCATION
 CNTY.            NATRONA:   COUNTY
 STAT.            WYOMING:   STATE
 CTRY. UNITED STATES OF AMERICA:   COUNTRY
 SRVC.            Unknown:   SERVICE COMPANY
 DATE.        21-MAR-1978:   LOGDATE
 API .       490251060600:   API NUMBER
~CURVE INFORMATION
#MNEM.UNIT       API CODE    CURVE DESCRIPTION
#----------   ------------   ------------------------------
 DEPT.F                  :   
 NPHI.DEC    42 890 03 00:   NEUTRON POROSITY SANDSTONE
 CALD.IN     45 280 60 00:   CALIPER FROM DENSITY LOG
 GRD .GAPI   45 310 01 00:   GAMMA RAY FROM DENSITY LOG
 CORR.G/C3   45 356 01 00:   DENSITY CORRECTION
 RHOB.G/C3   45 350 01 00:   BULK DENSITY
 DPHI.DEC    45 890 12 00:   DENSITY POROSITY SANDSTONE
~PARAMETER INFORMATION
#MNEM.UNIT          VALUE    DESCRIPTION
#----------   ------------   ------------------------------
 PD  .                 GL:   PERMANENT DATUM
 EPD .F              5150:   ELEVATION PERMANENT DATUM
 LMF .                 KB:   LOG MEASURED FROM
 DMF .                 KB:   DRILLING MEASURED FROM
 EKB .F              5160:   KELLING BUSHING
 EGL .F              5150:   GROUND LEVEL
 DATE.          3-21-1978:   RUN DATE
 RUN .                  1:   RUN NUMBER
 DD  .F              2612:   DEPTH DRILLER
 DL  .F              2592:   DEPTH LOGGER
 BLI .F              2590:   BOTTOM LOG INTERVAL
 TLI .F                20:   TOP LOG INTERVAL
 CS  .IN            9.625:   CASING SIZE
 CBD .F               710:   CASING BOTTOM DRILLER
 CBL .F               710:   CASING BOTTOM LOGGER
 BS  .IN            8.625:   BIT SIZE
 BSD .F              2612:   BIT SIZE AT DEPTH
 DFT .           AIR MIST:   DRILLING FLUID TYPE
 BHT .F               110:   BOTTOM HOLE TEMPERATURE
 TCS .HRS               2:   TIME CURCULATED STOPPED
 MRT .F               110:   MAXIMUM RECORDED TEMPERATURE
 LUN .               2958:   LOGGING UNIT NUMBER
 LUL .               CASP:   LOGGING UNIT LOCATION
 ENGI.            POINTER:   RECORDING ENGINEER
 WITN.           MCGINLEY:   WITNESSED BY
 CLNT.            A2DTECH:   CLIENT CODE
 ORIG.      2" , 5" PRINT:   ORIGIN OF DATA
 UWI .       490251060600:   UNIQUE WELL ID
 DICO. A2D Technologies, Inc.:   DIGITIZING COMPANY
~OTHER INFORMATION
~A    DEPT      NPHI     CALD        GRD       CORR       RHOB       DPHI   
# ...
 1202.0000  -999.2500     9.1273   112.5505     0.1016     2.4928     0.0981
 1202.5000  -999.2500     9.1268   110.5259     0.1079     2.4899     0.0993
 1203.0000  -999.2500     9.1263   108.1658     0.1142     2.4867     0.0977
 1203.5000  -999.2500     9.1258   106.4586     0.1199     2.4890     0.0994
 1204.0000  -999.2500     9.1255   106.2044     0.1217     2.4913     0.1061
 1204.5000  -999.2500     9.1197   105.5524     0.1237     2.4799     0.1127
 1205.0000  -999.2500     9.1128   103.5979     0.1262     2.4688     0.1185
 1205.5000  -999.2500     9.1058   101.4795     0.1324     2.4569     0.1296
 1206.0000  -999.2500     9.0987    98.4391     0.1386     2.4401     0.1280
 1206.5000  -999.2500     9.0917    96.0856     0.1447     2.4300     0.1249
 1207.0000  -999.2500     9.0856    95.1818     0.1431     2.4389     0.1218
 1207.5000  -999.2500     9.0856    92.2924     0.1381     2.4471     0.1144
 1208.0000  -999.2500     9.0858    90.0550     0.1242     2.4718     0.1050
 1208.5000  -999.2500     9.0859    91.6070     0.1104     2.4805     0.1005
 1209.0000  -999.2500     9.0861    93.2181     0.1059     2.4761     0.1003
 1209.5000  -999.2500     9.0862    93.1459     0.1065     2.4866     0.0980
 1210.0000  -999.2500     9.0864    94.0812     0.1071     2.4875     0.0996
 1210.5000  -999.2500     9.0865    98.4212     0.1128     2.4809     0.1011
 1211.0000  -999.2500     9.0867   102.8624     0.1198     2.4755     0.1024
 1211.5000  -999.2500     9.0868   103.6732     0.1195     2.4833     0.1010
 1212.0000  -999.2500     9.0870   100.3526     0.1174     2.4873     0.0991
 1212.5000  -999.2500     9.0871    97.3108     0.1275     2.4744     0.0920
 1213.0000  -999.2500     9.0873    97.7745     0.1250     2.4971     0.0947
 1213.5000  -999.2500     9.0874    97.9900     0.1081     2.4844     0.1001
 1214.0000  -999.2500     9.0876    95.8943     0.1331     2.4657     0.1004
 1214.5000  -999.2500     9.0877    94.5633     0.1682     2.5021     0.0988
 1215.0000  -999.2500     9.0878    92.1806     0.1583     2.4914     0.0976
 1215.5000  -999.2500     9.0880    93.8815     0.1491     2.4753     0.0965
 1216.0000  -999.2500     9.0882    96.3876     0.1493     2.4822     0.0953
 1216.5000  -999.2500     9.0883    96.7632     0.1494     2.4936     0.0952
 1217.0000  -999.2500     9.0884    97.2215     0.1494     2.5010     0.0958
 1217.5000  -999.2500     9.0886    98.2916     0.1494     2.4944     0.0976
 1218.0000  -999.2500     9.0887    99.2104     0.1494     2.4874     0.0998
 1218.5000  -999.2500     9.0889    99.8951     0.1494     2.4837     0.1020
 1219.0000  -999.2500     9.0890   100.5843     0.1492     2.4832     0.1042
 1219.5000  -999.2500     9.0892   100.2918     0.1458     2.4789     0.1052
 1220.0000  -999.2500     9.0893    98.9631     0.1358     2.4729     0.1040
 1220.5000  -999.2500     9.0895    97.0356     0.1256     2.4717     0.1027
 1221.0000  -999.2500     9.0896    94.9970     0.1253     2.4763     0.1013
 1221.5000  -999.2500     9.0898    94.1765     0.1254     2.4862     0.0987
 1222.0000  -999.2500     9.0899    95.4628     0.1254     2.4826     0.0953
 1222.5000  -999.2500     9.0901    97.2021     0.1254     2.4955     0.0919
 1223.0000  -999.2500     9.0902    97.3830     0.1254     2.4979     0.0884
 1223.5000  -999.2500     9.0904    96.7376     0.1246     2.5016     0.0867
 1224.0000  -999.2500     9.0905    94.7223     0.1190     2.5089     0.0848
 1224.5000  -999.2500     9.0906    92.3755     0.1135     2.5135     0.0898
 1225.0000  -999.2500     9.0908    93.1261     0.1080     2.5010     0.0951
 1225.5000  -999.2500     9.0909    93.9959     0.1081     2.4920     0.1000
 1226.0000  -999.2500     9.0911    94.1843     0.1089     2.4845     0.0944
 1226.5000  -999.2500     9.0912    93.6850     0.1094     2.4941     0.0903
 1227.0000  -999.2500     9.0914    93.6710     0.1094     2.5024     0.0931
 1227.5000  -999.2500     9.0915    94.2489     0.1094     2.4969     0.0952
 1228.0000  -999.2500     9.0917    95.9189     0.1094     2.4934     0.0944
 1228.5000  -999.2500     9.0918    98.8383     0.1088     2.4945     0.0919
 1229.0000  -999.2500     9.0920    99.9942     0.1059     2.5007     0.0921
 1229.5000  -999.2500     9.0921    97.5890     0.1034     2.5041     0.0943
 1230.0000  -999.2500     9.0923    97.0252     0.1038     2.4903     0.0965
 1230.5000  -999.2500     9.0924    96.5496     0.1042     2.4853     0.0984
 1231.0000  -999.2500     9.0926    97.1871     0.1046     2.4911     0.0984
 1231.5000  -999.2500     9.0927    98.2478     0.1050     2.4909     0.1009
 1232.0000  -999.2500     9.0928   100.6540     0.1054     2.4848     0.1008
 1232.5000  -999.2500     9.0930   101.1113     0.1091     2.4859     0.1020
 1233.0000  -999.2500     9.0931    98.8266     0.1153     2.4836     0.0985
 1233.5000  -999.2500     9.0933    98.4627     0.1239     2.4844     0.0889
 1234.0000  -999.2500     9.0934    98.3658     0.1254     2.5084     0.0879
 1234.5000  -999.2500     9.0936    97.3681     0.1255     2.5027     0.0896
 1235.0000  -999.2500     9.0937    95.5797     0.1220     2.5098     0.0935
 1235.5000  -999.2500     9.0939    93.7739     0.1178     2.5011     0.0975
 1236.0000  -999.2500     9.0940    92.3661     0.1137     2.4898     0.1014
 1236.5000  -999.2500     9.0942    96.0923     0.1197     2.4801     0.1052
 1237.0000  -999.2500     9.0943    99.7235     0.1265     2.4807     0.1052
 1237.5000  -999.2500     9.0945   101.4538     0.1331     2.4849     0.0977
 1238.0000  -999.2500     9.0946   100.3576     0.1398     2.4904     0.0919
 1238.5000  -999.2500     9.0948    97.0779     0.1522     2.5003     0.0860
 1239.0000  -999.2500     9.0949    92.5975     0.1634     2.5109     0.0827
 1239.5000  -999.2500     9.0950    91.1096     0.1540     2.5206     0.0856
 1240.0000  -999.2500     9.0952    91.2178     0.1396     2.5095     0.0918
 1240.5000  -999.2500     9.0954    93.6893     0.1257     2.4957     0.0979
 1241.0000  -999.2500     9.0955    94.8861     0.1250     2.4907     0.1000
 1241.5000  -999.2500     9.0956    95.2289     0.1248     2.4878     0.0993
 1242.0000  -999.2500     9.0958    97.2440     0.1245     2.4877     0.0988
 1242.5000  -999.2500     9.0959    99.8269     0.1243     2.4928     0.0958
 1243.0000  -999.2500     9.0961    99.9206     0.1240     2.4940     0.0931
 1243.5000  -999.2500     9.0962    99.8612     0.1237     2.4962     0.0927
 1244.0000  -999.2500     9.0964    99.8076     0.1234     2.4996     0.0932
 1244.5000  -999.2500     9.0965    99.7626     0.1181     2.4994     0.0904
 1245.0000  -999.2500     9.0967    98.8694     0.1123     2.4928     0.0906
 1245.5000  -999.2500     9.0968    97.9521     0.1143     2.4864     0.0908
 1246.0000  -999.2500     9.0970    97.6065     0.1274     2.4904     0.0910
 1246.5000  -999.2500     9.0971    95.9006     0.1237     2.5027     0.0912
 1247.0000  -999.2500     9.0973    93.9551     0.1171     2.5024     0.0953
 1247.5000  -999.2500     9.0974    95.8954     0.1108     2.4940     0.1004
 1248.0000  -999.2500     9.0976    97.8737     0.1118     2.4888     0.0982
 1248.5000  -999.2500     9.0977    99.4138     0.1156     2.4818     0.0953
 1249.0000  -999.2500     9.0978    99.8628     0.1172     2.4908     0.0927
 1249.5000  -999.2500     9.0980   100.3513     0.1159     2.4962     0.0921
 1250.0000  -999.2500     9.0981    98.9911     0.1146     2.5009     0.0915
 1250.5000  -999.2500     9.0983    97.1117     0.1134     2.5001     0.0921
 1251.0000  -999.2500     9.0984    95.3878     0.1121     2.4991     0.0954
 1251.5000  -999.2500     9.0986    94.4239     0.1121     2.4947     0.0984
 1252.0000  -999.2500     9.0987    93.3550     0.1136     2.4904     0.0958
 1252.5000  -999.2500     9.0989    93.1126     0.1151     2.4917     0.0924
 1253.0000  -999.2500     9.0990    94.3221     0.1147     2.4978     0.0910
 1253.5000  -999.2500     9.0992    97.1113     0.1132     2.5039     0.0950
