~VERSION INFORMATION
 VERS.                2.0:   CWLS LOG ASCII STANDARD - VERSION 2.0
 WRAP.                 NO:   ONE LINE PER DEPTH STEP
~WELL INFORMATION
#MNEM.UNIT      DATA TYPE    INFORMATION
#----------   ------------   ------------------------------
 STRT.F            8.0000:   START DEPTH
 STOP.F         3200.0000:   STOP DEPTH
 STEP.F            0.5000:   STEP LENGTH
 NULL.          -999.2500:   NO VALUE
 COMP. BROWN JOHN E&C INC:   COMPANY
 WELL.  62 x 15-17 #62-15:   WELL
 FLD .        N.P.R NO. 3:   FIELD
 LOC .      S15 T38N R78W:   LOCATION
 CNTY.            NATRONA:   COUNTY
 STAT.            WYOMING:   STATE
 CTRY. UNITED STATES OF AMERICA:   COUNTRY
 SRVC.      Western Atlas:   SERVICE COMPANY
 DATE.        17-JUN-1986:   LOGDATE
 API .       490251104300:   API NUMBER
~CURVE INFORMATION
#MNEM.UNIT       API CODE    CURVE DESCRIPTION
#----------   ------------   ------------------------------
 DEPT.F                  :   
 GRR .GAPI   07 310 01 00:   GAMMA RAY
 CALR.IN     07 280 01 00:   CALIPER FROM RESISTIVITY
 SPR .MV     07 010 01 00:   SPONTANEOUS POTENTIAL
 RILD.OHMM   07 120 46 00:   INDUCTION LOG DEEP RESISTIVITY
 RILM.OHMM   07 120 44 00:   INDUCTION LOG MEDIUM RESISTIVITY
 RFOC.OHMM   07 220 04 00:   RESISTIVITY FOCUSED LOG
 PORD.DEC    45 890 12 00:   POROSITY DENSITY SANDSTONE
 CNC .DEC    42 890 03 00:   NEUTRON POROSITY SANDSTONE
 CORR.G/C3   45 356 01 00:   DENSITY CORRECTION
 DEN .G/C3   45 350 01 00:   COMPENSATED BULK DENSTIY
~PARAMETER INFORMATION
#MNEM.UNIT          VALUE    DESCRIPTION
#----------   ------------   ------------------------------
 PD  .                 GL:   PERMANENT DATUM
 EPD .F              5242:   ELEVATION PERMANENT DATUM
 LMF .                 KB:   LOG MEASURED FROM
 DAPD.F                11:   FEET ABOVE PERMANENT DATUM
 DMF .                 KB:   DRILLING MEASURED FROM
 EKB .F              5253:   KELLING BUSHING
 EGL .F              5242:   GROUND LEVEL
 DATE.            6-17-86:   RUN DATE
 RUN .                  1:   RUN NUMBER
 DD  .F              3200:   DEPTH DRILLER
 DL  .F              3202:   DEPTH LOGGER
 BLI .F              3200:   BOTTOM LOG INTERVAL
 CS  .IN            8.625:   CASING SIZE
 CBD .F               573:   CASING BOTTOM DRILLER
 CBL .F               573:   CASING BOTTOM LOGGER
 BS  .IN            7.875:   BIT SIZE
 BSD .F              3200:   BIT SIZE AT DEPTH
 DFT .            KCL/GEL:   DRILLING FLUID TYPE
 DFD .                8.9:   DRILLING FLUID DENSITY
 DFV .                 37:   DRILLING FLUID VISCOSITY
 DFPH.                8.5:   DRILLING FLUID PH
 DFL .               10.2:   DRILLING FLUID LOSS
 MSS .           MUD TANK:   MUD SAMPLE SOURCE
 RMS .OHMM            .39:   RESISTIVITY MUD SAMPLE
 MST .F                80:   MUD SAMPLE TEMPERATURE
 RMF .OHMM            .29:   RESISTIVITY MUD FILTRATE SAMPLE
 MFST.F                80:   MUD FILTRATE SAMPLE TEMPERATURE
 RMC .OHMM            .49:   RESISTIVITY MUD CAKE
 MCST.F                80:   MUD CAKE SAMPLE TEMPERATURE
 MFSS.               CALC:   MUD FILTRATE SAMPLE SOURCE
 MCSS.               CALC:   MUD CAKE SAMPLE SOURCE
 RMB .OHMM            .24:   RESISTIVITY MUD AT BHT
 BHT .F               130:   BOTTOM HOLE TEMPERATURE
 TCS .HRS               5:   TIME CURCULATED STOPPED
 MRT .F               130:   MAXIMUM RECORDED TEMPERATURE
 LUN .            HL 6264:   LOGGING UNIT NUMBER
 LUL .           GILLETTE:   LOGGING UNIT LOCATION
 ENGI.      P.H. FAHLSING:   RECORDING ENGINEER
 WITN.             STRONG:   WITNESSED BY
 CLNT.            A2DTECH:   CLIENT CODE
 UWI .       490251104300:   UNIQUE WELL ID
 DICO. A2D Technologies, Inc.:   DIGITIZING COMPANY
~OTHER INFORMATION
~A    DEPT     GRR       CALR        SPR       RILD       RILM       RFOC       PORD        CNC       CORR        DEN   
# ...
  912.5000    98.2016    10.1492   -49.8487     8.7231     8.3576     8.7934  -999.2500  -999.2500  -999.2500  -999.2500
  913.0000    94.6213    10.1497   -49.6896     8.6630     8.3576     8.7928  -999.2500  -999.2500  -999.2500  -999.2500
  913.5000    91.0410    10.1351   -49.5305     8.6630     8.3576     8.7921  -999.2500  -999.2500  -999.2500  -999.2500
  914.0000    92.2655    10.1355   -49.5217     8.6630     8.3576     8.7915  -999.2500  -999.2500  -999.2500  -999.2500
  914.5000    95.5921    10.1360   -49.5128     8.7231     8.3576     8.7909  -999.2500  -999.2500  -999.2500  -999.2500
  915.0000    96.5163    10.1365   -49.5021     8.7231     8.3576     8.7903  -999.2500  -999.2500  -999.2500  -999.2500
  915.5000    94.0439    10.1220   -49.4933     8.7231     8.3576     8.7291  -999.2500  -999.2500  -999.2500  -999.2500
  916.0000    90.8631    10.1224   -49.6350     8.7231     8.3576     8.7284  -999.2500  -999.2500  -999.2500  -999.2500
  916.5000    91.4870    10.1228   -49.6262     8.7231     8.3576     8.7278  -999.2500  -999.2500  -999.2500  -999.2500
  917.0000    96.6154    10.1082   -49.7679     8.7231     8.3576     8.7272  -999.2500  -999.2500  -999.2500  -999.2500
  917.5000    99.3414    10.1087   -49.6088     8.7231     8.3576     8.6665  -999.2500  -999.2500  -999.2500  -999.2500
  918.0000    99.6592    10.0918   -49.7504     8.7231     8.3576     8.6659  -999.2500  -999.2500  -999.2500  -999.2500
  918.5000    95.4841    10.0796   -49.7629     8.7231     8.3576     8.6056  -999.2500  -999.2500  -999.2500  -999.2500
  919.0000    87.9516    10.0801   -49.8833     8.6630     8.3576     8.5450  -999.2500  -999.2500  -999.2500  -999.2500
  919.5000    83.8190    10.0955   -49.8724     8.6630     8.3576     8.5228  -999.2500  -999.2500  -999.2500  -999.2500
  920.0000    90.4547    10.0960   -49.8636     8.6630     8.3576     8.5007  -999.2500  -999.2500  -999.2500  -999.2500
  920.5000    94.6822    10.0964   -50.0075     8.6630     8.3576     8.4785  -999.2500  -999.2500  -999.2500  -999.2500
  921.0000    94.7055    10.0969   -50.1469     8.6033     8.2999     8.4563  -999.2500  -999.2500  -999.2500  -999.2500
  921.5000    95.0291    10.0973   -50.1382     8.6033     8.2961     8.4341  -999.2500  -999.2500  -999.2500  -999.2500
  922.0000    97.1546    10.0978   -50.2798     8.5440     8.1858     8.4119  -999.2500  -999.2500  -999.2500  -999.2500
  922.5000   100.4812    10.0983   -50.1185     8.4851     8.1293     8.3897  -999.2500  -999.2500  -999.2500  -999.2500
  923.0000   102.9089    10.0987   -50.1098     8.4266     8.0732     8.3654  -999.2500  -999.2500  -999.2500  -999.2500
  923.5000   101.1954    10.0991   -49.9507     8.3686     7.9072     8.2498  -999.2500  -999.2500  -999.2500  -999.2500
  924.0000    94.8512    10.1146   -49.7925     8.3071     7.7984     8.1924  -999.2500  -999.2500  -999.2500  -999.2500
  924.5000    95.7754    10.1303   -49.7835     8.1968     7.7446     8.0793  -999.2500  -999.2500  -999.2500  -999.2500
  925.0000   101.8047    10.1604   -49.7744     8.0842     7.7446     8.0694  -999.2500  -999.2500  -999.2500  -999.2500
  925.5000   100.0262    10.1759   -49.7654     8.0285     7.6912     8.0223  -999.2500  -999.2500  -999.2500  -999.2500
  926.0000    94.6441    10.1764   -49.7564     8.0285     7.6381     8.0218  -999.2500  -999.2500  -999.2500  -999.2500
  926.5000    96.4692    10.1768   -49.8982     7.9732     7.5854     8.0213  -999.2500  -999.2500  -999.2500  -999.2500
  927.0000   101.5976    10.1622   -49.8873     7.9182     7.5854     7.9654  -999.2500  -999.2500  -999.2500  -999.2500
  927.5000   102.5576    10.1627   -50.0311     7.8637     7.5854     8.0202  -999.2500  -999.2500  -999.2500  -999.2500
  928.0000   103.4519    10.1481   -50.0202     7.8637     7.6381     8.0197  -999.2500  -999.2500  -999.2500  -999.2500
  928.5000   102.2740    10.1486   -50.0115     7.8637     7.6381     8.0191  -999.2500  -999.2500  -999.2500  -999.2500
  929.0000   100.7958    10.1491   -50.0027     7.8637     7.5854     7.9632  -999.2500  -999.2500  -999.2500  -999.2500
  929.5000    98.7170    10.1495   -49.9940     7.8095     7.4810     7.9626  -999.2500  -999.2500  -999.2500  -999.2500
  930.0000    94.5361    10.1650   -49.9850     7.8095     7.4294     7.9621  -999.2500  -999.2500  -999.2500  -999.2500
  930.5000    89.7546    10.1654   -49.9743     7.7557     7.3272     7.9067  -999.2500  -999.2500  -999.2500  -999.2500
  931.0000    91.2794    10.1808   -49.9656     7.7022     7.2767     7.8516  -999.2500  -999.2500  -999.2500  -999.2500
  931.5000    93.7367    10.1813   -49.9569     7.6987     7.1766     7.8511  -999.2500  -999.2500  -999.2500  -999.2500
  932.0000    95.8363    10.1968   -49.9481     7.5964     6.9805     7.8504  -999.2500  -999.2500  -999.2500  -999.2500
  932.5000    97.9617    10.1972   -49.7890     7.3383     6.7898     7.8499  -999.2500  -999.2500  -999.2500  -999.2500
  933.0000    99.7868    10.1977   -49.7803     6.9916     6.5982     7.7952  -999.2500  -999.2500  -999.2500  -999.2500
  933.5000   100.7111    10.1981   -49.6145     6.6153     6.2053     7.7410  -999.2500  -999.2500  -999.2500  -999.2500
  934.0000   100.1338    10.1985   -49.1609     6.2593     5.7104     7.5291  -999.2500  -999.2500  -999.2500  -999.2500
  934.5000    96.2532    10.1990   -48.6992     5.9225     5.3284     6.6011  -999.2500  -999.2500  -999.2500  -999.2500
  935.0000    89.6699    10.1539   -48.3897     5.8009     5.2188     5.8654  -999.2500  -999.2500  -999.2500  -999.2500
  935.5000    84.5615    10.1100   -48.0802     5.7609     5.4402     5.5133  -999.2500  -999.2500  -999.2500  -999.2500
  936.0000    86.7193    10.0803   -47.9211     5.8009     5.7901     5.2524  -999.2500  -999.2500  -999.2500  -999.2500
  936.5000    88.8447    10.0509   -47.9124     6.1308     6.0834     6.3308  -999.2500  -999.2500  -999.2500  -999.2500
  937.0000    90.3695    10.0212   -47.7533     6.4348     6.5135     7.0228  -999.2500  -999.2500  -999.2500  -999.2500
  937.5000    91.8943    10.0218   -47.8949     6.8008     6.7898     7.5778  -999.2500  -999.2500  -999.2500  -999.2500
  938.0000    93.7194    10.0222   -47.8840     7.1381     6.9323     7.6886  -999.2500  -999.2500  -999.2500  -999.2500
  938.5000    95.5445    10.0226   -47.8753     7.3892     7.0290     7.3699  -999.2500  -999.2500  -999.2500  -999.2500
  939.0000    94.9672    10.0232   -48.0191     7.5999     7.0779     7.1188  -999.2500  -999.2500  -999.2500  -999.2500
  939.5000    93.1662    10.0236   -48.6096     7.7022     7.1270     6.9239  -999.2500  -999.2500  -999.2500  -999.2500
  940.0000    91.7105    10.0240   -49.0520     7.7557     7.1766     6.9235  -999.2500  -999.2500  -999.2500  -999.2500
  940.5000    96.5445    10.0094   -49.4944     7.6665     7.2264     6.9229  -999.2500  -999.2500  -999.2500  -999.2500
  941.0000   101.0723     9.9948   -49.6361     7.5964     7.2767     6.9706  -999.2500  -999.2500  -999.2500  -999.2500
  941.5000   104.6992     9.9954   -49.7960     7.5964     7.2767     7.0186  -999.2500  -999.2500  -999.2500  -999.2500
  942.0000   105.3231     9.9958   -49.9194     7.5441     7.2767     7.1158  -999.2500  -999.2500  -999.2500  -999.2500
  942.5000   101.1422     9.9963   -49.9084     7.5441     7.2767     7.2646  -999.2500  -999.2500  -999.2500  -999.2500
  943.0000   100.2646     9.9968   -49.8997     7.5441     7.2264     7.5720  -999.2500  -999.2500  -999.2500  -999.2500
  943.5000   100.2883     9.9972   -50.0435     7.5441     7.1766     7.7914  -999.2500  -999.2500  -999.2500  -999.2500
  944.0000   100.9176     9.9976   -50.0326     7.5441     7.1270     7.9468  -999.2500  -999.2500  -999.2500  -999.2500
  944.5000   102.7428    10.0131   -50.0238     7.5964     7.1270     7.7828  -999.2500  -999.2500  -999.2500  -999.2500
  945.0000   101.8652    10.0135   -50.0150     7.5964     7.1766     7.5699  -999.2500  -999.2500  -999.2500  -999.2500
  945.5000    98.2849     9.9989   -50.0060     7.7022     7.2264     7.5172  -999.2500  -999.2500  -999.2500  -999.2500
