~VERSION INFORMATION
 VERS.                2.0:   CWLS LOG ASCII STANDARD - VERSION 2.0
 WRAP.                 NO:   ONE LINE PER DEPTH STEP
~WELL INFORMATION
#MNEM.UNIT      DATA TYPE    INFORMATION
#----------   ------------   ------------------------------
 STRT.F           24.0000:   START DEPTH
 STOP.F          570.0000:   STOP DEPTH
 STEP.F            0.5000:   STEP LENGTH
 NULL.          -999.2500:   NO VALUE
 COMP. FENIX & SCISSON INC:   COMPANY
 WELL.   NPR-3 #32SX10-10:   WELL
 FLD .  TEAPOT COME NPR-3:   FIELD
 LOC .      S10 T38N R78W:   LOCATION
 CNTY.            NATRONA:   COUNTY
 STAT.            WYOMING:   STATE
 CTRY. UNITED STATES OF AMERICA:   COUNTRY
 SRVC.            Unknown:   SERVICE COMPANY
 DATE.        27-JUN-1978:   LOGDATE
 API .       490251065300:   API NUMBER
~CURVE INFORMATION
#MNEM.UNIT       API CODE    CURVE DESCRIPTION
#----------   ------------   ------------------------------
 DEPT.F                  :   
 CALD.IN     45 280 60 00:   CALIPER FROM DENSITY LOG
 GRD .GAPI   45 310 01 00:   GAMMA RAY FROM DENSITY LOG
 CORR.G/C3   45 356 01 00:   DENSITY CORRECTION
 DPHI.DEC    45 890 12 00:   DENSITY POROSITY SANDSTONE
 RHOB.G/C3   45 350 01 00:   BULK DENSITY
 SPR .MV     05 010 01 00:   SPONTANEOUS POTENTIAL FROM RES.
 SN  .OHMM   05 040 16 00:   SHORT NORMAL 16"
 ILD .OHMM   05 120 46 00:   INDUCTION LOG DEEP
~PARAMETER INFORMATION
#MNEM.UNIT          VALUE    DESCRIPTION
#----------   ------------   ------------------------------
 PD  .                 GL:   PERMANENT DATUM
 EPD .F              5239:   ELEVATION PERMANENT DATUM
 LMF .                 GL:   LOG MEASURED FROM
 DAPD.F                 4:   FEET ABOVE PERMANENT DATUM
 DMF .                 GL:   DRILLING MEASURED FROM
 EKB .F              5243:   KELLING BUSHING
 EGL .F              5239:   GROUND LEVEL
 DATE.        27-JUN-1978:   RUN DATE
 RUN .                  1:   RUN NUMBER
 DD  .F               565:   DEPTH DRILLER
 DL  .F               574:   DEPTH LOGGER
 BLI .F               572:   BOTTOM LOG INTERVAL
 TLI .F                30:   TOP LOG INTERVAL
 CS  .IN            8.625:   CASING SIZE
 CBD .F                40:   CASING BOTTOM DRILLER
 CBL .F                40:   CASING BOTTOM LOGGER
 BS  .IN            7.875:   BIT SIZE
 BSD .F               565:   BIT SIZE AT DEPTH
 DFT .                KCL:   DRILLING FLUID TYPE
 DFD .                8.7:   DRILLING FLUID DENSITY
 DFV .                 35:   DRILLING FLUID VISCOSITY
 DFPH.                 10:   DRILLING FLUID PH
 DFL .                 14:   DRILLING FLUID LOSS
 MSS .           FLOWLINE:   MUD SAMPLE SOURCE
 RMS .OHMM            .36:   RESISTIVITY MUD SAMPLE
 MST .F                78:   MUD SAMPLE TEMPERATURE
 RMF .OHMM             .3:   RESISTIVITY MUD FILTRATE SAMPLE
 MFST.F                86:   MUD FILTRATE SAMPLE TEMPERATURE
 RMC .OHMM            .36:   RESISTIVITY MUD CAKE
 MCST.F                87:   MUD CAKE SAMPLE TEMPERATURE
 MFSS.               MEAS:   MUD FILTRATE SAMPLE SOURCE
 MCSS.               MEAS:   MUD CAKE SAMPLE SOURCE
 RMB .OHMM            3.9:   RESISTIVITY MUD AT BHT
 BHT .F                72:   BOTTOM HOLE TEMPERATURE
 TCS .HRS            0300:   TIME CURCULATED STOPPED
 MRT .F                72:   MAXIMUM RECORDED TEMPERATURE
 LUN .               2938:   LOGGING UNIT NUMBER
 LUL .               CASP:   LOGGING UNIT LOCATION
 ENGI.            POINTER:   RECORDING ENGINEER
 WITN.         ZARGARNIAN:   WITNESSED BY
 CLNT.            A2DTECH:   CLIENT CODE
 ORIG.     2.5", 5" PRINT:   ORIGIN OF DATA
 UWI .       490251065300:   UNIQUE WELL ID
 DICO. A2D Technologies, Inc.:   DIGITIZING COMPANY
~OTHER INFORMATION
~A   DEPT     CALD         GRD      CORR       DPHI       RHOB        SPR         SN        ILD   
# ...
  226.5000     7.3759   131.9915     0.0180     0.1271     2.4750   -25.8299     7.9840     8.5337
  227.0000     7.3783   127.2943     0.0197     0.1265     2.4744   -25.8816     7.8753     8.5343
  227.5000     7.3801   124.1294     0.0216     0.1225     2.4768   -26.1766     7.8753     8.4188
  228.0000     7.3973   124.1695     0.0234     0.1222     2.4830   -26.4358     7.8753     8.4194
  228.5000     7.4292   124.9282     0.0250     0.1221     2.4824   -26.7373     7.7681     8.4200
  229.0000     7.5058   129.5560     0.0253     0.1221     2.4818   -27.0388     7.7681     8.4206
  229.5000     7.5525   135.5230     0.0255     0.1217     2.4812   -27.0582     7.7681     8.3067
  230.0000     7.5993   134.7936     0.0258     0.1213     2.4821   -27.3433     7.7681     8.3073
  230.5000     7.6014   134.6558     0.0245     0.1192     2.4860   -27.3463     7.7681     8.3079
  231.0000     7.6034   134.5216     0.0232     0.1139     2.4929   -27.3493     7.7681     8.3084
  231.5000     7.5901   133.6471     0.0205     0.1119     2.4983   -27.3523     7.7681     8.3090
  232.0000     7.5777   129.0486     0.0177     0.1121     2.5015   -27.3553     7.6624     8.3095
  232.5000     7.5798   127.8728     0.0151     0.1166     2.4979   -27.3583     7.6624     8.3101
  233.0000     7.5818   127.4410     0.0138     0.1174     2.4905   -27.3613     7.5581     8.3106
  233.5000     7.5690   127.1578     0.0111     0.1174     2.4884   -27.3644     7.4552     8.3112
  234.0000     7.5710   127.7680     0.0083     0.1176     2.4879   -27.3674     7.4119     8.3118
  234.5000     7.5732   129.1219     0.0056     0.1182     2.4873   -27.3704     7.3537     8.2540
  235.0000     7.5757   124.9405     0.0059     0.1214     2.4852   -27.3734     7.3137     8.0335
  235.5000     7.5623   123.8948     0.0046     0.1253     2.4792   -27.3764     7.2154     7.8189
  236.0000     7.5351   122.7707     0.0034     0.1267     2.4749   -27.3794     7.1185     7.7641
  236.5000     7.4924   122.9342     0.0036     0.1269     2.4736   -27.6810     6.9614     7.7647
  237.0000     7.3305   123.8417     0.0023     0.1281     2.4738   -27.6840     6.8342     7.7652
  237.5000     7.2581   125.6420     0.0041     0.1314     2.4718   -27.6870     6.7425     7.7657
  238.0000     7.2298   124.9126     0.0044     0.1334     2.4667   -27.6900     6.5900     7.6607
  238.5000     7.2324   125.5225     0.0061     0.1351     2.4616   -27.6930     6.6179     7.6612
  239.0000     7.2344   127.1741     0.0094     0.1360     2.4595   -27.6961     6.6810     7.6618
  239.5000     7.2365   127.6315     0.0111     0.1362     2.4589   -27.4006     6.7068     7.6623
  240.0000     7.2386   126.0129     0.0145     0.1365     2.4575   -27.4030     6.8666     7.6628
  240.5000     7.2406   125.4286     0.0176     0.1379     2.4562   -27.2333     6.9614     7.5591
  241.0000     7.2576   125.2976     0.0194     0.1399     2.4534   -27.1104     6.9845     7.5597
  241.5000     7.2745   124.4199     0.0197     0.1438     2.4505   -27.1134     7.0796     7.5602
  242.0000     7.2921   121.6072     0.0199     0.1444     2.4484   -27.1164     7.1760     7.5608
  242.5000     7.3696   120.2826     0.0186     0.1362     2.4501   -27.1194     7.2536     7.5613
  243.0000     7.4173   120.2972     0.0159     0.1289     2.4660   -27.1224     7.2536     7.5618
  243.5000     7.4472   119.6910     0.0117     0.1250     2.4759   -27.1254     7.2709     7.5623
  244.0000     7.4642   114.8242     0.0089     0.1237     2.4790   -27.1283     7.3537     7.5628
  244.5000     7.4513   114.5376     0.0061     0.1237     2.4792   -27.1313     7.3537     7.5633
  245.0000     7.4379   116.1928     0.0049     0.1236     2.4778   -27.1343     7.3537     7.5638
  245.5000     7.4102   122.9039     0.0052     0.1236     2.4780   -27.1373     7.2536     7.4615
  246.0000     7.3824   127.0852     0.0040     0.1235     2.4781   -27.2418     7.2431     7.3473
  246.5000     7.3547   127.8439     0.0042     0.1235     2.4790   -27.4418     7.0575     7.1510
  247.0000     7.3418   129.1978     0.0045     0.1234     2.4793   -27.4447     6.9538     6.8562
  247.5000     7.3444   129.9529     0.0048     0.1234     2.4801   -27.4477     6.7670     6.5912
  248.0000     7.3763   126.2509     0.0050     0.1245     2.4794   -27.7493     6.5900     6.4151
  248.5000     7.4379   128.3489     0.0068     0.1248     2.4775   -27.7522     6.4083     6.2438
  249.0000     7.4847   130.1493     0.0070     0.1241     2.4761   -27.4564     6.2340     6.1635
  249.5000     7.5017   129.5687     0.0088     0.1153     2.4860   -27.4034     5.9850     6.1639
  250.0000     7.5186   124.5238     0.0106     0.1129     2.4924   -27.1639     5.7460     6.1643
  250.5000     7.5208   123.4968     0.0119     0.1141     2.4961   -27.1239     5.5906     6.2497
  251.0000     7.5231   123.5119     0.0132     0.1050     2.5028   -26.8348     5.5906     6.4236
  251.5000     7.5253   122.9345     0.0145     0.0984     2.5194   -26.5458     5.5906     6.5125
  252.0000     7.5280   121.3123     0.0158     0.0962     2.5232   -25.9820     5.9872     6.7859
  252.5000     7.5147   121.7733     0.0163     0.0956     2.5233   -25.6865     6.4118     7.0708
  253.0000     7.5175   124.9130     0.0166     0.0953     2.5234   -25.6786     6.6810     7.2676
  253.5000     7.5197   132.7696     0.0169     0.0952     2.5243   -25.3940     6.9614     7.4697
  254.0000     7.5219   132.0892     0.0172     0.0955     2.5251   -25.6955     6.9614     7.6775
  254.5000     7.5241   130.5543     0.0174     0.0957     2.5245   -25.6986     7.1549     7.8911
  255.0000     7.5108   131.9209     0.0177     0.0960     2.5246   -25.7016     7.2536     8.1107
  255.5000     7.5136   135.2132     0.0180     0.0950     2.5254   -26.0031     7.3537     8.3363
  256.0000     7.5158   139.0999     0.0167     0.0896     2.5289   -26.0061     7.3537     8.4518
  256.5000     7.5180   139.7177     0.0154     0.0839     2.5423   -26.0091     7.3537     8.4523
  257.0000     7.5351   137.9580     0.0143     0.0826     2.5474   -26.0121     7.4552     8.4529
  257.5000     7.5522   126.9859     0.0130     0.0856     2.5490   -26.0152     7.5581     8.4535
  258.0000     7.5693   119.7285     0.0088     0.0996     2.5184   -26.3167     7.6624     8.5706
  258.5000     7.5715   120.3462     0.0060     0.1014     2.5125   -26.6182     7.6624     8.5712
  259.0000     7.5737   121.2612     0.0018     0.1025     2.5111   -26.6212     7.7681     8.5718
  259.5000     7.5610   122.0275    -0.0023     0.1100     2.5097   -26.6242     7.8753     8.5724
  260.0000     7.5340   122.3481    -0.0051     0.1241     2.4784   -27.2243     7.9840     8.5729
  260.5000     7.4909   121.7771    -0.0078     0.1273     2.4732   -27.2273     7.9840     8.5735
  261.0000     7.5086   121.2062    -0.0075     0.1279     2.4703   -27.5288     7.9840     8.5741
  261.5000     7.5406   125.7614    -0.0088     0.1374     2.4539   -27.5318     7.9840     8.5747
  262.0000     7.5726   127.3739    -0.0085     0.1434     2.4458   -27.5349     7.9840     8.5752
  262.5000     7.6046   127.8201    -0.0082     0.1469     2.4414   -27.5379     7.9840     8.5758
  263.0000     7.6217   127.6950    -0.0080     0.1505     2.4370   -27.2418     7.9840     8.5764
  263.5000     7.6388   127.2726    -0.0077     0.1525     2.4318   -27.2448     7.8753     8.4604
  264.0000     7.6559   125.5129    -0.0074     0.1549     2.4265   -27.2477     7.8753     8.4610
  264.5000     7.6283   124.7934    -0.0057     0.1605     2.4203   -27.2507     7.7681     8.4616
  265.0000     7.6007   124.9654    -0.0054     0.1662     2.4074   -27.2538     7.7681     8.4621
  265.5000     7.5582   128.2577    -0.0036     0.1719     2.4023   -27.2567     7.7681     8.4626
  266.0000     7.5157   136.3049    -0.0033     0.1772     2.3956   -27.2597     7.6624     8.3482
  266.5000     7.4732   140.7298    -0.0015     0.1889     2.3823   -27.2627     7.6040     8.2977
