~VERSION INFORMATION
 VERS.                2.0:   CWLS LOG ASCII STANDARD - VERSION 2.0
 WRAP.                 NO:   ONE LINE PER DEPTH STEP
~WELL INFORMATION
#MNEM.UNIT      DATA TYPE    INFORMATION
#----------   ------------   ------------------------------
 STRT.F           80.0000:   START DEPTH
 STOP.F          744.0000:   STOP DEPTH
 STEP.F            0.5000:   STEP LENGTH
 NULL.          -999.2500:   NO VALUE
 COMP.               NAVY:   COMPANY
 WELL. RES 3 TEAPOT DOM #44-S-11:   WELL
 FLD .             TEAPOT:   FIELD
 LOC .      S11 T38N R78W:   LOCATION
 CNTY.            NATRONA:   COUNTY
 STAT.            WYOMING:   STATE
 CTRY. UNITED STATES OF AMERICA:   COUNTRY
 SRVC.       Schlumberger:   SERVICE COMPANY
 DATE.        09-JUL-1962:   LOGDATE
 API .       490250634600:   API NUMBER
~CURVE INFORMATION
#MNEM.UNIT       API CODE    CURVE DESCRIPTION
#----------   ------------   ------------------------------
 DEPT.F                  :   
 SPR .MV     05 010 01 00:   SPONTANEOUS POTENTIAL FROM RES.
 ASN .OHMM   05 041 16 00:   AMPLIFIED SHORT NORMAL 16"
 ILD .OHMM   05 120 46 00:   INDUCTION LOG DEEP
 CILD.MMHO   05 110 46 00:   CONDUCTIVITY INDUCTION LOG DEEP
 GR  .GAPI   30 310 01 00:   GAMMA RAY
~PARAMETER INFORMATION
#MNEM.UNIT          VALUE    DESCRIPTION
#----------   ------------   ------------------------------
 PD  .                 KB:   PERMANENT DATUM
 EPD .F              5182:   ELEVATION PERMANENT DATUM
 EKB .F              5182:   KELLING BUSHING
 EGL .F              5177:   GROUND LEVEL
 DATE.        09-JUL-1962:   RUN DATE
 RUN .                  1:   RUN NUMBER
 DD  .F               745:   DEPTH DRILLER
 DL  .F               745:   DEPTH LOGGER
 BLI .F               744:   BOTTOM LOG INTERVAL
 TLI .F                90:   TOP LOG INTERVAL
 BS  .IN             6.75:   BIT SIZE
 BSD .F               745:   BIT SIZE AT DEPTH
 DFT .           OIL EMUL:   DRILLING FLUID TYPE
 DFD .               10.3:   DRILLING FLUID DENSITY
 DFV .                 50:   DRILLING FLUID VISCOSITY
 DFL .                3.4:   DRILLING FLUID LOSS
 RMS .OHMM            7.0:   RESISTIVITY MUD SAMPLE
 MST .F                73:   MUD SAMPLE TEMPERATURE
 RMF .OHMM            4.5:   RESISTIVITY MUD FILTRATE SAMPLE
 MFST.F                73:   MUD FILTRATE SAMPLE TEMPERATURE
 RMC .OHMM           13.5:   RESISTIVITY MUD CAKE
 MCST.F                73:   MUD CAKE SAMPLE TEMPERATURE
 MFSS.               MEAS:   MUD FILTRATE SAMPLE SOURCE
 MCSS.               MEAS:   MUD CAKE SAMPLE SOURCE
 TCS .HRS            0030:   TIME CURCULATED STOPPED
 LUN .               2503:   LOGGING UNIT NUMBER
 LUL .               CSPR:   LOGGING UNIT LOCATION
 ENGI.           ELLERMAN:   RECORDING ENGINEER
 WITN.          JORGENSON:   WITNESSED BY
 CLNT.            A2DTECH:   CLIENT CODE
 ORIG.           5" PRINT:   ORIGIN OF DATA
 UWI .       490250634600:   UNIQUE WELL ID
 DICO. A2D Technologies, Inc.:   DIGITIZING COMPANY
~OTHER INFORMATION
~A   DEPT      SPR        ASN        ILD       CILD         GR   
# ...
  263.0000   -55.2683     7.3139     7.2214   137.0521  -999.2500
  263.5000   -55.2776     7.3428     7.2161   136.8337  -999.2500
  264.0000   -55.2866     7.3872     7.2104   136.6152  -999.2500
  264.5000   -55.4512     7.4611     7.2814   136.3967  -999.2500
  265.0000   -56.0772     7.5504     7.3521   136.1782  -999.2500
  265.5000   -56.3983     7.5945     7.4227   135.9597  -999.2500
  266.0000   -56.7196     7.5990     7.4933   135.7412  -999.2500
  266.5000   -57.3158     7.5167     7.5639   135.5228  -999.2500
  267.0000   -57.0200     7.4401     7.6345   135.3043  -999.2500
  267.5000   -55.9619     7.4087     7.7051   135.0858  -999.2500
  268.0000   -55.9710     7.4377     7.7757   134.8673  -999.2500
  268.5000   -55.9800     7.5012     7.8463   134.6488  -999.2500
  269.0000   -55.9891     7.6186     7.9169   134.4303  -999.2500
  269.5000   -55.9981     7.7355     7.9103   133.5195  -999.2500
  270.0000   -55.8547     7.8550     7.9050   131.3173  -999.2500
  270.5000   -55.8638     7.9446     7.8998   130.6280  -999.2500
  271.0000   -55.5657     7.8979     7.6669   132.2088  -999.2500
  271.5000   -55.5770     7.7911     7.4340   133.8682  -999.2500
  272.0000   -55.8909     7.6692     7.2770   137.0045  -999.2500
  272.5000   -56.3572     7.4720     6.9682   141.5033  -999.2500
  273.0000   -56.5187     7.2596     6.8871   145.3526  -999.2500
  273.5000   -56.5278     7.1076     6.8060   148.4454  -999.2500
  274.0000   -55.9270     7.0159     6.8007   151.5383  -999.2500
  274.5000   -55.3263     6.9845     6.7954   153.1183  -999.2500
  275.0000   -54.7256     6.9532     6.7902   154.6983  -999.2500
  275.5000   -55.0468     6.8615     6.7849   153.2357  -999.2500
  276.0000   -55.5061     6.8603     6.7796   152.5464  -999.2500
  276.5000   -55.6677     6.8894     6.7744   152.6304  -999.2500
  277.0000   -55.6768     6.9334     6.7691   154.2103  -999.2500
  277.5000   -55.6877     6.9002     6.7638   155.7903  -999.2500
  278.0000   -55.5420     6.8503     6.7585   158.1267  -999.2500
  278.5000   -55.5533     6.7636     6.7533   158.9503  -999.2500
  279.0000   -55.4077     6.7021     6.7480   158.2602  -999.2500
  279.5000   -55.1119     6.6858     6.7427   156.8153  -999.2500
  280.0000   -55.4280     6.6846     6.7375   155.3695  -999.2500
  280.5000   -55.8944     6.6985     6.7322   153.8326  -999.2500
  281.0000   -56.2083     6.8180     7.0354   152.3450  -999.2500
  281.5000   -56.0649     7.0128     7.4195   149.5195  -999.2500
  282.0000   -55.6144     7.2379     7.7028   146.5777  -999.2500
  282.5000   -55.1684     7.3875     7.7734   145.1152  -999.2500
  283.0000   -54.8725     7.4621     7.7668   142.1733  -999.2500
  283.5000   -54.5767     7.4153     7.7625   139.9712  -999.2500
  284.0000   -54.4329     7.4141     7.7562   137.7690  -999.2500
  284.5000   -55.2045     7.5185     7.7510   137.0629  -999.2500
  285.0000   -55.6709     7.5928     7.6698   137.1469  -999.2500
  285.5000   -56.1372     7.6368     7.5128   136.4408  -999.2500
  286.0000   -55.9898     7.5892     7.2799   138.0375  -999.2500
  286.5000   -55.3820     7.5117     7.1229   138.8611  -999.2500
  287.0000   -54.7744     7.4067     7.0418   140.4411  -999.2500
  287.5000   -54.6490     7.3452     6.9606   142.0211  -999.2500
  288.0000   -54.6603     7.2837     6.9554   142.8446  -999.2500
  288.5000   -54.6694     7.2221     6.9501   145.2042  -999.2500
  289.0000   -54.5237     7.1154     6.9448   148.3411  -999.2500
  289.5000   -54.5350     7.0388     6.9396   150.7208  -999.2500
  290.0000   -54.3893     7.0225     6.9339   152.2071  -999.2500
  290.5000   -54.4006     7.0213     7.0062   151.5178  -999.2500
  291.0000   -54.4097     7.0355     7.1514   149.2988  -999.2500
  291.5000   -54.4187     7.0792     7.2233   146.3570  -999.2500
  292.0000   -54.4278     7.0934     7.3698   144.1548  -999.2500
  292.5000   -54.5892     7.2126     7.5150   141.9527  -999.2500
  293.0000   -54.7507     7.3771     7.6616   139.7505  -999.2500
  293.5000   -55.0646     7.5569     7.9597   136.7919  -999.2500
  294.0000   -55.5310     7.7518     8.2579   132.3205  -999.2500
  294.5000   -55.8449     7.9618     8.3285   128.6055  -999.2500
  295.0000   -56.0064     8.0971     8.3232   125.6301  -999.2500
  295.5000   -56.0154     8.2328     8.3180   124.1982  -999.2500
  296.0000   -56.3294     8.2622     8.2367   125.0247  -999.2500
  296.5000   -56.4908     8.2143     8.0721   126.6047  -999.2500
  297.0000   -56.1870     8.1026     7.7708   129.6975  -999.2500
  297.5000   -55.2591     7.9358     7.6011   132.0728  -999.2500
  298.0000   -54.9936     7.8335     7.3040   135.2097  -999.2500
  298.5000   -55.0049     7.6809     7.1469   139.2258  -999.2500
  299.0000   -55.0139     7.4827     6.9141   144.3550  -999.2500
  299.5000   -55.1754     7.2997     6.7570   147.4478  -999.2500
  300.0000   -55.0297     7.1470     6.7518   149.9284  -999.2500
  300.5000   -55.0410     7.0247     6.8224   151.8849  -999.2500
  301.0000   -55.0501     7.0390     6.8171   153.8415  -999.2500
  301.5000   -54.9067     7.0685     6.9636   153.7163  -999.2500
  302.0000   -54.9157     7.1587     7.0355   153.0105  -999.2500
  302.5000   -54.9248     7.2792     7.1807   150.7942  -999.2500
  303.0000   -54.6289     7.4300     7.2526   147.0652  -999.2500
  303.5000   -54.4833     7.6576     7.4736   142.5493  -999.2500
  304.0000   -54.3399     7.9897     7.7719   138.7796  -999.2500
  304.5000   -54.3512     7.6701     7.8438   134.1427  -999.2500
  305.0000   -54.2363     7.6389     7.9131   132.1456  -999.2500
  305.5000   -54.7087     7.9109     7.9837   129.9417  -999.2500
  306.0000   -55.0256     8.2289     7.9784   127.7246  -999.2500
  306.5000   -55.1901     7.9850     8.0503   127.0074  -999.2500
  307.0000   -55.3546     7.9234     8.1209   128.5856  -999.2500
  307.5000   -55.5190     7.9377     8.1143   131.6636  -999.2500
  308.0000   -55.6835     7.9975     8.1852   131.7158  -999.2500
  308.5000   -55.8480     8.1030     8.1795   130.9986  -999.2500
  309.0000   -56.3174     8.0867     8.2504   128.7946  -999.2500
  309.5000   -56.6343     8.0858     8.2449   128.8468  -999.2500
  310.0000   -56.7988     8.1003     8.2397   128.1296  -999.2500
  310.5000   -57.1158     8.1146     8.1585   128.7586  -999.2500
  311.0000   -57.2805     8.1440     8.0774   130.0966  -999.2500
  311.5000   -57.2926     8.1126     7.9962   131.4346  -999.2500
  312.0000   -57.0024     8.0358     7.9059   132.7726  -999.2500
  312.5000   -56.0998     7.9287     7.7453   134.1105  -999.2500
  313.0000   -55.0448     7.8367     7.5240   135.4485  -999.2500
  313.5000   -55.8190     7.5925     7.4429   136.7865  -999.2500
  314.0000   -56.5933     7.4707     7.4376   138.1245  -999.2500
  314.5000   -57.0626     7.4698     7.4324   139.4625  -999.2500
  315.0000   -57.3796     7.4841     7.4271   140.8005  -999.2500
  315.5000   -57.3916     7.4984     7.4219   142.1385  -999.2500
  316.0000   -57.2482     7.4973     7.4166   143.1467  -999.2500
  316.5000   -57.1078     7.5269     7.4114   142.4421  -999.2500
  317.0000   -56.8150     7.5412     7.4833   141.7379  -999.2500
  317.5000   -56.5221     7.5249     7.4768   141.8032  -999.2500
  318.0000   -56.2323     7.5240     7.5478   141.8554  -999.2500
  318.5000   -55.9395     7.5231     7.5421   141.1513  -999.2500
  319.0000   -55.6466     7.5526     7.5364   141.2035  -999.2500
  319.5000   -54.4392     7.5820     7.5316   139.7429  -999.2500
  320.0000   -54.6037     7.6117     7.6024   138.2823  -999.2500
  320.5000   -55.2333     7.6411     7.6729   136.8217  -999.2500
  321.0000   -55.6951     7.6706     7.6676   135.3611  -999.2500
  321.5000   -55.8597     7.6998     7.6619   133.9005  -999.2500
  322.0000   -55.7189     7.7293     7.6563   133.1833  -999.2500
  322.5000   -54.6639     7.7739     7.7277   133.2486  -999.2500
  323.0000   -54.6789     7.8792     7.7979   134.0573  -999.2500
  323.5000   -55.7581     7.9545     7.8686   134.1095  -999.2500
