~VERSION INFORMATION
 VERS.                2.0:   CWLS LOG ASCII STANDARD - VERSION 2.0
 WRAP.                 NO:   ONE LINE PER DEPTH STEP
~WELL INFORMATION
#MNEM.UNIT      DATA TYPE    INFORMATION
#----------   ------------   ------------------------------
 STRT.F           28.0000:   START DEPTH
 STOP.F          463.0000:   STOP DEPTH
 STEP.F            0.5000:   STEP LENGTH
 NULL.          -999.2500:   NO VALUE
 COMP.    FENIX & SCISSON:   COMPANY
 WELL.  NPR-3 #74 S 10-10:   WELL
 FLD .        TEAPOT DOME:   FIELD
 LOC .      S10 T38N R78W:   LOCATION
 CNTY.            NATRONA:   COUNTY
 STAT.            WYOMING:   STATE
 CTRY. UNITED STATES OF AMERICA:   COUNTRY
 SRVC.           BIRDWELL:   SERVICE COMPANY
 DATE.        12-FEB-1978:   LOGDATE
 API .       490251057000:   API NUMBER
~CURVE INFORMATION
#MNEM.UNIT       API CODE    CURVE DESCRIPTION
#----------   ------------   ------------------------------
 DEPT.F                  :   
 ILD .OHMM   05 120 46 00:   INDUCTION LOG DEEP
 SN  .OHMM   05 040 16 00:   SHORT NORMAL 16"
 SPR .MV     05 010 01 00:   SPONTANEOUS POTENTIAL FROM RES.
 CALD.IN     45 280 60 00:   CALIPER FROM DENSITY LOG
 CORR.G/C3   45 356 01 00:   DENSITY CORRECTION
 DPHI.DEC    45 890 12 00:   DENSITY POROSITY SANDSTONE
 GRD .GAPI   45 310 01 00:   GAMMA RAY FROM DENSITY LOG
 RHOB.G/C3   45 350 01 00:   BULK DENSITY
~PARAMETER INFORMATION
#MNEM.UNIT          VALUE    DESCRIPTION
#----------   ------------   ------------------------------
 PD  .                 GL:   PERMANENT DATUM
 EPD .F              5183:   ELEVATION PERMANENT DATUM
 LMF .                 KB:   LOG MEASURED FROM
 DAPD.F                 4:   FEET ABOVE PERMANENT DATUM
 DMF .                 KB:   DRILLING MEASURED FROM
 EKB .F              5187:   KELLING BUSHING
 EGL .F              5183:   GROUND LEVEL
 DATE.        12-FEB-1978:   RUN DATE
 RUN .                  1:   RUN NUMBER
 DD  .F               465:   DEPTH DRILLER
 DL  .F               465:   DEPTH LOGGER
 BLI .F               463:   BOTTOM LOG INTERVAL
 TLI .F                40:   TOP LOG INTERVAL
 CS  .IN            8.625:   CASING SIZE
 CBD .F                39:   CASING BOTTOM DRILLER
 BS  .IN            7.875:   BIT SIZE
 BSD .F               465:   BIT SIZE AT DEPTH
 DFT .         LIGNO-SULF:   DRILLING FLUID TYPE
 DFD .                8.8:   DRILLING FLUID DENSITY
 DFV .                 34:   DRILLING FLUID VISCOSITY
 DFPH.                 10:   DRILLING FLUID PH
 DFL .                4.0:   DRILLING FLUID LOSS
 MSS .                PIT:   MUD SAMPLE SOURCE
 RMS .OHMM            1.3:   RESISTIVITY MUD SAMPLE
 MST .F                62:   MUD SAMPLE TEMPERATURE
 RMF .OHMM            1.4:   RESISTIVITY MUD FILTRATE SAMPLE
 MFST.F                62:   MUD FILTRATE SAMPLE TEMPERATURE
 MCST.F                62:   MUD CAKE SAMPLE TEMPERATURE
 MFSS.               MEAS:   MUD FILTRATE SAMPLE SOURCE
 RMB .OHMM            1.3:   RESISTIVITY MUD AT BHT
 BHT .F                62:   BOTTOM HOLE TEMPERATURE
 TCS .HRS               2:   TIME CURCULATED STOPPED
 MRT .F                70:   MAXIMUM RECORDED TEMPERATURE
 LUN .               2953:   LOGGING UNIT NUMBER
 LUL .             CASPER:   LOGGING UNIT LOCATION
 ENGI.            POINTER:   RECORDING ENGINEER
 WITN.          MC GINLEY:   WITNESSED BY
 CLNT.            A2DTECH:   CLIENT CODE
 ORIG.           5" PRINT:   ORIGIN OF DATA
 UWI .       490251057000:   UNIQUE WELL ID
 DICO. A2D Technologies, Inc.:   DIGITIZING COMPANY
~OTHER INFORMATION
~A   DEPT      ILD         SN        SPR       CALD       CORR       DPHI         GRD      RHOB   
# ...
  311.5000    21.7532    21.1301   -33.1964     8.0700     0.1689     0.1462    71.4634     2.4210
  312.0000    21.3139    20.9884   -33.1893     8.0703     0.1521     0.1458    71.9156     2.4187
  312.5000    20.5966    20.8491   -33.0346     8.0706     0.1321     0.1437    70.4137     2.4286
  313.0000    19.6301    20.8563   -32.8799     8.0709     0.1065     0.1401    68.1596     2.4316
  313.5000    19.3672    20.7178   -32.5764     8.0562     0.0770     0.1494    65.0032     2.4255
  314.0000    18.9761    20.5803   -32.7208     8.0565     0.0710     0.1551    62.5986     2.4104
  314.5000    18.7219    20.5860   -32.7134     8.0417     0.0695     0.1527    63.0512     2.4044
  315.0000    18.4711    20.3066   -32.8578     8.0421     0.0620     0.1524    65.4587     2.4165
  315.5000    18.2236    20.1718   -32.8504     8.0424     0.0530     0.1557    69.3700     2.4135
  316.0000    18.2301    19.7618   -32.6957     8.0426     0.0455     0.1617    71.6271     2.4082
  316.5000    17.9872    19.3616   -32.6898     8.0429     0.0410     0.1680    71.4782     2.3983
  317.0000    17.8678    19.2317   -32.8342     8.0432     0.0455     0.1602    70.1263     2.3908
  317.5000    17.6300    18.8422   -33.1259     8.0285     0.0486     0.1547    65.6166     2.4082
  318.0000    17.6360    18.5877   -33.1185     8.0138     0.0516     0.1520    65.6221     2.4112
  318.5000    17.6421    18.3367   -33.2629     8.0141     0.0547     0.1550    67.1594     2.4135
  319.0000    17.6481    18.2149   -33.2556     8.0145     0.0592     0.1607    69.8637     2.4135
  319.5000    17.5310    18.0941   -33.1008     8.0298     0.0623     0.1568    70.8857     2.4031
  320.0000    17.5385    17.8498   -32.7973     8.0451     0.0608     0.1421    68.1807     2.4203
  320.5000    17.6663    17.7313   -32.4938     8.0454     0.0593     0.1537    64.4228     2.4271
  321.0000    17.5490    17.7362   -32.1903     8.0457     0.0533     0.1532    63.6721     2.4254
  321.5000    17.4356    17.7412   -31.8868     8.0310     0.0565     0.1451    67.4333     2.4059
  322.0000    17.3199    17.4855   -31.4344     8.0313     0.0486     0.1391    70.8935     2.4346
  322.5000    17.0893    17.2651   -31.2797     8.0165     0.0413     0.1439    72.8498     2.4308
  323.0000    16.9774    17.0320   -30.8274     7.9867     0.0368     0.1450    73.4525     2.4316
  323.5000    16.6345    16.8020   -30.6726     7.9571     0.0354     0.1447    72.1009     2.4324
  324.0000    16.2986    16.4617   -30.8155     7.9423     0.0354     0.1432    68.9445     2.4308
  324.5000    16.3042    16.3513   -30.9585     7.9276     0.0354     0.1414    68.9460     2.4293
  325.0000    16.1971    16.0201   -30.9524     7.8979     0.0354     0.1399    68.7967     2.4324
  325.5000    16.0911    15.9137   -30.9453     7.9132     0.0355     0.1390    70.1520     2.4369
  326.0000    15.8756    15.9181   -30.9394     7.9285     0.0355     0.1450    70.7550     2.4346
  326.5000    15.8812    15.9225   -30.9335     7.9438     0.0355     0.1444    72.2602     2.4293
  327.0000    15.7771    15.8157   -30.9276     7.9742     0.0371     0.1429    71.9610     2.4286
  327.5000    15.7825    15.8211   -30.9217     7.9745     0.0386     0.1354    71.6617     2.4263
  328.0000    15.7880    15.8255   -30.7670     7.9898     0.0402     0.1351    71.2121     2.4467
  328.5000    15.7935    15.8298   -30.6122     7.9901     0.0432     0.1367    70.1609     2.4550
  329.0000    15.6899    15.8342   -30.6063     7.9904     0.0493     0.1410    72.2797     2.4376
  329.5000    15.8044    15.8386   -30.6004     8.0208     0.0584     0.1422    73.9624     2.4384
  330.0000    15.8109    15.8429   -30.4457     8.0511     0.0719     0.1398    73.3734     2.4346
  330.5000    15.8164    15.8473   -30.5901     8.0514     0.0754     0.1347    70.9069     2.4316
  331.0000    15.8218    15.8516   -30.5828     8.0517     0.0831     0.1305    68.5146     2.4407
  331.5000    15.8272    15.8560   -30.7271     8.0220     0.0932     0.1323    68.9672     2.4505
  332.0000    15.8326    15.8604   -31.0189     8.0072     0.0977     0.1356    69.7206     2.4407
  332.5000    15.7289    15.8647   -31.0115     7.9924     0.0932     0.1338    70.4739     2.4429
  333.0000    15.8435    15.8691   -31.1559     7.9928     0.0887     0.1308    71.3777     2.4467
  333.5000    15.8489    15.8735   -31.2988     7.9931     0.0842     0.1305    70.7776     2.4506
  334.0000    15.8543    15.8778   -31.2914     8.0084     0.0767     0.1340    67.1701     2.4528
  334.5000    15.8598    15.8822   -31.2855     8.0087     0.0722     0.1341    67.6227     2.4475
  335.0000    15.8652    15.8866   -31.1308     8.0090     0.0707     0.1292    68.8272     2.4437
  335.5000    15.9808    15.8910   -31.1249     7.9943     0.0723     0.1211    69.5806     2.4528
  336.0000    15.9862    15.8954   -30.9702     7.9946     0.0708     0.1251    68.3791     2.4603
  336.5000    15.9917    15.8998   -30.5164     7.9949     0.0723     0.1217    67.6283     2.4656
  337.0000    15.8856    15.9042   -30.2143     7.9952     0.0784     0.1136    70.1865     2.4769
  337.5000    15.8924    15.7985   -30.2083     7.9955     0.0799     0.1100    73.9474     2.4830
  338.0000    15.4642    15.9139   -30.3514     7.9808     0.0800     0.1121    75.3023     2.4830
  338.5000    15.0472    15.9183   -30.4943     7.9783     0.0800     0.1184    75.3148     2.4822
  339.0000    14.6418    15.8115   -30.4869     7.9513     0.0817     0.1187    74.4030     2.4785
  339.5000    14.6470    16.0379   -30.4810     7.9217     0.0846     0.1156    72.4406     2.4679
  340.0000    14.6520    16.2664   -30.9215     7.9069     0.0861     0.1120    70.9073     2.4815
  340.5000    14.9643    16.6129   -31.0659     7.8772     0.0741     0.1090    69.3940     2.4883
  341.0000    15.3906    16.9669   -31.0585     7.8775     0.0651     0.1170    67.5700     2.4724
  341.5000    17.3305    17.6927   -31.2015     7.8627     0.0636     0.1663    65.6890     2.4510
  342.0000    18.4639    18.9685   -31.4932     7.8631     0.0651     0.1951    64.6379     2.4269
  342.5000    20.0835    20.7640   -31.6376     7.8784     0.0682     0.2206    64.0379     2.3844
  343.0000    23.6491    23.6951   -32.0781     7.8636     0.0773     0.2380    63.5878     2.3197
  343.5000    29.2353    28.3851   -32.6660     7.8489     0.0909     0.2419    63.7401     2.2804
  344.0000    34.8739    35.9435   -32.8103     7.8342     0.1105     0.2299    63.7416     2.2593
  344.5000    37.1258    39.0737   -32.8030     7.8346     0.1090     0.2152    63.5923     2.3023
  345.0000    39.2508    41.6018   -32.7971     7.8198     0.1091     0.2287    62.9927     2.3054
  345.5000    41.2115    43.0816   -32.7912     7.8201     0.1136     0.2443    61.6408     2.2706
  346.0000    42.3818    44.3057   -32.7853     7.8204     0.1513     0.2485    59.6874     2.2593
  346.5000    42.9867    44.9369   -32.7794     7.8207     0.1966     0.2485    56.9821     2.2547
  347.0000    43.2998    44.6386   -32.6262     7.8360     0.2374     0.2469    58.1866     2.2570
  347.5000    43.3146    43.7310   -32.7679     7.8526     0.2832     0.2421    58.7896     2.2593
  348.0000    43.0272    42.8428   -32.7617     7.8667     0.3102     0.2307    56.9865     2.2623
  348.5000    43.0457    42.8545   -32.6070     7.8519     0.3161     0.2115    56.2361     2.2782
  349.0000    42.7637    42.5699   -32.3035     7.8372     0.3174     0.1860    55.9369     2.3107
  349.5000    43.0752    42.2874   -32.1488     7.8376     0.3129     0.1449    55.9384     2.3749
  350.0000    42.4964    41.7164   -32.1429     7.8529     0.2828     0.1518    56.2406     2.4271
  350.5000    41.9199    41.4373   -32.1295     7.8692     0.2828     0.1824    56.6935     2.4210
  351.0000    40.7819    40.5923   -32.1161     7.8982     0.2813     0.1890    56.8453     2.3771
  351.5000    38.8602    38.6766   -32.1001     7.8683     0.2737     0.1931    57.2979     2.3522
