~VERSION INFORMATION
 VERS.                2.0:   CWLS LOG ASCII STANDARD - VERSION 2.0
 WRAP.                 NO:   ONE LINE PER DEPTH STEP
~WELL INFORMATION
#MNEM.UNIT      DATA TYPE    INFORMATION
#----------   ------------   ------------------------------
 STRT.F          664.0000:   START DEPTH
 STOP.F         1880.0000:   STOP DEPTH
 STEP.F            0.5000:   STEP LENGTH
 NULL.          -999.2500:   NO VALUE
 COMP. LAWRENCE/ALLISON INC:   COMPANY
 WELL.     NPR 3 TX #42-3:   WELL
 FLD .             TEAPOT:   FIELD
 LOC .       S3 T38N R78W:   LOCATION
 CNTY.            NATRONA:   COUNTY
 STAT.            WYOMING:   STATE
 CTRY. UNITED STATES OF AMERICA:   COUNTRY
 SRVC.            Unknown:   SERVICE COMPANY
 DATE.        23-JUN-1984:   LOGDATE
 API .       490251096800:   API NUMBER
~CURVE INFORMATION
#MNEM.UNIT       API CODE    CURVE DESCRIPTION
#----------   ------------   ------------------------------
 DEPT.F                  :   
 ROP .MIN/FT 91 810 01 00:   RAT OF DRILLING PENETRATION
 TGAS.UNITS  91 830 01 00:   TOTAL GAS FROM HOTWIRE
~PARAMETER INFORMATION
#MNEM.UNIT          VALUE    DESCRIPTION
#----------   ------------   ------------------------------
 EKB .F              5142:   KELLING BUSHING
 EGL .F              5132:   GROUND LEVEL
 DATE.            6-23-84:   RUN DATE
 BLI .F              1180:   BOTTOM LOG INTERVAL
 TLI .F               660:   TOP LOG INTERVAL
 CS  .IN            8.625:   CASING SIZE
 CBD .F               653:   CASING BOTTOM DRILLER
 LUN .               T-63:   LOGGING UNIT NUMBER
 ENGI.            JOHNSON:   RECORDING ENGINEER
 WITN.           SCHERGER:   WITNESSED BY
 CLNT.            A2DTECH:   CLIENT CODE
 ORIG.           5" PRINT:   ORIGIN OF DATA
 UWI .       490251096800:   UNIQUE WELL ID
 DICO. A2D Technologies, Inc.:   DIGITIZING COMPANY
~OTHER INFORMATION
~A   DEPT        ROP       TGAS 
# ...
 1271.5000     1.7500   427.2797
 1272.0000     1.7708   346.1917
 1272.5000     1.7917   231.3602
 1273.0000     1.7708   140.7994
 1273.5000     1.7500   123.5117
 1274.0000     1.7083   113.1360
 1274.5000     1.6458   105.9287
 1275.0000     1.5208   101.7989
 1275.5000     1.4167   100.8520
 1276.0000     1.3958    97.8520
 1276.5000     1.4792    93.6526
 1277.0000     1.5833    91.6968
 1277.5000     1.7292    89.6381
 1278.0000     1.7083    87.6465
 1278.5000     1.6458    85.6568
 1279.0000     1.5833    85.7632
 1279.5000     1.5193    84.7816
 1280.0000     1.5835    82.9906
 1280.5000     1.5822    81.9033
 1281.0000     1.6437    82.1302
 1281.5000     1.7260    82.3118
 1282.0000     1.8090    82.4934
 1282.5000     1.9141    81.5682
 1283.0000     2.0144    80.7339
 1283.5000     2.0967    80.9154
 1284.0000     2.1584    79.9903
 1284.5000     1.9905    82.3399
 1285.0000     1.8228    81.4564
 1285.5000     1.7176    80.5804
 1286.0000     1.6958    80.7665
 1286.5000     1.7156    80.9890
 1287.0000     1.6937    81.1705
 1287.5000     1.6719    81.3521
 1288.0000     1.6944    81.5337
 1288.5000     1.8154    81.7152
 1289.0000     1.9602    81.8968
 1289.5000     2.0634    82.0783
 1290.0000     2.0835    82.2599
 1290.5000     1.7072    82.4415
 1291.0000     1.4562    82.6238
 1291.5000     1.2052    82.8096
 1292.0000     1.0375    83.0316
 1292.5000     1.0989    83.2132
 1293.0000     1.2031    83.3947
 1293.5000     1.2665    83.5763
 1294.0000     1.4290    83.7579
 1294.5000     1.6988    83.9395
 1295.0000     1.9061    84.1211
 1295.5000     2.1967    84.3026
 1296.0000     2.3210    84.4842
 1296.5000     2.1947    84.6669
 1297.0000     1.9645    84.8526
 1297.5000     1.8177    85.0743
 1298.0000     1.7125    84.1491
 1298.5000     1.6478    84.3761
 1299.0000     1.6031    84.5576
 1299.5000     1.5425    84.7392
 1300.0000     1.5316    84.9208
 1300.5000     1.5208    82.9349
 1301.0000     1.5000    88.4315
 1301.5000     1.4792   109.8098
 1302.0000     1.4792   136.4947
 1302.5000     1.4792   161.0570
 1303.0000     1.5000   173.9447
 1303.5000     1.5000   151.8469
 1304.0000     1.5208   127.5885
 1304.5000     1.5625   107.5753
 1305.0000     1.6458    91.8074
 1305.5000     1.7500    87.6030
 1306.0000     1.8125    85.7813
 1306.5000     1.7708    85.9332
 1307.0000     1.6042    86.0851
 1307.5000     1.5208    86.2371
 1308.0000     1.5417    86.3915
 1308.5000     1.5208    86.5789
 1309.0000     1.5417    86.7308
 1309.5000     1.5417    86.8827
 1310.0000     1.5417    87.0346
 1310.5000     1.5417    87.2146
 1311.0000     1.5417    88.4378
 1311.5000     1.5417    87.4904
 1312.0000     1.5417    88.7416
 1312.5000     1.5417    88.8936
 1313.0000     1.5417    89.0708
 1313.5000     1.5417    89.2227
 1314.0000     1.5833    89.3746
 1314.5000     1.6458    89.5265
 1315.0000     1.6875    89.6816
 1315.5000     1.7292    89.8683
 1316.0000     1.7292    90.0203
 1316.5000     1.6667    90.1722
 1317.0000     1.5833    98.8147
 1317.5000     1.5000   112.9066
 1318.0000     1.3945   323.0952
 1318.5000     1.2500   328.5537
 1319.0000     1.0833   329.7669
 1319.5000     0.9583   330.9802
 1320.0000     1.0208   330.0707
 1320.5000     1.1462   326.9483
 1321.0000     1.2507   322.7558
 1321.5000     1.3354   318.5632
 1322.0000     1.4819   313.2962
 1322.5000     1.6076   305.9329
 1323.0000     1.7292   301.7403
 1323.5000     1.7917   297.5478
 1324.0000     1.7917   292.2939
 1324.5000     1.7708   289.1627
 1325.0000     1.7708   279.6635
 1325.5000     1.7708   272.2870
 1326.0000     1.7917   270.2039
 1326.5000     1.9167   262.8406
 1327.0000     1.9792   258.6480
 1327.5000     2.0417   253.3942
 1328.0000     2.0625   250.2498
 1328.5000     2.0833   246.0572
 1329.0000     2.1042   240.8165
 1329.5000     2.0833   233.4400
 1330.0000     2.0000   229.2475
 1330.5000     1.8958   225.0549
 1331.0000     1.8125   216.6171
 1331.5000     1.7500   212.4246
 1332.0000     1.6875   208.2320
 1332.5000     1.5833   204.0395
 1333.0000     1.4792   204.0922
 1333.5000     1.4167   203.0836
 1334.0000     1.8125   201.0137
 1334.5000     2.1458   198.8830
 1335.0000     2.6042   195.8126
 1335.5000     2.7083   194.8040
 1336.0000     2.5417   194.8585
 1336.5000     2.2500   192.6211
 1337.0000     1.9167   190.7169
 1337.5000     1.6667   188.6602
 1338.0000     1.6250   188.7129
 1338.5000     1.7292   187.6912
 1339.0000     1.8750   187.7571
 1339.5000     1.9375   187.8098
 1340.0000     1.9791   185.6643
 1340.5000     1.7512   185.7270
 1341.0000     1.5230   185.7772
 1341.5000     1.3574   185.8273
 1342.0000     1.3584   277.1362
 1342.5000     1.3594   449.2143
 1343.0000     1.3604   449.2657
 1343.5000     1.3344   449.3271
 1344.0000     1.1127   318.2543
 1344.5000     0.9054   193.4790
 1345.0000     0.7814   193.5419
 1345.5000     0.6157   193.5920
 1346.0000     0.5331   193.6422
 1346.5000     0.5344   191.5945
 1347.0000     0.5146   190.5944
 1347.5000     0.4739   189.5969
 1348.0000     0.4752   188.6106
 1348.5000     0.5179   185.5139
 1349.0000     0.5189   185.5641
 1349.5000     0.5199   184.5652
 1350.0000     0.4998   182.5175
 1350.5000     0.4803   182.5802
 1351.0000     0.4813   182.6303
 1351.5000     0.4823   182.6805
 1352.0000     0.4833   185.8775
 1352.5000     0.4846   186.9766
 1353.0000     0.4856   187.0280
 1353.5000     0.5074   187.0894
 1354.0000     0.4876   186.0781
 1354.5000     0.4886   186.1407
 1355.0000     0.4896   181.9951
 1355.5000     0.4906   178.8984
 1356.0000     0.4917   178.9611
 1356.5000     0.4929   180.0602
 1357.0000     0.4939   182.2082
 1357.5000     0.4949   183.3073
 1358.0000     0.4960   185.4554
 1358.5000     0.4970   186.5559
 1359.0000     0.4980   187.6661
 1359.5000     0.4990   187.7163
 1360.0000     0.5000   187.1066
 1360.5000     0.5208   183.6519
 1361.0000     0.5000   183.7801
 1361.5000     0.5000   183.8826
 1362.0000     0.4764   183.9860
 1362.5000     0.4340   184.0909
 1363.0000     0.3958   184.2159
 1363.5000     0.3750   184.3184
 1364.0000     0.3750   184.4210
 1364.5000     0.3750   184.5235
 1365.0000     0.3542   184.6261
 1365.5000     0.3333   184.7286
 1366.0000     0.3333   193.2228
 1366.5000     0.3333   449.2694
 1367.0000     0.3125   449.3719
 1367.5000     0.3125   449.4755
 1368.0000     0.3125   437.4384
 1368.5000     0.3125   141.3136
 1369.0000     0.3125   136.1714
 1369.5000     0.3125   132.0781
 1370.0000     0.3125   123.7890
 1370.5000     0.3125   118.6468
 1371.0000     0.3125   113.5046
 1371.5000     0.3125   106.2645
 1372.0000     0.3125   104.2657
 1372.5000     0.3125   101.2249
 1373.0000     0.3125    95.9791
 1373.5000     0.3125    90.7952
 1374.0000     0.3125    89.9940
 1374.5000     0.3125    90.1222
 1375.0000     0.3125    90.2247
 1375.5000     0.3125    89.2783
 1376.0000     0.3125    89.3809
 1376.5000     0.3104    89.4834
 1377.0000     0.2917    89.5860
 1377.5000     0.2917    89.6885
 1378.0000     0.3125    89.7911
 1378.5000     0.3542    89.8951
 1379.0000     0.4167    90.0000
 1379.5000     0.4792    89.0754
 1380.0000     0.7500    85.9990
 1380.5000     1.0208    86.2233
 1381.0000     1.4375    86.4028
 1381.5000     1.6458    86.5822
 1382.0000     1.6042    86.7617
 1382.5000     1.4583    86.9412
 1383.0000     1.3333    86.0664
 1383.5000     1.2292    86.2511
 1384.0000     1.1875    85.3816
 1384.5000     1.3125    85.5682
 1385.0000     1.4167    85.7854
 1385.5000     1.5000    87.0138
 1386.0000     1.5208    87.1932
 1386.5000     1.5625    86.2789
 1387.0000     1.5625    86.5032
 1387.5000     1.5417    85.5888
 1388.0000     1.5000    86.8173
 1388.5000     1.3750    85.9877
 1389.0000     1.3125    84.0742
 1389.5000     1.2500    84.2570
 1390.0000     1.1875    83.2168
 1390.5000     1.1042    82.5146
 1391.0000     1.0625    81.6451
 1391.5000     1.0208    82.9184
 1392.0000     1.0000    97.7831
 1392.5000     1.0000   157.7528
