~VERSION INFORMATION
 VERS.                2.0:   CWLS LOG ASCII STANDARD - VERSION 2.0
 WRAP.                 NO:   ONE LINE PER DEPTH STEP
~WELL INFORMATION
#MNEM.UNIT      DATA TYPE    INFORMATION
#----------   ------------   ------------------------------
 STRT.F           66.0000:   START DEPTH
 STOP.F         1030.5000:   STOP DEPTH
 STEP.F            0.5000:   STEP LENGTH
 NULL.          -999.2500:   NO VALUE
 COMP. U S NAVY/INTEX OIL CO:   COMPANY
 WELL.      NRP-3 #68S-11:   WELL
 FLD .             TEAPOT:   FIELD
 LOC .      S11 T38N R78W:   LOCATION
 CNTY.            NATRONA:   COUNTY
 STAT.            WYOMING:   STATE
 CTRY. UNITED STATES OF AMERICA:   COUNTRY
 SRVC.       Schlumberger:   SERVICE COMPANY
 DATE.        07-JUL-1962:   LOGDATE
 API .       490250632700:   API NUMBER
~CURVE INFORMATION
#MNEM.UNIT       API CODE    CURVE DESCRIPTION
#----------   ------------   ------------------------------
 DEPT.F                  :   
 SPR .MV     05 010 01 00:   SPONTANEOUS POTENTIAL FROM RES.
 ASN .OHMM   05 041 16 00:   AMPLIFIED SHORT NORMAL 16"
 ILD .OHMM   05 120 46 00:   INDUCTION LOG DEEP
 CILD.MMHO   05 110 46 00:   CONDUCTIVITY INDUCTION LOG DEEP
 GRN .GAPI   35 310 30 00:   GAMMA RAY
 GR  .GAPI   81 310 01 00:   GAMMA RAY
~PARAMETER INFORMATION
#MNEM.UNIT          VALUE    DESCRIPTION
#----------   ------------   ------------------------------
 LMF .                 KB:   LOG MEASURED FROM
 DMF .                 KB:   DRILLING MEASURED FROM
 EKB .F              5226:   KELLING BUSHING
 EGL .F              5221:   GROUND LEVEL
 DATE.           7-7-1962:   RUN DATE
 RUN .                  1:   RUN NUMBER
 DD  .F              1030:   DEPTH DRILLER
 DL  .F              1031:   DEPTH LOGGER
 BLI .F              1030:   BOTTOM LOG INTERVAL
 TLI .F                90:   TOP LOG INTERVAL
 CBD .F                10:   CASING BOTTOM DRILLER
 BS  .IN             6.75:   BIT SIZE
 BSD .F              1030:   BIT SIZE AT DEPTH
 DFT .            GEL-OIL:   DRILLING FLUID TYPE
 DFD .               10.2:   DRILLING FLUID DENSITY
 DFV .                 50:   DRILLING FLUID VISCOSITY
 DFL .                3.6:   DRILLING FLUID LOSS
 RMS .OHMM           5.06:   RESISTIVITY MUD SAMPLE
 MST .F                71:   MUD SAMPLE TEMPERATURE
 RMF .OHMM           4.89:   RESISTIVITY MUD FILTRATE SAMPLE
 MFST.F                71:   MUD FILTRATE SAMPLE TEMPERATURE
 RMC .OHMM           4.85:   RESISTIVITY MUD CAKE
 MCST.F                71:   MUD CAKE SAMPLE TEMPERATURE
 MFSS.                  M:   MUD FILTRATE SAMPLE SOURCE
 MCSS.                  M:   MUD CAKE SAMPLE SOURCE
 RMB .OHMM           4.54:   RESISTIVITY MUD AT BHT
 BHT .F                82:   BOTTOM HOLE TEMPERATURE
 TCS .HRS               1:   TIME CURCULATED STOPPED
 MRT .F                82:   MAXIMUM RECORDED TEMPERATURE
 LUN .               2503:   LOGGING UNIT NUMBER
 LUL .              CSPR.:   LOGGING UNIT LOCATION
 ENGI.             KNOBEL:   RECORDING ENGINEER
 WITN.          JORGENSEN:   WITNESSED BY
 CLNT.            A2DTECH:   CLIENT CODE
 ORIG.      2" & 5" PRINT:   ORIGIN OF DATA
 UWI .       490250632700:   UNIQUE WELL ID
 DICO. A2D Technologies, Inc.:   DIGITIZING COMPANY
~OTHER INFORMATION
~A   DEPT      SPR        ASN        ILD       CILD        GRN          GR  
# ...
  794.0000   -33.1918     7.0943     7.3049   143.0929   112.1101   117.6301
  794.5000   -32.6019     6.9591     7.1745   144.7655   110.0567   113.0351
  795.0000   -32.1397     6.8241     7.0424   150.7084   105.1391   107.7767
  795.5000   -31.8897     6.6938     6.8463   157.9418   106.6218   102.9268
  796.0000   -31.6618     6.3838     6.3708   166.8669   107.7367   104.5747
  796.5000   -31.8985     6.0439     5.8997   181.3327   106.7935   112.9909
  797.0000   -32.1587     5.6888     5.3107   199.1227   106.7494   120.6356
  797.5000   -31.9793     5.2470     4.5554   222.5332    98.7859   123.8681
  798.0000   -31.5838     4.8131     3.8035   250.6084    89.6328   126.9234
  798.5000   -31.1833     4.3799     3.0635   308.9585    90.8002   130.0061
  799.0000   -30.7726     3.9466     2.5179   363.6210    93.2309   128.3779
  799.5000   -30.8249     3.5605     2.0120   418.2836    94.9977   126.1420
  800.0000   -31.0908     3.2655     1.7955   472.9461    94.6080   123.4850
  800.5000   -31.8813     3.0616     1.6954   514.7162    97.1826   120.3236
  801.0000   -32.6483     2.8933     1.5973   530.9944   101.8803   117.1905
  801.5000   -33.4098     2.8122     1.4936   536.7662   113.9181   114.0159
  802.0000   -34.1765     2.7874     1.6520   525.2805   119.6980   113.0376
  802.5000   -34.5557     2.9210     1.9196   480.1189   116.6441   117.9305
  803.0000   -34.6776     3.0513     2.1923   442.3590   122.2946   123.4091
  803.5000   -34.7593     3.1991     2.4598   389.9662   134.0997   128.7889
  804.0000   -34.8410     3.7187     2.9748   334.9422   138.6238   123.0210
  804.5000   -34.9230     4.2418     3.6094   281.3274   134.3659   116.0621
  805.0000   -35.0054     4.6309     4.2488   237.9712   134.0322   116.8890
  805.5000   -35.0874     4.9443     4.8997   211.1823   134.1357   121.3602
  806.0000   -35.1649     5.1747     5.3351   194.4501   125.6799   128.1805
  806.5000   -34.9919     5.3048     5.2845   180.5314   128.7951   128.3954
  807.0000   -34.4068     5.3677     5.2410   179.4459   131.8309   127.0050
  807.5000   -33.8250     5.4316     5.1966   181.9137   131.0284   124.6732
  808.0000   -33.2576     5.4966     5.1454   190.3004   122.7850   122.4500
  808.5000   -33.3253     5.5248     4.9104   198.8597   132.4467   121.7574
  809.0000   -33.4272     5.4884     4.6628   207.7987   131.3312   121.0161
  809.5000   -33.5266     5.3050     4.4157   224.2057   128.5318   119.2682
  810.0000   -33.6250     5.0190     4.1684   234.0819   126.7227   115.9615
  810.5000   -33.7234     4.7647     3.9134   243.9580   128.6553   112.6283
  811.0000   -33.8221     4.7572     3.8130   251.4314   126.0570   113.4127
  811.5000   -33.9225     4.6692     3.7534   256.5172   126.8131   115.3448
  812.0000   -34.0204     4.5524     3.6962   260.5623   125.5742   116.5910
  812.5000   -33.7540     4.6143     3.6880   255.4932   125.9901   115.6337
  813.0000   -33.4521     4.8440     3.9980   247.9383   122.5718   113.6239
  813.5000   -33.2575     4.9616     4.3103   234.7928   122.0626   111.5975
  814.0000   -33.3798     5.0567     4.6233   221.8627   120.7500   110.1465
  814.5000   -33.4937     5.3373     4.9568   208.8899   122.2975   110.5367
  815.0000   -33.6078     5.6930     5.4041   195.9498   122.0903   110.9234
  815.5000   -33.7231     5.9726     5.8408   185.5202   122.8839   108.9510
  816.0000   -33.8172     6.1523     6.2752   178.2546   119.1832   106.7252
  816.5000   -33.5749     6.4656     6.5062   170.9519   127.8523   107.0509
  817.0000   -33.3266     6.7102     6.6984   163.6545   132.0108   111.1253
  817.5000   -33.0794     6.9020     6.8900   156.3341   131.3751   115.2205
  818.0000   -32.8344     6.9922     7.0732   152.7191   140.4019   115.3289
  818.5000   -32.6626     7.0539     7.2208   149.9017   144.7204   113.6267
  819.0000   -32.8255     7.0791     7.3360   147.0686   144.6813   110.6084
  819.5000   -32.9818     7.0536     7.2945   149.2544   133.5138   107.6440
  820.0000   -33.1349     7.0166     7.2570   151.4491   132.8615   105.6683
  820.5000   -33.1778     6.9799     7.1272   153.6438   137.0948   108.4451
  821.0000   -33.0173     6.8931     6.9334   156.5254   138.6922   111.3841
  821.5000   -32.8600     6.7699     6.7389   160.5920   139.1859   113.1748
  822.0000   -32.7022     6.6465     6.5443   164.6586   142.2658   112.5441
  822.5000   -32.5480     6.5230     6.3499   168.9712   147.9970   115.8811
  823.0000   -32.5239     6.3995     6.1552   174.6048   143.4113   122.4419
  823.5000   -32.7919     6.2761     5.9518   180.6010   149.5512   130.5783
  824.0000   -33.0485     6.1536     5.6362   187.0990   142.4549   137.6999
  824.5000   -33.1202     6.0288     5.3015   197.3866   142.3804   138.9502
  825.0000   -32.7174     5.9096     4.9660   207.6742   141.2401   134.8983
  825.5000   -32.3259     5.6297     4.6301   217.9618   137.1915   126.9397
  826.0000   -32.0376     5.3411     4.2973   228.2552   135.0270   119.0305
  826.5000   -32.0410     5.1435     4.0933   234.9356   135.8267   111.4464
  827.0000   -32.0451     5.0520     4.2903   231.9681   139.2527   109.4791
  827.5000   -32.2271     5.0589     4.4759   229.0571   142.1426   107.7312
  828.0000   -33.0658     5.1198     4.6612   226.1524   141.1090   106.1541
  828.5000   -33.8825     5.2396     4.8486   219.1836   144.4302   107.5845
  829.0000   -34.7157     5.4619     5.1171   211.7810   141.6980   109.0779
  829.5000   -34.0898     5.7894     5.5001   200.0113   135.3343   107.3815
  830.0000   -33.2518     6.1219     5.8813   188.8827   133.1627   103.9273
  830.5000   -32.9946     6.4401     6.2642   174.4896   130.5337   103.7711
  831.0000   -32.7661     6.5471     6.6358   163.6261   129.5788   108.1247
  831.5000   -32.5316     6.6448     6.7765   154.8474   134.1389   112.4473
  832.0000   -32.5969     6.7430     6.9076   153.5909   138.7068   113.8324
  832.5000   -32.8525     6.8338     7.0372   154.5167   139.9125   109.9712
  833.0000   -33.1110     6.9104     7.0763   155.4426   138.1475   105.6849
  833.5000   -33.3692     6.9873     7.1111   155.7817   143.3019   106.1705
  834.0000   -33.8718     7.0641     7.1409   155.1083   137.5363   111.5055
  834.5000   -34.4350     7.1414     7.1202   154.4349   132.9008   111.2983
  835.0000   -34.6091     7.2192     7.0985   153.7616   132.1918    95.3064
  835.5000   -33.9384     7.2382     7.0770   153.0420   143.5988    83.4940
  836.0000   -33.2933     7.2544     7.0559   153.7607   149.1468    77.1463
  836.5000   -32.9047     7.2564     7.0479   154.5323   151.8986    72.7061
  837.0000   -33.1657     7.2459     7.0720   155.3039   147.6366    75.3789
  837.5000   -33.4159     7.1954     7.0954   156.0754   142.1958    81.7375
  838.0000   -33.0338     7.1306     7.1190   156.8470   135.9264    88.2201
  838.5000   -32.6840     7.1088     7.1425   157.6186   129.0621    87.3970
  839.0000   -33.4694     7.0932     7.1660   157.5613   131.0552    84.6418
  839.5000   -34.2490     7.0776     7.1895   156.6055   130.1657    81.9008
  840.0000   -34.9083     7.0629     7.2134   155.6498   130.2688    82.9206
  840.5000   -35.2361     7.0771     7.2387   154.6940   132.2815    87.2524
  841.0000   -35.5647     7.0934     7.1703   153.7383   136.6737    91.3461
  841.5000   -35.8955     7.0977     7.0886   152.7864   130.9893    89.7151
  842.0000   -36.1916     7.0860     7.0053   152.6862   126.2804    86.0256
  842.5000   -35.8843     7.0425     6.8782   155.7075   137.3979    83.5613
  843.0000   -35.3480     6.9961     6.5580   160.2185   149.4297    82.9440
  843.5000   -34.7776     6.8372     6.2432   170.5061   151.5192    82.3076
  844.0000   -34.2052     6.7007     5.9283   180.7937   152.5488    81.8916
  844.5000   -33.6440     6.4355     5.6072   186.7410   146.8089    82.3491
  845.0000   -33.4202     6.1619     5.5485   188.9014   142.5242    82.8032
  845.5000   -33.2113     5.9830     5.4624   191.0618   141.2197    83.9147
