~VERSION INFORMATION
 VERS.                2.0:   CWLS LOG ASCII STANDARD - VERSION 2.0
 WRAP.                 NO:   ONE LINE PER DEPTH STEP
~WELL INFORMATION
#MNEM.UNIT      DATA TYPE    INFORMATION
#----------   ------------   ------------------------------
 STRT.F            8.5000:   START DEPTH
 STOP.F          642.0000:   STOP DEPTH
 STEP.F            0.5000:   STEP LENGTH
 NULL.          -999.2500:   NO VALUE
 COMP. FENIX & SCISSON INC:   COMPANY
 WELL. 26-36 S11 W1 #26-36 SX11:   WELL
 FLD .             TEAPOT:   FIELD
 LOC .      S11 T38N R78W:   LOCATION
 CNTY.            NATRONA:   COUNTY
 STAT.            WYOMING:   STATE
 CTRY. UNITED STATES OF AMERICA:   COUNTRY
 SRVC.      Dresser Atlas:   SERVICE COMPANY
 DATE.        16-JUL-1980:   LOGDATE
 API .       490251083500:   API NUMBER
~CURVE INFORMATION
#MNEM.UNIT       API CODE    CURVE DESCRIPTION
#----------   ------------   ------------------------------
 DEPT.F                  :   
 NPHI.DEC    42 890 03 00:   NEUTRON POROSITY SANDSTONE
 RHOB.G/C3   45 350 01 00:   BULK DENSITY
 CORR.G/C3   45 356 01 00:   DENSITY CORRECTION
 GRD .GAPI   45 310 01 00:   GAMMA RAY FROM DENSITY LOG
 CALD.IN     45 280 60 00:   CALIPER
 SPR .MV     07 010 01 00:   SPONTANEOUS POTENTIAL
 SFL .OHMM   07 220 01 00:   SHALLOW FOCUSED LOG RESISTIVITY
 ILD .OHMM   07 120 46 00:   INDUCTION LOG DEEP
 ILM .OHMM   07 120 44 00:   INDUCTION LOG MEDIUM
 DPHI.DEC    45 890 12 00:   DENSITY POROSITY SANDSTONE
~PARAMETER INFORMATION
#MNEM.UNIT          VALUE    DESCRIPTION
#----------   ------------   ------------------------------
 PD  .                 GL:   PERMANENT DATUM
 EPD .F              5184:   ELEVATION PERMANENT DATUM
 LMF .                 KB:   LOG MEASURED FROM
 DAPD.F                 5:   FEET ABOVE PERMANENT DATUM
 DMF .                 KB:   DRILLING MEASURED FROM
 EKB .F              5189:   KELLING BUSHING
 EGL .F              5184:   GROUND LEVEL
 DATE.            7-16-80:   RUN DATE
 RUN .                  1:   RUN NUMBER
 DD  .F               630:   DEPTH DRILLER
 DL  .F               637:   DEPTH LOGGER
 BLI .F               635:   BOTTOM LOG INTERVAL
 TLI .F                 8:   TOP LOG INTERVAL
 BS  .IN            7.875:   BIT SIZE
 BSD .F               630:   BIT SIZE AT DEPTH
 DFT .           CHEM GEL:   DRILLING FLUID TYPE
 DFD .                9.2:   DRILLING FLUID DENSITY
 DFV .                 65:   DRILLING FLUID VISCOSITY
 DFPH.                 10:   DRILLING FLUID PH
 DFL .                  8:   DRILLING FLUID LOSS
 MSS .           FLOWLINE:   MUD SAMPLE SOURCE
 RMS .OHMM            .61:   RESISTIVITY MUD SAMPLE
 MST .F                60:   MUD SAMPLE TEMPERATURE
 RMC .OHMM            .62:   RESISTIVITY MUD CAKE
 MCST.F                58:   MUD CAKE SAMPLE TEMPERATURE
 MFSS.               MEAS:   MUD FILTRATE SAMPLE SOURCE
 MCSS.               MEAS:   MUD CAKE SAMPLE SOURCE
 RMB .OHMM            .41:   RESISTIVITY MUD AT BHT
 BHT .F                90:   BOTTOM HOLE TEMPERATURE
 TCS .HRS               5:   TIME CURCULATED STOPPED
 MRT .F                90:   MAXIMUM RECORDED TEMPERATURE
 LUN .               6109:   LOGGING UNIT NUMBER
 LUL .              GLTTE:   LOGGING UNIT LOCATION
 ENGI.            GARONER:   RECORDING ENGINEER
 WITN.              AMEND:   WITNESSED BY
 CLNT.            A2DTECH:   CLIENT CODE
 ORIG.           5" PRINT:   ORIGIN OF DATA
 UWI .       490251083500:   UNIQUE WELL ID
 DICO. A2D Technologies, Inc.:   DIGITIZING COMPANY
~OTHER INFORMATION
~A    DEPT    NPHI       RHOB       CORR        GRD       CALD        SPR        SFL          ILD      ILM       DPHI   
# ...
  243.0000     0.2838     2.5213     0.0191    83.9011     7.8334   -37.9516    10.8752     7.8713     8.2949     0.1032
  243.5000     0.2786     2.5205     0.0141    83.8977     7.8559   -37.9537    10.8789     7.8577     8.2752     0.1042
  244.0000     0.2743     2.5124     0.0091    83.8992     7.8784   -37.9519    11.0237     7.8442     8.2556     0.1027
  244.5000     0.2831     2.5039     0.0059    83.8968     7.9010   -37.9493    11.1966     7.8306     8.2360     0.0884
  245.0000     0.2786     2.5030     0.0060    84.0332     7.9098   -37.9636    11.2858     7.8170     8.2165     0.0899
  245.5000     0.2787     2.5186     0.0076    84.2012     7.9071   -37.8295    11.2403     7.8021     8.1970     0.0894
  246.0000     0.2882     2.5295     0.0157    84.2957     7.8999   -37.6079    11.0839     7.7752     8.1776     0.0868
  246.5000     0.2908     2.5294     0.0142    84.6827     7.8927   -37.5443    10.9297     7.7451     8.1582     0.0964
  247.0000     0.2926     2.5305     0.0119    85.2842     7.8839   -37.5511    10.7777     7.7150     8.1390     0.1058
  247.5000     0.2917     2.5332     0.0102    85.8994     7.8743   -37.5492    10.6779     7.6851     8.1202     0.1114
  248.0000     0.2902     2.5252     0.0047    86.0773     7.8647   -37.5497    10.6779     7.6604     8.1032     0.1136
  248.5000     0.2910     2.5050    -0.0004    85.6107     7.8551   -37.5524    10.7860     7.6584     8.1163     0.1025
  249.0000     0.2968     2.4902    -0.0054    85.1316     7.8499   -37.6085    11.0925     7.6605     8.1441     0.0983
  249.5000     0.3016     2.4920    -0.0042    84.3747     7.8502   -37.6680    11.2858     7.6577     8.1721     0.1095
  250.0000     0.2972     2.5060     0.0023    83.2877     7.8507   -37.7303    10.9385     7.7305     8.1980     0.1148
  250.5000     0.2878     2.5148     0.0083    82.2328     7.8709   -37.7898    10.5980     7.8552     8.2257     0.1064
  251.0000     0.2795     2.4991     0.0094    82.1347     7.8620   -37.8507    10.4826     7.9821     8.2928     0.1096
  251.5000     0.2835     2.4976     0.0059    83.0974     7.8539   -37.9159    10.9979     8.1112     8.4689     0.0945
  252.0000     0.2840     2.5005     0.0060    84.0167     7.8500   -37.9556    12.1506     8.2426     8.6488     0.0657
  252.5000     0.2829     2.5020     0.0025    84.2975     7.8500   -37.9514    11.7102     8.3750     8.8324     0.0759
  253.0000     0.2851     2.5286    -0.0020    83.3796     7.8500   -37.9519    10.9844     8.5098     9.0199     0.0837
  253.5000     0.2851     2.5694     0.0027    84.7066     7.8500   -37.9524    10.4826     8.6468     9.2113     0.0665
  254.0000     0.2846     2.5506     0.0121    84.9475     7.8499   -37.9518    12.6355     8.7860     9.3847     0.0535
  254.5000     0.2776     2.5431     0.0214    82.5625     7.8496   -37.9518    15.7334     8.8782     9.3194     0.0748
  255.0000     0.2709     2.5718     0.0298    80.9186     7.8652   -37.9518    14.0840     8.7720     9.1348     0.0901
  255.5000     0.2647     2.5857     0.0253    80.7248     7.8827   -37.9517    11.6241     8.5908     8.9539     0.0980
  256.0000     0.2845     2.5554     0.0163    81.3698     7.9001   -37.9512    10.8768     8.4134     8.7766     0.0907
  256.5000     0.2977     2.5274     0.0098    82.0180     7.9020   -37.9521    11.4961     8.2397     8.6028     0.0896
  257.0000     0.3070     2.5168     0.0099    82.4909     7.8837   -37.9531    11.2245     8.0696     8.4325     0.0882
  257.5000     0.3026     2.5312     0.0099    81.9874     7.8696   -37.9946    10.8716     7.9029     8.2656     0.0883
  258.0000     0.3109     2.5314     0.0100    81.6977     7.8662   -38.0414    10.6739     7.7397     8.1021     0.0960
  258.5000     0.3153     2.5343     0.0129    81.6472     7.8626   -38.0893    10.8095     7.5799     7.9418     0.1004
  259.0000     0.3009     2.5355     0.0159    81.3915     7.8590   -38.1365    10.9425     7.4234     7.8025     0.0922
  259.5000     0.2831     2.5193     0.0129    81.4809     7.8554   -38.1842    11.0812     7.3818     7.7829     0.0855
  260.0000     0.2883     2.5140     0.0096    82.4069     7.8517   -38.2316    11.2878     7.5194     7.7560     0.0788
  260.5000     0.2963     2.5527     0.0080    83.3149     7.8481   -38.2786    10.9929     7.5232     7.7291     0.0749
  261.0000     0.2990     2.5907     0.0113    84.2251     7.8445   -38.3284    10.7509     7.5157     7.7024     0.0910
  261.5000     0.3009     2.5759     0.0069    85.1436     7.8409   -38.3581    10.5154     7.5169     7.6597     0.0928
  262.0000     0.3078     2.5464     0.0000    85.1143     7.8372   -38.3517    10.2850     7.5200     7.6827     0.0908
  262.5000     0.3134     2.5250     0.0070    83.9398     7.8336   -38.3455    10.1027     7.4502     7.7529     0.0920
  263.0000     0.3071     2.5253     0.0158    82.7656     7.8303   -38.2069    10.2672     7.3814     7.8238     0.0952
  263.5000     0.3058     2.5264     0.0181    82.2991     7.8368   -38.0841    10.4745     7.4043     7.8954     0.0985
  264.0000     0.3005     2.5247     0.0168    83.1853     7.8437   -37.9571    10.6861     7.4912     7.9675     0.0981
  264.5000     0.2983     2.5190     0.0127    84.6917     7.8506   -37.9565    10.9019     7.5785     8.0403     0.1008
  265.0000     0.2947     2.5183     0.0087    84.4166     7.8575   -37.9472    11.0794     7.6667     8.1137     0.1034
  265.5000     0.2897     2.5122     0.0048    83.3406     7.8643   -37.9510    11.0794     7.7561     8.1877     0.1067
  266.0000     0.2860     2.5114     0.0019    83.0681     7.8690   -37.9672    11.0794     7.8464     8.2624     0.1096
  266.5000     0.2830     2.5052     0.0045    82.6681     7.8614   -37.9132    11.0794     7.9379     8.3378     0.1061
  267.0000     0.2877     2.5044     0.0095    82.6555     7.8540   -38.1939    11.0794     8.0303     8.4138     0.0999
  267.5000     0.2919     2.4999     0.0060    83.6580     7.8466   -37.8663    11.1564     8.1239     8.4905     0.0914
  268.0000     0.2918     2.5050     0.0019    84.6633     7.8392   -37.5045    11.2910     8.2185     8.5678     0.0785
  268.5000     0.2808     2.5181     0.0070    85.6559     7.8316   -37.1500    11.4273     8.3143     8.6459     0.0827
  269.0000     0.2761     2.5385     0.0169    85.5116     7.8300   -37.4133    11.5652     8.4000     8.7156     0.0844
  269.5000     0.2715     2.5477     0.0258    85.0901     7.8300   -37.5553    11.7048     8.4000     8.7152     0.0871
  270.0000     0.2703     2.5423     0.0252    84.7710     7.8304   -37.5527    11.8461     8.4000     8.7159     0.1004
  270.5000     0.2783     2.5372     0.0228    83.7750     7.8337   -37.5552    11.9284     8.4000     8.7163     0.1164
  271.0000     0.2787     2.5187     0.0131    83.0857     7.8370   -37.8136    11.7888     8.4000     8.7162     0.1287
  271.5000     0.2787     2.4962     0.0005    82.9125     7.8403   -38.1083    11.5786     8.4000     8.7160     0.1347
  272.0000     0.2889     2.4738    -0.0121    82.3358     7.8435   -38.3498    11.3721     8.3995     8.7159     0.1235
  272.5000     0.2962     2.4541    -0.0244    82.9405     7.8468   -38.3512    11.2858     8.3995     8.7159     0.1140
  273.0000     0.2986     2.4661    -0.0249    83.6473     7.8500   -38.3559    11.5514     8.3807     8.7158     0.1075
  273.5000     0.2977     2.4811    -0.0133    83.7191     7.8533   -38.3543    11.9284     8.3574     8.7158     0.1051
  274.0000     0.2947     2.4960    -0.0020    83.1137     7.8566   -38.3546    11.7608     8.3340     8.7155     0.1103
  274.5000     0.2951     2.5053     0.0061    82.5277     7.8598   -38.3549    11.5741     8.3104     8.7154     0.1078
  275.0000     0.2970     2.4967     0.0060    82.0775     7.8631   -38.3540    11.2858     8.2874     8.7157     0.1033
  275.5000     0.2986     2.4955     0.0060    82.8614     7.8664   -38.3562    11.4396     8.2647     8.7142     0.1020
  276.0000     0.2985     2.5043     0.0062    83.9181     7.8699   -38.3513    11.8115     8.2463     8.7125     0.1193
