~VERSION INFORMATION
 VERS.                2.0:   CWLS LOG ASCII STANDARD - VERSION 2.0
 WRAP.                 NO:   ONE LINE PER DEPTH STEP
~WELL INFORMATION
#MNEM.UNIT      DATA TYPE    INFORMATION
#----------   ------------   ------------------------------
 STRT.F           36.0000:   START DEPTH
 STOP.F          518.0000:   STOP DEPTH
 STEP.F            0.5000:   STEP LENGTH
 NULL.          -999.2500:   NO VALUE
 COMP.    FENIX & SCISSON:   COMPANY
 WELL.        NPR #57S-10:   WELL
 FLD .             TEAPOT:   FIELD
 LOC .      S10 T38N R78W:   LOCATION
 CNTY.            NATRONA:   COUNTY
 STAT.            WYOMING:   STATE
 CTRY. UNITED STATES OF AMERICA:   COUNTRY
 SRVC.              Welex:   SERVICE COMPANY
 DATE.        11-MAR-1977:   LOGDATE
 API .       490251029100:   API NUMBER
~CURVE INFORMATION
#MNEM.UNIT       API CODE    CURVE DESCRIPTION
#----------   ------------   ------------------------------
 DEPT.F                  :   
 SPR .MV     07 010 01 00:   SPONTANEOUS POTENTIAL
 ILD .OHMM   07 120 46 00:   INDUCTION LOG DEEP
 ILM .OHMM   07 120 44 00:   INDUCTION LOG MEDIUM
 SGUR.OHMM   07 220 01 00:   SHORT GUARD RESISITIVITY
 CORR.G/C3   45 356 01 00:   DENSITY CORRECTION
 CALD.IN     45 280 60 00:   CALIPER
 GRD .GAPI   45 310 01 00:   GAMMA RAY FROM DENSITY LOG
 RHOB.G/C3   45 350 01 00:   BULK DENSITY
 DPOR.DEC    45 890 12 00:   DENSITY POROSITY SANDSTONE
~PARAMETER INFORMATION
#MNEM.UNIT          VALUE    DESCRIPTION
#----------   ------------   ------------------------------
 PD  .                 GL:   PERMANENT DATUM
 EPD .F              5244:   ELEVATION PERMANENT DATUM
 LMF .                 GL:   LOG MEASURED FROM
 DMF .                 GL:   DRILLING MEASURED FROM
 EGL .F              5244:   GROUND LEVEL
 DATE.          3-11-1977:   RUN DATE
 RUN .                  1:   RUN NUMBER
 DD  .F               530:   DEPTH DRILLER
 DL  .F               522:   DEPTH LOGGER
 BLI .F               520:   BOTTOM LOG INTERVAL
 TLI .F                35:   TOP LOG INTERVAL
 CS  .IN            8.625:   CASING SIZE
 CBD .F                40:   CASING BOTTOM DRILLER
 CBL .F                44:   CASING BOTTOM LOGGER
 BS  .IN            7.875:   BIT SIZE
 BSD .F               530:   BIT SIZE AT DEPTH
 DFT .            KCL MUD:   DRILLING FLUID TYPE
 DFD .                8.8:   DRILLING FLUID DENSITY
 DFV .                  8:   DRILLING FLUID VISCOSITY
 DFPH.                 10:   DRILLING FLUID PH
 DFL .               12.4:   DRILLING FLUID LOSS
 MSS .           FLOWLINE:   MUD SAMPLE SOURCE
 RMS .OHMM           .398:   RESISTIVITY MUD SAMPLE
 MST .F                50:   MUD SAMPLE TEMPERATURE
 RMF .OHMM           .276:   RESISTIVITY MUD FILTRATE SAMPLE
 MFST.F                60:   MUD FILTRATE SAMPLE TEMPERATURE
 RMC .OHMM            .42:   RESISTIVITY MUD CAKE
 MCST.F                60:   MUD CAKE SAMPLE TEMPERATURE
 MFSS.           MEASURED:   MUD FILTRATE SAMPLE SOURCE
 RMB .OHMM            .31:   RESISTIVITY MUD AT BHT
 BHT .F                64:   BOTTOM HOLE TEMPERATURE
 TCS .HRS             2.5:   TIME CURCULATED STOPPED
 MRT .F                64:   MAXIMUM RECORDED TEMPERATURE
 LUN .               8611:   LOGGING UNIT NUMBER
 LUL .           GILLETTE:   LOGGING UNIT LOCATION
 ENGI.               DOAK:   RECORDING ENGINEER
 WITN.         STUEBINGER:   WITNESSED BY
 CLNT.            A2DTECH:   CLIENT CODE
 ORIG.      2" & 5" PRINT:   ORIGIN OF DATA
 UWI .       490251029100:   UNIQUE WELL ID
 DICO. A2D Technologies, Inc.:   DIGITIZING COMPANY
~OTHER INFORMATION
~A   DEPT      SPR        ILD        ILM       SGUR        CORR        CALD      GRD       RHOB       DPOR   
# ...
  255.0000   -34.3553     5.0898     7.8140     9.8602     0.0389     7.8884   129.3813     2.4847     0.0982
  255.5000   -34.3735     5.3551     8.2211    10.0538     0.0408     7.8894   128.8709     2.4814     0.0999
  256.0000   -34.3916     5.6343     8.6574    10.2513     0.0426     7.8904   128.3416     2.4773     0.1022
  256.5000   -34.4098     5.9165     9.1165    10.5029     0.0444     7.8914   130.8624     2.4793     0.0993
  257.0000   -34.4295     6.1459     9.3547    10.2325     0.0456     7.8924   134.0607     2.4879     0.0950
  257.5000   -34.4565     6.3841     9.5010     9.9388     0.0435     7.8933   135.9323     2.4906     0.0942
  258.0000   -34.4835     6.6336     9.5584    10.3000     0.0416     7.8943   136.1578     2.4872     0.0964
  258.5000   -34.5105     6.7363     9.6162    10.6980     0.0396     7.8953   134.2338     2.4757     0.1007
  259.0000   -34.5374     6.7972     9.6743    10.6034     0.0377     7.8963   131.6502     2.4643     0.1050
  259.5000   -34.5644     6.8576     9.7328    10.4817     0.0357     7.8973   133.6587     2.4535     0.1094
  260.0000   -34.5916     6.9188     9.8125    10.4067     0.0337     7.8983   135.0817     2.4527     0.1118
  260.5000   -34.6199     6.9805     9.9084    10.4975     0.0320     7.8993   133.2621     2.4606     0.1092
  261.0000   -34.5785     7.0203    10.0052    10.5638     0.0343     7.9003   131.8511     2.4689     0.1042
  261.5000   -34.5247     7.0444    10.1234    10.6312     0.0367     7.9012   130.4175     2.4771     0.1010
  262.0000   -34.4705     7.0685     9.9826    10.6976     0.0389     7.9021   128.9124     2.4846     0.0979
  262.5000   -34.4166     7.0927     9.8079    10.6149     0.0413     7.9069   131.0912     2.4881     0.0946
  263.0000   -34.3627     7.1170     9.6362    10.5310     0.0416     7.9121   133.7870     2.4880     0.0943
  263.5000   -34.3087     7.1364     9.4675    10.4482     0.0413     7.9174   136.3918     2.4862     0.0958
  264.0000   -34.2532     7.1003     9.3018    10.3661     0.0409     7.9227   136.8532     2.4844     0.0974
  264.5000   -34.1375     7.0705     9.1389    10.2847     0.0405     7.9279   137.2862     2.4828     0.0986
  265.0000   -33.9480     7.0409     8.9821    10.2039     0.0401     7.9332   137.7192     2.4837     0.0982
  265.5000   -33.7597     7.0114     8.8615    10.1238     0.0413     7.9385   136.9511     2.4879     0.0966
  266.0000   -33.5708     6.9820     8.7464    10.0313     0.0438     7.9438   135.6294     2.4942     0.0912
  266.5000   -33.3819     6.9528     8.6587    10.1540     0.0463     7.9490   138.8803     2.5003     0.0866
  267.0000   -33.1923     6.9059     8.9798    10.3039     0.0467     7.9543   137.6176     2.5006     0.0889
  267.5000   -33.0034     6.8492     9.2505    10.4565     0.0433     7.9595   134.9807     2.4936     0.0927
  268.0000   -32.8462     6.7929     9.4225    10.6113     0.0400     7.9594   133.0291     2.4789     0.0966
  268.5000   -32.9696     6.7372     9.4621    10.6980     0.0366     7.9542   134.0155     2.4614     0.1061
  269.0000   -33.0905     6.6823     9.5019    10.5795     0.0333     7.9489   136.0153     2.4513     0.1157
  269.5000   -33.2103     6.6293     9.5419    10.4984     0.0299     7.9436   138.0143     2.4428     0.1154
  270.0000   -33.3300     6.4975     9.5796    10.4179     0.0265     7.9384   140.0226     2.4344     0.1171
  270.5000   -33.4630     6.3745     9.4892    10.3380     0.0272     7.9331   141.1505     2.4262     0.1213
  271.0000   -33.6609     6.2538     9.4036    10.2587     0.0287     7.9278   141.1298     2.4219     0.1255
  271.5000   -33.8616     6.1354     9.3191    10.1800     0.0302     7.9225   140.5506     2.4206     0.1273
  272.0000   -34.0608     6.0193     9.2355    10.1020     0.0318     7.9173   138.8311     2.4212     0.1254
  272.5000   -34.2047     5.9053     9.1526    10.0245     0.0333     7.9120   137.1302     2.4293     0.1235
  273.0000   -34.0329     5.7935     9.0705     9.9388     0.0348     7.9067   135.4323     2.4316     0.1222
  273.5000   -33.8652     5.6838     8.9885    10.0645     0.0364     7.9014   133.7352     2.4245     0.1250
  274.0000   -33.6987     5.5761     8.9122    10.2086     0.0379     7.8962   133.4021     2.4160     0.1283
  274.5000   -33.5350     5.4702     8.6031    10.3114     0.0394     7.8909   135.7142     2.4126     0.1313
  275.0000   -33.5096     5.3162     8.2856    10.2013     0.0409     7.8856   137.5551     2.4132     0.1303
  275.5000   -33.7122     5.3368     7.9783    10.0454     0.0424     7.8803   139.4072     2.4214     0.1265
  276.0000   -33.9085     5.3977     7.5414     8.5285     0.0440     7.8751   139.5736     2.4309     0.1210
  276.5000   -33.9356     5.5046     7.6930     5.7752     0.0455     7.8698   136.9770     2.4483     0.1134
  277.0000   -33.7044     5.6135     8.0091     6.8457     0.0454     7.8645   132.7214     2.4681     0.1054
  277.5000   -33.4770     5.7246     8.3358     9.0318     0.0447     7.8592   130.1953     2.4639     0.1060
  278.0000   -33.2486     5.8379     8.6749     9.8509     0.0439     7.8540   138.3124     2.4547     0.1104
  278.5000   -33.0201     5.9534     8.9821     9.9817     0.0432     7.8487   139.2915     2.4515     0.1150
  279.0000   -32.7922     6.1030     8.9821    10.1143     0.0425     7.8433   134.7094     2.4557     0.1119
  279.5000   -32.5678     6.0923     8.9824    10.2480     0.0429     7.8463   129.6158     2.4605     0.1087
  280.0000   -32.6140     6.0722     8.9823    10.3227     0.0493     7.8506   131.0756     2.4654     0.1070
  280.5000   -33.0007     6.0522     8.9822    10.3408     0.0510     7.8550   134.3683     2.4644     0.1098
  281.0000   -33.3834     5.8581     8.9834    10.3603     0.0487     7.8594   137.7657     2.4542     0.1135
  281.5000   -33.7676     5.6135     8.6825    10.3817     0.0465     7.8637   138.9252     2.4442     0.1171
  282.0000   -34.1514     5.3792     8.4039    10.4114     0.0442     7.8681   138.9546     2.4338     0.1207
  282.5000   -34.5351     5.1542     7.8128    10.0769     0.0419     7.8725   138.9124     2.4233     0.1244
  283.0000   -34.9193     4.9401     7.2633     8.1327     0.0397     7.8768   137.8298     2.4219     0.1253
  283.5000   -35.3184     4.7941     6.7524     6.2485     0.0382     7.8812   135.8291     2.4314     0.1188
  284.0000   -35.4971     4.7169     6.4494     4.8008     0.0399     7.8855   132.1012     2.4450     0.1111
  284.5000   -35.6138     4.8136     7.0762     4.0712     0.0416     7.8899   125.3046     2.4729     0.0996
  285.0000   -35.7285     4.9462     7.4121     9.6923     0.0432     7.8942   126.8812     2.4932     0.0922
  285.5000   -35.8428     5.1192     7.6911     9.8275     0.0449     7.8986   130.1850     2.4877     0.0943
  286.0000   -35.9599     5.2984     7.9806     9.9757     0.0465     7.9030   130.7456     2.4863     0.0974
  286.5000   -35.7691     5.4839     8.2810    10.1751     0.0481     7.9073   129.9380     2.4904     0.0947
  287.0000   -35.3203     5.6758     8.5928    10.3676     0.0498     7.9117   128.4366     2.4940     0.0916
  287.5000   -34.8698     5.8744     8.8134    10.5616     0.0515     7.9160   126.9877     2.4976     0.0884
  288.0000   -34.4185     6.0800     9.0130    10.6981     0.0499     7.9204   125.5366     2.5014     0.0850
  288.5000   -33.9676     6.2928     9.2171    10.8220     0.0472     7.9247   124.0797     2.5004     0.0872
  289.0000   -33.5201     6.5133     9.4259    10.9484     0.0445     7.9291   122.6256     2.4989     0.0895
  289.5000   -33.1829     6.7387     9.6393    11.2735     0.0417     7.9335   121.8158     2.4974     0.0894
  290.0000   -33.0560     6.9663     9.8577    11.7290     0.0401     7.9378   123.1395     2.4959     0.0866
  290.5000   -32.9252     7.0300    10.0589    11.7290     0.0409     7.9422   126.7334     2.4944     0.0878
  291.0000   -32.7946     7.0591    10.1864    11.7290     0.0417     7.9465   130.2866     2.4928     0.0900
