~VERSION INFORMATION
 VERS.                2.0:   CWLS LOG ASCII STANDARD - VERSION 2.0
 WRAP.                 NO:   ONE LINE PER DEPTH STEP
~WELL INFORMATION
#MNEM.UNIT      DATA TYPE    INFORMATION
#----------   ------------   ------------------------------
 STRT.F            0.5000:   START DEPTH
 STOP.F         2271.5000:   STOP DEPTH
 STEP.F            0.5000:   STEP LENGTH
 NULL.          -999.2500:   NO VALUE
 COMP. BROWN JOHN E&C INC:   COMPANY
 WELL. NPR 3 STX-11 #27-11:   WELL
 FLD .             TEAPOT:   FIELD
 LOC .      S11 T38N R78W:   LOCATION
 CNTY.            NATRONA:   COUNTY
 STAT.            WYOMING:   STATE
 CTRY. UNITED STATES OF AMERICA:   COUNTRY
 SRVC.      Dresser Atlas:   SERVICE COMPANY
 DATE.        20-JAN-1993:   LOGDATE
 API .       490251108500:   API NUMBER
~CURVE INFORMATION
#MNEM.UNIT       API CODE    CURVE DESCRIPTION
#----------   ------------   ------------------------------
 DEPT.F                  :   
 ILD .OHMM   07 120 46 00:   INDUCTION LOG DEEP
 ILM .OHMM   07 120 44 00:   INDUCTION LOG MEDIUM
 GRR .GAPI   07 310 01 00:   GAMMA RAY FROM RES. LOG.
~PARAMETER INFORMATION
#MNEM.UNIT          VALUE    DESCRIPTION
#----------   ------------   ------------------------------
 PD  .                 GL:   PERMANENT DATUM
 EPD .F              5187:   ELEVATION PERMANENT DATUM
 LMF .                 KB:   LOG MEASURED FROM
 DAPD.F                12:   FEET ABOVE PERMANENT DATUM
 DMF .                 KB:   DRILLING MEASURED FROM
 EKB .F            5198.8:   KELLING BUSHING
 EDF .F            5197.8:   DRILLING FLOOR
 EGL .F              5187:   GROUND LEVEL
 DATE.            1-20-93:   RUN DATE
 RUN .                  1:   RUN NUMBER
 DD  .F              2279:   DEPTH DRILLER
 DL  .F              2279:   DEPTH LOGGER
 BLI .F              2271:   BOTTOM LOG INTERVAL
 TLI .F               692:   TOP LOG INTERVAL
 CS  .IN            8.625:   CASING SIZE
 CBD .F               689:   CASING BOTTOM DRILLER
 CBL .F               692:   CASING BOTTOM LOGGER
 BS  .IN            7.875:   BIT SIZE
 BSD .F              2279:   BIT SIZE AT DEPTH
 DFT .                OIL:   DRILLING FLUID TYPE
 BHT .F                92:   BOTTOM HOLE TEMPERATURE
 TCS .HRS               2:   TIME CURCULATED STOPPED
 MRT .F                92:   MAXIMUM RECORDED TEMPERATURE
 LUN .            HL-6274:   LOGGING UNIT NUMBER
 LUL .             CASPER:   LOGGING UNIT LOCATION
 ENGI.             RAUTIO:   RECORDING ENGINEER
 WITN.             STRONG:   WITNESSED BY
 CLNT.            A2DTECH:   CLIENT CODE
 ORIG.  2", 5", 20" PRINT:   ORIGIN OF DATA
 UWI .       490251108500:   UNIQUE WELL ID
 DICO. A2D Technologies, Inc.:   DIGITIZING COMPANY
~OTHER INFORMATION
~A    DEPT     ILD        ILM         GRR  
# ...
 1092.5000     9.9735     9.3664   125.5917
 1093.0000    10.0562     9.4547   127.9487
 1093.5000     9.9793     9.5175   130.3003
 1094.0000     9.9178     9.6027   132.6530
 1094.5000     9.8567     9.4943   134.3494
 1095.0000     9.7960     9.3308   135.2390
 1095.5000     9.7357     9.1701   136.1713
 1096.0000     9.6837     8.9556   137.1078
 1096.5000     9.6539     8.6832   138.0726
 1097.0000     9.6241     8.5960   138.3009
 1097.5000     9.6027     8.6773   136.2037
 1098.0000     9.8400     8.7987   134.1695
 1098.5000    10.0569     8.9790   132.8660
 1099.0000    10.2785     9.1899   132.3127
 1099.5000    10.5299     9.4058   131.5794
 1100.0000    10.8608     9.6267   130.1690
 1100.5000    11.0313     9.8529   128.7882
 1101.0000    11.0282    10.1494   129.1017
 1101.5000    10.8513     9.9853   130.4211
 1102.0000    10.6716     9.6798   131.5386
 1102.5000    10.2550     9.3837   130.3207
 1103.0000     9.8574     9.0966   128.9881
 1103.5000     9.4752     8.8183   128.5755
 1104.0000     9.1078     8.5485   128.3779
 1104.5000     8.7547     8.2870   128.8863
 1105.0000     8.4152     8.0335   131.3897
 1105.5000     8.1890     7.7865   134.5270
 1106.0000     8.0333     7.7015   137.6739
 1106.5000     7.8807     7.6175   140.8854
 1107.0000     7.7571     7.5465   140.9733
 1107.5000     7.7188     7.5146   136.1587
 1108.0000     7.6808     7.4829   131.3022
 1108.5000     7.6429     7.4512   127.9311
 1109.0000     7.6052     7.4193   132.7350
 1109.5000     7.5677     7.3835   139.1669
 1110.0000     7.5304     7.3352   145.9458
 1110.5000     7.4933     7.2877   147.7537
 1111.0000     7.4563     7.2405   147.9269
 1111.5000     7.4195     7.1935   147.2408
 1112.0000     7.3830     7.1469   148.1341
 1112.5000     7.3466     7.1006   149.1454
 1113.0000     7.3103     7.0546   148.7787
 1113.5000     7.2804     7.0165   148.2162
 1114.0000     7.4522     7.1709   147.1189
 1114.5000     7.6026     7.3056   146.0323
 1115.0000     7.7560     7.4438   144.2534
 1115.5000     7.9109     7.6238   142.0077
 1116.0000     8.3043     7.9679   141.4764
 1116.5000     8.7132     8.3276   141.9381
 1117.0000     9.1422     8.7036   139.5421
 1117.5000     9.5923     9.0794   133.7064
 1118.0000    10.0646     9.4495   127.9765
 1118.5000    10.5601     9.8346   122.8111
 1119.0000    10.9704    10.2354   121.5158
 1119.5000    11.2911    10.5605   123.0908
 1120.0000    11.4970    10.6635   124.2192
 1120.5000    11.7042    10.7676   122.3222
 1121.0000    11.9157    10.8726   122.2431
 1121.5000    12.1303    10.9780   126.3227
 1122.0000    12.3560    11.1495   127.1317
 1122.5000    12.6093    11.3787   123.2781
 1123.0000    12.8691    11.6133   119.2038
 1123.5000    13.1342    11.8527   121.0304
 1124.0000    13.4047    12.0970   125.8037
 1124.5000    13.6808    12.3459   125.5030
 1125.0000    13.9627    12.5554   123.5053
 1125.5000    14.1840    12.5855   123.2617
 1126.0000    14.3926    12.6157   123.1294
 1126.5000    14.6808    12.6458   122.3338
 1127.0000    14.6466    12.6760   122.9212
 1127.5000    14.5883    12.7064   123.4188
 1128.0000    14.5463    12.7369   121.9109
 1128.5000    14.3876    12.7679   120.3709
 1129.0000    14.2546    12.7816   118.8365
 1129.5000    14.1591    12.6487   119.5971
 1130.0000    14.0664    12.5495   123.3733
 1130.5000    13.9044    12.3675   127.3191
 1131.0000    13.6816    12.1686   131.3437
 1131.5000    13.4612    11.9730   131.0948
 1132.0000    13.2448    11.7804   128.3960
 1132.5000    13.0214    11.6563   124.8824
 1133.0000    13.0214    11.6563   121.3641
 1133.5000    13.0211    11.6563   119.9526
 1134.0000    13.0213    11.6563   122.4899
 1134.5000    13.0215    11.6552   125.3500
 1135.0000    13.0479    11.7701   127.2166
 1135.5000    13.0932    11.8862   127.4201
 1136.0000    13.1387    12.0034   127.4008
 1136.5000    13.1840    12.0946   127.1161
 1137.0000    13.2296    11.9372   128.3301
 1137.5000    13.2640    11.8817   129.8415
 1138.0000    12.9240    11.8264   128.9557
 1138.5000    12.7196    11.7714   126.9324
 1139.0000    12.5184    11.5099   125.7857
 1139.5000    12.3204    11.2247   132.0050
 1140.0000    12.1255    10.9465   136.2096
 1140.5000    11.9337    10.6752   133.7392
 1141.0000    11.7450    10.3385   131.2581
 1141.5000    11.5499    10.3534   131.9711
 1142.0000    11.3380    10.3818   132.9367
 1142.5000    11.2949    10.4103   132.7367
 1143.0000    11.2491    10.4343   131.7942
 1143.5000    11.2039    10.3543   129.2593
 1144.0000    11.1579    10.2850   126.3098
 1144.5000    11.1000    10.2221   123.5850
 1145.0000    10.9386    10.1027   126.2534
 1145.5000    10.7796     9.9857   129.8409
 1146.0000    10.6228     9.8700   130.9443
 1146.5000    10.4683     9.7557   131.2540
 1147.0000    10.3160     9.6027   130.8680
 1147.5000    10.1660     9.6105   131.6535
 1148.0000    10.0556     9.6226   130.9330
 1148.5000    10.0697     9.6347   128.7362
 1149.0000    10.0829     9.6468   126.5905
 1149.5000    10.0959     9.6590   127.5688
 1150.0000    10.1089     9.6712   130.2288
 1150.5000    10.1219     9.6829   131.4354
 1151.0000    10.1349     9.6917   129.2100
 1151.5000    10.1480     9.5999   126.4446
 1152.0000    10.1610     9.5301   126.8454
 1152.5000    10.1741     9.4608   127.9534
 1153.0000    10.1872     9.4271   129.7314
 1153.5000    10.2004     9.4844   134.4076
 1154.0000    10.2135     9.5284   139.3030
 1154.5000    10.2267     9.5725   138.9265
 1155.0000    10.2435     9.6027   132.5264
 1155.5000    10.2027     9.6026   127.0392
 1156.0000    10.1463     9.6027   123.4864
 1156.5000    10.0901     9.6029   121.0399
 1157.0000    10.0346     9.6032   121.9677
 1157.5000     9.9782     9.6029   123.5866
 1158.0000     9.8865     9.4157   122.9702
 1158.5000     9.7408     9.2180   121.7321
 1159.0000     9.5975     9.0246   122.1822
 1159.5000     9.4562     8.8353   123.3796
 1160.0000     9.3184     8.6757   124.5940
 1160.5000     9.2548     8.7268   125.3646
 1161.0000     9.2715     8.7715   125.7983
 1161.5000     9.2825     8.8168   130.0445
 1162.0000     9.2936     8.8622   134.8928
 1162.5000     9.3046     8.9078   131.7306
 1163.0000     9.3156     8.9537   127.7907
 1163.5000     9.3267     9.0020   126.7904
 1164.0000     9.3390     8.8806   131.6030
 1164.5000     9.2697     8.7551   137.6868
 1165.0000     9.1771     8.6315   139.5024
 1165.5000     9.0851     8.5095   137.3254
 1166.0000     8.9944     8.3613   135.1232
 1166.5000     8.9193     8.3650   134.6999
 1167.0000     8.9258     8.3691   135.2168
 1167.5000     8.9316     8.3738   134.8832
 1168.0000     8.9372     8.3784   133.3605
 1168.5000     8.9428     8.3830   132.9170
 1169.0000     8.9485     8.3875   132.3566
 1169.5000     8.9542     8.3921   130.6145
 1170.0000     8.9598     8.3967   128.8724
 1170.5000     8.9655     8.4012   131.1681
 1171.0000     8.9712     8.4058   134.0209
 1171.5000     8.9769     8.4104   135.2291
 1172.0000     8.9826     8.4150   131.8690
 1172.5000     8.9882     8.4195   128.5341
 1173.0000     8.9940     8.4241   127.0630
 1173.5000     8.9994     8.4287   127.1135
 1174.0000     9.0268     8.4333   128.6534
 1174.5000     9.0687     8.4380   130.9923
 1175.0000     9.1106     8.4388   133.3250
 1175.5000     9.1528     8.4388   135.7501
 1176.0000     9.1952     8.4388   137.1323
 1176.5000     9.2379     8.4388   137.1110
 1177.0000     9.2617     8.4388   134.1832
 1177.5000     9.2728     8.4388   131.3099
 1178.0000     9.2841     8.4388   130.6911
 1178.5000     9.2954     8.4388   132.2229
 1179.0000     9.3067     8.4388   133.8380
 1179.5000     9.3180     8.4388   135.4672
 1180.0000     9.3294     8.4388   135.3166
 1180.5000     9.3411     8.4388   134.7082
 1181.0000     9.3721     8.4386   133.3858
 1181.5000     9.4030     8.4376   132.0706
 1182.0000     9.4342     8.4834   130.7924
 1182.5000     9.4654     8.5377   132.0054
 1183.0000     9.4967     8.5923   135.7679
