~VERSION INFORMATION
 VERS.                2.0:   CWLS LOG ASCII STANDARD - VERSION 2.0
 WRAP.                 NO:   ONE LINE PER DEPTH STEP
~WELL INFORMATION
#MNEM.UNIT      DATA TYPE    INFORMATION
#----------   ------------   ------------------------------
 STRT.F           10.0000:   START DEPTH
 STOP.F          481.0000:   STOP DEPTH
 STEP.F            0.5000:   STEP LENGTH
 NULL.          -999.2500:   NO VALUE
 COMP. BROWN JOHN E&C INC:   COMPANY
 WELL.         SX 67 #1-3:   WELL
 FLD .        TEAPOT DOME:   FIELD
 LOC .       S3 T38N R78W:   LOCATION
 CNTY.            NATRONA:   COUNTY
 STAT.            WYOMING:   STATE
 CTRY. UNITED STATES OF AMERICA:   COUNTRY
 SRVC.       Schlumberger:   SERVICE COMPANY
 DATE.        12-OCT-1990:   LOGDATE
 API .       490251132900:   API NUMBER
~CURVE INFORMATION
#MNEM.UNIT       API CODE    CURVE DESCRIPTION
#----------   ------------   ------------------------------
 DEPT.F                  :   
 CALD.IN     45 280 60 00:   CALIPER FROM DENSITY LOG
 DRHO.G/C3   45 356 01 00:   DENSITY CORRECTION
 GRD .GAPI   45 310 01 00:   GAMMA RAY FROM DENSITY LOG
 RHOB.G/C3   45 350 01 00:   BULK DENSITY
 DPHI.DEC    45 890 12 00:   DENSITY POROSITY SANDSTONE
~PARAMETER INFORMATION
#MNEM.UNIT          VALUE    DESCRIPTION
#----------   ------------   ------------------------------
 PD  .                 GL:   PERMANENT DATUM
 EPD .F              5174:   ELEVATION PERMANENT DATUM
 LMF .                 KB:   LOG MEASURED FROM
 DAPD.F                10:   FEET ABOVE PERMANENT DATUM
 DMF .                 KB:   DRILLING MEASURED FROM
 EKB .F              5184:   KELLING BUSHING
 EGL .F              5174:   GROUND LEVEL
 DATE.           10-12-90:   RUN DATE
 RUN .                  1:   RUN NUMBER
 DD  .F               486:   DEPTH DRILLER
 DL  .F               486:   DEPTH LOGGER
 BLI .F               483:   BOTTOM LOG INTERVAL
 TLI .F                10:   TOP LOG INTERVAL
 CS  .IN            8.625:   CASING SIZE
 CBD .F                50:   CASING BOTTOM DRILLER
 CBL .F                50:   CASING BOTTOM LOGGER
 BS  .IN            7.875:   BIT SIZE
 BSD .F               486:   BIT SIZE AT DEPTH
 DFT .      DISPERSED GEL:   DRILLING FLUID TYPE
 DFD .                 15:   DRILLING FLUID DENSITY
 DFV .                 44:   DRILLING FLUID VISCOSITY
 DFPH.                  8:   DRILLING FLUID PH
 DFL .                7.2:   DRILLING FLUID LOSS
 MSS .           FLOWLINE:   MUD SAMPLE SOURCE
 RMS .OHMM              1:   RESISTIVITY MUD SAMPLE
 MST .F                60:   MUD SAMPLE TEMPERATURE
 RMF .OHMM             .7:   RESISTIVITY MUD FILTRATE SAMPLE
 MFST.F                60:   MUD FILTRATE SAMPLE TEMPERATURE
 RMC .OHMM            1.5:   RESISTIVITY MUD CAKE
 MCST.F                60:   MUD CAKE SAMPLE TEMPERATURE
 MFSS.               MEAS:   MUD FILTRATE SAMPLE SOURCE
 MCSS.               CALC:   MUD CAKE SAMPLE SOURCE
 RMB .OHMM           .753:   RESISTIVITY MUD AT BHT
 BHT .F                82:   BOTTOM HOLE TEMPERATURE
 TCS .HRS            1230:   TIME CURCULATED STOPPED
 MRT .F                82:   MAXIMUM RECORDED TEMPERATURE
 LUN .               8116:   LOGGING UNIT NUMBER
 LUL .             CASPER:   LOGGING UNIT LOCATION
 ENGI.            S. PEEL:   RECORDING ENGINEER
 WITN.        GARY STRONG:   WITNESSED BY
 CLNT.            A2DTECH:   CLIENT CODE
 ORIG.           5" PRINT:   ORIGIN OF DATA
 UWI .       490251132900:   UNIQUE WELL ID
 DICO. A2D Technologies, Inc.:   DIGITIZING COMPANY
~OTHER INFORMATION
~A   DEPT     CALD       DRHO         GRD      RHOB       DPHI   
# ...
  193.0000     7.8537     0.0133    87.7381     2.4607     0.1145
  193.5000     7.8537     0.0130    85.4470     2.4543     0.1180
  194.0000     7.8537     0.0127    83.3639     2.4424     0.1212
  194.5000     7.8537     0.0105    82.8360     2.4280     0.1345
  195.0000     7.8537     0.0082    84.1451     2.4012     0.1484
  195.5000     7.8538     0.0058    85.2531     2.3658     0.1742
  196.0000     7.8628     0.0034    84.8051     2.3118     0.2001
  196.5000     7.8725     0.0007    81.5945     2.2572     0.2381
  197.0000     7.8823    -0.0003    77.6135     2.2125     0.2609
  197.5000     7.8922     0.0015    73.3894     2.1837     0.2783
  198.0000     7.8902     0.0031    71.0013     2.1994     0.2833
  198.5000     7.8858     0.0102    73.0387     2.2604     0.2447
  199.0000     7.8812     0.0172    78.9109     2.3210     0.1973
  199.5000     7.8769     0.0174    83.9394     2.3813     0.1673
  200.0000     7.8808     0.0128    85.3510     2.4133     0.1423
  200.5000     7.9104     0.0089    81.2179     2.4387     0.1260
  201.0000     7.9387     0.0069    80.6633     2.4594     0.1163
  201.5000     7.9685     0.0051    83.6548     2.4757     0.1065
  202.0000     7.9452     0.0037    87.9223     2.4792     0.1026
  202.5000     7.9049     0.0024    91.3698     2.4794     0.1034
  203.0000     7.8536     0.0010    92.5132     2.4734     0.1066
  203.5000     7.8340     0.0006    93.1952     2.4671     0.1121
  204.0000     7.8336     0.0008    94.9306     2.4618     0.1130
  204.5000     7.8336     0.0011    97.9251     2.4668     0.1115
  205.0000     7.8337     0.0013    99.1577     2.4734     0.1070
  205.5000     7.8337     0.0020    99.9396     2.4793     0.1030
  206.0000     7.8337     0.0041    99.5764     2.4783     0.1056
  206.5000     7.8337     0.0061    97.9560     2.4629     0.1117
  207.0000     7.8337     0.0081    96.6922     2.4452     0.1235
  207.5000     7.8337     0.0100    97.4531     2.4127     0.1390
  208.0000     7.8337     0.0120    99.9525     2.3937     0.1546
  208.5000     7.8337     0.0136   102.3012     2.3898     0.1575
  209.0000     7.8337     0.0130   102.4539     2.4172     0.1448
  209.5000     7.8337     0.0126    99.7437     2.4422     0.1298
  210.0000     7.8337     0.0121    96.3789     2.4519     0.1198
  210.5000     7.8337     0.0116    93.7968     2.4587     0.1158
  211.0000     7.8339     0.0111    91.1924     2.4655     0.1118
  211.5000     7.8351     0.0107    90.1167     2.4726     0.1078
  212.0000     7.7856     0.0102    91.0005     2.4757     0.1054
  212.5000     7.7277     0.0097    92.4094     2.4776     0.1047
  213.0000     7.7053     0.0092    93.8787     2.4794     0.1039
  213.5000     7.6941     0.0088    94.9675     2.4814     0.1032
  214.0000     7.7208     0.0093    96.0596     2.4845     0.1011
  214.5000     7.7507     0.0105    98.8334     2.4876     0.0987
  215.0000     7.7805     0.0116   100.7803     2.4891     0.0981
  215.5000     7.8102     0.0098    99.7147     2.4870     0.0986
  216.0000     7.8353     0.0076    95.7105     2.4807     0.1025
  216.5000     7.8405     0.0055    91.1130     2.4746     0.1063
  217.0000     7.8463     0.0035    90.3315     2.4698     0.1095
  217.5000     7.8513     0.0022    92.1414     2.4686     0.1101
  218.0000     7.8970     0.0027    92.7727     2.4672     0.1110
  218.5000     7.9531     0.0061    93.8269     2.4635     0.1133
  219.0000     7.9473     0.0090    94.8518     2.4596     0.1155
  219.5000     7.9406     0.0116    95.7895     2.4604     0.1139
  220.0000     7.9342     0.0139    95.9337     2.4708     0.1100
  220.5000     7.9371     0.0154    95.9945     2.4816     0.1046
  221.0000     7.9407     0.0169    95.8318     2.4879     0.0992
  221.5000     7.9442     0.0183    95.1879     2.4913     0.0975
  222.0000     7.9478     0.0197    92.6605     2.4891     0.0977
  222.5000     7.9512     0.0197    89.8872     2.4760     0.1053
  223.0000     7.9507     0.0165    89.8772     2.4537     0.1161
  223.5000     7.9348     0.0133    90.8863     2.4276     0.1309
  224.0000     7.9184     0.0105    90.8826     2.4010     0.1490
  224.5000     7.9486     0.0121    89.4398     2.3884     0.1603
  225.0000     7.9572     0.0136    90.0063     2.4003     0.1456
  225.5000     7.9609     0.0152    91.2241     2.4390     0.1290
  226.0000     7.9646     0.0165    91.0263     2.4744     0.1123
  226.5000     7.9683     0.0124    89.5047     2.4888     0.0982
  227.0000     7.9720     0.0081    88.3184     2.4879     0.0988
  227.5000     7.9757     0.0041    88.5601     2.4845     0.1005
  228.0000     7.9794     0.0014    90.8305     2.4812     0.1022
  228.5000     7.9831    -0.0010    92.8970     2.4778     0.1039
  229.0000     7.9868    -0.0015    93.4247     2.4759     0.1050
  229.5000     7.9906    -0.0016    93.4634     2.4758     0.1050
  230.0000     7.9938    -0.0026    92.9507     2.4796     0.1033
  230.5000     7.9894    -0.0016    91.5558     2.4834     0.1016
  231.0000     7.9849    -0.0006    91.6114     2.4865     0.0998
  231.5000     7.9805     0.0004    93.1981     2.4897     0.0980
  232.0000     7.9760     0.0014    94.4872     2.4915     0.0969
  232.5000     7.9716     0.0014    92.6660     2.4900     0.0970
  233.0000     7.9672     0.0012    90.8481     2.4883     0.0976
  233.5000     7.9628     0.0011    91.4572     2.4880     0.0981
  234.0000     7.9584     0.0010    93.7560     2.4893     0.0978
  234.5000     7.9533     0.0008    95.4102     2.4902     0.0975
  235.0000     7.9295     0.0007    94.0117     2.4871     0.0993
  235.5000     7.9050     0.0005    93.1527     2.4828     0.1019
  236.0000     7.8805     0.0034    94.8427     2.4794     0.1026
  236.5000     7.8564     0.0071    95.7022     2.4926     0.0981
  237.0000     7.8321     0.0137    95.1802     2.5127     0.0845
  237.5000     7.7844     0.0219    94.9751     2.5332     0.0716
  238.0000     7.6912     0.0302    95.2393     2.5368     0.0663
  238.5000     7.5939     0.0327    95.5080     2.5199     0.0793
  239.0000     7.5957     0.0329    95.8798     2.5014     0.0920
  239.5000     7.6258     0.0270    98.1378     2.4829     0.1023
  240.0000     7.6567     0.0214   101.4007     2.4722     0.1067
  240.5000     7.6878     0.0164   103.2838     2.4699     0.1093
  241.0000     7.6977     0.0160   101.9931     2.4720     0.1078
  241.5000     7.7031     0.0148    99.0614     2.4729     0.1069
  242.0000     7.7084     0.0162    97.2951     2.4716     0.1085
  242.5000     7.7137     0.0183    98.3480     2.4703     0.1100
  243.0000     7.7191     0.0204    99.3505     2.4755     0.1062
  243.5000     7.7245     0.0180    99.2834     2.4824     0.1014
  244.0000     7.7298     0.0147    98.5126     2.4864     0.0991
  244.5000     7.7335     0.0115    98.7629     2.4851     0.0997
  245.0000     7.7335     0.0083    99.9453     2.4820     0.1020
  245.5000     7.7335     0.0053   101.0852     2.4701     0.1119
  246.0000     7.7335     0.0046    99.6495     2.4303     0.1275
  246.5000     7.7335     0.0060    96.6339     2.3822     0.1579
  247.0000     7.7334     0.0076    95.3097     2.3533     0.1835
  247.5000     7.7338     0.0092    94.9924     2.3642     0.1716
  248.0000     7.7350     0.0107    95.9003     2.4044     0.1514
  248.5000     7.7089     0.0115    96.2702     2.4485     0.1246
  249.0000     7.7003     0.0102    96.5447     2.4665     0.1118
  249.5000     7.6921     0.0088    96.8100     2.4672     0.1109
  250.0000     7.6841     0.0077    96.2958     2.4656     0.1123
  250.5000     7.6760     0.0099    92.9324     2.4662     0.1115
  251.0000     7.6679     0.0120    89.7147     2.4669     0.1118
  251.5000     7.6599     0.0142    87.7896     2.4657     0.1122
  252.0000     7.6555     0.0127    87.3704     2.4666     0.1110
  252.5000     7.6704     0.0103    87.8145     2.4689     0.1093
  253.0000     7.6852     0.0078    89.1544     2.4687     0.1108
  253.5000     7.7063     0.0053    90.9447     2.4609     0.1163
