~VERSION INFORMATION
 VERS.                2.0:   CWLS LOG ASCII STANDARD - VERSION 2.0
 WRAP.                 NO:   ONE LINE PER DEPTH STEP
~WELL INFORMATION
#MNEM.UNIT      DATA TYPE    INFORMATION
#----------   ------------   ------------------------------
 STRT.F           40.0000:   START DEPTH
 STOP.F          462.0000:   STOP DEPTH
 STEP.F            0.5000:   STEP LENGTH
 NULL.          -999.2500:   NO VALUE
 COMP.    FENIX & SCISSON:   COMPANY
 WELL.        NPR #68-S-3:   WELL
 FLD .             TEAPOT:   FIELD
 LOC .       S3 T38N R78W:   LOCATION
 CNTY.            NATRONA:   COUNTY
 STAT.            WYOMING:   STATE
 CTRY. UNITED STATES OF AMERICA:   COUNTRY
 SRVC.      Dresser Atlas:   SERVICE COMPANY
 DATE.        28-MAR-1977:   LOGDATE
 API .       490251031900:   API NUMBER
~CURVE INFORMATION
#MNEM.UNIT       API CODE    CURVE DESCRIPTION
#----------   ------------   ------------------------------
 DEPT.F                  :   
 SPR .MV     07 010 01 00:   SPONTANEOUS POTENTIAL
 ILD .OHMM   07 120 46 00:   INDUCTION LOG DEEP
 ILM .OHMM   07 120 44 00:   INDUCTION LOG MEDIUM
 SFL .OHMM   07 220 01 00:   SHALLOW FOCUSED LOG RESISTIVITY
 CALD.IN     45 280 60 00:   CALIPER FROM DENSITY LOG
 GRD .GAPI   45 310 01 00:   GAMMA RAY FROM DENSITY LOG
 CORR.G/C3   45 356 01 00:   DENSITY CORRECTION
 RHOB.G/C3   45 350 01 00:   BULK DENSITY
 DPHI.DEC    45 890 12 00:   DENSITY POROSITY SANDSTONE
~PARAMETER INFORMATION
#MNEM.UNIT          VALUE    DESCRIPTION
#----------   ------------   ------------------------------
 PD  .                 GL:   PERMANENT DATUM
 EPD .F              5162:   ELEVATION PERMANENT DATUM
 LMF .                 KB:   LOG MEASURED FROM
 DAPD.F                 5:   FEET ABOVE PERMANENT DATUM
 DMF .                 KB:   DRILLING MEASURED FROM
 EKB .F              5167:   KELLING BUSHING
 EGL .F              5162:   GROUND LEVEL
 DATE.        28-MAR-1977:   RUN DATE
 RUN .                  1:   RUN NUMBER
 DD  .F               452:   DEPTH DRILLER
 DL  .F               464:   DEPTH LOGGER
 BLI .F               462:   BOTTOM LOG INTERVAL
 TLI .F                40:   TOP LOG INTERVAL
 CS  .IN               10:   CASING SIZE
 CBD .F                40:   CASING BOTTOM DRILLER
 CBL .F                40:   CASING BOTTOM LOGGER
 BS  .IN            7.875:   BIT SIZE
 BSD .F               452:   BIT SIZE AT DEPTH
 DFT .           CHEM GEL:   DRILLING FLUID TYPE
 DFD .                8.9:   DRILLING FLUID DENSITY
 DFV .                 34:   DRILLING FLUID VISCOSITY
 DFPH.                8.0:   DRILLING FLUID PH
 DFL .                8.2:   DRILLING FLUID LOSS
 MSS .         CIRCULATED:   MUD SAMPLE SOURCE
 RMS .OHMM           .223:   RESISTIVITY MUD SAMPLE
 MST .F                51:   MUD SAMPLE TEMPERATURE
 RMF .OHMM           .161:   RESISTIVITY MUD FILTRATE SAMPLE
 MFST.F                51:   MUD FILTRATE SAMPLE TEMPERATURE
 RMC .OHMM           .285:   RESISTIVITY MUD CAKE
 MCST.F                51:   MUD CAKE SAMPLE TEMPERATURE
 MFSS.               MEAS:   MUD FILTRATE SAMPLE SOURCE
 MCSS.               MEAS:   MUD CAKE SAMPLE SOURCE
 RMB .OHMM           .186:   RESISTIVITY MUD AT BHT
 BHT .F                61:   BOTTOM HOLE TEMPERATURE
 TCS .HRS            0500:   TIME CURCULATED STOPPED
 MRT .F                61:   MAXIMUM RECORDED TEMPERATURE
 LUN .               6145:   LOGGING UNIT NUMBER
 LUL .              GLTTE:   LOGGING UNIT LOCATION
 ENGI.              GOULD:   RECORDING ENGINEER
 WITN.               LYON:   WITNESSED BY
 CLNT.            A2DTECH:   CLIENT CODE
 ORIG.           5" PRINT:   ORIGIN OF DATA
 UWI .       490251031900:   UNIQUE WELL ID
 DICO. A2D Technologies, Inc.:   DIGITIZING COMPANY
~OTHER INFORMATION
~A   DEPT      SPR        ILD        ILM        SFL       CALD        GRD       CORR       RHOB       DPHI   
# ...
  295.5000   -12.6470    14.2451    20.3180    22.2047     7.8078    83.6339     0.0821     2.4403     0.1221
  296.0000   -12.7796    14.2510    21.0442    21.7566     7.8096    82.6360     0.0868     2.4464     0.1197
  296.5000   -12.7634    14.3559    21.9524    21.3160     7.7810    81.8738     0.0914     2.4447     0.1221
  297.0000   -12.7470    14.3618    22.7556    21.0292     7.7683    84.8453     0.0961     2.4381     0.1239
  297.5000   -12.7307    14.4675    23.7277    21.0350     7.7700    87.2923     0.0993     2.4344     0.1245
  298.0000   -12.7143    14.3736    23.8857    21.1866     7.7270    87.3160     0.1024     2.4249     0.1259
  298.5000   -12.8475    14.1819    23.0898    21.2128     7.6690    86.7436     0.1041     2.4070     0.1368
  299.0000   -13.1289    13.8962    21.8592    20.9073     7.6109    86.4633     0.0997     2.4040     0.1461
  299.5000   -13.2575    13.6163    18.7847    20.2028     7.5973    86.7910     0.0953     2.4026     0.1511
  300.0000   -13.2454    13.5280    16.9613    19.6575     7.5832    88.9263     0.0915     2.4019     0.1532
  300.5000   -13.2997    13.7455    15.7812    19.6684     7.5776    90.8619     0.0856     2.4007     0.1514
  301.0000   -13.3576    13.9256    15.7182    19.6800     7.5889    90.4401     0.0793     2.3996     0.1529
  301.5000   -13.7918    13.9342    16.5254    19.2841     7.6211    88.8260     0.0719     2.3985     0.1531
  302.0000   -13.9244    13.9428    17.8612    18.9015     7.6835    86.7648     0.0616     2.3956     0.1543
  302.5000   -14.2016    14.0483    19.4280    19.0430     7.7307    85.1507     0.0527     2.3941     0.1558
  303.0000   -14.3382    14.0569    20.3685    19.2029     7.7779    84.7226     0.0484     2.3935     0.1566
  303.5000   -14.3179    14.1633    20.7839    18.2897     7.7945    84.7541     0.0455     2.3951     0.1566
  304.0000   -14.3016    14.3696    18.8787    18.4266     7.7967    84.9284     0.0427     2.4012     0.1553
  304.5000   -14.2853    14.4783    15.8904    19.2171     7.7840    86.4440     0.0398     2.4073     0.1484
  305.0000   -14.2691    14.5878    14.9399    19.9035     7.7862    85.2770     0.0370     2.3991     0.1535
  305.5000   -14.4057    14.6982    15.3673    20.4773     7.7884    81.7255     0.0342     2.3932     0.1564
  306.0000   -14.3853    14.5051    15.4824    20.9146     7.7757    81.0045     0.0359     2.3940     0.1564
  306.5000   -14.3691    14.2063    14.6573    20.0763     7.7780    82.9682     0.0391     2.4046     0.1519
  307.0000   -14.6504    13.8363    13.4976    19.0538     7.7803    85.6760     0.0408     2.4137     0.1479
  307.5000   -14.7870    13.7494    12.7782    18.3692     7.7825    84.8071     0.0423     2.4206     0.1413
  308.0000   -14.7667    13.5709    12.8740    18.5093     7.7847    80.5104     0.0408     2.4229     0.1376
  308.5000   -14.9033    13.3906    13.8033    18.3919     7.7704    79.3434     0.0394     2.4230     0.1373
  309.0000   -14.8829    13.0351    14.6976    18.1494     7.7443    77.8784     0.0353     2.4223     0.1378
  309.5000   -14.8667    12.9512    15.4350    17.4220     7.7316    77.8439     0.0325     2.4225     0.1375
  310.0000   -14.8504    12.6949    15.8766    16.9563     7.7339    82.9959     0.0311     2.4233     0.1372
  310.5000   -14.8341    12.7027    16.2183    17.2017     7.7511    85.5547     0.0343     2.4264     0.1353
  311.0000   -14.9673    12.4494    16.3398    17.3305     7.7683    86.2058     0.0390     2.4325     0.1314
  311.5000   -15.0997    12.3693    16.0131    17.2182     7.7855    82.4756     0.0452     2.4401     0.1286
  312.0000   -15.2321    12.2087    15.5849    16.9912     7.7877    79.9634     0.0499     2.4454     0.1271
  312.5000   -15.2154    12.0484    14.8566    16.7695     7.7900    84.6125     0.0515     2.4448     0.1264
  313.0000   -15.3482    12.0558    14.3597    16.5482     7.7922    86.1320     0.0517     2.4426     0.1264
  313.5000   -15.4807    11.9782    14.0726    15.9953     7.7945    87.3456     0.0503     2.4427     0.1264
  314.0000   -15.6130    11.8209    13.9814    15.1434     7.7967    83.7764     0.0490     2.4428     0.1267
  314.5000   -15.7456    11.7466    14.0861    14.7387     7.7990    81.8502     0.0432     2.4421     0.1269
  315.0000   -15.7292    11.6728    13.9968    14.4442     7.8016    79.9603     0.0403     2.4407     0.1272
  315.5000   -15.8618    11.6013    14.0064    14.4522     7.8039    80.1685     0.0375     2.4400     0.1281
  316.0000   -15.9944    11.4489    14.0141    14.3605     7.8061    81.8926     0.0346     2.4387     0.1295
  316.5000   -16.1418    11.4560    13.9252    14.3686     7.8084    84.6980     0.0333     2.4357     0.1313
  317.0000   -16.2594    11.3822    13.9328    14.4762     7.8106    83.8745     0.0319     2.4321     0.1331
  317.5000   -16.3920    11.3125    13.7490    14.3842     7.8128    82.3315     0.0306     2.4269     0.1348
  318.0000   -16.6984    11.2412    13.6618    14.3940     7.8151    83.9137     0.0292     2.4285     0.1357
  318.5000   -16.9506    11.1706    13.6693    14.4019     7.8173    83.8723     0.0309     2.4331     0.1305
  319.0000   -17.2319    11.1777    13.5825    14.3086     7.8040    84.4233     0.0371     2.4384     0.1263
  319.5000   -17.3685    11.1074    13.5900    14.2179     7.7913    85.2641     0.0388     2.4438     0.1238
  320.0000   -17.5011    10.9616    13.4107    14.1277     7.7786    83.6563     0.0374     2.4454     0.1232
  320.5000   -17.4807    10.8903    13.3256    13.8474     7.7814    82.9301     0.0376     2.4477     0.1220
  321.0000   -17.4645    10.7448    13.3330    13.7577     7.7682    84.0049     0.0378     2.4501     0.1207
  321.5000   -17.6011    10.6084    13.2352    13.3918     7.7859    86.2656     0.0379     2.4509     0.1201
  322.0000   -17.7336    10.4597    12.9835    13.3069     7.7881    87.0297     0.0381     2.4525     0.1192
  322.5000   -17.8621    10.3316    12.9924    13.4065     7.8053    85.1239     0.0398     2.4541     0.1182
  323.0000   -17.8458    10.1975    12.9996    13.4139     7.8076    80.9762     0.0400     2.4564     0.1173
  323.5000   -17.9824    10.1318    13.0067    13.4212     7.7943    83.0879     0.0417     2.4588     0.1163
  324.0000   -18.2637    10.0697    13.0139    13.4286     7.7971    85.6467     0.0433     2.4626     0.1154
  324.5000   -18.3963    10.0759    12.5785    13.1603     7.7993    87.4603     0.0449     2.4650     0.1136
  325.0000   -18.3759    10.1522    12.1578    12.8086     7.7861    89.1249     0.0451     2.4651     0.1129
  325.5000   -18.5125    10.1585    11.6701    12.3804     7.7889    90.9386     0.0438     2.4674     0.1129
  326.0000   -18.7898    10.2353    11.5960    12.3002     7.7911    92.1561     0.0424     2.4720     0.1108
  326.5000   -18.9224    10.3128    11.6829    12.3087     7.7933    90.3929     0.0411     2.4766     0.1080
  327.0000   -18.9061    10.3908    11.7705    12.3154     7.7801    91.9085     0.0413     2.4835     0.1050
  327.5000   -18.8898    10.5421    12.0238    12.4076     7.7829    93.5668     0.0399     2.4918     0.1025
  328.0000   -18.8735    10.6219    12.1139    12.5005     7.7851    91.6609     0.0386     2.4967     0.1019
  328.5000   -18.8573    10.7022    12.3746    12.8578     7.8023    90.4939     0.0388     2.4740     0.1079
  329.0000   -18.8410    10.7088    12.5538    13.1343     7.8045    87.9856     0.0389     2.4643     0.1126
  329.5000   -18.8247    10.7154    12.7356    13.5098     7.8068    86.0735     0.0376     2.4591     0.1162
  330.0000   -18.8084    10.7221    12.6531    13.8003     7.8240    84.4531     0.0378     2.4532     0.1189
  330.5000   -18.7922    10.7287    12.4879    13.8080     7.8105    89.1046     0.0394     2.4473     0.1207
  331.0000   -18.7759    10.7353    12.5814    13.6197     7.7978    88.0867     0.0396     2.4474     0.1173
  331.5000   -18.7596    10.7420    12.7636    13.2528     7.7851    85.7274     0.0413     2.4587     0.1131
