~VERSION INFORMATION
 VERS.                2.0:   CWLS LOG ASCII STANDARD - VERSION 2.0
 WRAP.                 NO:   ONE LINE PER DEPTH STEP
~WELL INFORMATION
#MNEM.UNIT      DATA TYPE    INFORMATION
#----------   ------------   ------------------------------
 STRT.F           20.0000:   START DEPTH
 STOP.F          678.0000:   STOP DEPTH
 STEP.F            0.5000:   STEP LENGTH
 NULL.          -999.2500:   NO VALUE
 COMP. FENIX & SCISSON INC:   COMPANY
 WELL. 27-42 SX 11 WO #27-11:   WELL
 FLD .        TEAPOT DOME:   FIELD
 LOC .      S11 T38N R78W:   LOCATION
 CNTY.            NATRONA:   COUNTY
 STAT.            WYOMING:   STATE
 CTRY. UNITED STATES OF AMERICA:   COUNTRY
 SRVC.      Dresser Atlas:   SERVICE COMPANY
 DATE.        13-AUG-1985:   LOGDATE
 API .       490251083800:   API NUMBER
~CURVE INFORMATION
#MNEM.UNIT       API CODE    CURVE DESCRIPTION
#----------   ------------   ------------------------------
 DEPT.F                  :   
 RHOB.G/C3   45 350 01 00:   BULK DENSITY
 CORR.G/C3   45 356 01 00:   DENSITY CORRECTION
 CALD.IN     45 280 60 00:   CALIPER
 GRD .GAPI   45 310 01 00:   GAMMA RAY FROM DENSITY LOG
 DPOR.DEC    45 890 12 00:   DENSITY POROSITY SANDSTONE
 NPOR.DEC    42 890 03 00:   NEUTRON POROSITY SANDSTONE
 SPR .MV     07 010 01 00:   SPONTANEOUS POTENTIAL
 SFL .OHMM   07 220 01 00:   SHALLOW FOCUSED LOG RESISTIVITY
 ILD .OHMM   07 120 46 00:   INDUCTION LOG DEEP
 ILM .OHMM   07 120 44 00:   INDUCTION LOG MEDIUM
~PARAMETER INFORMATION
#MNEM.UNIT          VALUE    DESCRIPTION
#----------   ------------   ------------------------------
 PD  .                 GL:   PERMANENT DATUM
 EPD .F              5188:   ELEVATION PERMANENT DATUM
 LMF .                 KB:   LOG MEASURED FROM
 DAPD.F                 5:   FEET ABOVE PERMANENT DATUM
 DMF .                 KB:   DRILLING MEASURED FROM
 EKB .F              5193:   KELLING BUSHING
 EGL .F              5188:   GROUND LEVEL
 DATE.          8-13-1985:   RUN DATE
 RUN .                  8:   RUN NUMBER
 DD  .F               632:   DEPTH DRILLER
 BLI .F               598:   BOTTOM LOG INTERVAL
 TLI .F               303:   TOP LOG INTERVAL
 CBL .F               303:   CASING BOTTOM LOGGER
 BS  .IN              .75:   BIT SIZE
 BSD .F               632:   BIT SIZE AT DEPTH
 DFT .          KCL WATER:   DRILLING FLUID TYPE
 LUN .            HL-6274:   LOGGING UNIT NUMBER
 LUL .           GILLETTE:   LOGGING UNIT LOCATION
 ENGI.             RAUTIO:   RECORDING ENGINEER
 WITN.            SCHULTE:   WITNESSED BY
 CLNT.            A2DTECH:   CLIENT CODE
 ORIG.           2" PRINT:   ORIGIN OF DATA
 UWI .       490251083800:   UNIQUE WELL ID
 DICO. A2D Technologies, Inc.:   DIGITIZING COMPANY
~OTHER INFORMATION
~A   DEPT     RHOB       CORR       CALD        GRD       DPOR       NPOR        SPR        SFL        ILD          ILM 
# ...
  656.5000     2.5111     0.0398     9.1102   144.1182     0.1002     0.2809    -5.6265     9.1284     7.4740     7.1276
  657.0000     2.5131     0.0396     9.1065   143.0438     0.1007     0.2807    -5.7940     9.2401     7.7436     7.4233
  657.5000     2.5144     0.0340     9.1028   142.0089     0.0975     0.2822    -5.7758     9.3532     8.0651     7.7745
  658.0000     2.5135     0.0280     9.0992   141.0224     0.1015     0.2835    -5.7771     9.4677     8.0651     7.7745
  658.5000     2.5094     0.0239     9.0955   141.1422     0.1007     0.2866    -5.7904     9.5835     8.0651     7.7745
  659.0000     2.5134     0.0241     9.0918   142.3228     0.0975     0.2900    -5.6693     9.6892     8.0651     7.7745
  659.5000     2.5136     0.0265     9.0881   141.6411     0.1010     0.2887    -5.4174     9.6892     8.0651     7.7745
  660.0000     2.5094     0.0286     9.0844   140.6025     0.1049     0.2873    -5.1766     9.6217     8.0651     7.7745
  660.5000     2.5056     0.0309     9.0807   141.2930     0.1080     0.2862    -4.9362     9.4944     8.0651     7.7743
  661.0000     2.5009     0.0331     9.0771   145.3068     0.1041     0.2930    -4.6927     9.3687     8.0651     7.7761
  661.5000     2.5052     0.0354     9.0734   147.5143     0.0984     0.2894    -4.4531     9.3401     8.0651     7.7726
  662.0000     2.5151     0.0349     9.0697   146.1856     0.0997     0.2832    -4.2092     9.3401     8.0651     7.7714
  662.5000     2.5145     0.0320     9.0660   147.3790     0.1025     0.2765    -3.9664     9.3401     8.0651     7.7704
  663.0000     2.5094     0.0291     9.0623   148.8835     0.1053     0.2765    -3.7859     9.3652     7.8798     7.7791
  663.5000     2.5049     0.0262     9.0585   149.2845     0.1069     0.2765    -3.7812     9.4750     7.6904     7.6026
  664.0000     2.4999     0.0241     9.0549   148.3669     0.1064     0.2710    -3.8262     9.5861     7.5051     7.5446
  664.5000     2.5003     0.0242     9.0513   147.3665     0.1064     0.2653    -3.9079     9.6892     7.3241     7.4875
  665.0000     2.5043     0.0308     9.0474   147.9399     0.0985     0.2666    -3.9839     9.6596     7.1477     7.4310
  665.5000     2.5178     0.0378     9.0531   149.3090     0.0912     0.2725    -4.0575     9.5601     6.9758     7.3570
  666.0000     2.5264     0.0382     9.0625   150.4732     0.0953     0.2784    -4.1337     9.4615     6.8084     7.3605
  666.5000     2.5155     0.0332     9.0715   148.8745     0.1015     0.2836    -4.2087     9.3640     6.6450     7.3616
  667.0000     2.5050     0.0287     9.0801   146.3022     0.0978     0.2836    -4.2839     9.3401     6.4859     7.3623
  667.5000     2.5164     0.0383     9.0891   141.4086     0.0919     0.2859    -4.3589     9.1703     6.3306     7.1792
  668.0000     2.5281     0.0474     9.0979  -999.2500     0.0973     0.2883    -4.4308     8.7885     6.1247     6.8703
  668.5000     2.5084     0.0419     9.1068  -999.2500     0.1083     0.2996    -4.5042     8.4774     5.8457     6.5743
  669.0000     2.4932     0.0329     9.1157  -999.2500     0.1144     0.2996    -4.5704     8.1774     5.5793     6.2912
  669.5000     2.4897     0.0278     9.1246  -999.2500     0.1128     0.3020    -4.6818     7.8880     5.3251     6.0200
  670.0000     2.4869     0.0365     9.1334  -999.2500     0.1140     0.3028    -4.7886     7.6088     5.0825     5.7601
  670.5000     2.4862     0.0434     9.1423  -999.2500     0.1164     0.3103    -4.8459     7.3395     4.5562     5.4829
  671.0000     2.4781     0.0433     9.1516  -999.2500     0.1184     0.3210    -5.0351     7.0797     3.9613     5.3806
  671.5000     2.4448     0.0341     9.1596  -999.2500     0.1449     0.3270    -5.5388     6.8292     3.4442     5.4434
  672.0000     2.4086     0.0237     9.1676  -999.2500     0.1676     0.3235    -9.2275     6.4187     2.9945     5.6565
  672.5000     2.3719     0.0159     9.1427  -999.2500     0.1904     0.3120   -13.6122     5.8928     2.6036     5.9040
  673.0000     2.3356     0.0182     9.1059  -999.2500     0.2119     0.3035   -14.5803     5.4863     2.2327     4.8094
  673.5000     2.2987     0.0202     9.0762  -999.2500     0.2327     0.3246   -14.4553     4.3857     2.3331     3.8763
  674.0000     2.2557     0.0201     9.0205  -999.2500     0.2557  -999.2500   -14.3103     3.6183     2.6216     2.9945
  674.5000     2.2795     0.0380     8.9612  -999.2500     0.2361  -999.2500   -14.2355     2.9945     2.9457     3.0500
  675.0000     2.3470     0.0614     8.8509  -999.2500     0.2004  -999.2500   -14.1860     3.4249     3.3456     3.3764
  675.5000     2.4145     0.0852     8.7509  -999.2500     0.1646  -999.2500   -14.3312     3.9087     3.9387     3.9432
  676.0000     2.4536     0.1082     8.5936  -999.2500     0.1303  -999.2500   -14.4740     5.0670     5.1085     5.6913
  676.5000     2.4655     0.1266     8.3592  -999.2500     0.1345  -999.2500   -14.5307     7.0229     6.9712     9.0036
  677.0000     2.4426     0.1161     8.1247  -999.2500     0.1504  -999.2500   -14.3216     8.8399     8.6792     8.7793
  677.5000     2.4141     0.1083     7.8983  -999.2500     0.1662  -999.2500   -14.1689     7.9914     8.3431     8.0599
  678.0000     2.3854     0.1013     7.6737  -999.2500     0.1790  -999.2500   -14.3185     7.0930     7.7192     7.3581
