~VERSION INFORMATION
 VERS.                2.0:   CWLS LOG ASCII STANDARD - VERSION 2.0
 WRAP.                 NO:   ONE LINE PER DEPTH STEP
~WELL INFORMATION
#MNEM.UNIT      DATA TYPE    INFORMATION
#----------   ------------   ------------------------------
 STRT.F            5.0000:   START DEPTH
 STOP.F          668.0000:   STOP DEPTH
 STEP.F            0.5000:   STEP LENGTH
 NULL.          -999.2500:   NO VALUE
 COMP. LAWRENCE/ALLISON INC:   COMPANY
 WELL.    38-61 SX #38-34:   WELL
 FLD .             TEAPOT:   FIELD
 LOC .      S34 T39N R78W:   LOCATION
 CNTY.            NATRONA:   COUNTY
 STAT.            WYOMING:   STATE
 CTRY. UNITED STATES OF AMERICA:   COUNTRY
 SRVC.           Gearhart:   SERVICE COMPANY
 DATE.        18-AUG-1987:   LOGDATE
 API .       490251116700:   API NUMBER
~CURVE INFORMATION
#MNEM.UNIT       API CODE    CURVE DESCRIPTION
#----------   ------------   ------------------------------
 DEPT.F                  :   
 GRR .GAPI   07 310 01 00:   GAMMA RAY
 ILD .OHMM   07 120 46 00:   INDUCTION LOG DEEP
 ILM .OHMM   07 120 44 00:   INDUCTION LOG MEDIUM
~PARAMETER INFORMATION
#MNEM.UNIT          VALUE    DESCRIPTION
#----------   ------------   ------------------------------
 PD  .                 GL:   PERMANENT DATUM
 EPD .F              5175:   ELEVATION PERMANENT DATUM
 LMF .                 KB:   LOG MEASURED FROM
 DAPD.F                 8:   FEET ABOVE PERMANENT DATUM
 DMF .                 KB:   DRILLING MEASURED FROM
 EKB .F              5183:   KELLING BUSHING
 EGL .F              5175:   GROUND LEVEL
 DATE.        18-AUG-1987:   RUN DATE
 RUN .                  1:   RUN NUMBER
 DD  .F               665:   DEPTH DRILLER
 DL  .F               669:   DEPTH LOGGER
 BLI .F               667:   BOTTOM LOG INTERVAL
 CBD .F                47:   CASING BOTTOM DRILLER
 CBL .F                47:   CASING BOTTOM LOGGER
 BS  .IN            7.875:   BIT SIZE
 BSD .F               665:   BIT SIZE AT DEPTH
 DFT .           NONE AIR:   DRILLING FLUID TYPE
 TLAB.HRS            0830:   TIME LOGGER AT BOTTOM
 MRT .F                80:   MAXIMUM RECORDED TEMPERATURE
 LUN .               7597:   LOGGING UNIT NUMBER
 LUL .           GILLETTE:   LOGGING UNIT LOCATION
 ENGI.        K.HUCKFELDT:   RECORDING ENGINEER
 WITN.          G. STRONG:   WITNESSED BY
 CLNT.            A2DTECH:   CLIENT CODE
 ORIG.           5" PRINT:   ORIGIN OF DATA
 UWI .       490251116700:   UNIQUE WELL ID
 DICO. A2D Technologies, Inc.:   DIGITIZING COMPANY
~OTHER INFORMATION
~A    DEPT      GRR       ILD        ILM   
    5.0000    13.7565  -999.2500  -999.2500
    5.5000    15.2977  -999.2500  -999.2500
    6.0000    20.1824  -999.2500  -999.2500
    6.5000    32.0633  -999.2500  -999.2500
    7.0000    42.4191  -999.2500  -999.2500
    7.5000    50.3433  -999.2500  -999.2500
    8.0000    59.7872  -999.2500  -999.2500
    8.5000    72.5800  -999.2500  -999.2500
    9.0000    82.3279  -999.2500  -999.2500
    9.5000    86.9086  -999.2500  -999.2500
   10.0000    88.1459  -999.2500  -999.2500
   10.5000    86.0451  -999.2500  -999.2500
   11.0000    84.5468  -999.2500  -999.2500
   11.5000    83.6510  -999.2500  -999.2500
   12.0000    86.7173  -999.2500  -999.2500
   12.5000    86.1362  -999.2500  -999.2500
   13.0000    85.2458  -999.2500  -999.2500
   13.5000    84.3572  -999.2500  -999.2500
   14.0000    84.0694  -999.2500  -999.2500
   14.5000    85.0080  -999.2500  -999.2500
   15.0000    87.4665  -999.2500  -999.2500
   15.5000    89.9195  -999.2500  -999.2500
   16.0000    92.3726  -999.2500  -999.2500
   16.5000    93.9138  -999.2500  -999.2500
   17.0000    94.2392  -999.2500  -999.2500
   17.5000    92.1384  -999.2500  -999.2500
   18.0000    88.8164  -999.2500  -999.2500
   18.5000    84.8865  -999.2500  -999.2500
   19.0000    84.3000  -999.2500  -999.2500
   19.5000    85.5426  -999.2500  -999.2500
   20.0000    87.0839  -999.2500  -999.2500
   20.5000    88.0172  -999.2500  -999.2500
   21.0000    88.0440  -999.2500  -999.2500
   21.5000    87.4575  -999.2500  -999.2500
   22.0000    86.8711  -999.2500  -999.2500
   22.5000    86.8925  -999.2500  -999.2500
   23.0000    87.2233  -999.2500  -999.2500
   23.5000    89.0685  -999.2500  -999.2500
   24.0000    91.2176  -999.2500  -999.2500
   24.5000    93.3667  -999.2500  -999.2500
   25.0000    95.5212  -999.2500  -999.2500
   25.5000    96.1452  -999.2500  -999.2500
   26.0000    94.3483  -999.2500  -999.2500
   26.5000    93.1539  -999.2500  -999.2500
   27.0000    91.9596  -999.2500  -999.2500
   27.5000    91.6771  -999.2500  -999.2500
   28.0000    92.6158  -999.2500  -999.2500
   28.5000    93.8530  -999.2500  -999.2500
   29.0000    94.4877  -999.2500  -999.2500
   29.5000    93.5974  -999.2500  -999.2500
   30.0000    89.9714  -999.2500  -999.2500
   30.5000    89.0805  -999.2500  -999.2500
   31.0000    92.7552  -999.2500  -999.2500
   31.5000    94.6004  -999.2500  -999.2500
   32.0000    92.4942  -999.2500  -999.2500
   32.5000    88.2603  -999.2500  -999.2500
   33.0000    84.6397  -999.2500  -999.2500
   33.5000    83.1414  -999.2500  -999.2500
   34.0000    83.7708  -999.2500  -999.2500
   34.5000    85.6160  -999.2500  -999.2500
   35.0000    88.0744  -999.2500  -999.2500
   35.5000    89.3116  -999.2500  -999.2500
   36.0000    89.9410  -999.2500  -999.2500
   36.5000    90.5704  -999.2500  -999.2500
   37.0000    91.8130  -999.2500  -999.2500
   37.5000    90.3147  -999.2500  -999.2500
   38.0000    88.5124  -999.2500  -999.2500
   38.5000    87.0141  -999.2500  -999.2500
   39.0000    87.6488  -999.2500  -999.2500
   39.5000    88.5822  -999.2500  -999.2500
   40.0000    89.2115  -999.2500  -999.2500
   40.5000    89.5369  -999.2500  -999.2500
   41.0000    89.5637  -999.2500  -999.2500
   41.5000    88.3694  -999.2500  -999.2500
   42.0000    86.2632  -999.2500  -999.2500
   42.5000    82.9412  -999.2500  -999.2500
   43.0000    75.9771  -999.2500  -999.2500
   43.5000    71.4393  -999.2500  -999.2500
   44.0000    69.9356  -999.2500  -999.2500
   44.5000    71.1818  -999.2500  -999.2500
   45.0000    74.5468  -999.2500  -999.2500
   45.5000    80.0393  -999.2500  -999.2500
   46.0000    85.5319  -999.2500  -999.2500
   46.5000    91.9417  -999.2500  -999.2500
   47.0000    93.4829     3.1291     7.0124
   47.5000    93.5044     5.0185     4.6589
   48.0000    93.5258    14.6274     4.5002
   48.5000    94.1606    29.9161     7.0228
   49.0000    95.0939    33.4348    10.9144
   49.5000    95.7232    20.5431    16.6333
   50.0000    91.9488    14.9396    20.4928
   50.5000    88.1520    14.4303    22.7478
   51.0000    86.9419    14.3316    20.6418
   51.5000    87.5569    14.8529    17.8405
   52.0000    89.6902    15.7976    15.8541
   52.5000    91.8541    16.8178    14.2715
   53.0000    93.0465    17.9038    13.5152
   53.5000    93.0521    18.1555    13.3307
   54.0000    92.4499    17.1755    12.8771
   54.5000    90.9372    16.3615    13.5213
   55.0000    89.4232    15.8040    14.3961
   55.5000    88.2130    15.1601    15.0112
   56.0000    87.5785    14.9517    14.9091
   56.5000    88.2258    15.6979    14.7052
   57.0000    90.6631    16.7195    15.0175
   57.5000    92.4924    17.3037    15.2298
   58.0000    94.6272    17.4254    15.2318
   58.5000    96.4566    17.3059    15.2342
   59.0000    97.0687    17.1714    15.1302
   59.5000    94.9139    16.9515    15.1326
   60.0000    93.4341    16.8350    15.1351
   60.5000    93.1358    16.8364    15.3490
   61.0000    93.4468    17.0733    15.5659
   61.5000    92.2381    17.1934    16.1219
   62.0000    90.4201    17.3144    16.6912
   62.5000    87.3863    17.0766    16.5778
   63.0000    85.8712    16.7258    16.2378
   63.5000    86.5309    16.3820    15.7648
   64.0000    88.9249    16.1570    15.1518
   64.5000    91.0583    15.9278    15.1538
   65.0000    92.5837    15.6078    15.0508
   65.5000    93.1987    15.3933    14.7421
   66.0000    92.9004    15.2879    14.4402
   66.5000    92.6007    15.0641    14.1440
   67.0000    92.3038    14.8710    14.1387
   67.5000    92.6149    14.6670    14.0497
   68.0000    94.7482    14.4656    13.9546
   68.5000    96.2736    13.9730    13.8597
   69.0000    91.1136    13.4969    13.2958
   69.5000    90.5099    12.8572    13.4831
   70.0000    94.7723    12.0788    12.9225
   70.5000   100.6586    11.1138    12.2367
   71.0000   106.0313    10.4410    11.4961
   71.5000   109.3804     9.7410    10.8004
   72.0000   110.9059     9.0755     9.8004
   72.5000   116.3841     8.3618     8.4704
   73.0000   123.0767     7.9104     8.3546
   73.5000   126.1219     7.8561     7.0714
   74.0000   126.4315     7.8567     7.0729
   74.5000   120.9674     7.8028     7.1729
   75.0000   115.8059     7.8034     7.1738
   75.5000   112.1642     7.8039     7.1693
   76.0000   112.1713     7.7504     7.0766
   76.5000   112.4809     7.7510     6.9798
   77.0000   113.0945     7.7515     6.9326
   77.5000   114.6504     7.6984     6.9337
   78.0000   116.4507     7.6990     6.9346
   78.5000   117.0643     7.6995     6.9355
   79.0000   116.4621     7.7537     6.9848
   79.5000   117.0771     7.7578     7.0837
   80.0000   119.2104     7.8633     7.1838
   80.5000   117.6963     7.8638     7.3362
   81.0000   114.2938     7.8643     7.4920
   81.5000   111.3261     7.8649     7.4930
   82.0000   112.2513     7.8110     7.3902
   82.5000   114.9858     7.7573     7.3402
   83.0000   115.2954     7.7580     7.2903
   83.5000   114.0853     7.7048     7.1908
   84.0000   112.5726     7.7054     7.1420
   84.5000   111.6650     7.8137     7.1385
   85.0000   111.0628     7.8687     7.0943
   85.5000   112.5957     7.9242     7.0955
   86.0000   114.1165     7.9247     7.0964
   86.5000   114.7301     7.9804     7.0974
   87.0000   115.6476     7.9810     7.1101
   87.5000   117.4784     8.0372     7.1489
   88.0000   117.7866     8.0938     7.1755
   88.5000   114.4502     8.0943     7.2009
   89.0000   110.7842     8.0949     7.3027
   89.5000   106.8642     8.1519     7.3546
   90.0000   106.2606     8.1525     7.3555
   90.5000   107.4834     8.1530     7.3567
   91.0000   109.3142     8.2105     7.3065
   91.5000   110.5357     8.2110     7.4100
   92.0000   111.1493     8.3264     7.8896
   92.5000   110.2330     8.3850     8.2267
   93.0000   108.1225     8.4441     8.2852
   93.5000   106.0006     8.5628     8.2249
   94.0000   105.9736     8.6231     8.0601
   94.5000   108.1410     8.8052     8.1742
   95.0000   109.6664     8.8673     8.5235
   95.5000   110.8879     8.9297     8.7652
