~VERSION INFORMATION
 VERS.                2.0:   CWLS LOG ASCII STANDARD - VERSION 2.0
 WRAP.                 NO:   ONE LINE PER DEPTH STEP
~WELL INFORMATION
#MNEM.UNIT      DATA TYPE    INFORMATION
#----------   ------------   ------------------------------
 STRT.F            0.0000:   START DEPTH
 STOP.F          844.0000:   STOP DEPTH
 STEP.F            0.5000:   STEP LENGTH
 NULL.          -999.2500:   NO VALUE
 COMP. BROWN JOHN E&C INC:   COMPANY
 WELL. NAVAL PETROLEUM RESERVE 3 SX-1 #42-1-14:   WELL
 FLD .             TEAPOT:   FIELD
 LOC .      S14 T38N R78W:   LOCATION
 CNTY.            NATRONA:   COUNTY
 STAT.            WYOMING:   STATE
 CTRY. UNITED STATES OF AMERICA:   COUNTRY
 SRVC.     Atlas Wireline:   SERVICE COMPANY
 DATE.        11-JAN-1992:   LOGDATE
 API .       490252247700:   API NUMBER
~CURVE INFORMATION
#MNEM.UNIT       API CODE    CURVE DESCRIPTION
#----------   ------------   ------------------------------
 DEPT.F                  :   
 GRR .GAPI   07 310 01 00:   GAMMA RAY
 RFOC.OHMM   07 220 04 00:   RESISTIVITY FOCUSED LOG
 RILD.OHMM   07 120 46 00:   INDUCTION LOG DEEP RESISTIVITY
 RILM.OHMM   07 120 44 00:   INDUCTION LOG MEDIUM RESISTIVITY
 SPR .MV     07 010 01 00:   SPONTANEOUS POTENTIAL
~PARAMETER INFORMATION
#MNEM.UNIT          VALUE    DESCRIPTION
#----------   ------------   ------------------------------
 PD  .                 GL:   PERMANENT DATUM
 EPD .F              5201:   ELEVATION PERMANENT DATUM
 LMF .                 KB:   LOG MEASURED FROM
 DAPD.F                10:   FEET ABOVE PERMANENT DATUM
 DMF .                 KB:   DRILLING MEASURED FROM
 EKB .F              5211:   KELLING BUSHING
 EGL .F              5201:   GROUND LEVEL
 DATE.        11-JAN-1992:   RUN DATE
 RUN .                  1:   RUN NUMBER
 DD  .F               848:   DEPTH DRILLER
 DL  .F               847:   DEPTH LOGGER
 BLI .F               845:   BOTTOM LOG INTERVAL
 CS  .IN            10.75:   CASING SIZE
 CBD .F               101:   CASING BOTTOM DRILLER
 CBL .F               101:   CASING BOTTOM LOGGER
 BS  .IN             8.75:   BIT SIZE
 BSD .F               848:   BIT SIZE AT DEPTH
 DFT .               CHEM:   DRILLING FLUID TYPE
 DFD .                9.0:   DRILLING FLUID DENSITY
 DFV .                 40:   DRILLING FLUID VISCOSITY
 DFPH.                9.0:   DRILLING FLUID PH
 DFL .                8.4:   DRILLING FLUID LOSS
 MSS .           FLOWLINE:   MUD SAMPLE SOURCE
 RMS .OHMM           0.22:   RESISTIVITY MUD SAMPLE
 MST .F                78:   MUD SAMPLE TEMPERATURE
 RMF .OHMM           0.17:   RESISTIVITY MUD FILTRATE SAMPLE
 MFST.F                78:   MUD FILTRATE SAMPLE TEMPERATURE
 RMC .OHMM           0.28:   RESISTIVITY MUD CAKE
 MCST.F                78:   MUD CAKE SAMPLE TEMPERATURE
 MFSS.               MEAS:   MUD FILTRATE SAMPLE SOURCE
 MCSS.               CALC:   MUD CAKE SAMPLE SOURCE
 RMB .OHMM           0.14:   RESISTIVITY MUD AT BHT
 BHT .F               126:   BOTTOM HOLE TEMPERATURE
 TCS .HRS               3:   TIME CURCULATED STOPPED
 MRT .F               126:   MAXIMUM RECORDED TEMPERATURE
 LUN .            HL-6274:   LOGGING UNIT NUMBER
 LUL .         CASPER, WY:   LOGGING UNIT LOCATION
 ENGI.             ZIEGER:   RECORDING ENGINEER
 WITN.         MR. STRONG:   WITNESSED BY
 CLNT.            A2DTECH:   CLIENT CODE
 ORIG.           5" PRINT:   ORIGIN OF DATA
 UWI .       490252247700:   UNIQUE WELL ID
 DICO. A2D Technologies, Inc.:   DIGITIZING COMPANY
~OTHER INFORMATION
~A    DEPT      GRR      RFOC       RILD       RILM        SPR   
# ...
  488.0000    98.0416     7.7405     7.9199     7.8409   -12.5170
  488.5000   101.6742     7.7931     8.0294     7.9450   -12.9667
  489.0000   106.5139     7.7905     8.0275     7.9991   -13.2664
  489.5000   106.5197     7.8430     8.0252     7.9970   -13.5657
  490.0000   106.2234     7.8409     8.0233     7.9954   -13.8646
  490.5000   106.5328     7.8382     7.9100     7.8831   -14.1639
  491.0000   106.8407     7.7817     7.7985     7.7722   -14.4632
  491.5000   106.2423     7.6184     7.6885     7.6093   -14.7625
  492.0000   102.9248     7.5108     7.6332     7.5549   -15.0618
  492.5000   102.0242     7.4048     7.5783     7.4487   -15.2108
  493.0000   105.4099     7.3513     7.5765     7.3954   -15.3597
  493.5000   107.7775     7.3488     7.6278     7.4458   -15.3579
  494.0000   107.7833     7.3472     7.6795     7.5488   -15.2060
  494.5000   107.7891     7.3449     7.6238     7.5469   -15.0539
  495.0000   107.7950     7.3429     7.6759     7.5986   -14.7517
  495.5000   104.1754     7.3410     7.6736     7.5967   -14.2991
  496.0000   103.5770     7.3390     7.6718     7.6488   -13.9969
  496.5000   106.6054     7.3884     7.7238     7.6469   -13.8451
  497.0000   109.0281     7.4381     7.6678     7.6453   -13.6932
  497.5000   108.7318     7.4877     7.6660     7.6434   -13.6914
  498.0000   104.2059     7.5909     7.6642     7.6418   -13.8407
  498.5000   104.2117     7.6421     7.6624     7.6403   -14.1397
  499.0000   104.2175     7.6936     7.7430     7.7962   -14.5894
  499.5000   103.9212     7.5285     7.6357     7.6885   -15.0390
  500.0000   103.6249     7.5300     7.5826     7.6356   -15.3385
  500.5000   103.6322     7.4792     7.4775     7.4781   -15.3399
  501.0000   104.8536     7.3770     7.3739     7.3749   -15.3414
  501.5000   105.1645     7.3272     7.3722     7.2732   -15.1925
  502.0000   103.6627     7.2275     7.2717     7.2233   -15.1940
  502.5000   101.8587     7.1783     7.2211     7.1734   -15.0450
  503.0000   104.2844     7.1302     7.1709     7.0746   -15.0468
  503.5000   105.1995     7.1317     7.1709     7.0751   -15.0483
  504.0000   104.2213     7.1330     7.1709     7.0262   -14.7486
  504.5000    99.4791     7.1345     7.0716     6.9779   -14.4497
  505.0000    98.5815     7.1360     6.8769     6.7863   -14.0000
  505.5000    98.2860     7.1375     6.4856     6.3235   -13.5504
  506.0000   101.3181     7.1392     5.8166     5.9033   -13.4015
  506.5000   105.5565     6.9441     5.4245     5.6617   -13.4033
  507.0000   107.0758     6.3877     5.3122     5.5062   -13.1040
  507.5000   107.9909     5.7141     5.2752     5.4303   -12.9547
  508.0000   107.6576     5.4428     5.3494     5.4306   -12.8058
  508.5000   106.8022     5.3311     5.5393     5.6238   -12.8076
  509.0000   104.9983     5.7311     5.7788     5.7861   -12.6586
  509.5000   103.4965     6.6679     6.0231     5.9892   -12.6602
  510.0000   102.5989     6.8103     6.2369     6.1591   -12.8120
  510.5000   104.4204     6.8594     6.5036     6.3339   -13.2650
  511.0000   108.9609     6.8608     6.6876     6.6051   -13.7175
  511.5000   111.3866     6.8621     6.8291     6.7453   -14.1701
  512.0000   108.3764     6.8635     6.8769     6.8406   -14.1717
  512.5000   106.8746     6.8810     6.9736     6.8889   -13.7220
  513.0000   105.9770     6.9144     6.9736     6.9862   -13.4228
  513.5000   105.0794     6.8681     6.9251     6.9381   -13.2735
  514.0000   104.4840     6.8695     6.9251     6.9290   -12.9742
  514.5000   105.0970     6.8710     6.9251     6.8908   -12.9760
  515.0000   106.0121     6.8244     6.8930     6.8914   -13.2782
  515.5000   105.9809     6.8258     6.8291     6.8225   -13.5805
  516.0000   104.5212     6.7797     6.7816     6.7968   -13.5820
  516.5000   101.5089     6.6871     6.6876     6.7500   -12.9818
  517.0000    99.7049     6.5958     6.6365     6.6570   -12.8329
  517.5000    98.8052     6.5061     6.5036     6.5194   -13.1355
  518.0000    98.8161     6.4515     6.3688     6.3849   -13.4377
  518.5000    99.1270     6.4182     6.1935     6.2531   -13.8903
  519.0000    99.1359     6.4198     6.0231     6.0814   -13.7414
  519.5000    99.7510     6.3764     5.8166     5.9558   -13.5925
  520.0000   101.2703     6.3334     5.5008     5.7923   -13.2932
  520.5000   102.7897     6.2469     5.0496     5.4300   -12.9939
  521.0000   104.3090     6.2050     4.5246     4.8999   -12.8453
  521.5000   105.2242     6.0777     4.1322     4.6666   -12.8468
  522.0000   102.8160     5.7489     3.9905     4.6022   -12.6975
  522.5000    98.5952     4.4728     4.1035     4.5705   -12.5490
  523.0000    97.9997     3.9733     4.2789     4.5390   -12.4000
  523.5000    98.9170     3.9705     4.4618     4.6354   -12.4015
  524.0000    99.2279     4.7600     4.6874     4.8003   -12.4030
  524.5000    99.5388     6.0854     4.9542     5.0410   -12.7056
  525.0000   100.4539     6.0866     5.2752     5.3308   -12.7070
  525.5000   106.2029     6.0879     5.5781     5.6767   -12.8588
  526.0000   107.1180     6.1317     5.8983     6.0030   -12.8603
  526.5000   103.4411     6.2627     6.1935     6.2600   -12.8618
  527.0000   102.3017     6.3965     6.3246     6.3929   -12.8632
  527.5000   104.7296     6.4651     6.4583     6.5286   -12.7143
  528.0000   110.1764     6.6263     6.6011     6.6208   -12.7158
  528.5000   110.7894     6.7211     6.7345     6.7144   -12.5669
  529.0000   109.8918     6.7741     6.7816     6.7618   -12.4179
  529.5000   107.1816     6.8309     6.8291     6.8096   -12.7205
  530.0000   101.4501     6.9155     6.8769     6.9058   -12.8724
  530.5000    97.1894     6.9654     6.9251     6.9546   -13.3249
  531.0000    95.7275     7.0156     6.9736     7.0038   -13.6272
  531.5000    97.5512     7.0203     7.0980     7.1027   -13.9294
  532.0000   102.3938     7.1672     7.1709     7.1530   -13.9308
  532.5000   107.5385     7.2189     7.2211     7.2036   -13.4612
  533.0000   109.6616     7.3218     7.2717     7.3053   -12.8815
  533.5000   109.0666     7.3746     7.3226     7.3058   -12.4314
  534.0000   110.6263     7.4277     7.3739     7.3575   -11.8318
  534.5000   112.1075     7.4812     7.3888     7.3580   -11.8332
  535.0000   112.1163     7.4827     7.4775     7.4100   -12.2858
  535.5000   112.1239     7.5367     7.4775     7.4105   -12.7384
  536.0000   112.1329     7.5386     7.4775     7.4179   -13.0406
  536.5000   111.8405     7.5401     7.4880     7.4635   -13.3429
  537.0000   110.6408     7.5416     7.5299     7.4640   -13.4950
  537.5000   107.9305     7.5431     7.5299     7.4645   -13.6469
  538.0000   105.4421     7.4922     7.5615     7.4130   -13.7987
  538.5000   104.3249     7.4937     7.5826     7.4136   -13.9505
  539.0000   104.0293     7.4431     7.5826     7.3626   -14.2527
  539.5000   106.1551     7.3929     7.5826     7.3120   -14.2542
  540.0000   107.6744     7.3431     7.5826     7.3125   -14.5564
  540.5000   108.5874     7.2936     7.5826     7.3130   -14.5579
  541.0000   103.7644     7.2441     7.5826     7.2625   -14.7098
  541.5000   103.7734     7.2459     7.5826     7.2126   -15.1627
  542.0000   106.8054     7.1970     7.5826     7.1629   -15.9160
  542.5000   109.8353     7.1236     7.5826     7.1136   -16.0678
  543.0000   111.3546     7.0508     7.2583     6.9055   -15.4678
  543.5000   110.1550     6.8585     6.7816     6.4526   -14.5670
  544.0000   108.0467     6.6247     6.4583     6.1454   -13.8166
  544.5000   107.4532     6.3102     6.1505     5.8938   -13.3669
  545.0000   107.4622     5.9688     5.8573     5.6920   -13.3684
  545.5000   105.4566     5.8057     5.5008     5.3460   -13.3702
  546.0000   100.2312     5.5688     5.0589     4.6826   -13.2209
  546.5000   101.7506     5.1897     4.4168     3.8699   -13.0720
  547.0000   102.9678     4.9137     3.5690     3.2810   -12.9231
  547.5000   102.9766     4.6479     2.8548     2.9346   -12.7742
  548.0000   101.7769     4.3965     2.3482     2.4823   -12.7760
  548.5000    99.3687     3.9328     2.1445     2.1895   -12.4767
