~VERSION INFORMATION
 VERS.                2.0:   CWLS LOG ASCII STANDARD - VERSION 2.0
 WRAP.                 NO:   ONE LINE PER DEPTH STEP
~WELL INFORMATION
#MNEM.UNIT      DATA TYPE    INFORMATION
#----------   ------------   ------------------------------
 STRT.F           34.0000:   START DEPTH
 STOP.F          662.0000:   STOP DEPTH
 STEP.F            0.5000:   STEP LENGTH
 NULL.          -999.2500:   NO VALUE
 COMP. FENIX & SCISSON INC:   COMPANY
 WELL.     55 S 34 #34-34:   WELL
 FLD .          N.P.R. #3:   FIELD
 LOC .      S34 T39N R78W:   LOCATION
 CNTY.            NATRONA:   COUNTY
 STAT.            WYOMING:   STATE
 CTRY. UNITED STATES OF AMERICA:   COUNTRY
 SRVC.       Schlumberger:   SERVICE COMPANY
 DATE.        15-MAR-1977:   LOGDATE
 API .       490251030500:   API NUMBER
~CURVE INFORMATION
#MNEM.UNIT       API CODE    CURVE DESCRIPTION
#----------   ------------   ------------------------------
 DEPT.F                  :   
 GRD .GAPI   45 310 01 00:   GAMMA RAY FROM DENSITY LOG
 CORR.G/C3   45 356 01 00:   DENSITY CORRECTION
 RHOB.G/C3   45 350 01 00:   BULK DENSITY
 DPOR.DEC    45 890 12 00:   DENSITY POROSITY SANDSTONE
 SPR .MV     07 010 01 00:   SPONTANEOUS POTENTIAL
 LL8 .OHMM   07 220 08 00:   LATEROLOG-8 RES.
 ILD .OHMM   07 120 46 00:   INDUCTION LOG DEEP
 ILM .OHMM   07 120 44 00:   INDUCTION LOG MEDIUM
 CALD.IN     45 280 60 00:   CALIPER
~PARAMETER INFORMATION
#MNEM.UNIT          VALUE    DESCRIPTION
#----------   ------------   ------------------------------
 PD  .                 GL:   PERMANENT DATUM
 EPD .F              5087:   ELEVATION PERMANENT DATUM
 LMF .                 GL:   LOG MEASURED FROM
 DMF .                 GL:   DRILLING MEASURED FROM
 EKB .F              5091:   KELLING BUSHING
 EGL .F              5087:   GROUND LEVEL
 DATE.            3-15-77:   RUN DATE
 RUN .                  1:   RUN NUMBER
 DD  .F               670:   DEPTH DRILLER
 DL  .F               663:   DEPTH LOGGER
 BLI .F               657:   BOTTOM LOG INTERVAL
 TLI .F                40:   TOP LOG INTERVAL
 CS  .IN            8.625:   CASING SIZE
 CBD .F                40:   CASING BOTTOM DRILLER
 CBL .F                40:   CASING BOTTOM LOGGER
 BS  .IN            7.875:   BIT SIZE
 BSD .F               670:   BIT SIZE AT DEPTH
 DFT .                KCL:   DRILLING FLUID TYPE
 DFD .                8.6:   DRILLING FLUID DENSITY
 DFV .                 31:   DRILLING FLUID VISCOSITY
 DFPH.                  8:   DRILLING FLUID PH
 DFL .                8.8:   DRILLING FLUID LOSS
 MSS .                PIT:   MUD SAMPLE SOURCE
 RMS .OHMM           .246:   RESISTIVITY MUD SAMPLE
 MST .F                76:   MUD SAMPLE TEMPERATURE
 RMF .OHMM           .243:   RESISTIVITY MUD FILTRATE SAMPLE
 MFST.F                76:   MUD FILTRATE SAMPLE TEMPERATURE
 MFSS.                  M:   MUD FILTRATE SAMPLE SOURCE
 RMB .OHMM           .267:   RESISTIVITY MUD AT BHT
 BHT .F                70:   BOTTOM HOLE TEMPERATURE
 TCS .HRS            1800:   TIME CURCULATED STOPPED
 TLAB.HRS            2200:   TIME LOGGER AT BOTTOM
 MRT .F                70:   MAXIMUM RECORDED TEMPERATURE
 LUN .               5642:   LOGGING UNIT NUMBER
 LUL .               CSPR:   LOGGING UNIT LOCATION
 ENGI.             MARTIN:   RECORDING ENGINEER
 WITN.              BURKE:   WITNESSED BY
 CLNT.            A2DTECH:   CLIENT CODE
 ORIG. 2", 2.5", 5" PRINT:   ORIGIN OF DATA
 UWI .       490251030500:   UNIQUE WELL ID
 DICO. A2D Technologies, Inc.:   DIGITIZING COMPANY
~OTHER INFORMATION
~A   DEPT       GRD      CORR       RHOB       DPOR        SPR        LL8        ILD        ILM       CALD   
# ...
  435.5000   124.5432     0.0249     2.3706     0.1712   -54.6050     6.7616     4.7259     4.9536     8.6135
  436.0000   120.3992     0.0164     2.3591     0.1788   -54.9946     4.7582     4.4067     4.5829     8.6141
  436.5000   117.9609     0.0071     2.4100     0.1410   -55.3905     3.2682     4.0934     4.2444     8.6146
  437.0000   119.7819     0.0018     2.4537     0.1248   -55.3755     3.6821     4.0558     4.3448     8.6154
  437.5000   121.6986     0.0031     2.4837     0.1060   -54.7326     5.8858     4.4282     4.7106     8.6162
  438.0000   124.8612     0.0149     2.4811     0.0938   -54.2381     8.4788     4.8010     5.1071     8.6169
  438.5000   126.9501     0.0110     2.4810     0.1006   -53.7610     8.4788     5.2051     5.5370     8.6177
  439.0000   126.3012     0.0207     2.4913     0.0909   -53.3019     8.3911     5.4942     5.8179     8.6185
  439.5000   125.1235     0.0118     2.5017     0.0868   -53.1098     8.3086     5.8185     6.1613     8.6192
  440.0000   123.9002     0.0188     2.5089     0.0940   -52.9291     8.2270     6.1620     6.5250     8.6200
  440.5000   124.8877     0.0239     2.4975     0.0840   -52.7386     8.1462     6.5257     6.9226     8.6208
  441.0000   126.7849     0.0074     2.4858     0.0974   -52.8236     8.0969     6.7337     7.0514     8.6215
  441.5000   126.0898    -0.0011     2.4780     0.1010   -52.9905     8.1331     6.6959     7.0147     8.6223
  442.0000   127.0470    -0.0011     2.4735     0.0985   -53.1590     8.3256     6.5101     6.9266     8.6231
  442.5000   126.2934     0.0054     2.4611     0.1074   -53.3267     8.6846     6.3379     6.8397     8.6238
  443.0000   127.9029     0.0119     2.4420     0.1216   -53.4944     9.0372     5.9210     6.5550     8.6246
  443.5000   130.7427     0.0105     2.4227     0.1370   -53.6625     9.2122     5.5106     6.1036     8.6254
  444.0000   132.9429     0.0083     2.4030     0.1523   -53.8311     7.1035     5.1268     5.6773     8.6261
  444.5000   131.2312     0.0061     2.3984     0.1561   -53.9939     4.4067     4.7695     5.2804     8.6269
  445.0000   127.3500     0.0094     2.4421     0.1334   -53.9220     4.9785     4.7004     4.9186     8.6277
  445.5000   122.8575     0.0156     2.4815     0.1146   -53.4496     6.0023     4.7439     4.9659     8.6284
  446.0000   116.6275     0.0183     2.5065     0.0822   -52.9813     7.2368     5.0208     5.3262     8.6292
  446.5000   117.8726     0.0111     2.5122     0.0856   -52.5115     8.8788     5.3665     5.6929     8.6300
  447.0000   119.5793     0.0103     2.5007     0.0886   -52.0724     9.0440     5.7361     6.0849     8.6307
  447.5000   121.3991     0.0131     2.5034     0.0833   -51.9557     9.1277     6.1310     6.5039     8.6315
  448.0000   122.6431     0.0160     2.4986     0.0794   -51.8275     9.2712     6.5532     6.9517     8.6323
  448.5000   120.7237     0.0188     2.4929     0.0944   -51.6989     9.4568     7.0044     7.4304     8.6330
  449.0000   118.1595     0.0073     2.4923     0.0910   -51.5692     9.6487     7.4866     7.9420     8.6338
  449.5000   115.6886    -0.0025     2.4995     0.0912   -51.4349     9.8441     7.8038     8.1719     8.6342
  450.0000   114.1942     0.0040     2.5069     0.0914   -51.2924    10.0436     7.8807     8.2556     8.6342
  450.5000   115.5502     0.0109     2.5108     0.0790   -51.1501    10.1018     7.8965     8.2721     8.6342
  451.0000   117.4421     0.0057     2.4914     0.0924   -51.0078     9.9564     7.9123     8.2887     8.6342
  451.5000   115.9645    -0.0002     2.4817     0.0986   -50.8826     9.8483     7.9281     8.3052     8.6342
  452.0000   113.5553     0.0172     2.5046     0.0800   -50.8127     9.7414     7.9440     8.3219     8.6342
  452.5000   114.1057     0.0375     2.5100     0.0746   -50.7426     9.6454     7.9491     8.3247     8.6342
  453.0000   114.7021     0.0183     2.4992     0.0899   -50.6725     9.6456     7.9556     8.3323     8.6342
  453.5000   112.7451     0.0012     2.4930     0.0938   -50.6024    10.1981     7.9628     8.3399     8.6342
  454.0000   114.3123     0.0075     2.4987     0.0843   -50.5323    10.2897     7.9700     8.3474     8.6342
  454.5000   117.5024     0.0137     2.5049     0.0874   -50.4621    10.2409     7.9773     8.3550     8.6342
  455.0000   120.5420     0.0325     2.5051     0.0914   -50.3920    10.1832     7.9845     8.3626     8.6342
  455.5000   122.9119     0.0258     2.5022     0.0765   -50.3219    10.1253     7.9917     8.3701     8.6342
  456.0000   122.5037     0.0125     2.4980     0.0955   -50.2517     9.8750     7.9990     8.3777     8.6342
  456.5000   121.5070     0.0026     2.4925     0.0975   -50.1816     9.4943     8.0062     8.3852     8.6342
  457.0000   116.9195     0.0138     2.4882     0.0974   -50.1115     9.2122     8.0134     8.3929     8.6342
  457.5000   112.6708     0.0039     2.4932     0.0926   -50.0413     9.1277     8.0204     8.4010     8.6342
  458.0000   109.7031     0.0213     2.5232     0.0750   -49.9709     9.6818     8.0877     8.5529     8.6342
  458.5000   108.1245     0.0351     2.5107     0.0838   -49.9014    10.2025     8.1765     8.7166     8.6342
  459.0000   110.1839     0.0085     2.4919     0.0925   -49.8692    10.7513     8.2671     9.0132     8.6342
  459.5000   111.8275     0.0072     2.4947     0.0939   -49.8386    11.3295     8.3568     9.3157     8.6342
  460.0000   113.3490     0.0116     2.4774     0.1055   -49.8077    11.5997     8.4053     9.6468     8.6342
  460.5000   114.5418     0.0053     2.4394     0.1324   -49.7769    11.5997     7.8356     8.9517     8.6342
  461.0000   114.3183     0.0016     2.4039     0.1593   -49.7459    11.9925     7.1408     8.2689     8.6342
  461.5000   114.1272     0.0542     2.3383     0.1860   -49.7151    13.4146     6.5077     7.6382     8.6342
  462.0000   113.0150     0.1183     2.2916     0.1937   -49.5311    14.2075     6.4304     7.0555     8.6338
  462.5000   111.0883     0.1452     2.2645     0.2294   -49.2085     3.7329     6.5059     6.7961     8.6561
  463.0000   108.8894     0.0127     2.3310     0.2509   -48.8934     3.7308     6.5898     6.9160     8.6894
  463.5000   107.7649     0.0441     2.5025     0.0729   -48.5825     6.4772     6.6709     7.1991     8.6906
  464.0000   109.6623     0.0299     2.4960     0.0784   -48.2787    13.9703     6.5809     8.2265     8.6461
  464.5000   112.3288     0.0162     2.4883     0.0924   -47.9757    13.5885     6.4895     8.7564     8.6011
  465.0000   114.5464     0.0106     2.4925     0.0962   -47.6725    13.0583     7.0602     8.4010     8.5936
  465.5000   112.7353     0.0251     2.4996     0.0810   -47.3694    12.5586     8.1264     9.1006     8.5898
  466.0000   110.5720     0.0121     2.5032     0.0918   -47.0663    12.0337     9.0537     9.4705     8.5862
  466.5000   109.4419     0.0023     2.4801     0.0978   -46.7632    12.0381     9.4982    10.0005     8.5825
  467.0000   112.0924     0.0114     2.4857     0.0994   -46.4601    11.9199    10.1018    10.9756     8.5788
  467.5000   114.7376     0.0236     2.5001     0.0932   -46.1570    11.9223    10.1018    10.8663     8.5752
  468.0000   116.0043     0.0189     2.5083     0.0865   -45.8540    11.9243     9.9895    10.6693     8.5774
  468.5000   112.4372     0.0121     2.5043     0.0862   -45.5591    11.9264     9.8941    10.4759     8.5912
  469.0000   109.2928     0.0120     2.5035     0.0905   -45.0636    11.7541     9.7995    10.2859     8.6047
  469.5000   105.5138     0.0119     2.5050     0.0858   -44.5374    11.5939     9.7302    10.1953     8.6182
  470.0000    93.5159     0.0217     2.5054     0.0933   -43.9483    11.4932    10.1855    10.8463     8.6318
  470.5000    81.6950     0.0181     2.5015     0.0903   -43.0615    11.5997    11.2220    11.9229     8.6453
  471.0000    72.1666     0.0126     2.4978     0.0866   -42.1731    15.2595    12.3735    13.1063     8.6588
  471.5000    66.4631     0.0091     2.4918     0.0946   -41.2852    18.5734    13.6417    14.4073     8.6726
