~VERSION INFORMATION
 VERS.                2.0:   CWLS LOG ASCII STANDARD - VERSION 2.0
 WRAP.                 NO:   ONE LINE PER DEPTH STEP
~WELL INFORMATION
#MNEM.UNIT      DATA TYPE    INFORMATION
#----------   ------------   ------------------------------
 STRT.F           30.0000:   START DEPTH
 STOP.F          759.0000:   STOP DEPTH
 STEP.F            0.5000:   STEP LENGTH
 NULL.          -999.2500:   NO VALUE
 COMP. FENIX & SCISSON INC:   COMPANY
 WELL.    NPR ##3 15-S-14:   WELL
 FLD .             TEAPOT:   FIELD
 LOC .      S14 T38N R78W:   LOCATION
 CNTY.            NATRONA:   COUNTY
 STAT.            WYOMING:   STATE
 CTRY. UNITED STATES OF AMERICA:   COUNTRY
 SRVC.              Welex:   SERVICE COMPANY
 DATE.        23-FEB-1977:   LOGDATE
 API .       490251027600:   API NUMBER
~CURVE INFORMATION
#MNEM.UNIT       API CODE    CURVE DESCRIPTION
#----------   ------------   ------------------------------
 DEPT.F                  :   
 GURD.OHMM   07 220 05 00:   SHALLOW SHORT GUARD RESISTIVITY
 ILD .OHMM   07 120 46 00:   INDUCTION LOG DEEP
 ILM .OHMM   07 120 44 00:   INDUCTION LOG MEDIUM
 SPR .MV     07 010 01 00:   SPONTANEOUS POTENTIAL
 CALD.IN     45 280 60 00:   CALIPER FROM DENSITY LOG
 CORR.G/C3   45 356 01 00:   DENSITY CORRECTION
 DPHI.DEC    45 890 12 00:   DENSITY POROSITY SANDSTONE
 GRD .GAPI   45 310 01 00:   GAMMA RAY FROM DENSITY LOG
 RHOB.G/C3   45 350 01 00:   BULK DENSITY
~PARAMETER INFORMATION
#MNEM.UNIT          VALUE    DESCRIPTION
#----------   ------------   ------------------------------
 PD  .                 GL:   PERMANENT DATUM
 EPD .F            5229.2:   ELEVATION PERMANENT DATUM
 LMF .                 GL:   LOG MEASURED FROM
 DMF .                 GL:   DRILLING MEASURED FROM
 EGL .F            5229.2:   GROUND LEVEL
 DATE.        23-FEB-1977:   RUN DATE
 RUN .                  1:   RUN NUMBER
 DD  .F               764:   DEPTH DRILLER
 DL  .F               762:   DEPTH LOGGER
 BLI .F               760:   BOTTOM LOG INTERVAL
 TLI .F                40:   TOP LOG INTERVAL
 CS  .IN            8.625:   CASING SIZE
 CBD .F                40:   CASING BOTTOM DRILLER
 CBL .F                40:   CASING BOTTOM LOGGER
 BS  .IN            7.875:   BIT SIZE
 BSD .F               764:   BIT SIZE AT DEPTH
 DFT .           CHEM/GEL:   DRILLING FLUID TYPE
 DFD .                9.4:   DRILLING FLUID DENSITY
 DFV .                 50:   DRILLING FLUID VISCOSITY
 DFPH.               11.0:   DRILLING FLUID PH
 DFL .               12.2:   DRILLING FLUID LOSS
 MSS .           FLOWLINE:   MUD SAMPLE SOURCE
 RMS .OHMM           0.23:   RESISTIVITY MUD SAMPLE
 MST .F                38:   MUD SAMPLE TEMPERATURE
 RMF .OHMM           0.15:   RESISTIVITY MUD FILTRATE SAMPLE
 MFST.F                38:   MUD FILTRATE SAMPLE TEMPERATURE
 RMC .OHMM           0.54:   RESISTIVITY MUD CAKE
 MCST.F                38:   MUD CAKE SAMPLE TEMPERATURE
 MFSS.               MEAS:   MUD FILTRATE SAMPLE SOURCE
 MCSS.               MEAS:   MUD CAKE SAMPLE SOURCE
 RMB .OHMM           .148:   RESISTIVITY MUD AT BHT
 BHT .F                59:   BOTTOM HOLE TEMPERATURE
 TCS .HRS               2:   TIME CURCULATED STOPPED
 MRT .F                59:   MAXIMUM RECORDED TEMPERATURE
 LUN .               8611:   LOGGING UNIT NUMBER
 LUL .           GILLETTE:   LOGGING UNIT LOCATION
 ENGI.             C.DOAK:   RECORDING ENGINEER
 WITN.         STUEBINGER:   WITNESSED BY
 CLNT.            A2DTECH:   CLIENT CODE
 ORIG.           5" PRINT:   ORIGIN OF DATA
 UWI .       490251027600:   UNIQUE WELL ID
 DICO. A2D Technologies, Inc.:   DIGITIZING COMPANY
~OTHER INFORMATION
~A   DEPT     GURD        ILD        ILM        SPR         CALD      CORR      DPHI         GRD        RHOB 
# ...
  504.5000     9.8443     6.8409     7.5190   -44.3622     8.2949     0.1003     0.1019   125.0508     2.4943
  505.0000     9.9168     6.9359     7.6230   -44.5151     8.2847     0.1000     0.1073   122.5112     2.4812
  505.5000     9.9320     6.9840     7.7285   -44.6680     8.2688     0.0985     0.1103   125.4423     2.4653
  506.0000     9.9472     7.0323     7.8355   -44.8209     8.2679     0.0969     0.1130   129.4300     2.4585
  506.5000     9.9625     7.0810     7.8350   -44.9739     8.2670     0.0969     0.1151   129.5414     2.4524
  507.0000     9.9778     6.9840     7.8344   -45.1268     8.2662     0.0939     0.1169   129.9913     2.4463
  507.5000     9.9084     6.8882     7.8338   -45.2805     8.2805     0.0894     0.1190   132.0854     2.4398
  508.0000     9.9077     6.7939     7.8333   -45.4335     8.2794     0.0834     0.1208   133.8806     2.4353
  508.5000     9.9758     6.6969     7.8327   -45.7356     8.2785     0.0803     0.1223   134.3302     2.4323
  509.0000     9.5039     6.5560     7.7783   -45.8885     8.2927     0.0818     0.1235   133.2857     2.4361
  509.5000     8.2767     6.3409     7.6710   -46.0415     8.3067     0.0848     0.1244   131.3439     2.4436
  510.0000     6.8204     6.1683     7.5652   -46.1944     8.3209     0.0878     0.1238   131.9433     2.4443
  510.5000     6.1486     6.0004     7.4609   -46.3473     8.3350     0.0913     0.1223   135.0838     2.4421
  511.0000     8.1053     5.7970     7.4090   -46.5002     8.3491     0.0937     0.1212   139.2706     2.4406
  511.5000     8.6845     5.6004     7.3068   -46.5038     8.3480     0.0951     0.1215   140.3383     2.4391
  512.0000     9.0515     5.4480     7.2061   -46.5075     8.3471     0.0966     0.1230   140.3099     2.4384
  512.5000     9.0509     5.3364     7.1026   -46.5112     8.3462     0.0951     0.1227   138.3782     2.4400
  513.0000     8.7430     5.2271     7.0006   -46.5149     8.3453     0.0950     0.1176   134.6227     2.4455
  513.5000     7.9913     5.1200     6.9119   -46.5187     8.3595     0.0950     0.1116   134.0463     2.4601
  514.0000     5.8151     5.1200     6.8639   -46.3729     8.3586     0.0995     0.1083   139.4293     2.4699
  514.5000     4.9603     5.0848     6.8634   -46.2273     8.3577     0.1054     0.1096   144.0642     2.4639
  515.0000     7.8274     5.1200     6.8629   -46.0826     8.3568     0.1084     0.1139   135.6953     2.4542
  515.5000     9.1533     5.2271     6.8625   -45.9361     8.3556     0.1068     0.1236   131.9599     2.4467
  516.0000    10.0344     5.3364     6.9575   -45.7905     8.3400     0.1023     0.1195   129.8687     2.4407
  516.5000    10.1034     5.4857     7.0538   -45.4966     8.3390     0.0978     0.1108   130.9165     2.4384
  517.0000     9.8272     5.6392     7.2011   -45.5002     8.3231     0.0948     0.1060   129.2737     2.4564
  517.5000     9.4928     5.7571     7.4024   -45.5039     8.3222     0.0933     0.1093   127.7804     2.4812
  518.0000     9.1698     5.8371     7.6093   -45.6568     8.3363     0.0932     0.1165   128.6787     2.4707
  518.5000     9.1061     5.8371     7.8762   -45.8097     8.3354     0.0932     0.1213   130.9220     2.4570
  519.0000     9.2322     5.7970     7.9853   -45.9781     8.3445     0.0932     0.1195   127.6353     2.4475
  519.5000     9.2315     5.6782     7.8208   -46.2787     8.3489     0.0931     0.1114   126.2915     2.4602
  520.0000     9.1674     5.5237     7.3488   -46.5678     8.3628     0.0942     0.1054   125.9940     2.4782
  520.5000     8.9787     5.2967     7.0989   -46.7208     8.3769     0.0961     0.1049   122.6469     2.4752
  521.0000     8.7939     5.0790     7.3478   -46.8737     8.3910     0.0960     0.1085   119.3206     2.4677
  521.5000     7.9146     4.9124     7.1966   -46.8773     8.3978     0.0990     0.1073   118.5246     2.4730
  522.0000     5.0940     4.8118     6.9039   -46.7313     8.4042     0.1022     0.0941   121.2170     2.4940
  522.5000     6.5737     4.7787     6.7618   -46.7351     8.4031     0.1079     0.0887   117.1826     2.5030
  523.0000     7.8712     4.7787     6.7148   -46.7390     8.4022     0.1109     0.0878   114.3440     2.5052
  523.5000     8.7302     4.8118     6.7143   -46.5934     8.4014     0.1124     0.0855   112.4023     2.5060
  524.0000     9.1622     4.8451     6.9020   -46.2985     8.4005     0.1123     0.0810   112.1044     2.5097
  524.5000     8.3745     4.9464     7.0990   -45.8545     8.4148     0.1108     0.0780   115.2453     2.5211
  525.0000     6.3959     5.1200     7.3102   -45.5473     8.4137     0.1093     0.0852   118.9837     2.5177
  525.5000     7.5490     5.2997     7.6540   -45.1155     8.4128     0.1078     0.0913   122.4231     2.5060
  526.0000     9.2872     5.5237     7.9775   -44.8461     8.4120     0.1062     0.0987   125.2646     2.4963
  526.5000     9.4811     5.7604     8.0879   -44.5016     8.4111     0.1032     0.1032   127.3588     2.4873
  527.0000     9.4804     6.0074     8.0874   -44.2310     8.4178     0.0987     0.0984   129.3035     2.4798
  527.5000     9.5455     6.3409     8.1994   -43.9370     8.4243     0.0955     0.0954   131.2481     2.4761
  528.0000     9.6777     6.6547     8.3705   -43.7128     8.4384     0.0896     0.1011   126.8452     2.4888
  528.5000     9.9482     6.8409     8.6045   -43.4957     8.4373     0.0881     0.1119   122.9304     2.4806
  529.0000    10.0859     6.9359     8.7841   -43.3501     8.4364     0.0881     0.1068   119.8927     2.4686
  529.5000    10.0852     7.0810     8.7835   -43.3546     8.4357     0.0896     0.0948   118.9973     2.4709
  530.0000    10.0844     7.1794     8.8439   -43.2090     8.4348     0.0910     0.0993   118.6994     2.4918
  530.5000    10.0837     7.2791     8.9046   -43.2127     8.4338     0.0925     0.1054   119.4486     2.4910
  531.0000    10.0136     7.3295     8.9657   -43.0672     8.4394     0.0940     0.0987   120.6459     2.4841
  531.5000    10.0129     7.3295     9.0272   -43.0709     8.4311     0.0969     0.1021   121.2449     2.4769
  532.0000    10.0122     7.3803     9.2155   -43.2246     8.4249     0.0999     0.1066   120.0506     2.4739
  532.5000    10.2212     7.3295     9.4081   -43.2282     8.4188     0.1028     0.1021   121.0988     2.4746
  533.0000    10.5800     7.2791     9.5384   -43.3812     8.4126     0.1044     0.0901   121.5487     2.4926
  533.5000    10.7265     7.1794     9.5375   -43.5336     8.4065     0.1058     0.0874   120.9519     2.5001
  534.0000    10.5784     7.1300     9.5369   -43.5377     8.4003     0.1042     0.0880   121.8506     2.5024
  534.5000    10.2893     7.1300     9.5363   -43.5414     8.3942     0.1027     0.0907   121.5531     2.5001
  535.0000     9.9392     7.1300     9.6683   -43.6943     8.3880     0.1012     0.0931   118.7145     2.4949
  535.5000     9.8022     7.1794     9.7347   -43.6978     8.3819     0.0997     0.0961   115.4176     2.4889
  536.0000     9.8722     7.2291     9.6670   -43.7016     8.3757     0.0981     0.1001   115.6382     2.4844
  536.5000    10.1531     7.3295     9.5998   -43.8545     8.3696     0.0981     0.0975   117.6729     2.4869
  537.0000    10.5275     7.3803     9.7439   -43.8582     8.3634     0.0981     0.0947   119.1692     2.4958
  537.5000    11.0971     7.3803     9.9359   -43.9459     8.3613     0.0996     0.0968   120.0675     2.4912
  538.0000    11.6463     7.3295    10.4274   -44.0157     8.3603     0.1025     0.0971   119.1721     2.4882
  538.5000    12.1384     7.2249    10.7932   -44.1685     8.3744     0.1055     0.0920   117.0806     2.4875
  539.0000    12.2219     7.1218    10.9428   -44.3215     8.3735     0.1069     0.0860   119.4740     2.4995
  539.5000    12.2209     6.9359    10.7917   -44.6237     8.3878     0.1054     0.0801   117.6818     2.5092
  540.0000    12.1359     6.7008    10.5696   -44.7765     8.3867     0.1039     0.0816   114.5442     2.5100
  540.5000    11.9686     6.3848    10.3521   -44.9294     8.4008     0.1039     0.0867   112.3035     2.5032
