~VERSION INFORMATION
 VERS.                2.0:   CWLS LOG ASCII STANDARD - VERSION 2.0
 WRAP.                 NO:   ONE LINE PER DEPTH STEP
~WELL INFORMATION
#MNEM.UNIT      DATA TYPE    INFORMATION
#----------   ------------   ------------------------------
 STRT.F           25.0000:   START DEPTH
 STOP.F          439.0000:   STOP DEPTH
 STEP.F            0.5000:   STEP LENGTH
 NULL.          -999.2500:   NO VALUE
 COMP. LAWRENCE/ALLISON INC:   COMPANY
 WELL.    63-31 SX #10-10:   WELL
 FLD .             TEAPOT:   FIELD
 LOC .      S10 T38N R78W:   LOCATION
 CNTY.            NATRONA:   COUNTY
 STAT.            WYOMING:   STATE
 CTRY. UNITED STATES OF AMERICA:   COUNTRY
 SRVC.           Gearhart:   SERVICE COMPANY
 DATE.        29-SEP-1988:   LOGDATE
 API .       490251125000:   API NUMBER
~CURVE INFORMATION
#MNEM.UNIT       API CODE    CURVE DESCRIPTION
#----------   ------------   ------------------------------
 DEPT.F                  :   
 GRR .GAPI   07 310 01 00:   GAMMA RAY
 RILD.OHMM   07 120 46 00:   INDUCTION LOG DEEP RESISTIVITY
 RILM.OHMM   07 120 44 00:   INDUCTION LOG MEDIUM RESISTIVITY
~PARAMETER INFORMATION
#MNEM.UNIT          VALUE    DESCRIPTION
#----------   ------------   ------------------------------
 PD  .                 GL:   PERMANENT DATUM
 EPD .F              5165:   ELEVATION PERMANENT DATUM
 LMF .                 KB:   LOG MEASURED FROM
 DAPD.F                10:   FEET ABOVE PERMANENT DATUM
 DMF .                 KB:   DRILLING MEASURED FROM
 EKB .F              5175:   KELLING BUSHING
 EGL .F              5165:   GROUND LEVEL
 DATE.        29-SEP-1988:   RUN DATE
 RUN .                  1:   RUN NUMBER
 DD  .F               440:   DEPTH DRILLER
 DL  .F               440:   DEPTH LOGGER
 BLI .F               439:   BOTTOM LOG INTERVAL
 TLI .F                40:   TOP LOG INTERVAL
 CS  .IN            9.625:   CASING SIZE
 CBD .F                45:   CASING BOTTOM DRILLER
 CBL .F                46:   CASING BOTTOM LOGGER
 BS  .IN             8.75:   BIT SIZE
 BSD .F               440:   BIT SIZE AT DEPTH
 TLAB.HRS            2126:   TIME LOGGER AT BOTTOM
 MRT .F                70:   MAXIMUM RECORDED TEMPERATURE
 LUN .               7597:   LOGGING UNIT NUMBER
 LUL .           GILLETTE:   LOGGING UNIT LOCATION
 ENGI.         WEATHERMON:   RECORDING ENGINEER
 WITN.             STRONG:   WITNESSED BY
 CLNT.            A2DTECH:   CLIENT CODE
 ORIG.        2" 5" PRINT:   ORIGIN OF DATA
 UWI .       490251125000:   UNIQUE WELL ID
 DICO. A2D Technologies, Inc.:   DIGITIZING COMPANY
~OTHER INFORMATION
~A   DEPT       GRR      RILD       RILM   
# ...
  116.0000   120.7661     7.1922     6.8337
  116.5000   119.5533     7.1907     6.8801
  117.0000   118.3405     7.2400     7.0234
  117.5000   117.4317     7.3402     7.1700
  118.0000   116.8268     7.4419     7.3711
  118.5000   115.9180     7.5979     7.5250
  119.0000   115.9210     7.7567     7.6827
  119.5000   115.3161     7.8646     7.8432
  120.0000   113.4955     7.9735     7.8960
  120.5000   110.4590     8.0277     8.0603
  121.0000   112.5897     8.0823     8.1714
  121.5000   118.3678     8.1938     8.1123
  122.0000   120.1946     8.1921     8.0536
  122.5000   120.8055     8.2482     8.0514
  123.0000   120.8085     8.2460     8.0491
  123.5000   120.5076     8.2443     7.9909
  124.0000   119.5988     8.1283     7.8779
  124.5000   115.6505     8.0139     7.8757
  125.0000   112.3100     7.9564     7.7103
  125.5000   110.7933     7.8445     7.5483
  126.0000   113.5402     7.7883     7.2366
  126.5000   114.7507     7.6786     7.0353
  127.0000   114.4418     7.2599     6.8396
  127.5000   112.9229     6.9122     6.5115
  128.0000   112.3282     6.6272     6.2864
  128.5000   115.0951     6.3984     6.0268
  129.0000   116.9100     6.1776     5.7779
  129.5000   117.5045     6.0907     5.6565
  130.0000   114.6912     6.0473     5.6549
  130.5000   110.4754     6.0882     5.8953
  131.0000   108.6990     6.2593     6.1458
  131.5000   111.1864     6.4803     6.4519
  132.0000   115.5334     6.7562     6.6793
  132.5000   121.8390     7.0438     6.9631
  133.0000   123.3009     7.3436     7.0591
  133.5000   123.3040     7.6029     7.3594
  134.0000   122.0547     7.7623     7.6198
  134.5000   120.8399     7.9805     7.7800
  135.0000   121.2258     8.0347     7.9993
  135.5000   122.1429     8.2606     8.2247
  136.0000   122.7112     8.4928     8.4566
  136.5000   122.4102     8.6104     8.6344
  137.0000   121.7080     8.7297     8.7457
  137.5000   120.2381     8.7890     8.8045
  138.0000   119.0234     8.9116     8.9374
  138.5000   118.4710     9.0359     9.1755
  139.0000   118.4742     9.1594     9.3026
  139.5000   118.7812     9.2250     9.4308
  140.0000   118.1769     9.4193     9.4942
  140.5000   116.9641     9.5453     9.4909
  141.0000   115.1435     9.6102     9.5548
  141.5000   117.2741     9.6080     9.5521
  142.0000   119.7088     9.6735     9.6171
  142.5000   120.9276     9.6713     9.6137
  143.0000   119.1070     9.6793     9.6110
  143.5000   117.8942     9.7351     9.6764
  144.0000   116.0735     9.7213     9.6730
  144.5000   114.8607     9.5835     9.7388
  145.0000   113.6472     9.4606     9.7354
  145.5000   110.3075     9.1981     9.6649
  146.0000   109.0940     9.0055     9.1373
  146.5000   110.9215     9.0036     8.9454
  147.0000   113.7864     9.0017     8.9429
  147.5000   115.6128     8.9999     9.0031
  148.0000   119.4285     8.9354     9.0006
  148.5000   117.3082     8.6874     8.9355
  149.0000   114.8826     8.4464     8.7478
  149.5000   113.6713     8.2120     8.5045
  150.0000   114.5907     7.9033     8.1944
  150.5000   116.1164     7.5940     7.8730
  151.0000   117.3383     7.1883     7.3415
  151.5000   118.2561     6.6096     6.9422
  152.0000   119.4779     6.1629     6.5646
  152.5000   120.3958     5.8681     6.1643
  153.0000   121.6176     5.3581     5.7481
  153.5000   122.5355     4.7246     5.0688
  154.0000   123.1494     4.1082     4.6611
  154.5000   121.3317     3.8040     4.2563
  155.0000   117.6903     3.4014     3.6755
  155.5000   115.2647     3.2161     3.2639
  156.0000   114.3587     3.1054     2.9804
  156.5000   114.0608     3.0194     2.7987
  157.0000   114.0670     3.0401     2.7405
  157.5000   113.7690     3.1041     2.7788
  158.0000   113.7750     3.1915     2.8774
  158.5000   113.7812     3.3744     3.0003
  159.0000   113.7873     3.7728     3.2171
  159.5000   114.4966     4.3404     3.9431
  160.0000   118.6638     4.6922     4.5059
  160.5000   121.1014     5.1031     4.9009
  161.0000   123.8430     5.5915     5.3064
  161.5000   128.7122     5.9922     5.8701
  162.0000   132.6696     6.4086     6.1132
  162.5000   133.5875     6.6819     6.3300
  163.0000   133.2896     6.7749     6.4186
  163.5000   132.0798     6.7740     6.4181
  164.0000   126.3107     6.7259     6.4177
  164.5000   122.3654     6.6317     6.3726
  165.0000   122.0659     6.5389     6.2400
  165.5000   122.3774     6.3579     6.0255
  166.0000   122.9913     6.1819     5.6978
  166.5000   123.3013     5.9690     5.4636
  167.0000   123.3073     5.7232     5.3874
  167.5000   126.3528     5.6431     5.3496
  168.0000   129.0944     5.6423     5.3492
  168.5000   128.7964     5.6813     5.3489
  169.0000   124.2432     5.7602     5.4237
  169.5000   122.1215     5.8813     5.4997
  170.0000   123.3639     6.0470     5.6946
  170.5000   124.9027     6.3049     5.9795
  171.0000   126.0912     6.6662     6.3226
  171.5000   126.4024     6.9992     6.6853
  172.0000   129.7519     7.4521     7.0197
  172.5000   131.8856     7.7699     7.4225
  173.0000   133.1074     8.0460     7.6868
  173.5000   133.7213     8.2172     7.9583
  174.0000   133.7273     8.4510     8.1262
  174.5000   133.4279     8.5112     8.1825
  175.0000   131.9156     8.5619     8.2393
  175.5000   129.7940     8.5009     8.2386
  176.0000   128.5827     8.4997     8.2380
  176.5000   128.2848     8.4394     8.1801
  177.0000   128.2923     8.3795     8.1227
  177.5000   127.9928     8.2621     8.0656
  178.0000   124.9609     8.0898     7.8978
  178.5000   124.6614     7.8658     7.7336
  179.0000   128.0124     7.6481     7.5200
  179.5000   131.3619     7.3847     7.2110
  180.0000   133.7995     7.1803     6.9146
  180.5000   129.8541     6.9329     6.6304
  181.0000   126.8083     6.5554     6.3137
  181.5000   125.9148     6.1552     5.8465
  182.0000   126.2250     5.6993     5.5672
  182.5000   126.2310     5.5416     5.2277
  183.0000   125.0210     5.5408     5.0129
  183.5000   119.8613     5.6182     5.0477
  184.0000   113.4844     5.6962     5.3373
  184.5000   113.7943     5.7755     5.6043
  185.0000   119.5754     5.9799     5.8846
  185.5000   126.2684     6.4564     6.2659
  186.0000   129.9218     6.8742     6.7186
  186.5000   131.4476     7.3719     7.2050
  187.0000   132.0615     7.7978     7.5166
  187.5000   132.6754     8.1297     7.8921
  188.0000   132.3775     8.3610     8.1740
  188.5000   131.4716     8.5989     8.1097
  189.0000   128.7421     8.7698     8.0528
  189.5000   127.2268     8.8303     8.2225
  190.0000   128.1462     8.8910     8.3961
  190.5000   129.9759     8.8894     8.5135
  191.0000   131.8056     8.8882     8.5129
  191.5000   133.0275     8.9492     8.5123
  192.0000   133.9453     8.9480     8.5714
  192.5000   134.8632     8.9468     8.5708
  193.0000   134.5290     8.8833     8.3341
  193.5000   132.3808     8.8821     8.1608
  194.0000   129.9737     8.8808     8.1602
  194.5000   129.1122     8.8178     8.2744
  195.0000   129.7276     8.8784     8.4490
  195.5000   130.0376     8.8771     8.5077
  196.0000   130.0436     8.8759     8.5668
  196.5000   130.9614     8.8747     8.5064
  197.0000   132.1833     8.8735     8.5058
  197.5000   134.0130     8.8722     8.5052
  198.0000   134.6254     8.8093     8.3867
  198.5000   131.2894     8.8080     8.2698
  199.0000   130.0797     8.6243     8.0978
  199.5000   130.0857     8.4443     7.8742
  200.0000   132.2019     8.1534     7.7105
  200.5000   133.9492     7.7607     7.3405
  201.0000   136.1765     7.4935     6.9914
  201.5000   139.5230     7.3895     7.0892
  202.0000   142.2616     7.3365     7.0887
  202.5000   139.5291     7.2805     6.9827
  203.0000   136.1886     7.1314     6.4727
  203.5000   134.0640     7.0265     6.3825
  204.0000   134.3710     6.8258     6.2900
  204.5000   137.1096     6.4976     6.1587
  205.0000   138.6324     6.3220     5.8970
  205.5000   139.2433     6.1890     5.2723
  206.0000   138.9424     6.0235     5.0319
  206.5000   137.1217     6.0222     5.1069
