~VERSION INFORMATION
 VERS.                2.0:   CWLS LOG ASCII STANDARD - VERSION 2.0
 WRAP.                 NO:   ONE LINE PER DEPTH STEP
~WELL INFORMATION
#MNEM.UNIT      DATA TYPE    INFORMATION
#----------   ------------   ------------------------------
 STRT.F            3.0000:   START DEPTH
 STOP.F         1011.0000:   STOP DEPTH
 STEP.F            0.5000:   STEP LENGTH
 NULL.          -999.2500:   NO VALUE
 COMP. BROWN JOHN E&C INC:   COMPANY
 WELL. NPR 3 SHX-38 #2-35:   WELL
 FLD .             TEAPOT:   FIELD
 LOC .      S35 T39N R78W:   LOCATION
 CNTY.            NATRONA:   COUNTY
 STAT.            WYOMING:   STATE
 CTRY. UNITED STATES OF AMERICA:   COUNTRY
 SRVC.     Atlas Wireline:   SERVICE COMPANY
 DATE.        15-NOV-1991:   LOGDATE
 API .       490252248100:   API NUMBER
~CURVE INFORMATION
#MNEM.UNIT       API CODE    CURVE DESCRIPTION
#----------   ------------   ------------------------------
 DEPT.F                  :   
 GRR .GAPI   07 310 01 00:   GAMMA RAY
 RILD.OHMM   07 120 46 00:   INDUCTION LOG DEEP RESISTIVITY
 RILM.OHMM   07 120 44 00:   INDUCTION LOG MEDIUM RESISTIVITY
~PARAMETER INFORMATION
#MNEM.UNIT          VALUE    DESCRIPTION
#----------   ------------   ------------------------------
 PD  .                 GL:   PERMANENT DATUM
 EPD .F              5119:   ELEVATION PERMANENT DATUM
 LMF .                 KB:   LOG MEASURED FROM
 DAPD.F                11:   FEET ABOVE PERMANENT DATUM
 DMF .                 KB:   DRILLING MEASURED FROM
 EKB .F              5120:   KELLING BUSHING
 EGL .F              5119:   GROUND LEVEL
 DATE.        15-NOV-1991:   RUN DATE
 RUN .                  1:   RUN NUMBER
 DD  .F              1015:   DEPTH DRILLER
 DL  .F              1017:   DEPTH LOGGER
 BLI .F              1015:   BOTTOM LOG INTERVAL
 CS  .IN            8.625:   CASING SIZE
 CBD .F                60:   CASING BOTTOM DRILLER
 CBL .F                60:   CASING BOTTOM LOGGER
 BS  .IN            7.875:   BIT SIZE
 BSD .F              1015:   BIT SIZE AT DEPTH
 DFT .                AIR:   DRILLING FLUID TYPE
 LUN .            HL-6272:   LOGGING UNIT NUMBER
 LUL .         CASPER, WY:   LOGGING UNIT LOCATION
 ENGI.             ZIFGER:   RECORDING ENGINEER
 WITN.         MR. STRONG:   WITNESSED BY
 CLNT.            A2DTECH:   CLIENT CODE
 ORIG.           5" PRINT:   ORIGIN OF DATA
 UWI .       490252248100:   UNIQUE WELL ID
 DICO. A2D Technologies, Inc.:   DIGITIZING COMPANY
~OTHER INFORMATION
~A    DEPT      GRR      RILD       RILM   
    3.0000    31.3121  -999.2500  -999.2500
    3.5000    31.5630  -999.2500  -999.2500
    4.0000    30.5068  -999.2500  -999.2500
    4.5000    23.2271  -999.2500  -999.2500
    5.0000    20.9408  -999.2500  -999.2500
    5.5000    21.8513  -999.2500  -999.2500
    6.0000    21.5438  -999.2500  -999.2500
    6.5000    20.6373  -999.2500  -999.2500
    7.0000    20.3338  -999.2500  -999.2500
    7.5000    20.6373  -999.2500  -999.2500
    8.0000    20.9408  -999.2500  -999.2500
    8.5000    21.8513  -999.2500  -999.2500
    9.0000    23.3687  -999.2500  -999.2500
    9.5000    25.7967  -999.2500  -999.2500
   10.0000    30.3490  -999.2500  -999.2500
   10.5000    35.8118  -999.2500  -999.2500
   11.0000    43.7026  -999.2500  -999.2500
   11.5000    49.1654  -999.2500  -999.2500
   12.0000    46.4340  -999.2500  -999.2500
   12.5000    40.0607  -999.2500  -999.2500
   13.0000    44.3096  -999.2500  -999.2500
   13.5000    60.6980  -999.2500  -999.2500
   14.0000    68.8923  -999.2500  -999.2500
   14.5000    70.1062  -999.2500  -999.2500
   15.0000    70.1062  -999.2500  -999.2500
   15.5000    65.8574  -999.2500  -999.2500
   16.0000    59.1806  -999.2500  -999.2500
   16.5000    58.2701  -999.2500  -999.2500
   17.0000    63.1259  -999.2500  -999.2500
   17.5000    65.2504  -999.2500  -999.2500
   18.0000    64.3399  -999.2500  -999.2500
   18.5000    60.6980  -999.2500  -999.2500
   19.0000    61.6085  -999.2500  -999.2500
   19.5000    63.7329  -999.2500  -999.2500
   20.0000    70.1062  -999.2500  -999.2500
   20.5000    72.2307  -999.2500  -999.2500
   21.0000    73.4446  -999.2500  -999.2500
   21.5000    74.0516  -999.2500  -999.2500
   22.0000    74.6586  -999.2500  -999.2500
   22.5000    74.6181  -999.2500  -999.2500
   23.0000    73.7157  -999.2500  -999.2500
   23.5000    71.5751  -999.2500  -999.2500
   24.0000    70.0900  -999.2500  -999.2500
   24.5000    69.8027  -999.2500  -999.2500
   25.0000    70.4097  -999.2500  -999.2500
   25.5000    70.4097  -999.2500  -999.2500
   26.0000    70.1062  -999.2500  -999.2500
   26.5000    70.1062  -999.2500  -999.2500
   27.0000    70.1062  -999.2500  -999.2500
   27.5000    69.4992  -999.2500  -999.2500
   28.0000    68.8923  -999.2500  -999.2500
   28.5000    68.5321  -999.2500  -999.2500
   29.0000    69.1957  -999.2500  -999.2500
   29.5000    70.1062  -999.2500  -999.2500
   30.0000    71.6237  -999.2500  -999.2500
   30.5000    74.0516  -999.2500  -999.2500
   31.0000    74.9621  -999.2500  -999.2500
   31.5000    73.7481  -999.2500  -999.2500
   32.0000    74.3551  -999.2500  -999.2500
   32.5000    74.6586  -999.2500  -999.2500
   33.0000    73.7481  -999.2500  -999.2500
   33.5000    71.0167  -999.2500  -999.2500
   34.0000    70.7132  -999.2500  -999.2500
   34.5000    71.3202  -999.2500  -999.2500
   35.0000    70.4097  -999.2500  -999.2500
   35.5000    71.3202  -999.2500  -999.2500
   36.0000    72.8376  -999.2500  -999.2500
   36.5000    74.0516  -999.2500  -999.2500
   37.0000    74.0516  -999.2500  -999.2500
   37.5000    71.9272  -999.2500  -999.2500
   38.0000    70.4097  -999.2500  -999.2500
   38.5000    70.7132  -999.2500  -999.2500
   39.0000    70.7132  -999.2500  -999.2500
   39.5000    70.1062  -999.2500  -999.2500
   40.0000    69.4992  -999.2500  -999.2500
   40.5000    69.1957  -999.2500  -999.2500
   41.0000    69.4992  -999.2500  -999.2500
   41.5000    70.1426  -999.2500  -999.2500
   42.0000    71.0450  -999.2500  -999.2500
   42.5000    72.5746  -999.2500  -999.2500
   43.0000    75.9211  -999.2500  -999.2500
   43.5000    79.2109  -999.2500  -999.2500
   44.0000    75.5690  -999.2500  -999.2500
   44.5000    72.8376  -999.2500  -999.2500
   45.0000    74.6586  -999.2500  -999.2500
   45.5000    76.1760  -999.2500  -999.2500
   46.0000    75.2656  -999.2500  -999.2500
   46.5000    72.5341  -999.2500  -999.2500
   47.0000    71.0167  -999.2500  -999.2500
   47.5000    75.8725  -999.2500  -999.2500
   48.0000    75.5690  -999.2500  -999.2500
   48.5000    74.3551  -999.2500  -999.2500
   49.0000    74.6586  -999.2500  -999.2500
   49.5000    76.1760  -999.2500  -999.2500
   50.0000    82.5493  -999.2500  -999.2500
   50.5000    88.9226  -999.2500  -999.2500
   51.0000    97.7238  -999.2500  -999.2500
   51.5000   104.4006  -999.2500  -999.2500
   52.0000   110.7739  -999.2500  -999.2500
   52.5000   117.1472  -999.2500  -999.2500
   53.0000   123.2170  -999.2500  -999.2500
   53.5000   129.2868  -999.2500  -999.2500
   54.0000   131.4112  -999.2500  -999.2500
   54.5000   132.0182  -999.2500  -999.2500
   55.0000   127.1624  -999.2500  -999.2500
   55.5000   124.4310  -999.2500  -999.2500
   56.0000   123.8240  -999.2500  -999.2500
   56.5000   125.9484  -999.2500  -999.2500
   57.0000   132.3217  -999.2500  -999.2500
   57.5000   134.7496  -999.2500  -999.2500
   58.0000   133.2322  -999.2500  -999.2500
   58.5000   127.7693  -999.2500  -999.2500
   59.0000   122.9135  -999.2500  -999.2500
   59.5000   122.3065  -999.2500  -999.2500
   60.0000   125.9484     4.5163     4.4994
   60.5000   131.1077     4.0055     4.1383
   61.0000   129.8938     3.6838     4.0529
   61.5000   126.8589     3.6584     3.9969
   62.0000   125.9484     3.6843     3.9418
   62.5000   125.3414     3.7407     3.9147
   63.0000   125.3414     3.7931     3.9150
   63.5000   126.5938     3.8427     3.9153
   64.0000   128.3763     3.8699     3.9210
   64.5000   127.1361     3.8725     3.9432
   65.0000   126.2519     3.9267     3.9757
   65.5000   125.9484     3.9540     3.9992
   66.0000   126.2600     4.0085     4.0274
   66.5000   127.7754     4.0090     4.0592
   67.0000   130.8042     4.0940     4.1420
   67.5000   133.2322     4.1229     4.2299
   68.0000   133.2484     4.1812     4.2917
   68.5000   133.2099     4.2403     4.3823
   69.0000   134.7496     4.3304     4.4436
   69.5000   137.4810     4.3610     4.4745
   70.0000   139.9090     4.4227     4.5056
   70.5000   136.8741     4.4230     4.5060
   71.0000   133.5357     4.4233     4.4749
   71.5000   125.9484     4.3623     4.4132
   72.0000   124.1275     4.3321     4.3829
   72.5000   123.5205     4.2724     4.3224
   73.0000   124.1275     4.2134     4.2927
   73.5000   125.3414     4.1844     4.2335
   74.0000   126.5554     4.2141     4.2043
   74.5000   127.4659     4.2439     4.2341
   75.0000   127.4659     4.3340     4.2640
   75.5000   127.1624     4.4261     4.3545
   76.0000   127.4659     4.5518     4.4781
   76.5000   129.2868     4.6485     4.6052
   77.0000   128.6798     4.7472     4.7358
   77.5000   127.1624     4.8480     4.8363
   78.0000   127.7693     4.9166     4.9390
   78.5000   133.5357     4.9861     5.0087
   79.0000   138.0880     5.0214     5.0442
   79.5000   141.4264     5.0569     5.1512
   80.0000   137.7845     5.0927     5.1877
   80.5000   126.2519     5.1010     5.2244
   81.0000   120.1821     5.1291     5.2613
   81.5000   117.7542     5.1295     5.2617
   82.0000   121.3961     5.0940     5.2254
   82.5000   124.7344     5.0945     5.1895
   83.0000   127.1624     5.0593     5.0470
   83.5000   127.4659     4.9896     4.9774
   84.0000   126.2519     4.9899     4.9087
   84.5000   125.3414     4.9555     4.8749
   85.0000   125.6449     4.8872     4.8753
   85.5000   129.2868     4.8875     4.9098
   86.0000   130.5008     4.8878     4.9792
   86.5000   128.0728     4.9259     5.0848
   87.0000   125.9484     4.9637     5.1566
   87.5000   123.8240     5.0332     5.2295
   88.0000   125.6449     5.1036     5.3405
   88.5000   129.5903     5.1750     5.3782
   89.0000   131.7147     5.2474     5.3786
   89.5000   132.0182     5.3176     5.4167
   90.0000   131.1077     5.3552     5.4170
   90.5000   131.7147     5.3931     5.3797
   91.0000   132.6252     5.3187     5.3427
   91.5000   133.2322     5.2821     5.3059
   92.0000   130.8042     5.2457     5.2328
   92.5000   128.9833     5.2095     5.1967
   93.0000   129.2868     5.2099     5.1971
   93.5000   131.4112     5.2103     5.1613
