~VERSION INFORMATION
 VERS.                2.0:   CWLS LOG ASCII STANDARD - VERSION 2.0
 WRAP.                 NO:   ONE LINE PER DEPTH STEP
~WELL INFORMATION
#MNEM.UNIT      DATA TYPE    INFORMATION
#----------   ------------   ------------------------------
 STRT.F           31.0000:   START DEPTH
 STOP.F         1450.0000:   STOP DEPTH
 STEP.F            0.5000:   STEP LENGTH
 NULL.          -999.2500:   NO VALUE
 COMP. FENIX & SCISSON INC:   COMPANY
 WELL.    NPR-3 SX #86-14:   WELL
 FLD .             TEAPOT:   FIELD
 LOC .      S14 T38N R78W:   LOCATION
 CNTY.            NATRONA:   COUNTY
 STAT.            WYOMING:   STATE
 CTRY. UNITED STATES OF AMERICA:   COUNTRY
 SRVC.            Unknown:   SERVICE COMPANY
 DATE.        05-APR-1978:   LOGDATE
 API .       490251060800:   API NUMBER
~CURVE INFORMATION
#MNEM.UNIT       API CODE    CURVE DESCRIPTION
#----------   ------------   ------------------------------
 DEPT.F                  :   
 CALD.IN     45 280 60 00:   CALIPER
 GRD .GAPI   45 310 01 00:   GAMMA RAY FROM DENSITY LOG
 RHOB.G/C3   45 350 01 00:   BULK DENSITY
 CORR.G/C3   45 356 01 00:   DENSITY CORRECTION
 DPHI.DEC    45 890 12 00:   DENSITY POROSITY SANDSTONE
 SPR .MV     05 010 01 00:   SPONTANEOUS POTENTIAL FROM RES.
 SN  .OHMM   05 040 16 00:   SHORT NORMAL 16"
 ILD .OHMM   05 120 46 00:   INDUCTION LOG DEEP
~PARAMETER INFORMATION
#MNEM.UNIT          VALUE    DESCRIPTION
#----------   ------------   ------------------------------
 PD  .                 GL:   PERMANENT DATUM
 EPD .F              5367:   ELEVATION PERMANENT DATUM
 LMF .                 KB:   LOG MEASURED FROM
 DMF .                 KB:   DRILLING MEASURED FROM
 EKB .F              5371:   KELLING BUSHING
 EGL .F              5369:   GROUND LEVEL
 DATE.           4-5-1978:   RUN DATE
 RUN .                  1:   RUN NUMBER
 DD  .F              1455:   DEPTH DRILLER
 DL  .F              1446:   DEPTH LOGGER
 BLI .F              1440:   BOTTOM LOG INTERVAL
 TLI .F               100:   TOP LOG INTERVAL
 CS  .IN            8.625:   CASING SIZE
 CBD .F                40:   CASING BOTTOM DRILLER
 BS  .IN            7.875:   BIT SIZE
 BSD .F              1455:   BIT SIZE AT DEPTH
 DFT .                KCL:   DRILLING FLUID TYPE
 DFD .                8.6:   DRILLING FLUID DENSITY
 DFV .                 31:   DRILLING FLUID VISCOSITY
 DFPH.                 10:   DRILLING FLUID PH
 DFL .                8.4:   DRILLING FLUID LOSS
 MSS .           FLOWLINE:   MUD SAMPLE SOURCE
 RMS .OHMM            .95:   RESISTIVITY MUD SAMPLE
 MST .F                54:   MUD SAMPLE TEMPERATURE
 RMF .OHMM            .95:   RESISTIVITY MUD FILTRATE SAMPLE
 MFST.F                62:   MUD FILTRATE SAMPLE TEMPERATURE
 RMC .OHMM             .8:   RESISTIVITY MUD CAKE
 MCST.F                62:   MUD CAKE SAMPLE TEMPERATURE
 MFSS.               MEAS:   MUD FILTRATE SAMPLE SOURCE
 RMB .OHMM            .66:   RESISTIVITY MUD AT BHT
 BHT .F                78:   BOTTOM HOLE TEMPERATURE
 TCS .HRS               6:   TIME CURCULATED STOPPED
 MRT .F                78:   MAXIMUM RECORDED TEMPERATURE
 LUN .               2958:   LOGGING UNIT NUMBER
 LUL .               CASP:   LOGGING UNIT LOCATION
 ENGI.             MILLER:   RECORDING ENGINEER
 WITN.           MCGINLEY:   WITNESSED BY
 CLNT.            A2DTECH:   CLIENT CODE
 ORIG.        2" 5" PRINT:   ORIGIN OF DATA
 UWI .       490251060800:   UNIQUE WELL ID
 DICO. A2D Technologies, Inc.:   DIGITIZING COMPANY
~OTHER INFORMATION
~A   DEPT     CALD         GRD      RHOB       CORR       DPHI        SPR         SN        ILD   
# ...
 1327.0000     7.9751    73.6825     2.4462     0.0286     0.1155   -26.2232    11.1814    10.0439
 1327.5000     7.9728    73.6411     2.4509     0.0256     0.1244   -26.1943    11.1715    10.0455
 1328.0000     7.9706    73.5804     2.4277     0.0227     0.1342   -26.1653    11.1616    10.0747
 1328.5000     7.9684    73.4708     2.4104     0.0235     0.1407   -26.1364    11.1518    10.1034
 1329.0000     7.9662    71.3024     2.4028     0.0316     0.1286   -26.1078    11.1419    10.1321
 1329.5000     7.9640    69.2502     2.4044     0.0404     0.1329   -26.0805    11.1320    10.1610
 1330.0000     7.9618    69.2067     2.4204     0.0483     0.1398   -26.0433    11.1199    10.1896
 1330.5000     7.9596    69.1046     2.4158     0.0507     0.1396   -25.6586    11.1374    10.2189
 1331.0000     7.9574    68.9856     2.4091     0.0529     0.1403   -25.2390    11.1697    10.3211
 1331.5000     7.9552    68.5342     2.4025     0.0550     0.1429   -24.8305    11.2030    10.4841
 1332.0000     7.9529    66.7483     2.3957     0.0572     0.1480   -23.5834    11.2230    10.6494
 1332.5000     7.9509    66.9003     2.3885     0.0595     0.1539   -21.7764    10.9159    10.8173
 1333.0000     7.9390    68.6098     2.3814     0.0595     0.1565   -21.0192    11.1574    10.9875
 1333.5000     7.9231    66.5383     2.3741     0.0582     0.1638   -20.4656    11.3345    11.1197
 1334.0000     7.9072    63.4400     2.3622     0.0570     0.1739   -19.5572    11.4323    11.0819
 1334.5000     7.8899    61.9423     2.3441     0.0557     0.1840   -17.2124    11.3957    11.0514
 1335.0000     7.8389    61.0977     2.3260     0.0543     0.1909   -14.9571    11.3702    11.0209
 1335.5000     7.7842    61.3694     2.3173     0.0565     0.1902   -14.0058    11.3449    11.0173
 1336.0000     7.7320    62.7830     2.3205     0.0610     0.1862   -13.4466    11.3196    11.0173
 1336.5000     7.7161    60.8552     2.3268     0.0654     0.1807   -13.4098    11.2943    11.0173
 1337.0000     7.6992    60.0524     2.3331     0.0684     0.1829   -13.3589    11.2691    11.0173
 1337.5000     7.6750    59.0172     2.3292     0.0716     0.1851   -13.3100    11.2440    11.0173
 1338.0000     7.6407    58.7988     2.3239     0.0803     0.1822   -13.2606    11.2236    11.0173
 1338.5000     7.6248    60.9200     2.3396     0.0933     0.1672   -13.2112    11.2683    11.0173
 1339.0000     7.6168    63.0478     2.3583     0.0999     0.1608   -13.1617    11.3075    11.0173
 1339.5000     7.6089    65.2406     2.3741     0.0885     0.1591   -13.1125    11.3470    11.0172
 1340.0000     7.6019    67.2086     2.3574     0.0769     0.1754   -13.0783    11.3864    11.0160
 1340.5000     7.5946    66.6066     2.3339     0.0800     0.1807   -13.1079    11.4323    11.0676
 1341.0000     7.5873    66.0815     2.3416     0.0776     0.1755   -13.1362    11.4015    11.1286
 1341.5000     7.5800    66.0403     2.3465     0.0739     0.1783   -13.1643    11.3649    11.1905
 1342.0000     7.5727    65.9948     2.3370     0.0955     0.1747   -13.1922    11.3281    11.2230
 1342.5000     7.5720    65.9525     2.3637     0.0902     0.1597   -13.2188    11.2915    11.1982
 1343.0000     7.5751    65.9201     2.3775     0.0787     0.1555   -13.2464    11.2552    11.1812
 1343.5000     7.5783    65.3601     2.3565     0.0778     0.1622   -13.3754    11.2232    11.1643
 1344.0000     7.5815    64.8981     2.3608     0.0772     0.1631   -14.2607    11.2701    11.1474
 1344.5000     7.5847    65.0675     2.3678     0.0766     0.1666   -14.6664    11.3124    11.1305
 1345.0000     7.5879    65.2198     2.3542     0.0813     0.1703   -14.6988    11.3550    11.1137
 1345.5000     7.5892    66.6711     2.3495     0.0916     0.1658   -14.7231    11.3976    11.0969
 1346.0000     7.5826    69.2673     2.3732     0.0941     0.1615   -14.7464    11.4325    11.0801
 1346.5000     7.5760    71.7975     2.3595     0.0995     0.1727   -14.7705    11.4098    11.0634
 1347.0000     7.5694    71.9259     2.3439     0.1089     0.1716   -14.7946    11.3907    11.0467
 1347.5000     7.5628    70.8442     2.3478     0.1213     0.1699   -14.8187    11.3716    11.0301
 1348.0000     7.5561    64.1290     2.3678     0.1350     0.1658   -14.8421    11.3514    11.0180
 1348.5000     7.5510    63.6706     2.4055     0.1093     0.1627   -14.8617    11.3273    11.0667
 1349.0000     7.5743    65.4111     2.3603     0.1034     0.1659   -15.0529    11.4325    11.1197
 1349.5000     7.5980    66.7221     2.3848     0.1358     0.1527   -15.2655    11.2102    11.0221
 1350.0000     7.6216    66.7094     2.4147     0.1614     0.1469   -15.4760    11.0156    10.8795
 1350.5000     7.6453    67.0082     2.4299     0.1333     0.1489   -15.7242    11.0969    10.7387
 1351.0000     7.6694    67.9300     2.4043     0.0980     0.1490   -15.8350    11.2520    10.5998
 1351.5000     7.6513    66.8885     2.3856     0.1029     0.1453   -15.8018    11.3287    10.4627
 1352.0000     7.6258    65.0498     2.4118     0.1158     0.1415   -15.7611    11.3273    10.3277
 1352.5000     7.6002    63.8350     2.4289     0.1189     0.1378   -15.7211    11.3273    10.1900
 1353.0000     7.5743    65.9245     2.4157     0.1108     0.1383   -15.6815    11.2970    10.0449
 1353.5000     7.5725    68.4732     2.4055     0.1042     0.1403   -15.6419    11.2659    10.0814
 1354.0000     7.5757    70.8388     2.4049     0.1068     0.1419   -15.6023    11.2245    10.1095
 1354.5000     7.5789    70.5640     2.4163     0.1080     0.1344   -15.5624    11.2526    10.1375
 1355.0000     7.5821    70.3542     2.4145     0.1065     0.1297   -15.5212    11.3005    10.2317
 1355.5000     7.5853    70.6064     2.4178     0.1049     0.1274   -15.4845    11.3423    10.4670
 1356.0000     7.5885    70.8549     2.4220     0.1034     0.1324   -15.6149    11.3756    10.6986
 1356.5000     7.5954    71.0701     2.4133     0.1024     0.1380   -16.2523    11.4088    10.9159
 1357.0000     7.6058    69.6809     2.4050     0.1108     0.1427   -16.1736    11.4325    11.0173
 1357.5000     7.6162    68.1448     2.4043     0.1235     0.1427   -16.0730    11.3340    10.9480
 1358.0000     7.6266    66.5825     2.4295     0.1535     0.1378   -16.2886    11.2583    10.8488
 1358.5000     7.6370    65.9297     2.4486     0.1302     0.1302   -16.5421    11.1832    10.7507
 1359.0000     7.6474    67.0976     2.4251     0.0890     0.1396   -16.6776    11.1085    10.6535
 1359.5000     7.6578    68.3412     2.3971     0.0717     0.1458   -16.7059    11.0344    10.5573
 1360.0000     7.6682    67.2260     2.3904     0.0663     0.1501   -16.7319    10.9607    10.4619
 1360.5000     7.6785    65.2963     2.3837     0.0667     0.1515   -16.7576    10.9035    10.3967
 1361.0000     7.6882    64.1548     2.3799     0.0717     0.1494   -16.7835    10.8713    10.3524
 1361.5000     7.7120    64.2338     2.3934     0.0767     0.1447   -16.8094    10.8400    10.3083
 1362.0000     7.7366    64.3681     2.3973     0.0775     0.1478   -16.8352    10.8160    10.2646
 1362.5000     7.7612    64.5090     2.3771     0.0784     0.1478   -16.8611    10.9558    10.2317
 1363.0000     7.7858    64.6571     2.3922     0.0792     0.1453   -16.8882    11.0172    10.2602
 1363.5000     7.8104    64.1897     2.3996     0.0801     0.1428   -16.9155    11.0180    10.2831
 1364.0000     7.8305    62.3992     2.3999     0.0844     0.1403   -16.9428    10.9792    10.3059
 1364.5000     7.8301    61.4791     2.4126     0.0894     0.1381   -16.9701    10.9370    10.3268
 1365.0000     7.8300    61.3818     2.4187     0.0945     0.1359   -16.9966    10.9154    10.3797
 1365.5000     7.8300    61.2811     2.4122     0.1012     0.1343   -17.0242    10.9495    10.4549
 1366.0000     7.8300    61.1722     2.4064     0.1078     0.1330   -17.0593    10.9753    10.5195
 1366.5000     7.8300    61.1446     2.4112     0.1147     0.1311   -17.4777    11.0011    10.4864
 1367.0000     7.8300    62.6873     2.4135     0.1092     0.1292   -18.3227    11.0269    10.4270
