~VERSION INFORMATION
 VERS.                2.0:   CWLS LOG ASCII STANDARD - VERSION 2.0
 WRAP.                 NO:   ONE LINE PER DEPTH STEP
~WELL INFORMATION
#MNEM.UNIT      DATA TYPE    INFORMATION
#----------   ------------   ------------------------------
 STRT.F           80.0000:   START DEPTH
 STOP.F          744.0000:   STOP DEPTH
 STEP.F            0.5000:   STEP LENGTH
 NULL.          -999.2500:   NO VALUE
 COMP.               NAVY:   COMPANY
 WELL. RES 3 TEAPOT DOM #44-S-11:   WELL
 FLD .             TEAPOT:   FIELD
 LOC .      S11 T38N R78W:   LOCATION
 CNTY.            NATRONA:   COUNTY
 STAT.            WYOMING:   STATE
 CTRY. UNITED STATES OF AMERICA:   COUNTRY
 SRVC.       Schlumberger:   SERVICE COMPANY
 DATE.        09-JUL-1962:   LOGDATE
 API .       490250634600:   API NUMBER
~CURVE INFORMATION
#MNEM.UNIT       API CODE    CURVE DESCRIPTION
#----------   ------------   ------------------------------
 DEPT.F                  :   
 SPR .MV     05 010 01 00:   SPONTANEOUS POTENTIAL FROM RES.
 ASN .OHMM   05 041 16 00:   AMPLIFIED SHORT NORMAL 16"
 ILD .OHMM   05 120 46 00:   INDUCTION LOG DEEP
 CILD.MMHO   05 110 46 00:   CONDUCTIVITY INDUCTION LOG DEEP
 GR  .GAPI   30 310 01 00:   GAMMA RAY
~PARAMETER INFORMATION
#MNEM.UNIT          VALUE    DESCRIPTION
#----------   ------------   ------------------------------
 PD  .                 KB:   PERMANENT DATUM
 EPD .F              5182:   ELEVATION PERMANENT DATUM
 EKB .F              5182:   KELLING BUSHING
 EGL .F              5177:   GROUND LEVEL
 DATE.        09-JUL-1962:   RUN DATE
 RUN .                  1:   RUN NUMBER
 DD  .F               745:   DEPTH DRILLER
 DL  .F               745:   DEPTH LOGGER
 BLI .F               744:   BOTTOM LOG INTERVAL
 TLI .F                90:   TOP LOG INTERVAL
 BS  .IN             6.75:   BIT SIZE
 BSD .F               745:   BIT SIZE AT DEPTH
 DFT .           OIL EMUL:   DRILLING FLUID TYPE
 DFD .               10.3:   DRILLING FLUID DENSITY
 DFV .                 50:   DRILLING FLUID VISCOSITY
 DFL .                3.4:   DRILLING FLUID LOSS
 RMS .OHMM            7.0:   RESISTIVITY MUD SAMPLE
 MST .F                73:   MUD SAMPLE TEMPERATURE
 RMF .OHMM            4.5:   RESISTIVITY MUD FILTRATE SAMPLE
 MFST.F                73:   MUD FILTRATE SAMPLE TEMPERATURE
 RMC .OHMM           13.5:   RESISTIVITY MUD CAKE
 MCST.F                73:   MUD CAKE SAMPLE TEMPERATURE
 MFSS.               MEAS:   MUD FILTRATE SAMPLE SOURCE
 MCSS.               MEAS:   MUD CAKE SAMPLE SOURCE
 TCS .HRS            0030:   TIME CURCULATED STOPPED
 LUN .               2503:   LOGGING UNIT NUMBER
 LUL .               CSPR:   LOGGING UNIT LOCATION
 ENGI.           ELLERMAN:   RECORDING ENGINEER
 WITN.          JORGENSON:   WITNESSED BY
 CLNT.            A2DTECH:   CLIENT CODE
 ORIG.           5" PRINT:   ORIGIN OF DATA
 UWI .       490250634600:   UNIQUE WELL ID
 DICO. A2D Technologies, Inc.:   DIGITIZING COMPANY
~OTHER INFORMATION
~A   DEPT      SPR        ASN        ILD       CILD         GR   
# ...
  385.0000   -56.1735     8.6288     8.2548   123.4575  -999.2500
  385.5000   -56.0286     8.6280     8.2503   123.5024  -999.2500
  386.0000   -55.4283     8.6109     8.2458   123.5473  -999.2500
  386.5000   -54.8242     8.5638     8.2412   124.3486  -999.2500
  387.0000   -55.1385     8.4741     8.2365   124.3934  -999.2500
  387.5000   -55.4510     8.4430     8.2322   125.9511  -999.2500
  388.0000   -55.6109     8.4423     8.2268   126.7524  -999.2500
  388.5000   -56.0758     8.4569     8.2223   127.5537  -999.2500
  389.0000   -56.5407     8.5166     8.2178   128.3550  -999.2500
  389.5000   -57.0055     8.5613     8.2133   129.1563  -999.2500
  390.0000   -57.6228     8.5151     8.0571   129.2012  -999.2500
  390.5000   -57.9353     8.4386     7.9767   129.2460  -999.2500
  391.0000   -58.0952     8.3772     7.8963   129.2909  -999.2500
  391.5000   -57.9485     8.3159     7.8160   130.0922  -999.2500
  392.0000   -57.6530     8.2697     7.7356   130.8935  -999.2500
  392.5000   -57.3557     8.2689     7.7311   131.6948  -999.2500
  393.0000   -56.6010     8.2682     7.7267   132.4962  -999.2500
  393.5000   -57.2183     8.3129     7.7222   132.5416  -999.2500
  394.0000   -57.6832     8.3727     7.7937   132.5870  -999.2500
  394.5000   -57.9956     8.4786     7.8650   131.8742  -999.2500
  395.0000   -58.1556     8.5560     7.8605   130.9802  -999.2500
  395.5000   -58.3156     8.6479     8.0077   127.2842  -999.2500
  396.0000   -58.3231     8.7938     8.1550   123.5883  -999.2500
  396.5000   -58.0097     8.9294     8.3770   119.8923  -999.2500
  397.0000   -57.5760     9.1711     8.5243   116.1964  -999.2500
  397.5000   -57.5839     9.4431     8.6726   112.4874  -999.2500
  398.0000   -57.4387    10.0506     8.8188   110.2518  -999.2500
  398.5000   -57.4481    10.6084     8.8902   110.3079  -999.2500
  399.0000   -57.3013    10.6074     8.8857   110.3527  -999.2500
  399.5000   -57.3108    10.9097     8.9582   109.6300  -999.2500
  400.0000   -57.4708    11.2122     8.8778   110.2531  -999.2500
  400.5000   -58.8503     9.8927     8.8701   113.7622  -999.2500
  401.0000   -59.0103     9.3158     8.7881   117.2714  -999.2500
  401.5000   -58.5605     8.9208     8.6304   121.1713  -999.2500
  402.0000   -57.8058     8.7681     8.3967   124.9984  -999.2500
  402.5000   -57.5085     8.6761     8.1631   125.7999  -999.2500
  403.0000   -57.5160     8.6144     7.9294   126.6013  -999.2500
  403.5000   -57.3910     8.5375     7.7717   127.4028  -999.2500
  404.0000   -57.2492     8.4454     7.6139   130.4735  -999.2500
  404.5000   -57.2624     8.3534     7.5320   133.5442  -999.2500
  405.0000   -57.4254     8.2296     7.4501   135.1021  -999.2500
  405.5000   -57.5884     8.1055     7.3682   137.4164  -999.2500
  406.0000   -57.7514     7.9831     7.2863   139.7307  -999.2500
  406.5000   -57.9144     7.8597     7.2044   140.5321  -999.2500
  407.0000   -58.2298     7.7817     7.1983   141.3336  -999.2500
  407.5000   -58.3928     7.7406     7.2697   141.3786  -999.2500
  408.0000   -58.4034     7.7998     7.4139   140.6657  -999.2500
  408.5000   -58.4140     7.8593     7.4853   139.9546  -999.2500
  409.0000   -58.4245     7.9491     7.7053   137.7315  -999.2500
  409.5000   -58.4351     8.0994     7.8513   135.5072  -999.2500
  410.0000   -58.5981     8.2347     7.9968   132.5265  -999.2500
  410.5000   -58.6087     8.2944     7.9907   130.2776  -999.2500
  411.0000   -58.4665     8.3536     8.0607   128.0779  -999.2500
  411.5000   -58.4773     8.4586     8.0545   126.6101  -999.2500
  412.0000   -58.4879     8.5183     8.0485   125.0429  -999.2500
  412.5000   -58.4985     8.4263     8.1184   123.6744  -999.2500
  413.0000   -58.1982     8.5310     8.1123   122.2178  -999.2500
  413.5000   -57.4405     8.6662     8.1062   122.2628  -999.2500
  414.0000   -57.1582     8.7560     8.0243   122.3078  -999.2500
  414.5000   -57.1692     8.7703     8.0102   123.1092  -999.2500
  415.0000   -57.1820     8.7083     7.9363   123.1543  -999.2500
  415.5000   -57.0401     8.6617     7.8544   123.1993  -999.2500
  416.0000   -57.0507     8.6303     7.7724   123.9894  -999.2500
  416.5000   -56.9062     8.5988     7.7651   123.2780  -999.2500
  417.0000   -56.9194     8.5674     7.7591   124.0907  -999.2500
  417.5000   -56.9299     8.5208     7.7531   124.8922  -999.2500
  418.0000   -56.9405     8.5045     7.7470   125.6936  -999.2500
  418.5000   -56.9511     8.5034     7.7410   127.2515  -999.2500
  419.0000   -56.8066     8.5192     7.8124   128.8093  -999.2500
  419.5000   -56.8198     8.5769     7.8048   129.6108  -999.2500
  420.0000   -57.2876     8.5606     7.8747   130.4122  -999.2500
  420.5000   -57.6031     8.4963     7.8686   131.2137  -999.2500
  421.0000   -57.6137     8.4217     7.8626   131.2587  -999.2500
  421.5000   -57.6242     8.4361     7.8566   129.0231  -999.2500
  422.0000   -57.6348     8.5104     7.9264   126.0537  -999.2500
  422.5000   -57.6453     8.6153     7.9963   124.5839  -999.2500
  423.0000   -57.6559     8.8112     8.1420   122.3616  -999.2500
  423.5000   -57.6665     8.9767     8.2877   120.1373  -999.2500
  424.0000   -57.6770     9.1423     8.5093   118.6687  -999.2500
  424.5000   -57.6876     9.3533     8.7324   116.4452  -999.2500
  425.0000   -57.8506     9.5188     8.9540   114.2209  -999.2500
  425.5000   -58.0137     9.6540     9.2499   111.2402  -999.2500
  426.0000   -58.1768     9.8044     9.6233   109.7723  -999.2500
  426.5000   -58.3399    10.0476     9.9207   108.3045  -999.2500
  427.0000   -58.6555    10.5449     9.9147   106.0802  -999.2500
  427.5000   -58.9732    10.6195     9.9860   103.6053  -999.2500
  428.0000   -58.9837    10.8454    10.2061    99.3736  -999.2500
  428.5000   -58.3845    10.9958    10.5036    96.3929  -999.2500
  429.0000   -58.0876    11.1464    10.7252    92.6558  -999.2500
  429.5000   -57.9483    11.2209    10.8710    90.4202  -999.2500
  430.0000   -57.8038    11.3712    11.0926    88.2072  -999.2500
  430.5000   -57.6619    11.5973    11.2383    88.2522  -999.2500
  431.0000   -57.5201    11.8235    11.2322    87.5295  -999.2500
  431.5000   -57.5333    12.0496    11.0744    87.5858  -999.2500
  432.0000   -57.6963    11.9717    11.0652    87.6308  -999.2500
  432.5000   -58.0117    11.8201    10.9105    88.4323  -999.2500
  433.0000   -58.1747    11.7432    10.8215    88.4773  -999.2500
  433.5000   -58.4902    11.7421    10.7375    88.5223  -999.2500
  434.0000   -58.8056    11.6652    10.5885    88.5673  -999.2500
  434.5000   -59.1211    11.5880    10.5068    89.3687  -999.2500
  435.0000   -59.1316    11.5111    10.4237    90.1702  -999.2500
  435.5000   -59.1422    11.3585    10.2659    90.9716  -999.2500
  436.0000   -59.1528    11.1301    10.1840    92.5295  -999.2500
  436.5000   -59.1633    11.0532    10.1021    94.0873  -999.2500
  437.0000   -59.0214    10.9763     9.8685    94.8888  -999.2500
  437.5000   -58.8796    10.8995     9.7866    96.4467  -999.2500
  438.0000   -58.8902    10.8983     9.7805    98.7610  -999.2500
  438.5000   -58.9009    10.8972     9.7745    98.8805  -999.2500
  439.0000   -58.7588    10.8961     9.8458    96.5817  -999.2500
  439.5000   -58.5930    10.9707     9.9901    94.3574  -999.2500
  440.0000   -58.1728    11.1211    10.2116    92.8896  -999.2500
  440.5000   -57.7261    11.2715    10.5091    91.4217  -999.2500
  441.0000   -57.2793    11.5734    11.1101    91.4675  -999.2500
  441.5000   -56.9824    11.6480    11.1814    91.5128  -999.2500
  442.0000   -56.9956    11.6469    10.7186    91.5582  -999.2500
  442.5000   -57.1586    11.3427    10.6382    91.6037  -999.2500
  443.0000   -57.4740    11.1143    11.0101    91.6580  -999.2500
  443.5000   -57.4846    11.4920    11.2316    93.2159  -999.2500
  444.0000   -57.4952    11.5071    10.6945    94.7738  -999.2500
  444.5000   -57.3533    11.1110    10.1574    96.3316  -999.2500
  445.0000   -57.2114    10.8826     9.6961    98.6459  -999.2500
  445.5000   -57.2220    10.7299     9.5383   100.9602  -999.2500
