~VERSION INFORMATION
 VERS.                2.0:   CWLS LOG ASCII STANDARD - VERSION 2.0
 WRAP.                 NO:   ONE LINE PER DEPTH STEP
~WELL INFORMATION
#MNEM.UNIT      DATA TYPE    INFORMATION
#----------   ------------   ------------------------------
 STRT.F           88.0000:   START DEPTH
 STOP.F          991.0000:   STOP DEPTH
 STEP.F            0.5000:   STEP LENGTH
 NULL.          -999.2500:   NO VALUE
 COMP. US NAVY /INTEX OIL CO.:   COMPANY
 WELL.    NPR #3 #S-11 63:   WELL
 FLD .             TEAPOT:   FIELD
 LOC .      S11 T38N R78W:   LOCATION
 CNTY.            NATRONA:   COUNTY
 STAT.            WYOMING:   STATE
 CTRY. UNITED STATES OF AMERICA:   COUNTRY
 SRVC.       Schlumberger:   SERVICE COMPANY
 DATE.        24-JUL-1964:   LOGDATE
 API .       490250636200:   API NUMBER
~CURVE INFORMATION
#MNEM.UNIT       API CODE    CURVE DESCRIPTION
#----------   ------------   ------------------------------
 DEPT.F                  :   
 SPR .MV     05 010 01 00:   SPONTANEOUS POTENTIAL FROM RES.
 ASN .OHMM   05 041 16 00:   AMPLIFIED SHORT NORMAL 16"
 ILD .OHMM   05 120 46 00:   INDUCTION LOG DEEP
 CILD.MMHO   05 110 46 00:   CONDUCTIVITY INDUCTION LOG DEEP
 CALS.IN     60 280 50 00:   CALIPER FROM SONIC LOG
 DT  .US/F   60 520 33 00:   INTERVAL TRANSIT TIME
 GR  .GAPI   30 310 01 00:   GAMMA RAY
~PARAMETER INFORMATION
#MNEM.UNIT          VALUE    DESCRIPTION
#----------   ------------   ------------------------------
 PD  .                 GL:   PERMANENT DATUM
 LMF .                 KB:   LOG MEASURED FROM
 DAPD.F                 5:   FEET ABOVE PERMANENT DATUM
 DMF .                 KB:   DRILLING MEASURED FROM
 EKB .F              5914:   KELLING BUSHING
 DATE.          7-24-1964:   RUN DATE
 RUN .                  1:   RUN NUMBER
 DD  .F               990:   DEPTH DRILLER
 DL  .F               992:   DEPTH LOGGER
 BLI .F               991:   BOTTOM LOG INTERVAL
 TLI .F               990:   TOP LOG INTERVAL
 CS  .IN            8.625:   CASING SIZE
 CBD .F                15:   CASING BOTTOM DRILLER
 BS  .IN             6.75:   BIT SIZE
 BSD .F               990:   BIT SIZE AT DEPTH
 DFT .            GEL OIL:   DRILLING FLUID TYPE
 DFD .                9.2:   DRILLING FLUID DENSITY
 DFV .                 47:   DRILLING FLUID VISCOSITY
 MSS .            MUD PIT:   MUD SAMPLE SOURCE
 RMS .OHMM           1.24:   RESISTIVITY MUD SAMPLE
 MST .F                75:   MUD SAMPLE TEMPERATURE
 RMF .OHMM           .801:   RESISTIVITY MUD FILTRATE SAMPLE
 MFST.F                80:   MUD FILTRATE SAMPLE TEMPERATURE
 MFSS.                 FP:   MUD FILTRATE SAMPLE SOURCE
 RMB .OHMM           1.09:   RESISTIVITY MUD AT BHT
 BHT .F                85:   BOTTOM HOLE TEMPERATURE
 TCS .HRS              .5:   TIME CURCULATED STOPPED
 MRT .F                85:   MAXIMUM RECORDED TEMPERATURE
 LUN .               2572:   LOGGING UNIT NUMBER
 LUL .                 MC:   LOGGING UNIT LOCATION
 ENGI.             BOWLER:   RECORDING ENGINEER
 WITN.          JORGENSEN:   WITNESSED BY
 CLNT.            A2DTECH:   CLIENT CODE
 ORIG.      2" & 5" PRINT:   ORIGIN OF DATA
 UWI .       490250636200:   UNIQUE WELL ID
 DICO. A2D Technologies, Inc.:   DIGITIZING COMPANY
~OTHER INFORMATION
~A   DEPT      SPR          ASN        ILD      CILD      CALS         DT         GR   
# ...
  770.5000   -26.3938     5.0710     3.8690   249.0802     6.7494   113.2680   102.0199
  771.0000   -26.3924     4.9364     3.8690   246.0730     6.7064   114.0397    98.5575
  771.5000   -26.3909     5.0719     3.9435   241.5733     6.7497   113.4701    96.1494
  772.0000   -26.3895     5.2072     4.1042   234.0886     6.8075   110.9363    97.9581
  772.5000   -26.5334     5.3276     4.2411   225.8576     6.8076   109.8172   110.1584
  773.0000   -26.6773     5.4780     4.4643   216.1340     6.7934   109.9639   113.4732
  773.5000   -26.8212     5.7483     4.5571   204.1716     6.7935   109.7383   117.5409
  774.0000   -26.8198     6.1086     4.7619   192.0493     6.7937   107.7257   121.1569
  774.5000   -27.1091     6.3939     4.9851   180.7473     6.7938   106.3087   110.7668
  775.0000   -27.2530     6.7242     5.1339   170.1498     6.7939   105.5619   101.1298
  775.5000   -27.3969     7.0844     5.3571   159.3017     6.7941   104.4428    93.7517
  776.0000   -27.5408     7.4597     5.5804   152.5632     6.7942   103.5471    90.7412
  776.5000   -27.5390     7.7000     5.7292   148.0635     6.7944   103.3959    90.1399
  777.0000   -27.5376     7.8809     5.9524   144.3101     6.7945   103.3937    90.4430
  777.5000   -27.5361     7.9421     6.2500   139.8104     6.7947   103.5404    92.4023
  778.0000   -27.3893     7.9562     6.4732   138.2958     6.7948   104.4317    94.8131
  778.5000   -27.3879     7.9417     6.5476   139.7662     6.7950   105.0252    80.3571
  779.0000   -27.2411     7.8673     6.5476   142.7292     6.7951   105.3209    87.5876
  779.5000   -26.8036     7.7627     6.3981   145.6922     6.7953   105.6909    98.7336
  780.0000   -26.8022     7.6433     6.1707   148.6552     6.8098   106.1355   103.2532
  780.5000   -26.8008     7.4938     5.9432   153.1108     6.7955   106.3567   101.7487
  781.0000   -26.7993     7.3443     5.6548   158.3126     6.7957   106.3544    99.3406
  781.5000   -26.9432     7.1948     5.3571   163.5144     6.7958   106.3569    97.6851
  782.0000   -27.0872     7.0453     5.0595   170.9550     6.7960   106.8950   105.0664
  782.5000   -27.0857     6.8809     4.8363   180.6720     6.7961   107.6247   111.2426
  783.0000   -26.9389     6.6864     4.6131   191.2771     6.7963   107.9093   116.8164
  783.5000   -26.7922     6.4919     4.4643   203.3651     6.7820   108.4277   107.9324
  784.0000   -26.6454     6.2825     4.2411   213.0747     6.7821   109.3935   105.6749
  784.5000   -26.6269     6.0580     4.1667   220.0928     6.7823   110.5082   103.1161
  785.0000   -26.3517     5.8036     4.0923   221.5688     6.7824   111.6973   106.8827
  785.5000   -26.2047     5.6691     4.1667   218.5561     6.7826   114.3757   110.7995
  786.0000   -26.0579     5.5496     4.2411   214.8027     6.7827   113.1821   109.2949
  786.5000   -25.9111     5.5501     4.3899   211.0493     6.7829   112.2119   111.5555
  787.0000   -25.7643     5.6720     4.5387   206.5496     6.7974   111.2417   100.7140
  787.5000   -25.9086     5.9171     4.7619   202.7962     6.7976   109.4525   105.2336
  788.0000   -25.9068     6.3450     4.9107   194.5652     6.7977   107.2909   108.5483
  788.5000   -25.9054     6.7339     5.1361   184.0953     6.7978   105.2038   108.3992
  789.0000   -26.0496     6.9268     5.3636   172.1330     6.7980   104.1592   106.8947
  789.5000   -26.1932     7.1493     5.5910   164.6482     6.7981   103.7102   109.9082
  790.0000   -26.1917     7.2850     5.8036   160.8948     6.8127   103.4846   117.5905
  790.5000   -26.4810     7.3745     5.9524   157.1414     6.7696   103.2590   120.1518
  791.0000   -26.7706     7.4614     6.0268   154.8805     6.7409   103.1079   110.0633
  791.5000   -26.7688     7.5802     6.0268   152.6194     6.7411   102.8823   108.7090
  792.0000   -26.6220     7.7286     6.0268   152.5970     6.7124   102.4333   103.8916
  792.5000   -26.6206     7.8474     6.0268   152.5747     6.7414   101.9844    95.9112
  793.0000   -26.6192     7.9218     6.0268   151.8781     6.7703   101.8332    98.7742
  793.5000   -26.6177     8.0406     6.0268   149.5888     6.8014   101.8309   101.9383
  794.0000   -26.6163     8.1150     6.0268   147.3731     6.8282   101.9995    94.7109
  794.5000   -26.6149     8.1597     6.1012   146.5914     6.8140   102.4363    98.3269
  795.0000   -26.6133     8.1299     6.1012   147.3159     6.7997   103.0897   101.1898
  795.5000   -26.6116     8.0991     6.1012   147.2794     6.7854   103.7576   101.7156
  796.0000   -26.6102     8.0421     6.1012   148.0039     6.7856   104.4255    99.9719
  796.5000   -26.6088     7.9832     6.1012   147.9675     6.7858   104.8701   101.6461
  797.0000   -26.6073     7.9242     6.1012   147.9384     6.7859   105.3146   102.4556
  797.5000   -26.6059     7.8800     6.1012   147.9092     6.7860   105.6108    98.0046
  798.0000   -26.7502     7.8654     6.1012   147.8801     6.7862   105.9059   101.9518
  798.5000   -26.7484     7.8509     6.1012   147.8257     6.7863   106.2015   109.1823
  799.0000   -26.7469     7.8513     6.0268   147.0746     6.7865   106.4233   114.9106
  799.5000   -26.7455     7.8516     5.9524   146.2929     6.7866   106.5700   110.8419
  800.0000   -26.7433     7.8222     5.7079   148.5026     6.8011   106.3537   112.1988
  800.5000   -26.7367     7.8211     5.5002   153.6974     6.7977   105.9710   114.4593
  801.0000   -26.7294     7.7635     5.2127   161.8772     6.7948   105.9701   111.8727
  801.5000   -26.5769     7.6750     4.9916   177.5197     6.7919   105.9694   110.8391
  802.0000   -26.5697     7.4086     4.9194   187.9384     6.7890   106.0431   116.1083
  802.5000   -26.4172     7.0978     4.7728   196.8645     6.8026   106.2658   122.1309
  803.0000   -26.2632     6.6092     4.7005   199.8209     6.8029   108.7222   124.3884
  803.5000   -26.2561     6.1502     4.6283   202.8012     6.8176   111.7744   123.1821
  804.0000   -26.2490     5.7505     4.6310   204.2398     6.8179   111.9226   108.8733
  804.5000   -26.2419     5.6916     4.5588   203.4571     6.8182   111.7729   107.9682
  805.0000   -26.2348     5.7215     4.4866   202.6817     6.8329   112.2188   107.8161
  805.5000   -26.3730     5.9987     4.4759   202.6526     6.8332   112.9627   104.0495
  806.0000   -26.5130     6.5541     4.3427   207.1011     6.8335   109.8346   102.6926
  806.5000   -26.6497     6.6409     4.3448   214.5346     6.8337   108.7915   103.8959
  807.0000   -26.6424     6.5375     4.3470   220.4757     6.8340   108.7907   112.0269
  807.5000   -26.4898     6.3452     4.3492   221.9403     6.8199   110.7260   117.2964
  808.0000   -26.3372     5.6788     4.3514   216.6861     6.8058   115.8022   113.8311
  808.5000   -26.1833     5.3680     4.3535   211.4329     6.7773   115.9367   101.1790
  809.0000   -26.0308     5.4868     4.4301   214.3890     6.7776   113.4042    94.5509
  809.5000   -25.8784     5.5464     4.6555   213.6064     6.7778   113.1056    92.4410
  810.0000   -26.0166     5.5911     4.8909   208.3534     6.7781   112.5837    87.1684
  810.5000   -26.1566     5.9425     5.1812   200.1153     6.7784   110.3492    90.0283
  811.0000   -26.4385     6.7566     5.3322   185.1608     6.7787   105.9553    90.7802
  811.5000   -26.5785     6.9846     5.5576   167.9675     6.7790   104.1675    86.8630
  812.0000   -26.8603     7.0590     5.7830   145.5576     6.7937   104.0179    89.7686
  812.5000   -26.9985     7.1037     5.7852   152.9839     6.7940   105.2332    95.2929
  813.0000   -26.9912     7.1040     5.5641   161.9100     6.8087   105.6544    99.5531
  813.5000   -26.9826     7.0895     5.2687   176.1598     6.8090   105.5792   100.2606
  814.0000   -26.9755     7.0750     4.8988   187.6226     6.8092   104.8339    94.1223
  814.5000   -26.8230     7.0012     4.5895   202.1138     6.8057   104.4608    94.4627
  815.0000   -26.9630     6.8237     4.2341   213.2787     6.8005   104.5346    95.4368
  815.5000   -27.1013     6.3351     4.0869   219.2197     6.7954   104.9806    89.9923
