~VERSION INFORMATION
 VERS.                2.0:   CWLS LOG ASCII STANDARD - VERSION 2.0
 WRAP.                 NO:   ONE LINE PER DEPTH STEP
~WELL INFORMATION
#MNEM.UNIT      DATA TYPE    INFORMATION
#----------   ------------   ------------------------------
 STRT.F           82.0000:   START DEPTH
 STOP.F         1194.0000:   STOP DEPTH
 STEP.F            0.5000:   STEP LENGTH
 NULL.          -999.2500:   NO VALUE
 COMP.       INTEX OIL CO:   COMPANY
 WELL.   76S-11 NPR #3-11:   WELL
 FLD .             TEAPOT:   FIELD
 LOC .      S11 T38N R78W:   LOCATION
 CNTY.            NATRONA:   COUNTY
 STAT.            WYOMING:   STATE
 CTRY. UNITED STATES OF AMERICA:   COUNTRY
 SRVC.       Schlumberger:   SERVICE COMPANY
 DATE.        30-AUG-1966:   LOGDATE
 API .       490250972800:   API NUMBER
~CURVE INFORMATION
#MNEM.UNIT       API CODE    CURVE DESCRIPTION
#----------   ------------   ------------------------------
 DEPT.F                  :   
 SPR .MV     05 010 01 00:   SPONTANEOUS POTENTIAL FROM RES.
 CILD.MMHO   05 110 46 00:   CONDUCTIVITY INDUCTION LOG DEEP
 ILD .OHMM   05 120 46 00:   INDUCTION LOG DEEP
 ASN .OHMM   05 041 16 00:   AMPLIFIED SHORT NORMAL 16"
 CALD.IN     45 280 60 00:   CALIPER FROM DENSITY LOG
 CORR.G/C3   45 356 01 00:   DENSITY CORRECTION
 RHOB.G/C3   45 350 01 00:   BULK DENSITY
 DPHI.DEC    45 890 12 00:   DENSITY POROSITY SANDSTONE
 GRD .GAPI   45 310 01 00:   GAMMA RAY FROM DENSITY LOG
~PARAMETER INFORMATION
#MNEM.UNIT          VALUE    DESCRIPTION
#----------   ------------   ------------------------------
 PD  .                 GL:   PERMANENT DATUM
 EPD .F              5261:   ELEVATION PERMANENT DATUM
 LMF .                 KB:   LOG MEASURED FROM
 DAPD.F                 5:   FEET ABOVE PERMANENT DATUM
 DMF .                 KB:   DRILLING MEASURED FROM
 EKB .F              5266:   KELLING BUSHING
 EGL .F              5261:   GROUND LEVEL
 DATE.            8-30-66:   RUN DATE
 RUN .                  1:   RUN NUMBER
 DD  .F              1191:   DEPTH DRILLER
 DL  .F              1191:   DEPTH LOGGER
 BLI .F              1190:   BOTTOM LOG INTERVAL
 TLI .F                87:   TOP LOG INTERVAL
 CS  .IN            8.625:   CASING SIZE
 CBD .F                10:   CASING BOTTOM DRILLER
 BS  .IN             6.75:   BIT SIZE
 BSD .F              1191:   BIT SIZE AT DEPTH
 DFT .           CHEM-GEL:   DRILLING FLUID TYPE
 DFD .                9.8:   DRILLING FLUID DENSITY
 DFV .                 60:   DRILLING FLUID VISCOSITY
 MSS .         CIRCULATED:   MUD SAMPLE SOURCE
 RMS .OHMM            .76:   RESISTIVITY MUD SAMPLE
 MST .F                85:   MUD SAMPLE TEMPERATURE
 RMF .OHMM            .46:   RESISTIVITY MUD FILTRATE SAMPLE
 MFST.F                88:   MUD FILTRATE SAMPLE TEMPERATURE
 MFSS.                  M:   MUD FILTRATE SAMPLE SOURCE
 RMB .OHMM           .695:   RESISTIVITY MUD AT BHT
 BHT .F                93:   BOTTOM HOLE TEMPERATURE
 TCS .HRS               1:   TIME CURCULATED STOPPED
 MRT .F                93:   MAXIMUM RECORDED TEMPERATURE
 LUN .               3527:   LOGGING UNIT NUMBER
 LUL .               CSPR:   LOGGING UNIT LOCATION
 ENGI.               HAUG:   RECORDING ENGINEER
 WITN.                MAY:   WITNESSED BY
 CLNT.            A2DTECH:   CLIENT CODE
 ORIG. 2", 2.5", 5" PRINT:   ORIGIN OF DATA
 UWI .       490250972800:   UNIQUE WELL ID
 DICO. A2D Technologies, Inc.:   DIGITIZING COMPANY
~OTHER INFORMATION
~A   DEPT      SPR        CILD       ILD          ASN     CALD       CORR       RHOB       DPHI        GRD   
# ...
  483.5000   -51.8418   200.7708     5.1650     6.2267  -999.2500  -999.2500  -999.2500  -999.2500   107.5971
  484.0000   -51.8445   200.3621     5.1804     6.1508  -999.2500  -999.2500  -999.2500  -999.2500   111.5198
  484.5000   -51.9411   199.3086     5.1938     6.0990  -999.2500  -999.2500  -999.2500  -999.2500   111.4404
  485.0000   -52.0147   196.3573     5.2101     6.0989  -999.2500  -999.2500  -999.2500  -999.2500   110.1181
  485.5000   -52.0991   194.1118     5.2215     6.0979  -999.2500  -999.2500  -999.2500  -999.2500   111.0951
  486.0000   -52.1776   194.1118     5.2428     6.1002  -999.2500  -999.2500  -999.2500  -999.2500   111.9325
  486.5000   -52.2601   199.6008     5.1858     6.0842  -999.2500  -999.2500  -999.2500  -999.2500   111.5417
  487.0000   -52.3392   213.3233     4.8800     6.0226  -999.2500  -999.2500  -999.2500  -999.2500   110.5959
  487.5000   -52.4230   226.2974     4.5209     5.9589  -999.2500  -999.2500  -999.2500  -999.2500   109.6297
  488.0000   -52.4980   239.2715     4.1706     5.8054  -999.2500  -999.2500  -999.2500  -999.2500   110.0280
  488.5000   -52.5872   256.7722     3.8127     5.4662  -999.2500  -999.2500  -999.2500  -999.2500   110.6980
  489.0000   -52.5993   287.8529     3.4654     5.1213  -999.2500  -999.2500  -999.2500  -999.2500   109.7420
  489.5000   -52.6269   318.9336     3.0990     4.7720  -999.2500  -999.2500  -999.2500  -999.2500   108.2851
  490.0000   -52.4171   350.0143     2.8396     4.4296  -999.2500  -999.2500  -999.2500  -999.2500   108.1345
  490.5000   -52.0379   367.3653     2.7534     4.0745  -999.2500  -999.2500  -999.2500  -999.2500   109.8776
  491.0000   -51.7870   380.1397     2.7608     3.7976  -999.2500  -999.2500  -999.2500  -999.2500   111.3672
  491.5000   -51.6185   388.7226     2.7941     3.7198  -999.2500  -999.2500  -999.2500  -999.2500   112.9323
  492.0000   -51.5562   379.9900     2.8222     3.7048     7.3214  -999.2500  -999.2500  -999.2500   112.4527
  492.5000   -51.3837   322.5851     3.0604     4.3008     7.3214  -999.2500  -999.2500  -999.2500   111.1604
  493.0000   -51.4151   298.0342     3.3623     4.5856     7.3214  -999.2500  -999.2500  -999.2500   109.9531
  493.5000   -51.3846   286.3004     3.5171     4.7346     7.3214  -999.2500  -999.2500  -999.2500   109.0298
  494.0000   -51.5545   261.2079     3.8161     5.0149     7.3214  -999.2500  -999.2500  -999.2500   110.8355
  494.5000   -52.1020   236.6570     4.1159     5.3235     7.3214  -999.2500  -999.2500  -999.2500   110.9054
  495.0000   -52.3498   217.0659     4.4211     5.5639     7.3214  -999.2500  -999.2500  -999.2500   109.5493
  495.5000   -52.7755   206.0878     4.6059     5.7388     7.3215  -999.2500  -999.2500  -999.2500   107.8382
  496.0000   -53.3645   201.0408     4.6973     5.9301     7.3214  -999.2500  -999.2500  -999.2500   105.9281
  496.5000   -53.3903   196.8064     4.7998     6.1333     7.3214  -999.2500  -999.2500  -999.2500   105.1591
  497.0000   -53.0349   192.1158     4.8969     6.2325     7.3214  -999.2500  -999.2500  -999.2500   105.7983
  497.5000   -53.0194   186.6268     4.9957     6.3237     7.3214  -999.2500  -999.2500  -999.2500   107.2653
  498.0000   -53.3716   181.9057     5.0959     6.4057     7.3214  -999.2500  -999.2500  -999.2500   109.3326
  498.5000   -53.7601   177.8248     5.1911     6.5753     7.3214  -999.2500  -999.2500  -999.2500   108.7640
  499.0000   -53.8432   173.7438     5.2973     6.7373     7.3214  -999.2500  -999.2500  -999.2500   107.8948
  499.5000   -53.6023   169.6629     5.3332     6.8766     7.3214  -999.2500  -999.2500  -999.2500   106.9441
  500.0000   -53.4928   165.1697     5.3015     6.9642     7.3214     0.0259  -999.2500     0.1390   106.0881
  500.5000   -53.7043   165.1697     5.2812     7.0687     7.3214     0.0320     2.4333     0.1363   105.1304
  501.0000   -54.0543   167.0581     5.2559     7.1220     7.3214     0.0345     2.4419     0.1273   104.3344
  501.5000   -54.3140   170.7053     5.2320     7.0956     7.3214     0.0427     2.4506     0.1190   101.8401
  502.0000   -54.1281   174.3524     5.2097     6.9947     7.3214     0.0518     2.4586     0.1166   102.5890
  502.5000   -53.4722   178.1437     5.1822     6.8612     7.3214     0.0393     2.4417     0.1294   105.3932
  503.0000   -53.4404   184.2066     5.1668     6.7363     7.3214     0.0242     2.4211     0.1400   106.8412
  503.5000   -53.7440   190.5190     5.1075     6.5261     7.3214     0.0241     2.4178     0.1405   107.4705
  504.0000   -53.8667   196.8313     4.8123     6.3321     7.3214     0.0185     2.4140     0.1465   105.7723
  504.5000   -53.6409   203.0938     4.5356     6.1413     7.3214     0.0121     2.4157     0.1459   104.1365
  505.0000   -53.3671   213.2735     4.2547     5.9334     7.3214     0.0202     2.4159     0.1443   102.0506
  505.5000   -53.1508   230.1794     3.9810     5.7012     7.3214     0.0238     2.4073     0.1434   102.1841
  506.0000   -53.1702   251.7351     3.6948     5.4842     7.3214     0.0097     2.3789     0.1698   102.4957
  506.5000   -53.3195   273.3450     3.4311     5.2508     7.3214     0.0021     2.3802     0.1694   103.5846
  507.0000   -53.0232   294.9342     3.1149     4.9895     7.3214     0.0119     2.3721     0.1671   104.8665
  507.5000   -52.6206   308.8131     2.9191     4.6625     7.3214     0.0115     2.3563     0.1797   106.1610
  508.0000   -52.5438   306.7635     2.9134     4.3598     7.3214     0.0203     2.3607     0.1778   107.5742
  508.5000   -52.3858   303.7470     2.8859     4.4495     7.3214     0.0360     2.3703     0.1746   108.1198
  509.0000   -52.2657   302.3551     2.8484     4.4859     7.3214     0.0520     2.3529     0.1734   107.4966
  509.5000   -52.1318   300.9880     2.8921     4.3280     7.3214     0.0554     2.3280     0.2010   107.0269
  510.0000   -52.2246   299.9002     2.9836     4.3140     7.3214     0.0409     2.3367     0.1994   106.9915
  510.5000   -52.4720   286.0665     3.3097     4.6210     7.3214     0.0232     2.3697     0.1698   106.9119
  511.0000   -52.7641   263.5103     3.7686     4.9656     7.3214     0.0303     2.4228     0.1505   105.7754
  511.5000   -53.0525   240.9541     4.1698     5.1718     7.3214     0.0407     2.4173     0.1421   104.6532
  512.0000   -53.2750   221.4527     4.3944     5.2800     7.3214     0.0278     2.4228     0.1442   103.1617
  512.5000   -53.1112   201.0978     4.4273     5.3870     7.3214     0.0362     2.4315     0.1353   102.4431
  513.0000   -52.9097   203.7705     4.5048     5.4177     7.3214     0.0417     2.4389     0.1316   103.1656
  513.5000   -53.0601   210.3353     4.5274     5.4304     7.3215     0.0346     2.4379     0.1321   104.3807
  514.0000   -53.2975   214.5553     4.4321     5.4553     7.3215     0.0420     2.4372     0.1323   103.9534
  514.5000   -53.1222   215.6775     4.3434     5.4323     7.3214     0.0459     2.4422     0.1313   103.5595
  515.0000   -52.9951   215.2445     4.2681     5.3549     7.3216     0.0415     2.4359     0.1316   103.2526
  515.5000   -52.6801   214.0719     4.1953     5.2888     7.3213     0.0375     2.4224     0.1381   104.1373
  516.0000   -52.5272   219.0619     4.1255     5.1950     7.3206     0.0331     2.4115     0.1410   104.9430
  516.5000   -52.6528   236.9461     4.0238     5.0246     7.3104     0.0340     2.4014     0.1498   105.6902
  517.0000   -52.6677   258.9820     3.5975     4.8935     7.3016     0.0358     2.3915     0.1571   106.1892
  517.5000   -52.3540   307.0506     3.0804     4.5748     7.2928     0.0331     2.3824     0.1644   104.1235
  518.0000   -51.8794   359.9260     2.5780     4.1343     7.2827     0.0304     2.3695     0.1702   102.2648
  518.5000   -51.7984   412.8015     2.0868     3.7607     7.2801     0.0333     2.3590     0.1797   101.4456
  519.0000   -52.1259   468.5629     1.8482     3.3405     7.2749     0.0454     2.3469     0.1876   102.1154
  519.5000   -52.2055   486.5269     1.7208     3.0400     7.2705     0.0637     2.3335     0.1944   103.6183
