~VERSION INFORMATION
 VERS.                2.0:   CWLS LOG ASCII STANDARD - VERSION 2.0
 WRAP.                 NO:   ONE LINE PER DEPTH STEP
~WELL INFORMATION
#MNEM.UNIT      DATA TYPE    INFORMATION
#----------   ------------   ------------------------------
 STRT.F           20.0000:   START DEPTH
 STOP.F          600.0000:   STOP DEPTH
 STEP.F            0.5000:   STEP LENGTH
 NULL.          -999.2500:   NO VALUE
 COMP. FENIX & SCISSON INC:   COMPANY
 WELL. TEAPOT DOME #23 SX 3-4:   WELL
 FLD .             TEAPOT:   FIELD
 LOC .       S4 T38N R78W:   LOCATION
 CNTY.            NATRONA:   COUNTY
 STAT.            WYOMING:   STATE
 CTRY. UNITED STATES OF AMERICA:   COUNTRY
 SRVC.            Unknown:   SERVICE COMPANY
 DATE.        31-JUL-1978:   LOGDATE
 API .       490251067600:   API NUMBER
~CURVE INFORMATION
#MNEM.UNIT       API CODE    CURVE DESCRIPTION
#----------   ------------   ------------------------------
 DEPT.F                  :   
 CALD.IN     45 280 60 00:   CALIPER FROM DENSITY LOG
 GRD .GAPI   45 310 01 00:   GAMMA RAY FROM DENSITY LOG
 CORR.G/C3   45 356 01 00:   DENSITY CORRECTION
 DPHI.DEC    45 890 12 00:   DENSITY POROSITY SANDSTONE
 RHOB.G/C3   45 350 01 00:   BULK DENSITY
 SPR .MV     07 010 01 00:   SPONTANEOUS POTENTIAL
 ILD .OHMM   07 120 46 00:   INDUCTION LOG DEEP
 SN  .OHMM   07 040 16 00:   SHORT NORMAL 16"
 CILD.MMHO   07 110 46 00:   CONDUCTIVITY INDUCTION LOG DEEP
~PARAMETER INFORMATION
#MNEM.UNIT          VALUE    DESCRIPTION
#----------   ------------   ------------------------------
 PD  .                 GL:   PERMANENT DATUM
 EPD .F              5181:   ELEVATION PERMANENT DATUM
 LMF .                 KB:   LOG MEASURED FROM
 DAPD.F                 4:   FEET ABOVE PERMANENT DATUM
 DMF .                 KB:   DRILLING MEASURED FROM
 EKB .F              5185:   KELLING BUSHING
 EGL .F              5181:   GROUND LEVEL
 DATE.        31-JUL-1978:   RUN DATE
 RUN .                  1:   RUN NUMBER
 DD  .F               595:   DEPTH DRILLER
 DL  .F               606:   DEPTH LOGGER
 BLI .F               600:   BOTTOM LOG INTERVAL
 TLI .F                40:   TOP LOG INTERVAL
 CBL .F                45:   CASING BOTTOM LOGGER
 BS  .IN            7.875:   BIT SIZE
 BSD .F               595:   BIT SIZE AT DEPTH
 DFT .                KCL:   DRILLING FLUID TYPE
 DFD .                9.0:   DRILLING FLUID DENSITY
 DFV .                 36:   DRILLING FLUID VISCOSITY
 DFPH.                9.0:   DRILLING FLUID PH
 DFL .                8.0:   DRILLING FLUID LOSS
 MSS .           FLOWLINE:   MUD SAMPLE SOURCE
 BHT .F                74:   BOTTOM HOLE TEMPERATURE
 TCS .HRS            0500:   TIME CURCULATED STOPPED
 MRT .F                74:   MAXIMUM RECORDED TEMPERATURE
 LUN .               2958:   LOGGING UNIT NUMBER
 LUL .               CASP:   LOGGING UNIT LOCATION
 ENGI.            POINTER:   RECORDING ENGINEER
 WITN.              AMEND:   WITNESSED BY
 CLNT.            A2DTECH:   CLIENT CODE
 ORIG.           5" PRINT:   ORIGIN OF DATA
 UWI .       490251067600:   UNIQUE WELL ID
 DICO. A2D Technologies, Inc.:   DIGITIZING COMPANY
~OTHER INFORMATION
~A   DEPT     CALD        GRD       CORR       DPHI       RHOB        SPR        ILD         SN       CILD   
# ...
   93.0000     7.6349   111.0308     0.0160     0.1082     2.4784   -31.2006     6.1735     8.3150   154.7212
   93.5000     7.6363   113.1290     0.0153     0.1085     2.4777   -31.6353     6.1773     8.3261   152.3696
   94.0000     7.6376   103.7859     0.0169     0.0947     2.5017   -31.7733     6.2672     8.3818   150.0388
   94.5000     7.6390   104.9926     0.0214     0.0698     2.5288   -31.7628     6.3583     8.3865   147.7080
   95.0000     7.6403   107.9823     0.0268     0.0874     2.5363   -31.7522     6.4955     8.4493   143.8791
   95.5000     7.6264   105.9201     0.0246     0.1015     2.4915   -31.7416     6.5899     8.4540   141.4332
   96.0000     7.5981   109.2070     0.0104     0.1218     2.4488   -30.9882     6.7321     8.4588   138.3073
   96.5000     7.5994   108.1848    -0.0001     0.1062     2.4654   -30.5318     6.8773     8.4635   134.6119
   97.0000     7.6008   105.3751     0.0061     0.0974     2.4977   -30.6699     6.9773     8.4683   132.3248
   97.5000     7.6021   108.3061     0.0169     0.0963     2.5007   -30.9591     7.1278     8.5317   129.9989
   98.0000     7.6035   110.0173     0.0189     0.1119     2.4739   -31.3944     7.1808     8.5365   129.1663
   98.5000     7.6048   103.3091     0.0068     0.1139     2.4612   -31.5324     7.2852     8.5413   129.0827
   99.0000     7.5909   102.9123     0.0063     0.1150     2.4598   -31.3730     7.2944     8.5461   129.7691
   99.5000     7.5926   102.5974     0.0063     0.1153     2.4644   -31.0654     7.2942     8.6101   131.1628
  100.0000     7.6088    98.6478     0.0064     0.1180     2.4554   -30.6092     7.2485     8.6734   131.8491
  100.5000     7.6102   101.6376     0.0073     0.1173     2.4533   -30.9001     7.2025     8.3843   132.5214
  101.0000     7.5962   106.7857     0.0080     0.1174     2.4533   -31.0411     6.9636     8.4457   134.8464
  101.5000     7.5979   107.9762     0.0089     0.1191     2.4519   -31.1822     6.7315     8.4498   138.5747
  102.0000     7.5839   108.8690     0.0090     0.1233     2.4556   -31.3232     6.6424     8.4539   140.5555
  102.5000     7.6006   111.9940     0.0090     0.1160     2.4657   -31.4643     6.6008     8.4580   140.4869
  103.0000     7.6170   112.7381     0.0099     0.1130     2.4686   -31.4548     6.5595     8.4621   140.4183
  103.5000     7.6334   110.2083     0.0099     0.1134     2.4657   -31.4473     6.6552     8.4663   141.1011
  104.0000     7.6347   114.6726     0.0100     0.1157     2.4650   -31.2927     6.7581     8.5291   140.2812
  104.5000     7.6361   116.0119     0.0101     0.1177     2.4681   -31.2709     6.9007     8.5924   137.9655
  105.0000     7.6372   111.9940     0.0102     0.1192     2.4682   -31.1292     7.0462     8.7162   134.1516
  105.5000     7.6235   107.0927     0.0102     0.1192     2.4630   -31.1218     7.2481     8.7809   131.8358
  106.0000     7.5799   104.4097     0.0103     0.1078     2.4721   -31.1142     7.3535     8.9691   129.5201
  106.5000     7.5211   102.4775     0.0104     0.0946     2.5027   -31.1067     7.3582     9.0356   127.9534
  107.0000     7.4627   100.8457     0.0120     0.0939     2.5013   -31.0991     7.3628     9.0401   127.1358
  107.5000     7.4640   104.0186     0.0143     0.0984     2.4894   -31.0916     7.3675     9.0445   124.8200
  108.0000     7.4654   108.9933     0.0121     0.1026     2.4767   -30.3430     7.4232     9.0490   123.2533
  108.5000     7.4517   110.9650     0.0114     0.1037     2.4933   -31.6708     7.4794     9.0534   123.1985
  109.0000     7.4378   110.6845     0.0130     0.0923     2.5008   -31.9624     7.5360     9.0570   123.8824
  109.5000     7.4092   109.2027     0.0146     0.0938     2.5009   -30.6175     7.6456     9.0613   123.0637
  110.0000     7.3809   106.6700     0.0154     0.0963     2.4965   -31.6482     7.8105     9.0033   122.2472
  110.5000     7.3670   103.8369     0.0147     0.0983     2.4981   -31.6406     7.9790     9.0077   120.6805
  111.0000     7.3537   106.5593     0.0148     0.0966     2.5094   -31.1873     8.1614     8.9500   118.3648
  111.5000     7.3247   111.8294     0.0156     0.0937     2.5132   -30.8841     8.3336     8.8927   116.7981
  112.0000     7.2961   105.1031     0.0180     0.0877     2.5327   -31.1956     8.3887     8.8360   115.9976
  112.5000     7.2825   100.4576     0.0211     0.0568     2.5680   -31.6245     8.2219     8.8404   117.4272
  113.0000     7.3142   104.5666     0.0241     0.0578     2.5613   -31.9049     8.0585     8.7828   119.5886
  113.5000     7.3605   108.3049     0.0272     0.0924     2.5052   -32.0431     7.8983     8.7277   121.0354
  114.0000     7.4218   110.2766     0.0138     0.1223     2.4738   -32.0355     7.7412     8.6708   123.9459
  114.5000     7.5132   108.9450     0.0011     0.1211     2.4611   -32.0279     7.5873     8.6154   127.6398
  115.0000     7.5617   107.1630    -0.0011     0.1169     2.4619   -32.0204     7.4365     8.6207   126.8222
  115.5000     7.6055   103.1287     0.0020     0.1162     2.4620   -32.0128     7.2875     8.6249   131.9799
  116.0000     7.6069   103.2986     0.0050     0.1210     2.4621   -32.0053     7.1426     8.6890   134.1757
  116.5000     7.6082   105.7208     0.0081     0.1117     2.4644   -31.9977     7.0502     8.7535   134.1049
  117.0000     7.6246   109.0439     0.0112     0.1089     2.4750   -31.8416     7.1036     8.8175   133.2884
  117.5000     7.6260   110.4150     0.0128     0.1077     2.4803   -31.8340     7.2069     8.8289   132.4719
  118.0000     7.6123   103.3777     0.0129     0.1062     2.4826   -31.5293     7.3624     8.8872   130.9052
  118.5000     7.6137   102.6418     0.0137     0.1041     2.4879   -31.3732     7.4789     8.8915   130.0876
  119.0000     7.6151   106.4202     0.0145     0.0936     2.5014   -31.6628     7.5249     8.8959   129.2700
  119.5000     7.6164   107.9415     0.0142     0.1005     2.4775   -31.8057     7.4744     8.9003   128.4523
  120.0000     7.6328   112.4658     0.0070     0.1112     2.4694   -31.5007     7.3798     8.9046   128.3838
  120.5000     7.6342   116.3894     0.0050     0.1139     2.4672   -31.3448     7.3336     8.9090   128.3152
  121.0000     7.6355   113.7065     0.0035     0.1186     2.4650   -31.3373     7.3383     8.9134   128.2467
  121.5000     7.6216   109.4905     0.0029     0.1195     2.4666   -31.3298     7.3938     8.9178   128.1781
  122.0000     7.6079   116.1141     0.0059     0.1093     2.4756   -31.6194     7.3985     8.9221   128.8758
  122.5000     7.5793   117.5525     0.0105     0.1066     2.4854   -31.6118     7.4032     8.9265   128.7901
  123.0000     7.5660   120.5626     0.0121     0.1050     2.4885   -31.6043     7.3557     8.9309   128.7215
  123.5000     7.5674   124.3109     0.0129     0.1038     2.4923   -31.4482     7.3615     8.9353   128.6667
  124.0000     7.5688   119.0754     0.0138     0.1038     2.5006   -31.4406     7.3662     9.0016   128.5992
  124.5000     7.5851   116.6928     0.0138     0.1035     2.4902   -31.4331     7.3709     9.0684   128.5319
  125.0000     7.6037   114.1600     0.0147     0.0873     2.5045   -31.4255     7.3755     9.1348   128.4644
  125.5000     7.6343   109.6752     0.0155     0.0828     2.5173   -31.4180     7.3802     9.1458   129.1460
  126.0000     7.6948   111.4968     0.0148     0.0963     2.4986   -31.4104     7.4351     9.2070   126.0801
  126.5000     7.6797   113.9190     0.0089     0.1104     2.4779   -31.4029     7.4982     9.2753   123.0153
  127.0000     7.6066   115.7405     0.0044     0.1011     2.4974   -31.3953     7.6036     9.2799   121.4486
  127.5000     7.5930   117.8624     0.0075     0.0949     2.5170   -31.3893     7.7106     9.2844   122.8782
  128.0000     7.5793   116.3807     0.0144     0.0949     2.5229   -31.2333     7.8227     9.3533   122.8096
  128.5000     7.5656   111.8959     0.0175     0.0937     2.5252   -31.2259     7.8819     9.3579   122.7411
  129.0000     7.5671   114.3181     0.0183     0.0912     2.5320   -31.2184     7.9415     9.3625   121.1744
