~VERSION INFORMATION
 VERS.                2.0:   CWLS LOG ASCII STANDARD - VERSION 2.0
 WRAP.                 NO:   ONE LINE PER DEPTH STEP
~WELL INFORMATION
#MNEM.UNIT      DATA TYPE    INFORMATION
#----------   ------------   ------------------------------
 STRT.F         1500.0000:   START DEPTH
 STOP.F         3480.0000:   STOP DEPTH
 STEP.F            0.5000:   STEP LENGTH
 NULL.          -999.2500:   NO VALUE
 COMP. FLUOR DANIEL (NOPSR). INC.:   COMPANY
 WELL.   22-STX-26 #22-26:   WELL
 FLD .             NPR #3:   FIELD
 LOC .      S26 T38N R78W:   LOCATION
 CNTY.            NATRONA:   COUNTY
 STAT.            WYOMING:   STATE
 CTRY. UNITED STATES OF AMERICA:   COUNTRY
 SRVC.            Unknown:   SERVICE COMPANY
 DATE.        14-JUN-1995:   LOGDATE
 API .       490252272400:   API NUMBER
~CURVE INFORMATION
#MNEM.UNIT       API CODE    CURVE DESCRIPTION
#----------   ------------   ------------------------------
 DEPT.F                  :   
 ROP .MIN/FT 91 810 01 00:   RATE OF DRILLING PENETRATION
 TGAS.UNITS  91 830 01 00:   TOTAL GAS FROM HOTWIRE
~PARAMETER INFORMATION
#MNEM.UNIT          VALUE    DESCRIPTION
#----------   ------------   ------------------------------
 EKB .F              5348:   KELLING BUSHING
 EGL .F              5338:   GROUND LEVEL
 DATE.            6-14-95:   RUN DATE
 DD  .F              3480:   DEPTH DRILLER
 BLI .F              3480:   BOTTOM LOG INTERVAL
 TLI .F              1500:   TOP LOG INTERVAL
 CS  .IN            9.625:   CASING SIZE
 CBD .F                87:   CASING BOTTOM DRILLER
 ENGI.               HUSK:   RECORDING ENGINEER
 WITN.              TOWER:   WITNESSED BY
 CLNT.            A2DTECH:   CLIENT CODE
 ORIG.           5" PRINT:   ORIGIN OF DATA
 UWI .       490252272400:   UNIQUE WELL ID
 DICO. A2D Technologies, Inc.:   DIGITIZING COMPANY
~OTHER INFORMATION
~A  DEPT         ROP       TGAS 
# ...
 2836.5000     0.5795    10.7766
 2837.0000     0.5800    10.7757
 2837.5000     0.5805    10.7749
 2838.0000     0.5809    10.7741
 2838.5000     0.5814    10.7733
 2839.0000     0.5819    10.7725
 2839.5000     0.5823    10.7716
 2840.0000     0.5828    10.7708
 2840.5000     0.5833    10.7700
 2841.0000     0.5838    10.7692
 2841.5000     0.5842    10.7684
 2842.0000     0.5847    10.7675
 2842.5000     0.5852    10.7667
 2843.0000     0.5856    10.7659
 2843.5000     0.5861    10.7651
 2844.0000     0.5866    10.7642
 2844.5000     0.5871    10.7634
 2845.0000     0.5875    10.7626
 2845.5000     0.5880    10.7618
 2846.0000     0.5885    10.7610
 2846.5000     0.5889    10.7601
 2847.0000     0.5894    10.7593
 2847.5000     0.5899    10.7585
 2848.0000     0.5904    10.7577
 2848.5000     0.5908    10.7569
 2849.0000     0.5913    10.7560
 2849.5000     0.5918    10.7552
 2850.0000     0.5922    10.7544
 2850.5000     0.5927    10.7536
 2851.0000     0.5932    10.7527
 2851.5000     0.5937    10.7519
 2852.0000     0.5941    10.7511
 2852.5000     0.5946    10.7503
 2853.0000     0.5951    10.7495
 2853.5000     0.5955    10.7486
 2854.0000     0.5960    10.7478
 2854.5000     0.5965    10.7470
 2855.0000     0.5970    10.7462
 2855.5000     0.5974    10.7454
 2856.0000     0.5979    10.7445
 2856.5000     0.5984    10.7437
 2857.0000     0.5988    10.7429
 2857.5000     0.5993    10.7421
 2858.0000     0.5998    10.7413
 2858.5000     0.6003    10.7404
 2859.0000     0.6007    10.7396
 2859.5000     0.6012    10.7388
 2860.0000     0.6017    10.7380
 2860.5000     0.6021    10.7371
 2861.0000     0.6026    10.7363
 2861.5000     0.6031    10.7355
 2862.0000     0.6036    10.7347
 2862.5000     0.6040    10.7339
 2863.0000     0.6045    10.7330
 2863.5000     0.6050    10.7322
 2864.0000     0.6055    10.7314
 2864.5000     0.6059    10.7306
 2865.0000     0.6064    10.7298
 2865.5000     0.6069    10.7289
 2866.0000     0.6073    10.7281
 2866.5000     0.6078    10.7273
 2867.0000     0.6083    10.7265
 2867.5000     0.6088    10.7257
 2868.0000     0.6092    10.7248
 2868.5000     0.6097    10.7240
 2869.0000     0.6102    10.7232
 2869.5000     0.6106    10.7224
 2870.0000     0.6111    10.7215
 2870.5000     0.7060    10.7207
 2871.0000     0.7170    10.7199
 2871.5000     0.7174    10.7191
 2872.0000     0.7178    10.7183
 2872.5000     0.7175    10.7174
 2873.0000     0.7173    10.7166
 2873.5000     0.7171    10.7158
 2874.0000     0.7169    10.7150
 2874.5000     0.7166    10.7142
 2875.0000     0.7164    10.7133
 2875.5000     0.7162    10.7125
 2876.0000     0.7160    10.7117
 2876.5000     0.7158    10.7109
 2877.0000     0.7155    10.7100
 2877.5000     0.7153    10.7092
 2878.0000     0.7151    10.7084
 2878.5000     0.7149    10.7076
 2879.0000     0.7147    10.7068
 2879.5000     0.7144    10.7059
 2880.0000     0.7142    10.7051
 2880.5000     0.7140    10.7043
 2881.0000     0.7138    10.7035
 2881.5000     0.7136    10.7027
 2882.0000     0.7133    10.7018
 2882.5000     0.7131    10.7010
 2883.0000     0.7129    10.7002
 2883.5000     0.7127    10.6994
 2884.0000     0.7125    10.6986
 2884.5000     0.7122    10.6977
 2885.0000     0.7120    10.6969
 2885.5000     0.7118    10.6961
 2886.0000     0.7116    10.6953
 2886.5000     0.7114    10.6944
 2887.0000     0.7111    10.6936
 2887.5000     0.7109    10.6928
 2888.0000     0.7107    10.6920
 2888.5000     0.7105    10.6912
 2889.0000     0.7103    10.6903
 2889.5000     0.7100    10.6895
 2890.0000     0.7098    10.6887
 2890.5000     0.7096    10.6879
 2891.0000     0.7094    10.6871
 2891.5000     0.7092    10.6862
 2892.0000     0.7089    10.6854
 2892.5000     0.7087    10.6846
 2893.0000     0.7085    10.6838
 2893.5000     0.7083    10.6829
 2894.0000     0.7081    10.6821
 2894.5000     0.7078    10.6813
 2895.0000     0.7076    10.6805
 2895.5000     0.7074    10.6797
 2896.0000     0.7072    10.6788
 2896.5000     0.7070    10.6780
 2897.0000     0.7068    10.6772
 2897.5000     0.7065    10.6764
 2898.0000     0.7063    10.6756
 2898.5000     0.7061    10.6747
 2899.0000     0.7059    10.6739
 2899.5000     0.7057    10.6731
 2900.0000     0.7054    10.6717
 2900.5000     0.7052    10.6676
 2901.0000     0.7050    10.6634
 2901.5000     0.7048    10.6592
 2902.0000     0.7046    10.6551
 2902.5000     0.7042    10.6509
 2903.0000     0.7036    10.6467
 2903.5000     0.7030    10.6426
 2904.0000     0.7024    10.6384
 2904.5000     0.7019    10.6343
 2905.0000     0.7013    10.6301
 2905.5000     0.7007    10.6259
 2906.0000     0.7001    10.6218
 2906.5000     0.6996    10.6176
 2907.0000     0.6990    10.6134
 2907.5000     0.6984    10.6093
 2908.0000     0.6978    10.6051
 2908.5000     0.6972    10.6009
 2909.0000     0.6967    10.5968
 2909.5000     0.6961    10.5926
 2910.0000     0.6955    10.5884
 2910.5000     0.6949    10.5843
 2911.0000     0.6944    10.5801
 2911.5000     0.6938    10.5759
 2912.0000     0.6932    10.5718
 2912.5000     0.6926    10.5676
 2913.0000     0.6921    10.5634
 2913.5000     0.6915    10.5593
 2914.0000     0.6909    10.5551
 2914.5000     0.6903    10.5510
 2915.0000     0.6898    10.5468
 2915.5000     0.6892    10.5426
 2916.0000     0.6886    10.5385
 2916.5000     0.6880    10.5343
 2917.0000     0.6874    10.5301
 2917.5000     0.6869    10.5260
 2918.0000     0.6863    10.5218
 2918.5000     0.6857    10.5176
 2919.0000     0.6851    10.5135
 2919.5000     0.6846    10.5093
 2920.0000     0.6840    10.5051
 2920.5000     0.6834    10.5010
 2921.0000     0.6828    10.4968
 2921.5000     0.6823    10.4926
 2922.0000     0.6817    10.4885
 2922.5000     0.6811    10.4843
 2923.0000     0.6805    10.4801
 2923.5000     0.6800    10.4760
 2924.0000     0.6794    10.4718
 2924.5000     0.6788    10.4676
 2925.0000     0.6782    10.4635
 2925.5000     0.6776    10.4593
 2926.0000     0.6771    10.4552
 2926.5000     0.6765    10.4510
 2927.0000     0.6759    10.4468
 2927.5000     0.6753    10.4427
 2928.0000     0.6748    10.4385
 2928.5000     0.6742    10.4343
 2929.0000     0.6736    10.4302
 2929.5000     0.6730    10.4260
 2930.0000     0.6725    10.4218
 2930.5000     0.6719    10.4177
 2931.0000     0.6713    10.4135
 2931.5000     0.7757    10.4093
 2932.0000     0.7757    10.4052
 2932.5000     0.7652    10.4010
 2933.0000     0.7652    10.3968
 2933.5000     0.7652    10.3927
 2934.0000     0.7652    10.3885
 2934.5000     0.7652    10.3843
 2935.0000     0.7652    10.3802
 2935.5000     0.7652    10.3760
 2936.0000     0.5870    10.3719
 2936.5000     0.5870    10.3677
 2937.0000     0.5765    10.3635
 2937.5000     0.5765    10.3594
 2938.0000     0.5765    10.3552
 2938.5000     0.5660    10.3510
 2939.0000     0.5556    10.3469
 2939.5000     0.5556    10.3427
 2940.0000     0.8805    10.3385
 2940.5000     0.8805    10.3344
 2941.0000     0.8805    10.3302
 2941.5000     0.8805    10.3260
 2942.0000     0.7757    10.3219
 2942.5000     0.7652    10.3177
 2943.0000     0.7652    10.3135
 2943.5000     0.7652    10.3094
 2944.0000     0.7652    10.3052
 2944.5000     0.7652    10.3010
 2945.0000     0.7652    10.2969
 2945.5000     0.7652    10.2927
 2946.0000     0.7652    10.2885
 2946.5000     0.7652    10.2844
 2947.0000     0.7652    10.2802
 2947.5000     0.7652    10.2761
 2948.0000     0.9644    10.2719
 2948.5000     0.9644    10.2677
 2949.0000     0.9644    10.2636
 2949.5000     0.9644    10.2594
 2950.0000     0.7233    10.2552
 2950.5000     0.7338    10.2511
 2951.0000     0.7442    10.2469
 2951.5000     0.7442    10.2427
 2952.0000     0.7442    10.2386
 2952.5000     0.7442    10.2344
 2953.0000     0.7442    10.2302
 2953.5000     0.7442    10.2261
 2954.0000     0.7442    10.2219
 2954.5000     0.7442    10.2177
 2955.0000     0.7442    10.2136
 2955.5000     0.7442    10.2094
 2956.0000     0.7442    10.2052
 2956.5000     0.7442    10.2011
 2957.0000     0.7442    10.1969
 2957.5000     0.7442    10.1927
