~VERSION INFORMATION
 VERS.                2.0:   CWLS LOG ASCII STANDARD - VERSION 2.0
 WRAP.                 NO:   ONE LINE PER DEPTH STEP
~WELL INFORMATION
#MNEM.UNIT      DATA TYPE    INFORMATION
#----------   ------------   ------------------------------
 STRT.F           20.0000:   START DEPTH
 STOP.F          610.0000:   STOP DEPTH
 STEP.F            0.5000:   STEP LENGTH
 NULL.          -999.2500:   NO VALUE
 COMP. LAWRENCE/ALLISON INC:   COMPANY
 WELL.    44-55 SX #10-10:   WELL
 FLD .             TEAPOT:   FIELD
 LOC .      S10 T38N R78W:   LOCATION
 CNTY.            NATRONA:   COUNTY
 STAT.            WYOMING:   STATE
 CTRY. UNITED STATES OF AMERICA:   COUNTRY
 SRVC.            Unknown:   SERVICE COMPANY
 DATE.        29-AUG-1984:   LOGDATE
 API .       490251098300:   API NUMBER
~CURVE INFORMATION
#MNEM.UNIT       API CODE    CURVE DESCRIPTION
#----------   ------------   ------------------------------
 DEPT.F                  :   
 AC  .US/F   60 520 00 00:   ACOUSTIC SONIC
 SPR .MV     07 010 01 00:   SPONTANEOUS POTENTIAL
 RILD.OHMM   07 120 46 00:   INDUCTION LOG DEEP RESISTIVITY
 RILM.OHMM   07 120 44 00:   INDUCTION LOG MEDIUM RESISTIVITY
 RFOC.OHMM   07 220 04 00:   RESISTIVITY FOCUSED LOG
 GRD .GAPI   45 310 01 00:   GAMMA RAY FROM DENSITY LOG
 CALD.IN     45 280 60 00:   CALIPER
 DEN .G/C3   45 350 01 00:   COMPENSATED BULK DENSTIY
 CNC .DEC    42 890 03 00:   NEUTRON POROSITY SANDSTONE
 PORD.DEC    45 890 12 00:   DENSITY POROSITY SANDSTONE
 CORR.G/C3   45 356 01 00:   DENSITY CORRECTION
~PARAMETER INFORMATION
#MNEM.UNIT          VALUE    DESCRIPTION
#----------   ------------   ------------------------------
 PD  .                 GL:   PERMANENT DATUM
 EPD .F              5247:   ELEVATION PERMANENT DATUM
 LMF .                 KB:   LOG MEASURED FROM
 DAPD.F                13:   FEET ABOVE PERMANENT DATUM
 DMF .                 KB:   DRILLING MEASURED FROM
 EKB .F              5260:   KELLING BUSHING
 EGL .F              5247:   GROUND LEVEL
 DATE.        29-AUG-1984:   RUN DATE
 RUN .                  1:   RUN NUMBER
 DD  .F               613:   DEPTH DRILLER
 DL  .F               607:   DEPTH LOGGER
 BLI .F               607:   BOTTOM LOG INTERVAL
 TLI .F                42:   TOP LOG INTERVAL
 CBL .F                42:   CASING BOTTOM LOGGER
 BS  .IN            7.875:   BIT SIZE
 BSD .F               613:   BIT SIZE AT DEPTH
 DFT .          KCL WATER:   DRILLING FLUID TYPE
 MSS .               TANK:   MUD SAMPLE SOURCE
 RMS .OHMM           .295:   RESISTIVITY MUD SAMPLE
 MST .F                75:   MUD SAMPLE TEMPERATURE
 TCS .HRS               3:   TIME CURCULATED STOPPED
 MRT .F               100:   MAXIMUM RECORDED TEMPERATURE
 LUN .               4082:   LOGGING UNIT NUMBER
 LUL .               ROOS:   LOGGING UNIT LOCATION
 ENGI.             MILLER:   RECORDING ENGINEER
 WITN.            JOHNSON:   WITNESSED BY
 CLNT.            A2DTECH:   CLIENT CODE
 ORIG.       2", 5" PRINT:   ORIGIN OF DATA
 UWI .       490251098300:   UNIQUE WELL ID
 DICO. A2D Technologies, Inc.:   DIGITIZING COMPANY
~OTHER INFORMATION
~A   DEPT       AC        SPR       RILD       RILM       RFOC         GRD      CALD        DEN        CNC       PORD       CORR   
# ...
  508.0000    92.4950   -46.8820     9.6468    10.2495    11.3477   100.3955     7.8191     2.5335     0.2968     0.0896     0.0611
  508.5000    92.8443   -47.0165     9.4984    10.0735    11.1732   101.9361     7.8191     2.5253     0.3014     0.0935     0.0297
  509.0000    93.0439   -47.0188     9.3523     9.8689    11.0013   103.5290     7.8191     2.5153     0.3059     0.0996     0.0038
  509.5000    93.2435   -47.0208     9.1982     9.6684    10.8320   103.5188     7.8191     2.5051     0.3104     0.1040     0.0053
  510.0000    93.4794   -46.8949     9.0739     9.4720    10.6556   101.9519     7.8191     2.5031     0.3019     0.1040     0.0215
  510.5000    93.7516   -46.7272     8.9067     9.2797    10.5581    99.2527     7.8191     2.5124     0.3112     0.0988     0.0379
  511.0000    93.9989   -46.5597     8.7425     9.0913    10.4899    96.4575     7.8191     2.5210     0.3230     0.0948     0.0538
  511.5000    94.1882   -46.4388     8.5814     8.9064    10.3686    94.9915     7.8191     2.5172     0.3234     0.0994     0.0585
  512.0000    94.3774   -46.5746     8.4232     8.6945    10.2487    95.0092     7.8191     2.5062     0.2933     0.1056     0.0493
  512.5000    94.5667   -46.7067     8.2679     8.4785    10.1769    95.2366     7.8191     2.5030     0.2770     0.1076     0.0442
  513.0000    94.7576   -46.8376     8.1155     8.2679    10.3086    94.1436     7.8191     2.5025     0.2998     0.1004     0.0510
  513.5000    94.9499   -46.9704     7.9413     8.0627    10.4198    92.5073     7.8191     2.5205     0.3189     0.0913     0.0589
  514.0000    95.4828   -47.0359     7.7097     7.8625    10.4615    93.0012     7.8191     2.5398     0.3379     0.0820     0.0671
  514.5000    96.2160   -47.1306     7.4848     7.6673     9.7576    93.5779     7.8191     2.5425     0.3579     0.0824     0.0401
  515.0000    96.8898   -47.2222     7.2665     7.4769     9.2218    92.9209     7.8191     2.5287     0.3470     0.0905     0.0095
  515.5000    97.6347   -47.3136     7.1110     7.3773     8.8662    92.0886     7.8191     2.5170     0.3314     0.0996     0.0052
  516.0000    97.5848   -47.4050     7.1110     7.2429     8.8662    91.1648     7.8191     2.5132     0.3282     0.0980     0.0381
  516.5000    96.9611   -47.4965     7.5578     7.7427     9.4525    91.3150     7.8191     2.5199     0.3269     0.0948     0.0707
  517.0000    96.0462   -47.5879     7.8759     8.1772     9.8594    93.2991     7.8191     2.5227     0.3206     0.0953     0.0797
  517.5000    95.1314   -47.6794     8.2074     8.6361    10.2840    95.2756     7.8191     2.5199     0.3094     0.0968     0.0619
  518.0000    94.2166   -47.7710     8.5528     9.1207    10.7267    96.1887     7.8191     2.5206     0.2986     0.0953     0.0439
  518.5000    93.4376   -47.8625     8.9128     9.5923    11.1875    96.1623     7.8191     2.5228     0.2871     0.0940     0.0263
  519.0000    92.6447   -47.9523     9.2879    10.0066    11.6701    94.3804     7.8191     2.5213     0.2738     0.0953     0.0282
  519.5000    91.7811   -47.9636     9.6788    10.3658    11.9442    92.4073     7.8191     2.5194     0.2699     0.0964     0.0347
  520.0000    90.8214   -47.8226    10.0861    10.4175    12.1189    90.3887     7.8191     2.5281     0.2728     0.0913     0.0517
  520.5000    90.0000   -47.6841    10.1885    10.4850    12.1189    91.4503     7.8191     2.5381     0.2688     0.0864     0.0693
  521.0000    89.8004   -47.5452    10.2586    10.5530    12.1143    93.6028     7.8191     2.5336     0.2670     0.0860     0.0499
  521.5000    89.8210   -47.4065    10.2711    10.6214    12.1065    94.2247     7.8191     2.5284     0.2783     0.0920     0.0251
  522.0000    90.0558   -47.2667    10.3033    10.6902    12.0986    90.4053     7.8191     2.5231     0.2925     0.0950     0.0007
  522.5000    90.2906   -47.1995    10.3353    10.7595    12.0908    86.0992     7.8191     2.5180     0.2949     0.0979    -0.0039
  523.0000    90.5489   -47.1710    10.3674    10.8292    12.0830    86.9332     7.8191     2.5144     0.2930     0.0994    -0.0001
  523.5000    90.6331   -47.1431    10.3996    10.8533    12.0752    92.6362     7.8191     2.5131     0.2957     0.0992     0.0109
  524.0000    90.7267   -47.1152    10.4319    10.8183    12.0674    97.5611     7.8191     2.5236     0.2958     0.0935     0.0317
  524.5000    90.8210   -47.0870    10.4615    10.7943    12.0596   100.4727     7.8191     2.5324     0.2846     0.0896     0.0504
  525.0000    90.8491   -47.0595    10.4192    10.7705    12.0518   105.4652     7.8191     2.5265     0.2846     0.0920     0.0580
  525.5000    90.4826   -47.0307    10.3806    10.7440    12.0441   110.7761     7.8191     2.5189     0.2892     0.0967     0.0659
  526.0000    90.0763   -47.2306    10.3420    10.7105    12.0363   114.2888     7.8191     2.5166     0.2906     0.0992     0.0741
  526.5000    89.7505   -47.6399    10.3036    10.6773    12.0286   114.6863     7.8191     2.5199     0.2802     0.0970     0.0743
  527.0000    89.7921   -48.0495    10.2653    10.6442    12.0208   113.5175     7.8191     2.5226     0.2683     0.0945     0.0743
  527.5000    89.9539   -48.4596    10.2272    10.6113    12.0133   109.4605     7.8191     2.5250     0.2638     0.0920     0.0711
  528.0000    90.2994   -48.8706    10.1892    10.5784    11.9716   104.8043     7.8191     2.5304     0.2690     0.0895     0.0660
  528.5000    90.6461   -49.3090    10.1514    10.5458    11.8740   104.5606     7.8191     2.5359     0.2753     0.0880     0.0608
  529.0000    90.8541   -49.3971    10.1137    10.5132    11.7770   105.2504     7.8191     2.5294     0.2803     0.0916     0.0556
  529.5000    91.0023   -49.3634    10.1769    10.4828    11.6815   105.1587     7.8191     2.5211     0.2865     0.0961     0.0504
  530.0000    91.4450   -49.3277     9.9460    10.3066    11.6861   104.1869     7.8191     2.5147     0.2927     0.0989     0.0542
  530.5000    92.0137   -49.2927     9.5808     9.9427    11.2783   103.3651     7.8191     2.5150     0.2988     0.0991     0.0591
  531.0000    92.6401   -49.2576     9.2089     9.5917    10.8463   104.5058     7.8191     2.5147     0.3050     0.1006     0.0541
  531.5000    93.5764   -49.2238     8.8662     9.2531    10.4287   106.0768     7.8191     2.5042     0.3112     0.1067     0.0313
  532.0000    94.6163   -49.2440     8.2875     8.9480    10.0282   105.2870     7.8191     2.4931     0.3178     0.1128     0.0086
  532.5000    95.4776   -49.4227     7.7741     8.2649     9.6430   102.8624     7.8191     2.4857     0.3266     0.1151     0.0130
  533.0000    96.2326   -49.5953     7.2925     7.6722     9.2726   100.9061     7.8191     2.4852     0.3197     0.1159     0.0259
  533.5000    96.3850   -49.7678     6.8407     7.1083     8.9164   102.0654     7.8191     2.4846     0.3098     0.1168     0.0388
  534.0000    96.5369   -49.9404     6.1211     6.4769     8.5461   102.0884     7.8191     2.4823     0.3218     0.1177     0.0358
  534.5000    97.6472   -50.1133     4.9257     5.5196     8.0852   100.0628     7.8191     2.4713     0.3454     0.1249     0.0256
  535.0000    99.7804   -50.2831     4.3131     4.5826     7.5835    98.4605     7.8191     2.4569     0.3698     0.1363     0.0321
  535.5000   103.2235   -50.4023     3.7172     3.9510     6.7978   100.0294     7.8191     2.4234     0.3943     0.1567     0.0420
  536.0000   108.4346   -50.0129     3.1920     3.6563     5.8940   107.0717     7.8191     2.3860     0.4072     0.1811     0.0504
  536.5000   117.2954   -49.3296     3.1978     3.3773     4.8759   114.6314     7.8190     2.3475     0.3761     0.2055     0.0657
  537.0000   122.2997   -48.6419     3.1949     3.3464     4.0337   116.4468     7.8191     2.3093     0.3469     0.2349     0.0945
  537.5000   125.3792   -47.9554     3.2773     3.4738     3.8060   110.5018     7.8212     2.2851     0.3262     0.2317     0.1246
  538.0000   121.3456   -47.4138     3.3464     4.0055     4.1272   102.8272     7.7445     2.3245     0.3109     0.2057     0.0939
