~VERSION INFORMATION
 VERS.                2.0:   CWLS LOG ASCII STANDARD - VERSION 2.0
 WRAP.                 NO:   ONE LINE PER DEPTH STEP
~WELL INFORMATION
#MNEM.UNIT      DATA TYPE    INFORMATION
#----------   ------------   ------------------------------
 STRT.F           40.0000:   START DEPTH
 STOP.F          468.0000:   STOP DEPTH
 STEP.F            0.5000:   STEP LENGTH
 NULL.          -999.2500:   NO VALUE
 COMP. BROWN JOHN E&C INC:   COMPANY
 WELL. NAVAL PETROLEUM RESERVE 3 SX-1 #73-2-10:   WELL
 FLD .             TEAPOT:   FIELD
 LOC .      S10 T38N R78W:   LOCATION
 CNTY.            NATRONA:   COUNTY
 STAT.            WYOMING:   STATE
 CTRY. UNITED STATES OF AMERICA:   COUNTRY
 SRVC.     Atlas Wireline:   SERVICE COMPANY
 DATE.        05-MAY-1991:   LOGDATE
 API .       490251134000:   API NUMBER
~CURVE INFORMATION
#MNEM.UNIT       API CODE    CURVE DESCRIPTION
#----------   ------------   ------------------------------
 DEPT.F                  :   
 RILD.OHMM   07 120 46 00:   INDUCTION LOG DEEP RESISTIVITY
 RILM.OHMM   07 120 44 00:   INDUCTION LOG MEDIUM RESISTIVITY
 GRD .GAPI   45 310 01 00:   GAMMA RAY FROM DENSITY LOG
 CALD.IN     45 280 60 00:   CALIPER FROM DENSITY LOG
 CORR.G/C3   45 356 01 00:   DENSITY CORRECTION
 PORD.DEC    45 890 12 00:   POROSITY DENSITY SANDSTONE
 DEN .G/C3   45 350 01 00:   COMPENSATED BULK DENSTIY
~PARAMETER INFORMATION
#MNEM.UNIT          VALUE    DESCRIPTION
#----------   ------------   ------------------------------
 PD  .                 GL:   PERMANENT DATUM
 EPD .F              5178:   ELEVATION PERMANENT DATUM
 LMF .                 KB:   LOG MEASURED FROM
 DAPD.F                 5:   FEET ABOVE PERMANENT DATUM
 DMF .                 KB:   DRILLING MEASURED FROM
 EKB .F              5183:   KELLING BUSHING
 EGL .F              5178:   GROUND LEVEL
 DATE.        05-MAY-1991:   RUN DATE
 RUN .                  1:   RUN NUMBER
 DD  .F               470:   DEPTH DRILLER
 DL  .F               470:   DEPTH LOGGER
 BLI .F               468:   BOTTOM LOG INTERVAL
 TLI .F                 0:   TOP LOG INTERVAL
 CS  .IN            8.625:   CASING SIZE
 CBD .F                45:   CASING BOTTOM DRILLER
 CBL .F                45:   CASING BOTTOM LOGGER
 BS  .IN            7.875:   BIT SIZE
 BSD .F               470:   BIT SIZE AT DEPTH
 DFT .                AIR:   DRILLING FLUID TYPE
 LUN .            HL-6272:   LOGGING UNIT NUMBER
 LUL .             CASPER:   LOGGING UNIT LOCATION
 ENGI.            KINNETT:   RECORDING ENGINEER
 WITN.             STRONG:   WITNESSED BY
 CLNT.            A2DTECH:   CLIENT CODE
 ORIG.           5" PRINT:   ORIGIN OF DATA
 UWI .       490251134000:   UNIQUE WELL ID
 DICO. A2D Technologies, Inc.:   DIGITIZING COMPANY
~OTHER INFORMATION
~A   DEPT     RILD       RILM          GRD     CALD       CORR       PORD        DEN   
# ...
  267.5000    23.1889    25.8511    17.0313     8.5286    -0.0045     0.1404     2.4174
  268.0000    25.5537    27.7049     8.6417     8.5436    -0.0014     0.1873     2.3289
  268.5000    27.0102    28.8780     0.0000     8.5434     0.0062     0.2159     2.2855
  269.0000    27.3919    29.6856     0.0000     8.5282     0.0123     0.2354     2.2630
  269.5000    27.5714    29.4741     0.0000     8.5280     0.0139     0.2372     2.2560
  270.0000    27.1864    28.8603     7.7616     8.5279     0.0109     0.2348     2.2666
  270.5000    26.8077    28.0638    17.0725     8.5277     0.0050     0.2243     2.2809
  271.0000    26.8040    27.4795    19.8024     8.5125     0.0035     0.2192     2.2899
  271.5000    26.6149    27.0835    21.1708     8.5124     0.0081     0.2219     2.2846
  272.0000    26.4270    26.7154    18.4544     8.5122     0.0187     0.2369     2.2590
  272.5000    26.4234    26.8963    13.4687     8.5121     0.0293     0.2441     2.2477
  273.0000    26.2370    27.4557    13.0199     8.5119     0.0354     0.2399     2.2523
  273.5000    26.2334    28.6182    12.7998     8.5118     0.0323     0.2306     2.2711
  274.0000    26.5967    28.8133    11.6736     8.5116     0.0095     0.2261     2.2764
  274.5000    26.7786    29.4140     5.7802     8.5115     0.0056     0.2267     2.2748
  275.0000    27.7211    30.2350     2.1561     8.5113     0.0172     0.2219     2.2922
  275.5000    28.9129    31.2971     2.8437     8.5112     0.0403     0.2095     2.3449
  276.0000    30.1897    33.5414     8.5237     8.5110     0.0329     0.1641     2.4111
  276.5000    31.6179    35.3796    12.3882     8.5109     0.0224     0.1452     2.4157
  277.0000    32.7308    37.2082    12.8488     8.5107    -0.0061     0.1446     2.3916
  277.5000    33.8829    37.9858    10.5863     8.5106    -0.0105     0.1568     2.2989
  278.0000    35.0755    38.1569     3.1044     8.5104    -0.0059     0.2212     2.2123
  278.5000    35.5613    38.4229     0.3881     8.5102     0.0092     0.2720     2.2026
  279.0000    36.0551    38.6907     0.6264     8.4799     0.0168     0.2705     2.2056
  279.5000    36.3015    38.9603     4.5258     8.4496     0.0169     0.2573     2.2199
  280.0000    36.2953    38.9603     8.6385     8.4494     0.0154     0.2486     2.2417
  280.5000    36.2904    38.9603    10.8949     8.4493     0.0140     0.2462     2.2470
  281.0000    36.0343    38.9603    11.5414     8.4491     0.0141     0.2477     2.2417
  281.5000    35.5224    38.9603    10.1248     8.4490     0.0142     0.2480     2.2416
  282.0000    35.0081    38.6907     9.5126     8.4488     0.0142     0.2444     2.2462
  282.5000    34.3089    38.4229    10.8809     8.4487     0.0158     0.2420     2.2500
  283.0000    33.8310    37.6305     9.3009     8.4485     0.0161     0.2411     2.2530
  283.5000    33.3597    36.5994     7.7192     8.4484     0.0129     0.2450     2.2485
  284.0000    32.4412    35.5965     9.7683     8.4332     0.0130     0.2444     2.2470
  284.5000    31.9893    34.6211    13.6328     8.4330     0.0146     0.2387     2.2509
  285.0000    31.3253    33.2079    17.4974     8.4329     0.0162     0.2339     2.2687
  285.5000    30.6752    32.2979    20.6812     8.4478     0.0146     0.2125     2.2961
  286.0000    29.8306    31.8524    21.3687     8.4477     0.0133     0.2029     2.3166
  286.5000    29.0092    31.1955    19.5601     8.4475     0.0116     0.2032     2.3178
  287.0000    28.0152    30.1307    18.2053     8.4474     0.0074     0.2062     2.3133
  287.5000    26.8680    28.9008    20.9352     8.4472     0.0060     0.2095     2.3050
  288.0000    25.9329    28.0830    26.1613     8.4471     0.0106     0.2101     2.3027
  288.5000    25.2049    27.1243    25.7142     8.4469     0.0122     0.2086     2.3035
  289.0000    24.3675    26.2227    24.5847     8.4468     0.0168     0.2077     2.3080
  289.5000    23.8617    25.5041    29.1317     8.4466     0.0199     0.2059     2.3148
  290.0000    23.3665    24.8053    35.0386     8.4465     0.0199     0.1939     2.3532
  290.5000    22.7231    24.1256    36.6322     8.4312     0.0200     0.1777     2.3773
  291.0000    22.0974    23.4645    34.3714     8.4160     0.0201     0.1585     2.3870
  291.5000    21.4890    22.8216    28.9318     8.4158     0.0202     0.1559     2.3923
  292.0000    21.3374    22.3509    29.6194     8.4157     0.0202     0.1597     2.3863
  292.5000    21.4831    22.1962    31.8954     8.4155     0.0188     0.1696     2.3720
  293.0000    21.9325    22.1962    32.3544     8.4305     0.0159     0.1708     2.3705
  293.5000    22.3913    22.5067    29.4128     8.4303     0.0144     0.1693     2.3720
  294.0000    22.7077    22.8216    25.5617     8.4301     0.0190     0.1663     2.3758
  294.5000    23.0350    23.1408    24.6591     8.4300     0.0206     0.1633     2.3810
  295.0000    23.4965    23.7928    25.8022     8.4450     0.0207     0.1636     2.3803
  295.5000    23.8228    24.1368    27.1706     8.4448     0.0208     0.1654     2.3727
  296.0000    24.1519    24.4631    27.6732     8.4446     0.0254     0.1706     2.3667
  296.5000    24.4872    24.8053    25.8225     8.4294     0.0376     0.1741     2.3660
  297.0000    24.8256    25.1523    23.7869     8.4292     0.0466     0.1643     2.3780
  297.5000    24.9961    25.5041    22.2052     8.4291     0.0450     0.1467     2.4164
  298.0000    25.1669    25.6819    21.5310     8.4289     0.0390     0.1098     2.4669
  298.5000    25.3388    25.8609    21.3109     8.4288     0.0318     0.1005     2.4932
  299.0000    25.3345    25.5041    22.6794     8.4286     0.0273     0.0935     2.5075
  299.5000    24.8087    25.1523    26.9978     8.4285     0.0274     0.0923     2.5158
  300.0000    23.9586    24.6336    28.8200     8.4283     0.0275     0.0917     2.5168
  300.5000    23.6238    24.1256    28.7585     8.4336     0.0270     0.0963     2.5083
  301.0000    23.2827    23.6281    28.8346     8.4416     0.0260     0.1127     2.4586
  301.5000    22.6541    23.3021    29.0683     8.4133     0.0245     0.1373     2.3840
  302.0000    22.0303    22.8216    29.9810     8.4133     0.0214     0.1593     2.3704
  302.5000    21.4231    22.3509    27.9471     8.3831     0.0169     0.1694     2.3659
  303.0000    20.6890    22.0324    28.1808     8.3680     0.0139     0.1751     2.3598
  303.5000    20.2596    21.5681    29.0952     8.3680     0.0124     0.1780     2.3531
  304.0000    19.8390    21.1428    30.2366     8.3680     0.0139     0.1794     2.3513
  304.5000    19.5627    20.9965    32.0588     8.3680     0.0184     0.1791     2.3591
  305.0000    19.2901    20.8367    33.4271     8.3680     0.0199     0.1761     2.3620
  305.5000    19.1540    21.1264    35.2493     8.3680     0.0199     0.1764     2.3605
  306.0000    19.1513    21.2725    35.9352     8.3831     0.0199     0.1794     2.3537
  306.5000    19.1487    21.5683    34.5386     8.3982     0.0199     0.1782     2.3529
  307.0000    19.4139    22.0209    34.8157     8.3982     0.0199     0.1746     2.3627
  307.5000    19.6834    22.4830    34.8224     8.4133     0.0184     0.1710     2.3756
  308.0000    20.0944    23.1149    33.6945     8.4284     0.0184     0.1662     2.3770
  308.5000    20.3727    23.6000    33.2374     8.4284     0.0199     0.1653     2.3709
  309.0000    20.7989    24.0953    38.4735     8.4284     0.0214     0.1716     2.3609
  309.5000    21.0869    24.6009    42.7920     8.4284     0.0245     0.1800     2.3489
  310.0000    21.3797    24.7711    41.6185     8.4133     0.0275     0.1824     2.3468
  310.5000    21.5251    24.7690    36.5848     8.4133     0.0335     0.1824     2.3476
  311.0000    21.6721    24.5959    32.0833     8.3982     0.0352     0.1821     2.3501
  311.5000    21.5191    23.9203    28.8161     8.3831     0.0320     0.1781     2.3603
  312.0000    21.5161    23.4254    23.9922     8.3680     0.0275     0.1736     2.3731
  312.5000    21.5132    23.4238    22.8627     8.3680     0.0229     0.1664     2.3814
