~VERSION INFORMATION
 VERS.                2.0:   CWLS LOG ASCII STANDARD - VERSION 2.0
 WRAP.                 NO:   ONE LINE PER DEPTH STEP
~WELL INFORMATION
#MNEM.UNIT      DATA TYPE    INFORMATION
#----------   ------------   ------------------------------
 STRT.F           39.0000:   START DEPTH
 STOP.F          478.0000:   STOP DEPTH
 STEP.F            0.5000:   STEP LENGTH
 NULL.          -999.2500:   NO VALUE
 COMP. FENIX & SCISSON, INC.:   COMPANY
 WELL.  S-3 NPR #3 #46S-3:   WELL
 FLD .              NPR-3:   FIELD
 LOC .       S3 T38N R78W:   LOCATION
 CNTY.            NATRONA:   COUNTY
 STAT.            WYOMING:   STATE
 CTRY. UNITED STATES OF AMERICA:   COUNTRY
 SRVC.      Dresser Atlas:   SERVICE COMPANY
 DATE.        28-MAR-1977:   LOGDATE
 API .       490251034100:   API NUMBER
~CURVE INFORMATION
#MNEM.UNIT       API CODE    CURVE DESCRIPTION
#----------   ------------   ------------------------------
 DEPT.F                  :   
 ILD .OHMM   07 120 46 00:   INDUCTION LOG DEEP
 ILM .OHMM   07 120 44 00:   INDUCTION LOG MEDIUM
 SFL .OHMM   07 220 01 00:   SHALLOW FOCUSED LOG RESISTIVITY
 SPR .MV     07 010 01 00:   SPONTANEOUS POTENTIAL
 CALD.IN     45 280 60 00:   CALIPER FROM DENSITY LOG
 GRD .GAPI   45 310 01 00:   GAMMA RAY FROM DENSITY LOG
 DPHI.DEC    45 890 12 00:   DENSITY POROSITY SANDSTONE
 RHOB.G/C3   45 350 01 00:   BULK DENSITY
 DRHO.G/C3   45 356 01 00:   DENSITY CORRECTION
~PARAMETER INFORMATION
#MNEM.UNIT          VALUE    DESCRIPTION
#----------   ------------   ------------------------------
 PD  .                 GL:   PERMANENT DATUM
 EPD .F              5186:   ELEVATION PERMANENT DATUM
 LMF .                 KB:   LOG MEASURED FROM
 DAPD.F                 3:   FEET ABOVE PERMANENT DATUM
 DMF .                 KB:   DRILLING MEASURED FROM
 EKB .F              5189:   KELLING BUSHING
 EGL .F              5186:   GROUND LEVEL
 DATE.        28-MAR-1977:   RUN DATE
 RUN .                  1:   RUN NUMBER
 DD  .F               480:   DEPTH DRILLER
 DL  .F               480:   DEPTH LOGGER
 BLI .F               478:   BOTTOM LOG INTERVAL
 TLI .F                40:   TOP LOG INTERVAL
 CS  .IN            8.625:   CASING SIZE
 CBD .F                40:   CASING BOTTOM DRILLER
 CBL .F                40:   CASING BOTTOM LOGGER
 BS  .IN            7.875:   BIT SIZE
 BSD .F               480:   BIT SIZE AT DEPTH
 DFT .           CHEM GEL:   DRILLING FLUID TYPE
 DFD .                8.9:   DRILLING FLUID DENSITY
 DFV .                 39:   DRILLING FLUID VISCOSITY
 DFPH.                 11:   DRILLING FLUID PH
 DFL .                 16:   DRILLING FLUID LOSS
 MSS .           FLOWLINE:   MUD SAMPLE SOURCE
 RMS .OHMM           0.41:   RESISTIVITY MUD SAMPLE
 MST .F                40:   MUD SAMPLE TEMPERATURE
 RMF .OHMM           0.29:   RESISTIVITY MUD FILTRATE SAMPLE
 MFST.F                62:   MUD FILTRATE SAMPLE TEMPERATURE
 RMC .OHMM           0.28:   RESISTIVITY MUD CAKE
 MCST.F                62:   MUD CAKE SAMPLE TEMPERATURE
 MFSS.               MEAS:   MUD FILTRATE SAMPLE SOURCE
 MCSS.               MEAS:   MUD CAKE SAMPLE SOURCE
 RMB .OHMM           0.26:   RESISTIVITY MUD AT BHT
 BHT .F                62:   BOTTOM HOLE TEMPERATURE
 TCS .HRS               6:   TIME CURCULATED STOPPED
 MRT .F                62:   MAXIMUM RECORDED TEMPERATURE
 LUN .               6145:   LOGGING UNIT NUMBER
 LUL .              GLTTE:   LOGGING UNIT LOCATION
 ENGI.              RANCK:   RECORDING ENGINEER
 WITN.     MR. STUEBINGER:   WITNESSED BY
 CLNT.            A2DTECH:   CLIENT CODE
 ORIG.           5" PRINT:   ORIGIN OF DATA
 UWI .       490251034100:   UNIQUE WELL ID
 DICO. A2D Technologies, Inc.:   DIGITIZING COMPANY
~OTHER INFORMATION
~A   DEPT      ILD        ILM        SFL        SPR       CALD         GRD      DPHI       RHOB       DRHO   
# ...
  331.0000    12.9425    13.5193    17.4985   -28.6293     7.9021    80.0003     0.1410     2.4083     0.0119
  331.5000    12.8611    13.3935    17.2693   -28.6072     7.9039    80.6185     0.1482     2.3963     0.0106
  332.0000    12.8754    13.3151    17.2827   -28.5850     7.8761    82.5821     0.1523     2.3807     0.0108
  332.5000    12.8869    13.3266    17.2985   -28.5629     7.6540    83.6488     0.1538     2.3702     0.0094
  333.0000    12.8983    13.3387    17.3115   -28.5408     7.5065    83.9681     0.1516     2.3770     0.0081
  333.5000    12.9098    13.3509    17.3245   -28.5187     7.4336    84.1379     0.1457     2.3899     0.0083
  334.0000    12.9213    13.3630    17.3376   -28.4966     7.3756    83.2496     0.1408     2.4057     0.0085
  334.5000    12.9328    13.4690    17.3506   -28.4745     7.3471    83.7767     0.1414     2.4178     0.0087
  335.0000    12.9444    13.4806    17.3636   -28.6080     7.5881    85.6988     0.1443     2.4086     0.0088
  335.5000    12.9561    13.3986    17.3767   -28.7312     7.7860    86.9150     0.1455     2.3999     0.0106
  336.0000    12.9702    13.4117    17.2690   -28.8589     7.9248    87.2292     0.1464     2.4023     0.0122
  336.5000    12.8887    13.4256    17.0429   -28.8363     8.0112    86.2083     0.1439     2.4076     0.0154
  337.0000    12.6360    13.4361    16.7026   -28.8138     7.9388    85.3318     0.1409     2.4137     0.0186
  337.5000    12.2994    13.3546    16.0311   -28.6411     7.8953    84.3058     0.1393     2.4182     0.0212
  338.0000    12.1398    13.1831    15.4855   -28.6144     7.8975    84.9240     0.1380     2.4228     0.0249
  338.5000    11.9459    13.0833    14.9585   -28.5923     7.8839    85.0939     0.1363     2.4266     0.0296
  339.0000    11.7175    12.9315    14.4757   -28.5702     7.9010    82.8470     0.1350     2.4290     0.0358
  339.5000    11.5119    12.5860    14.5878   -28.5481     7.9027    83.0470     0.1338     2.4306     0.0436
  340.0000    11.2837    12.3356    15.3284   -28.5259     7.8726    83.2117     0.1325     2.4329     0.0542
  340.5000    11.1031    11.8392    15.6639   -28.6595     7.6380    81.5929     0.1325     2.4337     0.0603
  341.0000    10.9165    11.6796    15.7853   -28.6319     7.4158    80.4124     0.1322     2.4338     0.0650
  341.5000    10.6235    11.5334    15.4704   -28.6097     7.2982    81.9326     0.1327     2.4331     0.0682
  342.0000    10.4075    11.5443    14.9520   -28.7387     7.4492    83.4477     0.1342     2.4317     0.0743
  342.5000    10.2672    11.6377    14.5493   -28.7157     7.6300    85.5607     0.1369     2.4287     0.0805
  343.0000    10.2913    11.8122    14.5629   -28.8438     7.7512    86.0419     0.1423     2.4228     0.0837
  343.5000    10.3956    11.9893    14.5739   -29.2720     7.7997    86.2044     0.1521     2.4061     0.0839
  344.0000    10.6754    12.1690    14.6869   -29.4001     7.6203    86.0702     0.1527     2.3692     0.0840
  344.5000    10.8349    12.2654    14.9169   -29.5281     7.4566    87.4409     0.1523     2.3545     0.0810
  345.0000    11.0396    12.5366    15.4469   -29.5005     7.3850    87.1623     0.1490     2.3503     0.0754
  345.5000    11.2393    12.6359    15.5666   -29.4783     7.3872    85.6879     0.1436     2.3624     0.0696
  346.0000    11.4073    12.5590    15.6872   -29.4562     7.3889    84.8063     0.1411     2.4000     0.0638
  346.5000    11.5777    12.5703    16.0306   -29.4341     7.3906    86.0275     0.1407     2.3986     0.0580
  347.0000    11.6691    12.5815    16.3814   -29.4120     7.3924    86.3469     0.1618     2.3889     0.0507
  347.5000    11.2010    12.5050    16.5084   -29.6957     7.3941    86.6667     0.1694     2.3762     0.0433
  348.0000    10.9769    12.5163    16.0667   -29.6680     7.4556    86.2432     0.1707     2.3688     0.0360
  348.5000    10.8365    12.3431    15.7433   -29.8016     7.5618    82.8256     0.1590     2.3772     0.0317
  349.0000    10.7577    11.9422    15.7581   -30.0743     7.7027    83.5933     0.1499     2.3998     0.0272
  349.5000    10.7061    11.6231    15.8802   -30.2027     7.8493    84.6600     0.1448     2.4253     0.0201
  350.0000    10.6405    11.3920    16.0032   -30.3303     7.9701    84.9758     0.1414     2.4344     0.0083
  350.5000    10.5025    11.3202    15.7764   -30.3082     8.0761    83.6578     0.1380     2.4364    -0.0051
  351.0000    10.3686    11.2513    15.0203   -30.5864     8.0633    83.0762     0.1342     2.4390    -0.0034
  351.5000    10.2645    11.1829    14.6532   -30.5587     8.0352    84.0004     0.1299     2.4414    -0.0017
  352.0000    10.0991    11.1149    14.4586   -30.5366     8.0289    84.4707     0.1269     2.4460    -0.0001
  352.5000    10.0379    11.1273    14.1728   -30.5145     8.0089    84.6420     0.1233     2.4506     0.0031
  353.0000     9.9077    11.1373    14.0824   -30.4924     8.0110    85.5607     0.1196     2.4559     0.0063
  353.5000     9.8495    11.1481    13.9978   -30.4703     7.9974    86.0314     0.1166     2.4629     0.0109
  354.0000     9.7219    11.1569    13.9110   -30.4482     7.9996    85.9033     0.1124     2.4749     0.0171
  354.5000     9.5944    11.1671    13.8222   -30.4316     8.0014    85.3327     0.1078     2.4922     0.0247
  355.0000     9.4715    11.3373    13.7366   -30.6614     8.0031    84.0093     0.1041     2.5005     0.0309
  355.5000     9.6373    11.7831    13.8460   -30.8649     8.0048    82.3868     0.1000     2.4931     0.0356
  356.0000    10.7595    12.9259    14.0508   -30.8458     8.0066    81.5118     0.1023     2.4715     0.0342
  356.5000    11.7907    14.3184    14.4587   -30.6766     7.9934    80.9358     0.1167     2.4483     0.0329
  357.0000    12.8311    15.5858    15.0936   -30.5074     7.9952    80.3597     0.1320     2.4349     0.0346
  357.5000    14.0556    16.9654    16.3415   -30.0275     7.9526    78.8868     0.1422     2.4132     0.0377
  358.0000    15.4888    18.0837    18.4963   -29.3934     7.9245    75.1539     0.1530     2.3754     0.0379
  358.5000    16.6313    21.2536    23.2948   -28.4934     7.8814    73.5282     0.1680     2.3398     0.0305
  359.0000    17.9716    19.5646    27.1737   -28.0239     7.8384    73.1227     0.1980     2.3212     0.0202
  359.5000    19.4311    19.3101    29.1562   -27.8547     7.7954    73.2995     0.1988     2.3318     0.0174
  360.0000    19.9861    21.6157    29.7943   -27.6855     7.7822    73.6202     0.1931     2.3334     0.0176
  360.5000    20.4288    24.3684    30.8736   -27.5162     7.7690    73.0442     0.1973     2.3200     0.0132
  361.0000    20.7325    26.2973    32.4408   -27.4972     7.7709    72.3186     0.2017     2.3103     0.0059
  361.5000    21.4855    26.6979    36.2935   -27.4781     7.7893    72.7889     0.2068     2.2999    -0.0029
  362.0000    22.5785    27.0884    37.0878   -27.6096     7.8045    73.2592     0.2020     2.3097    -0.0058
  362.5000    25.7978    27.4973    37.1161   -27.5901     7.8361    72.2347     0.1920     2.3263    -0.0041
  363.0000    28.0719    30.7780    37.4514   -27.7212     7.8525    70.8639     0.1797     2.3484    -0.0010
  363.5000    28.1893    29.1271    40.1393   -27.8475     7.8695    70.0417     0.1649     2.4030     0.0097
  364.0000    26.0418    27.3727    45.2202   -27.8284     7.8712    69.7645     0.1325     2.4550     0.0252
  364.5000    25.3303    26.4538    76.8443   -27.9642     7.8879    69.6315     0.0865     2.5098     0.0430
  365.0000    25.1907    26.2855   138.0693   -27.7902     7.9045    69.8082     0.0682     2.5376     0.0492
  365.5000    25.2163    26.3124   193.6772   -27.7712     7.9063    70.2785     0.0666     2.5489     0.0494
  366.0000    25.2369    26.3340   101.0624   -27.7521     7.9230    70.5993     0.0948     2.5370     0.0450
  366.5000    24.9077    26.1718    42.9290   -27.7342     7.9251    71.5180     0.1176     2.4846     0.0347
  367.0000    24.4120    25.4759    33.1990   -27.4137     7.9269    72.4367     0.1503     2.4202     0.0229
