~VERSION INFORMATION
 VERS.                2.0:   CWLS LOG ASCII STANDARD - VERSION 2.0
 WRAP.                 NO:   ONE LINE PER DEPTH STEP
~WELL INFORMATION
#MNEM.UNIT      DATA TYPE    INFORMATION
#----------   ------------   ------------------------------
 STRT.F          700.0000:   START DEPTH
 STOP.F         2111.0000:   STOP DEPTH
 STEP.F            0.5000:   STEP LENGTH
 NULL.          -999.2500:   NO VALUE
 COMP. FENIX & SCISSON INC:   COMPANY
 WELL.    35 SAX 34 #3-34:   WELL
 FLD .             TEAPOT:   FIELD
 LOC .      S34 T39N R78W:   LOCATION
 CNTY.            NATRONA:   COUNTY
 STAT.            WYOMING:   STATE
 CTRY. UNITED STATES OF AMERICA:   COUNTRY
 SRVC.            Unknown:   SERVICE COMPANY
 DATE.        29-MAY-1978:   LOGDATE
 API .       490251061700:   API NUMBER
~CURVE INFORMATION
#MNEM.UNIT       API CODE    CURVE DESCRIPTION
#----------   ------------   ------------------------------
 DEPT.F                  :   
 CALD.IN     45 280 60 00:   CALIPER FROM DENSITY LOG
 GRD .GAPI   45 310 01 00:   GAMMA RAY FROM DENSITY LOG
 RHOB.G/C3   45 350 01 00:   BULK DENSITY
 DPHI.DEC    45 890 00 00:   DENSITY POROSITY
 CORR.G/C3   45 356 01 00:   DENSITY CORRECTION
~PARAMETER INFORMATION
#MNEM.UNIT          VALUE    DESCRIPTION
#----------   ------------   ------------------------------
 PD  .                 GL:   PERMANENT DATUM
 EPD .F              5105:   ELEVATION PERMANENT DATUM
 LMF .                 KB:   LOG MEASURED FROM
 DAPD.F                10:   FEET ABOVE PERMANENT DATUM
 DMF .                 KB:   DRILLING MEASURED FROM
 EKB .F              5115:   KELLING BUSHING
 EGL .F              5105:   GROUND LEVEL
 DATE.          5-29-1978:   RUN DATE
 RUN .                  1:   RUN NUMBER
 DD  .F              2111:   DEPTH DRILLER
 DL  .F              2118:   DEPTH LOGGER
 BLI .F              2110:   BOTTOM LOG INTERVAL
 TLI .F               720:   TOP LOG INTERVAL
 CS  .IN            9.625:   CASING SIZE
 CBD .F               711:   CASING BOTTOM DRILLER
 CBL .F               721:   CASING BOTTOM LOGGER
 BS  .IN             8.75:   BIT SIZE
 BSD .F              2111:   BIT SIZE AT DEPTH
 DFT .                OIL:   DRILLING FLUID TYPE
 TCS .HRS               1:   TIME CURCULATED STOPPED
 LUN .               2958:   LOGGING UNIT NUMBER
 LUL .               CASP:   LOGGING UNIT LOCATION
 ENGI.             MILLER:   RECORDING ENGINEER
 WITN.           MCGINLEY:   WITNESSED BY
 CLNT.            A2DTECH:   CLIENT CODE
 ORIG.           5" PRINT:   ORIGIN OF DATA
 UWI .       490251061700:   UNIQUE WELL ID
 DICO. A2D Technologies, Inc.:   DIGITIZING COMPANY
~OTHER INFORMATION
~A   DEPT     CALD         GRD      RHOB       DPHI       CORR   
  700.0000  -999.2500    42.2908  -999.2500  -999.2500  -999.2500
  700.5000  -999.2500    42.2908  -999.2500  -999.2500  -999.2500
  701.0000  -999.2500    41.4640  -999.2500  -999.2500  -999.2500
  701.5000  -999.2500    40.7364  -999.2500  -999.2500  -999.2500
  702.0000  -999.2500    39.8196  -999.2500  -999.2500  -999.2500
  702.5000  -999.2500    38.8934  -999.2500  -999.2500  -999.2500
  703.0000  -999.2500    38.2755  -999.2500  -999.2500  -999.2500
  703.5000  -999.2500    40.6021  -999.2500  -999.2500  -999.2500
  704.0000  -999.2500    58.1845  -999.2500  -999.2500  -999.2500
  704.5000  -999.2500    54.0913  -999.2500  -999.2500  -999.2500
  705.0000  -999.2500    47.1005  -999.2500  -999.2500  -999.2500
  705.5000  -999.2500    43.5146  -999.2500  -999.2500  -999.2500
  706.0000  -999.2500    40.1264  -999.2500  -999.2500  -999.2500
  706.5000  -999.2500    38.1653  -999.2500  -999.2500  -999.2500
  707.0000  -999.2500    43.4456  -999.2500  -999.2500  -999.2500
  707.5000  -999.2500    43.8830  -999.2500  -999.2500  -999.2500
  708.0000  -999.2500    43.8482  -999.2500  -999.2500  -999.2500
  708.5000  -999.2500    43.7884  -999.2500  -999.2500  -999.2500
  709.0000  -999.2500    43.7340  -999.2500  -999.2500  -999.2500
  709.5000  -999.2500    43.7481  -999.2500  -999.2500  -999.2500
  710.0000  -999.2500    47.2397  -999.2500  -999.2500  -999.2500
  710.5000  -999.2500    55.9310  -999.2500  -999.2500  -999.2500
  711.0000  -999.2500    64.0484  -999.2500  -999.2500  -999.2500
  711.5000  -999.2500    64.8998  -999.2500  -999.2500  -999.2500
  712.0000  -999.2500    61.8158  -999.2500  -999.2500  -999.2500
  712.5000  -999.2500    59.5736  -999.2500  -999.2500  -999.2500
  713.0000  -999.2500    59.9465  -999.2500  -999.2500  -999.2500
  713.5000  -999.2500    60.2886  -999.2500  -999.2500  -999.2500
  714.0000  -999.2500    61.0958  -999.2500  -999.2500  -999.2500
  714.5000  -999.2500    62.0890  -999.2500  -999.2500  -999.2500
  715.0000  -999.2500    62.4357  -999.2500  -999.2500  -999.2500
  715.5000  -999.2500    60.8395  -999.2500  -999.2500  -999.2500
  716.0000  -999.2500    59.0422  -999.2500  -999.2500  -999.2500
  716.5000  -999.2500    57.4215  -999.2500  -999.2500  -999.2500
  717.0000  -999.2500    58.2981  -999.2500  -999.2500  -999.2500
  717.5000  -999.2500    60.6469  -999.2500  -999.2500  -999.2500
  718.0000  -999.2500    62.0396  -999.2500  -999.2500  -999.2500
  718.5000  -999.2500    62.2046  -999.2500  -999.2500  -999.2500
  719.0000  -999.2500    61.4956  -999.2500  -999.2500  -999.2500
  719.5000  -999.2500    60.7788  -999.2500  -999.2500  -999.2500
  720.0000  -999.2500    60.4318  -999.2500  -999.2500  -999.2500
  720.5000  -999.2500    60.2568  -999.2500  -999.2500  -999.2500
  721.0000    11.1268    60.5971  -999.2500  -999.2500  -999.2500
  721.5000    11.0334    60.9171  -999.2500  -999.2500  -999.2500
  722.0000    10.8676    62.2368  -999.2500  -999.2500     0.2119
  722.5000     9.7035    63.8798  -999.2500  -999.2500     0.1876
  723.0000     8.8477    64.1519  -999.2500  -999.2500     0.2283
  723.5000     8.8943    64.0908  -999.2500  -999.2500     0.2402
  724.0000     9.1546    64.0286     2.0658  -999.2500     0.1615
  724.5000     9.5635    63.5538     2.0733     0.3130     0.1583
  725.0000     9.9745    62.9882     2.0677     0.3173     0.1728
  725.5000    10.3835    62.3765     2.0514     0.3202     0.1968
  726.0000    10.7190    60.7643     2.0477     0.3002     0.2321
  726.5000    10.7275    59.1008     2.0779     0.2821     0.2700
  727.0000    10.6262    58.6752     2.1114     0.2641     0.3079
  727.5000    10.5287    58.4938     2.1295     0.2461     0.3131
  728.0000    10.4063    58.1198     2.1520     0.2307     0.2912
  728.5000     9.7841    53.9396     2.1806     0.2571     0.3262
  729.0000     9.3979    49.2197     2.1946     0.2842     0.3545
  729.5000     9.8939    47.6955     2.1498     0.2606     0.3209
  730.0000     9.7858    54.8842     2.1082     0.2369     0.3077
  730.5000     9.6706    61.4737     2.1710     0.2131     0.3436
  731.0000     9.6040    65.9525     2.2242     0.1904     0.2995
  731.5000     9.5409    69.4504     2.2458     0.1920     0.2478
  732.0000     9.4779    70.4503     2.2486     0.1909     0.2308
  732.5000     9.4147    67.6359     2.2494     0.1864     0.2199
  733.0000     9.3505    64.5387     2.2512     0.1849     0.2228
  733.5000     9.3331    63.8058     2.2561     0.1836     0.2209
  734.0000     9.3969    63.8670     2.2609     0.1822     0.2173
  734.5000     9.4686    63.9505     2.2657     0.1812     0.2135
  735.0000     9.5403    64.0282     2.2660     0.1812     0.2097
  735.5000     9.6132    64.1014     2.2660     0.1812     0.2095
  736.0000     9.7045    64.1752     2.2660     0.1807     0.2096
  736.5000     9.8077    64.4017     2.2660     0.1802     0.2096
  737.0000     9.8504    67.2264     2.2660     0.1835     0.2117
  737.5000     9.8775    70.0063     2.2655     0.1852     0.2139
  738.0000     9.9054    69.0484     2.2629     0.1769     0.2169
  738.5000     9.8851    67.3241     2.2635     0.1738     0.2237
  739.0000     9.8516    66.3871     2.2714     0.1680     0.2305
  739.5000     9.7940    66.7119     2.2792     0.1645     0.2373
  740.0000     9.6929    66.7319     2.2859     0.1693     0.2395
  740.5000     9.5929    66.0346     2.2872     0.1732     0.2395
  741.0000     9.5119    65.9760     2.2822     0.1770     0.2396
  741.5000     9.5269    66.9920     2.2766     0.1809     0.2426
  742.0000     9.5146    67.9927     2.2727     0.1806     0.2490
  742.5000     9.4867    68.9936     2.2695     0.1745     0.2553
  743.0000     9.4584    69.5880     2.2689     0.1685     0.2617
  743.5000     9.4301    69.2707     2.2765     0.1608     0.2681
  744.0000     9.4019    67.6504     2.2887     0.1517     0.2733
  744.5000     9.3736    67.0785     2.3009     0.1426     0.2709
  745.0000     9.3452    66.6933     2.3131     0.1393     0.2666
  745.5000     9.3166    66.3501     2.3255     0.1376     0.2586
  746.0000     9.3207    64.3090     2.3314     0.1325     0.2532
  746.5000     9.3303    62.5980     2.3358     0.1285     0.2493
  747.0000     9.3399    62.7281     2.3403     0.1356     0.2452
  747.5000     9.3493    65.0301     2.3398     0.1358     0.2344
  748.0000     9.3671    67.3898     2.3369     0.1356     0.2235
  748.5000     9.3881    66.3440     2.3371     0.1360     0.2151
  749.0000     9.4094    65.1170     2.3375     0.1340     0.2147
  749.5000     9.4307    63.8965     2.3378     0.1293     0.2164
  750.0000     9.4520    62.7602     2.3421     0.1259     0.2180
  750.5000     9.4732    63.7813     2.3483     0.1246     0.2197
  751.0000     9.4987    67.0858     2.3541     0.1205     0.2214
  751.5000     9.5500    70.3777     2.3571     0.1161     0.2231
  752.0000     9.6020    73.1030     2.3624     0.1121     0.2247
  752.5000     9.6540    71.2052     2.3717     0.1162     0.2264
  753.0000     9.7059    68.8528     2.3730     0.1165     0.2295
  753.5000     9.7581    66.4714     2.3674     0.1208     0.2354
  754.0000     9.8092    65.5900     2.3618     0.1272     0.2413
  754.5000     9.8187    65.7754     2.3562     0.1317     0.2415
  755.0000     9.8259    66.7993     2.3506     0.1321     0.2418
  755.5000     9.8173    67.2761     2.3451     0.1315     0.2554
  756.0000     9.7835    67.2454     2.3438     0.1299     0.2700
  756.5000     9.7500    66.2596     2.3450     0.1283     0.2847
  757.0000     9.7165    64.3097     2.3466     0.1270     0.2990
  757.5000     9.6829    61.0442     2.3479     0.1370     0.3013
  758.0000     9.6493    57.8291     2.3431     0.1459     0.2983
  758.5000     9.6159    57.2412     2.3333     0.1488     0.2943
  759.0000     9.5929    59.7953     2.3236     0.1517     0.2904
  759.5000     9.6015    62.3422     2.3186     0.1545     0.2864
  760.0000     9.6092    64.5989     2.3171     0.1504     0.2825
  760.5000     9.6170    64.5495     2.3168     0.1474     0.2785
