~VERSION INFORMATION
 VERS.                2.0:   CWLS LOG ASCII STANDARD - VERSION 2.0
 WRAP.                 NO:   ONE LINE PER DEPTH STEP
~WELL INFORMATION
#MNEM.UNIT      DATA TYPE    INFORMATION
#----------   ------------   ------------------------------
 STRT.F         1179.0000:   START DEPTH
 STOP.F         2186.0000:   STOP DEPTH
 STEP.F            0.5000:   STEP LENGTH
 NULL.          -999.2500:   NO VALUE
 COMP. FENIX & SCISSON INC:   COMPANY
 WELL.  404 SH 33 #404-33:   WELL
 FLD .             TEAPOT:   FIELD
 LOC .      S33 T39N R78W:   LOCATION
 CNTY.            NATRONA:   COUNTY
 STAT.            WYOMING:   STATE
 CTRY. UNITED STATES OF AMERICA:   COUNTRY
 SRVC.            Unknown:   SERVICE COMPANY
 DATE.        19-NOV-1992:   LOGDATE
 API .       490251071100:   API NUMBER
~CURVE INFORMATION
#MNEM.UNIT       API CODE    CURVE DESCRIPTION
#----------   ------------   ------------------------------
 DEPT.F                  :   
 TGAS.UNITS  91 830 01 00:   TOTAL GAS FROM HOTWIRE
 ROP .MIN/FT 91 810 01 00:   RATE OF DRILLING PENETRATION
~PARAMETER INFORMATION
#MNEM.UNIT          VALUE    DESCRIPTION
#----------   ------------   ------------------------------
 EKB .F              5170:   KELLING BUSHING
 EGL .F              5160:   GROUND LEVEL
 DATE.        19-NOV-1992:   RUN DATE
 RUN .                  1:   RUN NUMBER
 DD  .F              2186:   DEPTH DRILLER
 TLI .F              1186:   TOP LOG INTERVAL
 CS  .IN             8.25:   CASING SIZE
 CBD .F              1080:   CASING BOTTOM DRILLER
 WITN.   C. TOWER/R. HUSK:   WITNESSED BY
 CLNT.            A2DTECH:   CLIENT CODE
 ORIG.           5" PRINT:   ORIGIN OF DATA
 UWI .       490251071100:   UNIQUE WELL ID
 DICO. A2D Technologies, Inc.:   DIGITIZING COMPANY
~OTHER INFORMATION
~A  DEPT       TGAS       ROP   
# ...
 1665.0000   187.8901     0.5537
 1665.5000   187.9297     0.5537
 1666.0000   187.9692     0.5536
 1666.5000   188.0087     0.5536
 1667.0000   188.0482     0.5535
 1667.5000   188.0878     0.5534
 1668.0000   188.1273     0.5534
 1668.5000   188.1668     0.5533
 1669.0000   188.2063     0.5533
 1669.5000   188.2459     0.5532
 1670.0000   188.2854     0.5532
 1670.5000   188.3249     0.5531
 1671.0000   188.3644     0.5531
 1671.5000   188.4040     0.5530
 1672.0000   188.4435     0.5530
 1672.5000   188.4830     0.5529
 1673.0000   188.5226     0.5529
 1673.5000   188.5621     0.5528
 1674.0000   188.6016     0.5528
 1674.5000   188.6411     0.5527
 1675.0000   188.6807     0.5526
 1675.5000   188.7202     0.5526
 1676.0000   188.7597     0.5525
 1676.5000   188.7992     0.5525
 1677.0000   188.8388     0.5524
 1677.5000   188.8783     0.5524
 1678.0000   188.9178     0.5523
 1678.5000   188.9574     0.5523
 1679.0000   188.9969     0.5522
 1679.5000   189.0364     0.5522
 1680.0000   189.0759     0.5521
 1680.5000   189.1154     0.5521
 1681.0000   189.1550     0.5520
 1681.5000   189.1945     0.5520
 1682.0000   189.2340     0.5519
 1682.5000   189.2736     0.5518
 1683.0000   189.3131     0.5518
 1683.5000   189.3526     0.5517
 1684.0000   189.3921     0.5517
 1684.5000   189.4317     0.5516
 1685.0000   189.4712     0.5516
 1685.5000   189.5107     0.5515
 1686.0000   189.5502     0.5515
 1686.5000   189.5898     0.5514
 1687.0000   189.6293     0.5514
 1687.5000   189.6688     0.5513
 1688.0000   189.7084     0.5513
 1688.5000   189.7479     0.5512
 1689.0000   189.7874     0.5512
 1689.5000   189.8269     0.5511
 1690.0000   189.8665     0.5510
 1690.5000   189.9060     0.5510
 1691.0000   189.9455     0.5509
 1691.5000   189.9850     0.5509
 1692.0000   190.0246     0.5508
 1692.5000   190.0641     0.5508
 1693.0000   190.1036     0.5507
 1693.5000   190.1431     0.5507
 1694.0000   190.1827     0.5506
 1694.5000   190.2222     0.5506
 1695.0000   190.2617     0.5505
 1695.5000   190.3013     0.5505
 1696.0000   190.3408     0.5504
 1696.5000   190.3803     0.5504
 1697.0000   190.4198     0.5503
 1697.5000   190.4594     0.5503
 1698.0000   190.4989     0.5502
 1698.5000   190.5384     0.5501
 1699.0000   190.5779     0.5501
 1699.5000   190.6175     0.5500
 1700.0000   190.6570     0.5500
 1700.5000   190.6965     0.5499
 1701.0000   190.7360     0.5499
 1701.5000   190.7756     0.5498
 1702.0000   190.8151     0.5498
 1702.5000   190.8546     0.5497
 1703.0000   190.8941     0.5497
 1703.5000   190.9337     0.5497
 1704.0000   190.9732     0.5498
 1704.5000   191.0127     0.5498
 1705.0000   191.0523     0.5499
 1705.5000   191.0918     0.5499
 1706.0000   191.1313     0.5500
 1706.5000   191.1708     0.5500
 1707.0000   191.2104     0.5501
 1707.5000   191.2499     0.5501
 1708.0000   191.2894     0.5502
 1708.5000   191.3289     0.5502
 1709.0000   191.3685     0.5503
 1709.5000   191.4080     0.5503
 1710.0000   191.4475     0.5504
 1710.5000   191.4870     0.5505
 1711.0000   191.5266     0.5505
 1711.5000   191.5661     0.5506
 1712.0000   191.6056     0.5506
 1712.5000   191.6452     0.5507
 1713.0000   191.6847     0.5507
 1713.5000   191.7242     0.5508
 1714.0000   191.7637     0.5508
 1714.5000   191.8033     0.5509
 1715.0000   191.8428     0.5509
 1715.5000   191.8823     0.5510
 1716.0000   191.9510     0.5510
 1716.5000   192.0512     0.5511
 1717.0000   192.1514     0.5511
 1717.5000   192.2516     0.5512
 1718.0000   192.3518     0.5512
 1718.5000   192.4656     0.5513
 1719.0000   190.2828     0.5513
 1719.5000   187.0195     0.5514
 1720.0000   184.8367     0.5514
 1720.5000   180.4710     0.5515
 1721.0000   177.1945     0.5515
 1721.5000   172.8244     0.5516
 1722.0000   171.7440     0.5517
 1722.5000   167.3739     0.5517
 1723.0000   166.3001     0.5518
 1723.5000   164.1238     0.5518
 1724.0000   163.0523     0.5519
 1724.5000   161.9851     0.5519
 1725.0000   160.9157     0.5520
 1725.5000   159.8331     0.5520
 1726.0000   158.7562     0.5521
 1726.5000   158.7173     0.5521
 1727.0000   158.6785     0.5522
 1727.5000   158.6396     0.5522
 1728.0000   158.6007     0.5523
 1728.5000   158.5618     0.5523
 1729.0000   158.5229     0.5524
 1729.5000   158.4841     0.5524
 1730.0000   158.4452     0.5525
 1730.5000   158.4063     0.5525
 1731.0000   158.3674     0.5526
 1731.5000   158.3285     0.5526
 1732.0000   158.2896     0.5527
 1732.5000   158.2508     0.5528
 1733.0000   158.2119     0.5528
 1733.5000   158.1730     0.5529
 1734.0000   158.1341     0.5529
 1734.5000   158.0952     0.5530
 1735.0000   158.0564     0.5530
 1735.5000   158.0175     0.5531
 1736.0000   157.9786     0.5531
 1736.5000   157.9397     0.5532
 1737.0000   157.9008     0.5532
 1737.5000   157.8620     0.5533
 1738.0000   157.8231     0.5533
 1738.5000   157.7842     0.5534
 1739.0000   157.7453     0.5534
 1739.5000   157.7064     0.5535
 1740.0000   157.6676     0.5535
 1740.5000   157.6287     0.5536
 1741.0000   157.5898     0.5536
 1741.5000   157.5509     0.5537
 1742.0000   157.5120     0.5537
 1742.5000   157.4731     0.5538
 1743.0000   157.4343     0.5538
 1743.5000   157.3954     0.5539
 1744.0000   157.3565     0.5540
 1744.5000   157.3176     0.5540
 1745.0000   157.2787     0.5541
 1745.5000   157.2399     0.5541
 1746.0000   157.2010     0.5542
 1746.5000   157.1621     0.5542
 1747.0000   157.1232     0.5543
 1747.5000   157.0843     0.5543
 1748.0000   157.0455     0.5544
 1748.5000   157.0066     0.5544
 1749.0000   156.9677     0.5545
 1749.5000   156.9288     0.5545
 1750.0000   156.8899     0.5546
 1750.5000   156.8511     0.5546
 1751.0000   156.8122     0.5547
 1751.5000   156.7733     0.5547
 1752.0000   156.7344     0.5548
 1752.5000   156.6955     0.5548
 1753.0000   156.6566     0.5549
 1753.5000   156.6178     0.5549
 1754.0000   156.5789     0.5550
 1754.5000   156.5400     0.5551
 1755.0000   156.5011     0.5551
 1755.5000   156.4622     0.5552
 1756.0000   156.4234     0.5552
 1756.5000   156.3845     0.5553
 1757.0000   156.3456     0.5553
 1757.5000   156.3067     0.5554
 1758.0000   156.2678     0.5554
 1758.5000   156.2290     0.5555
 1759.0000   156.1840     0.5555
 1759.5000   156.2127     0.5556
 1760.0000   156.2391     0.5556
 1760.5000   156.2656     0.5557
 1761.0000   155.1852     0.5557
 1761.5000   153.0112     0.5558
 1762.0000   151.9396     0.5558
 1762.5000   147.5695     0.5559
 1763.0000   143.1972     0.5559
 1763.5000   138.8204     0.5560
 1764.0000   134.4459     0.5560
 1764.5000   128.9778     0.5561
 1765.0000   122.4005     0.5562
 1765.5000   116.9302     0.5562
 1766.0000   111.4598     0.5563
 1766.5000   107.0853     0.5563
 1767.0000   103.8044     0.5564
 1767.5000    99.4321     0.5564
 1768.0000    98.3583     0.5565
 1768.5000    96.1843     0.5565
 1769.0000    95.1127     0.5566
 1769.5000    95.1392     0.5566
 1770.0000    94.9565     0.5567
 1770.5000    94.7994     0.5567
 1771.0000    94.6422     0.5568
 1771.5000    94.4851     0.5568
 1772.0000    94.3279     0.5569
 1772.5000    94.1708     0.5569
 1773.0000    94.0137     0.5570
 1773.5000    93.8565     0.5570
 1774.0000    93.6994     0.5571
 1774.5000    93.5422     0.5571
 1775.0000    93.3851     0.5572
 1775.5000    93.2280     0.5572
 1776.0000    93.0708     0.5573
 1776.5000    92.9137     0.5574
 1777.0000    92.7565     0.5574
 1777.5000    92.5994     0.5575
 1778.0000    92.4422     0.5575
 1778.5000    92.3345     0.5576
 1779.0000    92.3698     0.5576
 1779.5000    91.2894     0.5577
 1780.0000    91.3225     0.5577
 1780.5000    88.0416     0.5578
 1781.0000    85.8764     0.5578
 1781.5000    82.5977     0.5579
 1782.0000    78.2276     0.5579
 1782.5000    73.8575     0.5580
 1783.0000    70.5810     0.5580
 1783.5000    69.5028     0.5581
 1784.0000    68.4312     0.5581
 1784.5000    66.2572     0.5582
 1785.0000    66.2947     0.5582
 1785.5000    65.2121     0.5583
 1786.0000    65.2445     0.5583
