~VERSION INFORMATION
 VERS.                2.0:   CWLS LOG ASCII STANDARD - VERSION 2.0
 WRAP.                 NO:   ONE LINE PER DEPTH STEP
~WELL INFORMATION
#MNEM.UNIT      DATA TYPE    INFORMATION
#----------   ------------   ------------------------------
 STRT.F           26.0000:   START DEPTH
 STOP.F          535.5000:   STOP DEPTH
 STEP.F            0.5000:   STEP LENGTH
 NULL.          -999.2500:   NO VALUE
 COMP. BROWN JOHN E&C INC:   COMPANY
 WELL.       NPR 86 #11-3:   WELL
 FLD .             TEAPOT:   FIELD
 LOC .       S3 T38N R78W:   LOCATION
 CNTY.            NATRONA:   COUNTY
 STAT.            WYOMING:   STATE
 CTRY. UNITED STATES OF AMERICA:   COUNTRY
 SRVC.       Schlumberger:   SERVICE COMPANY
 DATE.        21-SEP-1990:   LOGDATE
 API .       490251130800:   API NUMBER
~CURVE INFORMATION
#MNEM.UNIT       API CODE    CURVE DESCRIPTION
#----------   ------------   ------------------------------
 DEPT.F                  :   
 ILD .OHMM   07 120 46 00:   INDUCTION LOG DEEP
 ILM .OHMM   07 120 44 00:   INDUCTION LOG MEDIUM
 GRD .GAPI   45 310 01 00:   GAMMA RAY FROM DENSITY LOG
 CALD.IN     45 280 60 00:   CALIPER
 DRHO.G/C3   45 356 01 00:   DENSITY CORRECTION
 DPHI.DEC    45 890 00 00:   DENSITY POROSITY
 RHOB.G/C3   45 350 01 00:   BULK DENSITY
~PARAMETER INFORMATION
#MNEM.UNIT          VALUE    DESCRIPTION
#----------   ------------   ------------------------------
 PD  .                 GL:   PERMANENT DATUM
 EPD .F              5144:   ELEVATION PERMANENT DATUM
 LMF .                 KB:   LOG MEASURED FROM
 DAPD.F                10:   FEET ABOVE PERMANENT DATUM
 DMF .                 KB:   DRILLING MEASURED FROM
 EKB .F              5154:   KELLING BUSHING
 EDF .F              5153:   DRILLING FLOOR
 EGL .F              5144:   GROUND LEVEL
 DATE.            9-21-90:   RUN DATE
 RUN .                  1:   RUN NUMBER
 DD  .F               540:   DEPTH DRILLER
 DL  .F               539:   DEPTH LOGGER
 BLI .F               533:   BOTTOM LOG INTERVAL
 TLI .F                49:   TOP LOG INTERVAL
 CS  .IN            8.625:   CASING SIZE
 CBD .F                50:   CASING BOTTOM DRILLER
 CBL .F                48:   CASING BOTTOM LOGGER
 BS  .IN            7.875:   BIT SIZE
 BSD .F               540:   BIT SIZE AT DEPTH
 DFT .                AIR:   DRILLING FLUID TYPE
 TCS .HRS            0315:   TIME CURCULATED STOPPED
 TLAB.HRS            0409:   TIME LOGGER AT BOTTOM
 LUN .               5882:   LOGGING UNIT NUMBER
 LUL .               CODY:   LOGGING UNIT LOCATION
 ENGI.          M. FISHER:   RECORDING ENGINEER
 WITN.          G. STRONG:   WITNESSED BY
 CLNT.            A2DTECH:   CLIENT CODE
 ORIG.   2" 2.5" 5" PRINT:   ORIGIN OF DATA
 UWI .       490251130800:   UNIQUE WELL ID
 DICO. A2D Technologies, Inc.:   DIGITIZING COMPANY
~OTHER INFORMATION
~A   DEPT      ILD        ILM         GRD      CALD       DRHO       DPHI       RHOB   
# ...
  344.5000    10.7596    10.3084   125.8946     7.8663    -0.0076     0.0862     2.5077
  345.0000    11.3148    10.8067   118.4232     7.8661    -0.0044     0.0900     2.5011
  345.5000    11.8614    11.3291   103.9494     7.8707    -0.0014     0.0942     2.4940
  346.0000    12.7846    12.0530    88.6906     7.8757     0.0050     0.0958     2.4961
  346.5000    14.1094    14.0667    72.9546     7.8806     0.0117     0.0852     2.5071
  347.0000    15.5732    16.4667    63.2262     7.8849     0.0186     0.0830     2.5109
  347.5000    17.1888    19.2985    64.7019     7.9221     0.0168     0.1182     2.4540
  348.0000    18.9721    21.1151    72.0811     7.9623     0.0120     0.1485     2.3389
  348.5000    20.9404    22.0556    78.7190     8.0038     0.0073     0.1669     2.2680
  349.0000    22.9790    22.9790    79.7709     8.0063     0.0050     0.1717     2.2490
  349.5000    24.4870    25.2143    80.0495     8.0061     0.0050     0.1721     2.2561
  350.0000    25.2077    26.1585    80.0296     8.0060     0.0050     0.1689     2.2597
  350.5000    25.2077    26.6572    77.5005     8.0060     0.0050     0.1860     2.2039
  351.0000    25.3930    27.1653    74.6738     8.0060     0.0049     0.2012     2.1418
  351.5000    26.8257    28.4554    71.8176     8.0060     0.0037     0.2116     2.0963
  352.0000    28.3370    30.4881    70.5105     8.0061     0.0016     0.2145     2.0875
  352.5000    29.9341    32.6660    73.0047     8.0057    -0.0017     0.2091     2.1127
  353.0000    31.6176    32.9349    73.6383     7.9814    -0.0051     0.1884     2.1839
  353.5000    32.9697    33.3821    73.6590     7.9543    -0.0027     0.1617     2.3425
  354.0000    33.5407    33.9296    73.7171     7.9280     0.0049     0.1276     2.4376
  354.5000    34.0995    34.4979    74.2164     7.9700     0.0126     0.1301     2.4077
  355.0000    34.6677    33.2726    74.4398     8.0179     0.0114     0.1687     2.2787
  355.5000    35.1768    33.9924    74.4716     8.0654     0.0091     0.2022     2.1299
  356.0000    35.5039    34.8527    76.0920     8.1028     0.0090     0.2220     2.0606
  356.5000    35.5039    34.6276    81.0080     8.0719     0.0090     0.2174     2.0782
  357.0000    35.5039    34.2213    86.1649     8.0837     0.0076     0.2088     2.1134
  357.5000    35.5039    33.8198    87.5996     8.1071     0.0062     0.2012     2.1409
  358.0000    35.5039    33.5858    84.8453     8.1306     0.0047     0.2064     2.1235
  358.5000    36.8583    35.7169    81.1858     8.1464     0.0037     0.2134     2.0966
  359.0000    38.2329    37.3078    77.5146     8.1476     0.0031     0.2202     2.0672
  359.5000    37.8806    37.8280    73.8475     8.1491     0.0017     0.2250     2.0478
  360.0000    38.8418    38.3849    70.1670     8.1505     0.0001     0.2291     2.0308
  360.5000    39.4151    39.4344    66.4955     8.1520    -0.0016     0.2331     2.0182
  361.0000    39.9969    40.7923    66.3877     8.1534    -0.0020     0.2327     2.0203
  361.5000    40.5872    40.6899    67.5824     8.1548    -0.0018     0.2294     2.0335
  362.0000    41.1889    40.5529    69.6014     8.1562    -0.0003     0.2261     2.0467
  362.5000    41.6503    40.4164    72.1759     8.1577     0.0013     0.2228     2.0604
  363.0000    41.9516    40.8962    74.7929     8.1591     0.0030     0.2195     2.0723
  363.5000    41.5160    41.1716    75.2421     8.1606     0.0024     0.2162     2.0843
  364.0000    40.5476    39.7358    75.3036     8.1620    -0.0016     0.2128     2.0989
  364.5000    39.6017    38.6102    76.5922     8.1634    -0.0051     0.2020     2.1300
  365.0000    38.6778    37.5165    77.5505     8.1648    -0.0050     0.1907     2.1797
  365.5000    38.1557    36.4538    76.9121     8.1620    -0.0050     0.1848     2.1992
  366.0000    37.9109    35.1768    76.4155     8.1527    -0.0050     0.1951     2.1748
  366.5000    37.6684    36.1785    76.5609     8.1368    -0.0050     0.2081     2.1102
  367.0000    37.4299    38.0769    79.5825     8.0933    -0.0042     0.2124     2.0940
  367.5000    37.1835    39.6750    82.6648     8.0553    -0.0019     0.1947     2.1655
  368.0000    36.0374    39.4480    85.7196     8.0185     0.0004     0.1736     2.2397
  368.5000    34.9173    37.4160    88.0980     8.0062     0.0027     0.1647     2.2760
  369.0000    33.8354    34.5849    87.1819     8.0059     0.0049     0.1591     2.3022
  369.5000    32.6055    31.9680    86.4057     8.0060     0.0049     0.1534     2.3242
  370.0000    31.2246    29.7779    86.3707     8.0060     0.0026     0.1477     2.3407
  370.5000    30.0548    28.4574    88.3784     8.0060     0.0000     0.1469     2.3439
  371.0000    28.5102    27.4291    90.6565     8.0060    -0.0025     0.1483     2.3389
  371.5000    27.1959    25.9915    92.9424     8.0060    -0.0050     0.1501     2.3336
  372.0000    25.9355    24.6274    92.9041     8.0060    -0.0070     0.1529     2.3244
  372.5000    25.1777    23.8458    91.5872     8.0060    -0.0066     0.1559     2.3133
  373.0000    24.5506    23.5841    90.1872     8.0060    -0.0057     0.1560     2.3092
  373.5000    23.8458    23.1597    90.0165     8.0060    -0.0047     0.1537     2.3188
  374.0000    23.9250    22.7673    90.0171     8.0060    -0.0038     0.1514     2.3292
  374.5000    24.0185    22.5575    90.0192     8.0060    -0.0028     0.1527     2.3239
  375.0000    24.1138    22.6884    90.0108     8.0060    -0.0020     0.1557     2.3138
  375.5000    24.2091    22.8805    90.4902     8.0060    -0.0020     0.1577     2.3024
  376.0000    24.3045    23.0742    91.1560     8.0060    -0.0024     0.1581     2.3014
  376.5000    24.4003    23.2697    91.8519     8.0060    -0.0046     0.1581     2.3039
  377.0000    24.5173    23.4663    92.0112     8.0060    -0.0079     0.1581     2.2996
  377.5000    24.4041    23.6420    92.0160     8.0061    -0.0111     0.1615     2.2884
  378.0000    24.2914    23.7172    92.4644     8.0058    -0.0130     0.1649     2.2768
  378.5000    24.6183    23.7938    92.8093     7.9918    -0.0130     0.1669     2.2686
  379.0000    24.9439    23.8704    93.1696     7.9765    -0.0130     0.1660     2.2700
  379.5000    25.2671    23.9473    93.5627     7.9659    -0.0130     0.1633     2.2815
  380.0000    25.4537    24.0246    92.1143     7.9661    -0.0112     0.1607     2.2937
  380.5000    25.2009    24.1021    90.1112     7.9661    -0.0091     0.1582     2.3057
  381.0000    25.1384    24.1800    90.0747     7.9661    -0.0069     0.1556     2.3129
  381.5000    25.1055    24.2910    90.5725     7.9661    -0.0048     0.1541     2.3168
  382.0000    25.0726    24.2659    91.0630     7.9661    -0.0044     0.1541     2.3134
  382.5000    25.0396    24.2197    91.5490     7.9661    -0.0064     0.1574     2.3052
  383.0000    25.0061    24.1736    92.0346     7.9661    -0.0085     0.1607     2.2922
  383.5000    24.9714    24.1304    92.5204     7.9661    -0.0104     0.1639     2.2801
  384.0000    24.9754    24.0767    93.0019     7.9661    -0.0116     0.1640     2.2803
  384.5000    24.2860    23.6766    93.7815     7.9657    -0.0093     0.1617     2.2933
  385.0000    23.8767    23.3003    95.4571     7.9438    -0.0064     0.1550     2.3141
  385.5000    23.4744    22.9365    97.3128     7.8836    -0.0039     0.1491     2.3346
  386.0000    22.9790    22.5784    98.7749     7.8460    -0.0011     0.1451     2.3500
  386.5000    23.2420    22.1457    96.3706     7.8470    -0.0020     0.1413     2.3676
  387.0000    23.5997    22.6425    93.8732     7.8474    -0.0030     0.1320     2.4148
  387.5000    23.9629    23.3051    91.3858     7.8479    -0.0039     0.1123     2.4645
  388.0000    24.3318    23.8512    88.8960     7.8484    -0.0017     0.0932     2.5389
  388.5000    24.7062    24.2304    87.0674     7.8488     0.0010     0.0768     2.6126
  389.0000    25.0865    24.6180    86.4353     7.8493     0.0030     0.0738     2.6221
  389.5000    25.4421    24.9746    86.4107     7.8498     0.0030     0.0898     2.5485
