~VERSION INFORMATION
 VERS.                2.0:   CWLS LOG ASCII STANDARD - VERSION 2.0
 WRAP.                 NO:   ONE LINE PER DEPTH STEP
~WELL INFORMATION
#MNEM.UNIT      DATA TYPE    INFORMATION
#----------   ------------   ------------------------------
 STRT.F          936.5000:   START DEPTH
 STOP.F         2325.5000:   STOP DEPTH
 STEP.F            0.5000:   STEP LENGTH
 NULL.          -999.2500:   NO VALUE
 COMP. LAWRENCE/ALLISON INC:   COMPANY
 WELL.  NPR 3 #45-1-SHX-3:   WELL
 FLD .             TEAPOT:   FIELD
 LOC .       S3 T38N R78W:   LOCATION
 CNTY.            NATRONA:   COUNTY
 STAT.            WYOMING:   STATE
 CTRY. UNITED STATES OF AMERICA:   COUNTRY
 SRVC.            Unknown:   SERVICE COMPANY
 DATE.        10-OCT-1991:   LOGDATE
 API .       490251092300:   API NUMBER
~CURVE INFORMATION
#MNEM.UNIT       API CODE    CURVE DESCRIPTION
#----------   ------------   ------------------------------
 DEPT.F                  :   
 TGAS.UNITS  91 830 01 00:   TOTAL GAS FROM HOTWIRE
 ROP .MIN/FT 91 810 01 00:   RATE OF DRILLING PENETRATION
~PARAMETER INFORMATION
#MNEM.UNIT          VALUE    DESCRIPTION
#----------   ------------   ------------------------------
 EKB .F              5199:   KELLING BUSHING
 EGL .F              5189:   GROUND LEVEL
 DATE.           10-10-91:   RUN DATE
 DD  .F              2325:   DEPTH DRILLER
 BLI .F              2324:   BOTTOM LOG INTERVAL
 TLI .F              1920:   TOP LOG INTERVAL
 CS  .IN            9.625:   CASING SIZE
 CBD .F               498:   CASING BOTTOM DRILLER
 ENGI.               HUSK:   RECORDING ENGINEER
 WITN.              TOWER:   WITNESSED BY
 CLNT.            A2DTECH:   CLIENT CODE
 ORIG.           5" PRINT:   ORIGIN OF DATA
 UWI .       490251092300:   UNIQUE WELL ID
 DICO. A2D Technologies, Inc.:   DIGITIZING COMPANY
~OTHER INFORMATION
~A   DEPT     TGAS          ROP 
# ...
 1908.5000  -999.2500     0.9924
 1909.0000  -999.2500     0.9932
 1909.5000  -999.2500  -999.2500
 1910.0000  -999.2500  -999.2500
 1910.5000  -999.2500  -999.2500
 1911.0000  -999.2500  -999.2500
 1911.5000  -999.2500  -999.2500
 1912.0000  -999.2500  -999.2500
 1912.5000  -999.2500  -999.2500
 1913.0000  -999.2500  -999.2500
 1913.5000  -999.2500  -999.2500
 1914.0000  -999.2500  -999.2500
 1914.5000  -999.2500  -999.2500
 1915.0000  -999.2500  -999.2500
 1915.5000  -999.2500  -999.2500
 1916.0000  -999.2500  -999.2500
 1916.5000  -999.2500  -999.2500
 1917.0000  1102.0367  -999.2500
 1917.5000  1112.6431  -999.2500
 1918.0000  1112.9520     0.6700
 1918.5000  1113.2609     0.6702
 1919.0000  1113.5698     0.6808
 1919.5000  1113.8788     0.6913
 1920.0000  1114.2076     0.6915
 1920.5000  1114.5084     0.6913
 1921.0000  1104.5081     0.6712
 1921.5000  1104.8169     0.6404
 1922.0000  1105.1260     0.5785
 1922.5000  1105.7904     0.5476
 1923.0000  1107.2380     0.5582
 1923.5000  1108.6857     0.5791
 1924.0000  1110.1334     0.5793
 1924.5000  1111.5811     0.5588
 1925.0000  1113.0287     0.5072
 1925.5000  1114.4763     0.4753
 1926.0000  1115.9240     0.4559
 1926.5000  1117.3716     0.4250
 1927.0000  1118.8193     0.4149
 1927.5000  1120.2670     0.4772
 1928.0000  1121.7146     0.5292
 1928.5000  1123.1622     0.5087
 1929.0000  1124.6099     0.4468
 1929.5000  1126.0575     0.4159
 1930.0000  1127.5051     0.4161
 1930.5000  1128.9529     0.4303
 1931.0000  1130.4005     0.4994
 1931.5000  1131.5957     0.5824
 1932.0000  1121.5989     0.6136
 1932.5000  1111.6021     0.5621
 1933.0000  1081.0854     0.5313
 1933.5000  1050.4937     0.4901
 1934.0000  1019.9018     0.4696
 1934.5000   989.3100     0.4594
 1935.0000   958.7181     0.4700
 1935.5000   928.1264     0.4909
 1936.0000   907.8260     0.5118
 1936.5000   866.9427     0.5327
 1937.0000   834.9244     0.5226
 1937.5000   816.0568     0.5124
 1938.0000   795.7624     0.5126
 1938.5000   785.7656     0.5335
 1939.0000   786.1414     0.5441
 1939.5000   776.0695     0.5867
 1940.0000   766.1478     0.6688
 1940.5000   756.1442     0.6379
 1941.0000   756.4531     0.5967
 1941.5000   756.7773     0.5555
 1942.0000   757.1281     0.5040
 1942.5000   757.4287     0.4317
 1943.0000   757.7294     0.3801
 1943.5000   758.0301     0.3803
 1944.0000   758.3307     0.3909
 1944.5000   758.6313     0.4014
 1945.0000   758.9319     0.4120
 1945.5000   759.2334     0.3915
 1946.0000   759.5423     0.3813
 1946.5000   759.9092     0.3816
 1947.0000   760.2098     0.3921
 1947.5000   760.5104     0.4545
 1948.0000   760.8112     0.5064
 1948.5000   761.1118     0.4857
 1949.0000   761.4124     0.4228
 1949.5000   772.0106     0.3414
 1950.0000   782.6087     0.3209
 1950.5000   793.2151     0.3107
 1951.0000   793.5827     0.3317
 1951.5000   793.8833     0.3940
 1952.0000   804.4815     0.4356
 1952.5000   804.7821     0.4876
 1953.0000   805.0828     0.5188
 1953.5000   805.3835     0.5190
 1954.0000   805.6841     0.5089
 1954.5000   805.9847     0.4781
 1955.0000   806.2929     0.4575
 1955.5000   806.6613     0.4267
 1956.0000   817.2593     0.4269
 1956.5000   817.5601     0.4271
 1957.0000   828.1581     0.4273
 1957.5000   828.4588     0.4275
 1958.0000   839.0570     0.4277
 1958.5000   839.3576     0.4295
 1959.0000   839.6583     0.4696
 1959.5000   839.9657     0.5112
 1960.0000   840.3347     0.5218
 1960.5000   840.6354     0.5116
 1961.0000   840.9361     0.4911
 1961.5000   841.2367     0.4706
 1962.0000   841.5374     0.4294
 1962.5000   841.8380     0.4089
 1963.0000   842.1387     0.3884
 1963.5000   842.4394     0.3783
 1964.0000   811.0273     0.3785
 1964.5000   770.9583     0.3787
 1965.0000   750.7391     0.4307
 1965.5000   730.3696     0.4930
 1966.0000   710.1505     0.5242
 1966.5000   679.5587     0.5244
 1967.0000   648.9669     0.5143
 1967.5000   597.7802     0.5145
 1968.0000   577.4859     0.5268
 1968.5000   567.4890     0.5564
 1969.0000   557.4922     0.5980
 1969.5000   557.8680     0.6810
 1970.0000   558.1686     0.7329
 1970.5000   558.4694     0.6089
 1971.0000   558.7700     0.4952
 1971.5000   559.0706     0.4644
 1972.0000   559.3713     0.4542
 1972.5000   559.6719     0.4648
 1973.0000   559.9771     0.4858
 1973.5000   560.2861     0.4963
 1974.0000   560.6491     0.5068
 1974.5000   560.9039     0.4863
 1975.0000   561.2128     0.4555
 1975.5000   561.5761     0.4039
 1976.0000   561.8768     0.3627
 1976.5000   562.1524     0.3526
 1977.0000   562.4530     0.3424
 1977.5000   562.7537     0.3530
 1978.0000   552.7569     0.3636
 1978.5000   553.1327     0.3741
 1979.0000   553.4333     0.3951
 1979.5000   553.7340     0.4056
 1980.0000   554.0346     0.4162
 1980.5000   554.3353     0.4371
 1981.0000   554.6360     0.4373
 1981.5000   554.9366     0.4375
 1982.0000   555.2403     0.4273
 1982.5000   555.5492     0.4069
 1983.0000   555.9138     0.4174
 1983.5000   545.9169     0.4280
 1984.0000   556.5151     0.4385
 1984.5000   556.8157     0.4180
 1985.0000   557.1164     0.3872
 1985.5000   557.4171     0.3770
 1986.0000   557.7177     0.3877
 1986.5000   568.3181     0.4097
 1987.0000   568.6270     0.4501
 1987.5000   568.9923     0.5021
 1988.0000   558.9203     0.4712
 1988.5000   559.2961     0.4197
 1989.0000   559.5968     0.3991
 1989.5000   559.8975     0.3994
 1990.0000   549.8254     0.3996
 1990.5000   550.2013     0.3894
 1991.0000   550.5035     0.4000
 1991.5000   561.1099     0.4210
 1992.0000   561.4759     0.4419
 1992.5000   572.0740     0.4835
 1993.0000   572.3748     0.5354
 1993.5000   572.6754     0.5977
 1994.0000   572.9760     0.6497
 1994.5000   583.5741     0.6603
 1995.0000   573.5698     0.6087
 1995.5000   542.9855     0.5882
 1996.0000   521.4609     0.6106
 1996.5000   471.5796     0.6611
 1997.0000   420.3929     0.7234
 1997.5000   400.0985     0.7754
 1998.0000   379.7291     0.8274
 1998.5000   369.7322     0.8379
 1999.0000   390.7030     0.8071
 1999.5000   411.5987     0.7762
 2000.0000   411.8993     0.7444
 2000.5000   391.5543     0.7250
 2001.0000   361.0368     0.7359
 2001.5000   330.1668     0.7363
 2002.0000   298.3502     0.7470
 2002.5000   259.0367     0.7474
 2003.0000   248.9641     0.6961
 2003.5000   228.6691     0.6137
 2004.0000   218.7466     0.6254
 2004.5000   219.0464     0.6560
 2005.0000   219.3464     0.6978
 2005.5000   219.6463     0.7292
 2006.0000   209.6487     0.7503
 2006.5000   199.6512     0.7922
 2007.0000   189.6536     0.8236
 2007.5000   179.6561     0.8872
 2008.0000   180.0310     1.1144
 2008.5000   180.3309     1.0423
 2009.0000   180.6308     0.9392
 2009.5000   180.9308     0.9396
 2010.0000   181.2357     0.9607
 2010.5000   181.6056     0.9508
 2011.0000   181.9055     0.9512
 2011.5000   192.5030     0.9204
 2012.0000   192.8028     0.8692
 2012.5000   193.1028     0.7971
 2013.0000   203.7002     0.7458
 2013.5000   214.2976     0.7151
 2014.0000   214.5995     0.7052
 2014.5000   214.9084     0.7367
 2015.0000   215.2724     0.7578
 2015.5000   215.5723     0.7582
 2016.0000   226.1698     0.7069
 2016.5000   226.4696     0.6348
 2017.0000   216.3971     0.5731
 2017.5000   216.7720     0.5102
 2018.0000   217.0719     0.4705
 2018.5000   217.3799     0.4604
 2019.0000   217.7468     0.4609
 2019.5000   228.3442     0.4717
 2020.0000   228.6441     0.4928
 2020.5000   228.9441     0.4938
 2021.0000   229.2440     0.4307
 2021.5000   239.8414     0.4008
 2022.0000   240.1413     0.3909
 2022.5000   240.4462     0.3914
 2023.0000   240.8161     0.4539
 2023.5000   241.0641     0.4853
 2024.0000   241.4160     0.4857
 2024.5000   241.7409     0.4755
 2025.0000   242.0158     0.4658
 2025.5000   242.3158     0.4767
 2026.0000   242.6157     0.5081
 2026.5000   242.9176     0.6017
 2027.0000   243.2655     0.6953
 2027.5000   253.8879     0.7371
 2028.0000   254.1419     0.5822
 2028.5000   254.4508     0.4882
 2029.0000   254.8127     0.4588
 2029.5000   255.0876     0.4385
