~VERSION INFORMATION
 VERS.                2.0:   CWLS LOG ASCII STANDARD - VERSION 2.0
 WRAP.                 NO:   ONE LINE PER DEPTH STEP
~WELL INFORMATION
#MNEM.UNIT      DATA TYPE    INFORMATION
#----------   ------------   ------------------------------
 STRT.F           70.0000:   START DEPTH
 STOP.F          865.0000:   STOP DEPTH
 STEP.F            0.5000:   STEP LENGTH
 NULL.          -999.2500:   NO VALUE
 COMP. U S NAVY/INTEX OIL CO:   COMPANY
 WELL.   54S 11 NPR #3-11:   WELL
 FLD .             TEAPOT:   FIELD
 LOC .      S11 T38N R78W:   LOCATION
 CNTY.            NATRONA:   COUNTY
 STAT.            WYOMING:   STATE
 CTRY. UNITED STATES OF AMERICA:   COUNTRY
 SRVC.         Lane Wells:   SERVICE COMPANY
 DATE.        11-MAR-1960:   LOGDATE
 API .       490250634900:   API NUMBER
~CURVE INFORMATION
#MNEM.UNIT       API CODE    CURVE DESCRIPTION
#----------   ------------   ------------------------------
 DEPT.F                  :   
 SPR .MV     05 010 01 00:   SPONTANEOUS POTENTIAL FROM RES.
 ASN .OHMM   05 041 16 00:   AMPLIFIED SHORT NORMAL 16"
 ILD .OHMM   05 120 46 00:   INDUCTION LOG DEEP
 CILD.MMHO   05 110 46 00:   CONDUCTIVITY INDUCTION LOG DEEP
~PARAMETER INFORMATION
#MNEM.UNIT          VALUE    DESCRIPTION
#----------   ------------   ------------------------------
 PD  .                 GL:   PERMANENT DATUM
 EPD .F              5198:   ELEVATION PERMANENT DATUM
 LMF .                 KB:   LOG MEASURED FROM
 DAPD.F                 5:   FEET ABOVE PERMANENT DATUM
 DMF .                 KB:   DRILLING MEASURED FROM
 EKB .F              5203:   KELLING BUSHING
 EGL .F              5198:   GROUND LEVEL
 DATE.            3-11-60:   RUN DATE
 RUN .                  1:   RUN NUMBER
 DD  .F               870:   DEPTH DRILLER
 DL  .F               867:   DEPTH LOGGER
 BLI .F               865:   BOTTOM LOG INTERVAL
 TLI .F                70:   TOP LOG INTERVAL
 CS  .IN            8.625:   CASING SIZE
 CBD .F                12:   CASING BOTTOM DRILLER
 BS  .IN            7.875:   BIT SIZE
 BSD .F               870:   BIT SIZE AT DEPTH
 DFT .   GEL/OIL EMULSION:   DRILLING FLUID TYPE
 DFD .                9.2:   DRILLING FLUID DENSITY
 DFV .                 36:   DRILLING FLUID VISCOSITY
 DFPH.                7.5:   DRILLING FLUID PH
 DFL .                4.4:   DRILLING FLUID LOSS
 MSS .                PIT:   MUD SAMPLE SOURCE
 RMS .OHMM            6.8:   RESISTIVITY MUD SAMPLE
 MST .F                54:   MUD SAMPLE TEMPERATURE
 RMF .OHMM            4.2:   RESISTIVITY MUD FILTRATE SAMPLE
 MFST.F                69:   MUD FILTRATE SAMPLE TEMPERATURE
 RMC .OHMM            5.1:   RESISTIVITY MUD CAKE
 MCST.F                69:   MUD CAKE SAMPLE TEMPERATURE
 MFSS.              PRESS:   MUD FILTRATE SAMPLE SOURCE
 MCSS.              PRESS:   MUD CAKE SAMPLE SOURCE
 RMB .OHMM            5.2:   RESISTIVITY MUD AT BHT
 BHT .F                70:   BOTTOM HOLE TEMPERATURE
 TCS .HRS              .5:   TIME CURCULATED STOPPED
 MRT .F                70:   MAXIMUM RECORDED TEMPERATURE
 LUN .             L-4474:   LOGGING UNIT NUMBER
 LUL .             CASPER:   LOGGING UNIT LOCATION
 ENGI.      GRIGGS/NELSON:   RECORDING ENGINEER
 WITN.   JORGENSEN/HUDSON:   WITNESSED BY
 CLNT.            A2DTECH:   CLIENT CODE
 ORIG.       2", 5" PRINT:   ORIGIN OF DATA
 UWI .       490250634900:   UNIQUE WELL ID
 DICO. A2D Technologies, Inc.:   DIGITIZING COMPANY
~OTHER INFORMATION
~A   DEPT       SPR         ASN        ILD      CILD  
# ...
  143.0000    -6.6157     6.6707     4.9240   230.5717
  143.5000    -6.7487     6.8124     4.9576   228.2853
  144.0000    -6.8818     6.9571     4.9913   230.4969
  144.5000    -7.0148     6.9627     5.0252   232.7046
  145.0000    -7.1478     6.8906     5.0259   234.9199
  145.5000    -7.2808     6.7069     5.0090   237.1315
  146.0000    -7.4140     6.5253     4.9921   239.3441
  146.5000    -7.5470     6.3438     4.9753   241.5602
  147.0000    -7.6793     6.1621     4.9586   243.7608
  147.5000    -7.7476     5.9791     4.9418   244.8207
  148.0000    -7.7268     5.7956     4.9250   245.7421
  148.5000    -7.7070     5.8265     4.9083   246.6636
  149.0000    -7.6869     5.8789     4.8915   247.6486
  149.5000    -7.6670     6.0757     4.8748   245.6555
  150.0000    -7.6470     6.6744     4.8579   241.5939
  150.5000    -7.6270     7.7066     4.8577   237.4839
  151.0000    -7.6070     8.7240     4.8729   233.3884
  151.5000    -7.5870     9.3634     4.8882   229.5043
  152.0000    -7.5671     9.7467     4.9037   233.3804
  152.5000    -7.5471     9.2772     4.9190   237.0663
  153.0000    -7.5271     8.4403     4.9350   240.7521
  153.5000    -7.5072     7.5949     4.8988   246.4425
  154.0000    -7.4872     6.7513     4.8323   253.4047
  154.5000    -7.4672     5.9085     4.7652   260.3670
  155.0000    -7.4472     5.1838     4.6979   267.3292
  155.5000    -7.4269     5.1111     4.6309   272.9008
  156.0000    -7.4070     5.0337     4.5785   272.5129
  156.5000    -7.4085     4.9842     4.5915   272.1249
  157.0000    -7.5330     5.0577     4.6032   271.7369
  157.5000    -7.6566     5.1283     4.6147   271.3489
  158.0000    -7.7798     5.1988     4.6263   270.9609
  158.5000    -7.9030     5.2696     4.6378   270.5729
  159.0000    -8.0262     5.3428     4.6494   270.1849
  159.5000    -8.1497     5.2696     4.6606   269.7969
  160.0000    -8.2779     5.1684     4.6598   269.4090
  160.5000    -8.2410     5.0663     4.6330   270.0501
  161.0000    -8.1594     4.9649     4.6067   270.8692
  161.5000    -8.0767     4.9337     4.5803   271.6883
  162.0000    -7.9955     4.8839     4.5539   272.5074
  162.5000    -7.9372     4.9260     4.5276   272.9743
  163.0000    -7.9666     4.9756     4.5012   273.8387
  163.5000    -8.0599     5.0249     4.4749   274.7602
  164.0000    -8.1523     5.0742     4.4485   275.6820
  164.5000    -8.2448     5.0981     4.4222   276.6035
  165.0000    -8.3371     5.0765     4.3958   277.5250
  165.5000    -8.4295     5.0547     4.3695   278.4080
  166.0000    -8.5219     4.9741     4.3431   282.5251
  166.5000    -8.6143     4.8470     4.3169   286.5101
  167.0000    -8.7067     4.7196     4.2809   290.4824
  167.5000    -8.7990     4.5920     4.2384   294.4527
  168.0000    -8.8914     4.4645     4.1958   298.4209
  168.5000    -8.9839     4.3481     4.1532   302.3904
  169.0000    -9.0764     4.2724     4.1105   304.9700
  169.5000    -9.1694     4.1963     4.0680   306.8129
  170.0000    -9.2116     4.2314     4.0370   308.6559
  170.5000    -9.0842     4.2644     4.0613   308.5877
  171.0000    -8.9516     4.2973     4.0845   307.7204
  171.5000    -8.8194     4.3313     4.1076   306.8531
  172.0000    -8.6874     4.3238     4.1306   305.9859
  172.5000    -8.5552     4.3040     4.1537   305.1186
  173.0000    -8.4230     4.3513     4.1768   304.2513
  173.5000    -8.3032     4.4137     4.1998   303.3841
  174.0000    -8.3637     4.4766     4.2229   302.5168
  174.5000    -8.4662     4.5395     4.2460   301.6664
  175.0000    -8.5690     4.6019     4.2690   300.8474
  175.5000    -8.6717     4.6152     4.2920   300.0283
  176.0000    -8.7743     4.6213     4.3078   299.2092
  176.5000    -8.8770     4.6273     4.3124   298.3317
  177.0000    -8.9796     4.6334     4.3172   296.8103
  177.5000    -9.0822     4.6395     4.3219   295.1721
  178.0000    -9.1884     4.6459     4.3267   293.5339
  178.5000    -9.2711     4.6578     4.3314   291.8958
  179.0000    -9.3504     4.7336     4.3361   290.2576
  179.5000    -9.4294     4.8730     4.3408   288.6192
  180.0000    -9.5086     4.9317     4.3456   286.9813
  180.5000    -9.5878     4.8681     4.3503   285.3431
  181.0000    -9.6672     4.8112     4.3550   283.8417
  181.5000    -9.7487     4.8438     4.3598   282.6163
  182.0000    -9.7350     4.8770     4.3645   281.4783
  182.5000    -9.7001     4.9096     4.3692   280.3445
  183.0000    -9.6646     4.9428     4.3740   279.2064
  183.5000    -9.6294     4.9710     4.3787   278.0764
  184.0000    -9.5942     5.0836     4.3834   276.9423
  184.5000    -9.5590     5.1937     4.3883   279.1597
  185.0000    -9.5238     5.2428     4.3929   282.8456
  185.5000    -9.4886     5.0357     4.3861   285.0862
  186.0000    -9.4534     4.8347     4.3343   290.3079
  186.5000    -9.4182     4.6342     4.2839   295.5296
  187.0000    -9.3830     4.4338     4.2335   300.7513
  187.5000    -9.3478     4.2332     4.1832   305.9730
  188.0000    -9.3126     4.0323     4.1331   311.1946
  188.5000    -9.2775     3.8341     4.0937   313.8777
  189.0000    -9.2423     3.7292     4.0568   311.6662
  189.5000    -9.2071     3.9224     4.0312   309.4546
  190.0000    -9.1719     4.3200     4.1104   303.5679
  190.5000    -9.1367     4.7174     4.1972   297.2014
  191.0000    -9.1012     5.1186     4.2843   290.8348
  191.5000    -9.0650     5.2238     4.3711   284.4683
  192.0000    -9.0395     5.3138     4.4579   278.1017
  192.5000    -9.1864     5.4054     4.5448   272.6271
  193.0000    -9.3366     5.4977     4.6314   268.1221
  193.5000    -9.3959     5.5902     4.7185   263.6172
  194.0000    -9.3764     5.6766     4.7641   259.1100
  194.5000    -9.3562     5.6783     4.7757   254.8477
  195.0000    -9.3361     5.7353     4.7866   252.9020
  195.5000    -9.3161     5.8351     4.7974   251.2393
  196.0000    -9.2961     5.9352     4.8082   252.4456
  196.5000    -9.2761     6.0251     4.8191   253.5513
  197.0000    -9.2562     6.0002     4.8301   254.6571
  197.5000    -9.2362     5.8918     4.8409   255.7629
  198.0000    -9.2162     5.7497     4.8426   256.6730
  198.5000    -9.1962     5.6064     4.7956   261.1612
  199.0000    -9.1762     5.4629     4.7387   267.7085
  199.5000    -9.1562     5.3124     4.6340   274.2558
  200.0000    -9.1362     5.1247     4.5304   280.8032
  200.5000    -9.1163     4.9394     4.4270   287.8084
  201.0000    -9.0963     4.7542     4.3236   296.1220
  201.5000    -9.0763     4.5689     4.2202   304.4356
  202.0000    -9.0565     4.3837     4.1168   312.7493
  202.5000    -9.0380     4.1985     4.0142   321.0629
  203.0000    -8.9608     4.0132     3.9096   329.3766
  203.5000    -8.8737     3.8278     3.8048   337.6902
  204.0000    -8.7864     3.6416     3.6992   346.0038
  204.5000    -8.6992     3.4537     3.5932   342.0644
  205.0000    -8.6121     3.5354     3.6197   342.7979
  205.5000    -8.5247     3.6556     3.6633   343.5315
  206.0000    -8.4375     3.5234     3.7526   336.0057
  206.5000    -8.3520     3.6851     3.8444   327.4476
  207.0000    -8.3767     3.8878     3.9364   318.8894
  207.5000    -8.5425     4.0912     4.0282   310.3313
  208.0000    -8.7066     4.2948     4.1200   301.7731
  208.5000    -8.8715     4.3732     4.2120   292.8980
  209.0000    -9.0361     4.4438     4.3044   291.1320
  209.5000    -9.2007     4.4207     4.3775   289.2755
  210.0000    -9.3655     4.3651     4.4510   292.8980
  210.5000    -9.5300     4.3102     4.4334   296.5658
  211.0000    -9.6965     4.2551     4.3291   300.2336
  211.5000    -9.7565     4.2004     4.2238   303.9013
  212.0000    -9.6534     4.0903     4.1269   307.3880
  212.5000    -9.5515     3.9345     4.0287   316.3688
  213.0000    -9.4502     3.7785     3.8594   331.4535
  213.5000    -9.3492     3.6236     3.6890   351.5040
  214.0000    -9.2482     3.3791     3.5185   371.5545
  214.5000    -9.1472     3.0772     3.3479   391.6050
  215.0000    -9.0461     2.7746     3.1776   411.6555
  215.5000    -8.9450     2.4688     3.0054   431.7061
