~VERSION INFORMATION
 VERS.                2.0:   CWLS LOG ASCII STANDARD - VERSION 2.0
 WRAP.                 NO:   ONE LINE PER DEPTH STEP
~WELL INFORMATION
#MNEM.UNIT      DATA TYPE    INFORMATION
#----------   ------------   ------------------------------
 STRT.F           88.0000:   START DEPTH
 STOP.F          893.0000:   STOP DEPTH
 STEP.F            0.5000:   STEP LENGTH
 NULL.          -999.2500:   NO VALUE
 COMP.          U.S. NAVY:   COMPANY
 WELL. RES 3 TEAPOT DOM #24S-35:   WELL
 FLD .        TEAPOT DOME:   FIELD
 LOC .      S35 T39N R78W:   LOCATION
 CNTY.            NATRONA:   COUNTY
 STAT.            WYOMING:   STATE
 CTRY. UNITED STATES OF AMERICA:   COUNTRY
 SRVC.       Schlumberger:   SERVICE COMPANY
 DATE.        26-JUL-1963:   LOGDATE
 API .       490250654800:   API NUMBER
~CURVE INFORMATION
#MNEM.UNIT       API CODE    CURVE DESCRIPTION
#----------   ------------   ------------------------------
 DEPT.F                  :   
 CALS.IN     60 280 50 00:   CALIPER FROM SONIC LOG
 DT  .US/F   60 520 00 00:   INTERVAL TRANSIT TIME
 GR  .GAPI   30 310 01 00:   GAMMA RAY
 ASN .OHMM   05 041 16 00:   AMPLIFIED SHORT NORMAL 16"
 CILD.MMHO   05 110 46 00:   CONDUCTIVITY INDUCTION LOG DEEP
 ILD .OHMM   05 120 46 00:   INDUCTION LOG DEEP
 SPR .MV     05 010 01 00:   SPONTANEOUS POTENTIAL FROM RES.
~PARAMETER INFORMATION
#MNEM.UNIT          VALUE    DESCRIPTION
#----------   ------------   ------------------------------
 PD  .                 GL:   PERMANENT DATUM
 EPD .F              5116:   ELEVATION PERMANENT DATUM
 LMF .                 KB:   LOG MEASURED FROM
 DAPD.F                 5:   FEET ABOVE PERMANENT DATUM
 DMF .                 KB:   DRILLING MEASURED FROM
 EKB .F              5121:   KELLING BUSHING
 EGL .F              5116:   GROUND LEVEL
 DATE.        26-JUL-1963:   RUN DATE
 RUN .                  1:   RUN NUMBER
 DD  .F               900:   DEPTH DRILLER
 DL  .F               894:   DEPTH LOGGER
 BLI .F               893:   BOTTOM LOG INTERVAL
 TLI .F                88:   TOP LOG INTERVAL
 CBD .F                10:   CASING BOTTOM DRILLER
 BS  .IN             6.75:   BIT SIZE
 BSD .F               900:   BIT SIZE AT DEPTH
 DFT .            GEL-OIL:   DRILLING FLUID TYPE
 DFD .                9.5:   DRILLING FLUID DENSITY
 DFV .                 92:   DRILLING FLUID VISCOSITY
 DFPH.                9.5:   DRILLING FLUID PH
 DFL .                5.8:   DRILLING FLUID LOSS
 MSS .           FLOWLINE:   MUD SAMPLE SOURCE
 RMS .OHMM           4.05:   RESISTIVITY MUD SAMPLE
 MST .F                75:   MUD SAMPLE TEMPERATURE
 RMF .OHMM           3.91:   RESISTIVITY MUD FILTRATE SAMPLE
 MFST.F                75:   MUD FILTRATE SAMPLE TEMPERATURE
 RMC .OHMM           3.54:   RESISTIVITY MUD CAKE
 MCST.F                75:   MUD CAKE SAMPLE TEMPERATURE
 MFSS.               MEAS:   MUD FILTRATE SAMPLE SOURCE
 MCSS.               MEAS:   MUD CAKE SAMPLE SOURCE
 TCS .HRS             0.5:   TIME CURCULATED STOPPED
 LUN .               4507:   LOGGING UNIT NUMBER
 LUL .               CSPR:   LOGGING UNIT LOCATION
 ENGI.             KNOBEL:   RECORDING ENGINEER
 WITN.          JORGENSON:   WITNESSED BY
 CLNT.            A2DTECH:   CLIENT CODE
 ORIG.           5" PRINT:   ORIGIN OF DATA
 UWI .       490250654800:   UNIQUE WELL ID
 DICO. A2D Technologies, Inc.:   DIGITIZING COMPANY
~OTHER INFORMATION
~A   DEPT     CALS         DT         GR          ASN      CILD         ILD      SPR   
# ...
  725.0000     7.0106   115.6600    77.5169     4.8487   289.8354     3.4366   -13.0827
  725.5000     7.0264   115.2797    76.7550     4.6973   292.8845     3.5076   -12.7943
  726.0000     7.0115   111.5786    76.4375     4.5442   291.3813     3.6551   -12.8076
  726.5000     6.9969   111.1236    75.8069     4.6667   279.2594     3.8781   -12.8183
  727.0000     6.9973   111.4972    77.5237     4.9086   255.7531     4.1012   -12.8289
  727.5000     6.9978   111.5031    69.6944     4.9841   245.9038     4.4744   -12.8395
  728.0000     6.9982   110.3592    66.8729     5.1201   231.4527     4.6974   -12.8528
  728.5000     6.9835   108.0865    77.1970     5.4225   217.1042     4.9959   -13.1651
  729.0000     6.9839   107.4013    78.9139     5.8006   201.9438     5.2190   -13.3266
  729.5000     6.9844   106.2741    79.5409     6.1787   187.5423     5.6677   -13.4881
  730.0000     6.9848   104.3844    79.1967     6.5113   177.4913     5.9662   -13.8030
  730.5000     6.9853   103.4003    73.4217     6.8138   167.8473     6.1893   -13.6602
  731.0000     6.9857   102.8690    75.4515     7.1011   160.2742     6.3369   -13.5200
  731.5000     6.9862   102.7151    76.6989     7.3761   156.4947     6.4177   -13.5333
  732.0000     6.9867   102.7884    77.3203     7.4941   153.4776     6.4807   -13.5466
  732.5000     6.9872   103.0111    80.9151     7.5242   153.4918     6.5526   -13.4037
  733.0000     6.9876   103.1590    81.5376     7.5543   156.5409     6.5482   -13.4170
  733.5000     6.9727   103.6844    77.6195     7.5239   159.7315     6.5446   -13.5785
  734.0000     6.8060   104.2852    71.3551     7.4632   164.1600     6.4647   -13.5918
  734.5000     6.8370   104.8860    65.7162     7.3572   167.2091     6.3856   -13.6024
  735.0000     6.9134   105.4918    65.0704     7.2653   171.7757     6.2309   -13.6131
  735.5000     6.9594   106.1879    63.9850     7.1451   177.1045     6.1488   -13.6237
  736.0000     6.9599   106.9896    59.5986     7.0390   180.9123     5.9208   -13.4835
  736.5000     6.9451   107.0628    54.8991     6.9027   185.4788     5.7662   -13.4968
  737.0000     6.9456   106.9837    57.7115     6.7449   190.1668     5.5360   -13.3566
  737.5000     6.9460   107.5845    66.4706     6.5091   204.4789     5.2304   -13.3673
  738.0000     6.9465   109.0909    74.2907     6.3425   220.4263     4.9238   -13.2297
  738.5000     6.9470   110.9748    77.1030     6.1306   228.0277     4.5426   -13.0895
  739.0000     6.9475   112.2548    79.6024     5.7219   229.5593     4.3124   -13.1002
  739.5000     6.9479   112.1764    79.4413     5.5554   226.5422     4.2333   -12.8092
  740.0000     6.8875   111.8715    79.1237     5.6157   222.0040     4.3808   -12.3700
  740.5000     6.8727   110.8875    86.0268     5.7226   217.4559     4.6785   -11.9281
  741.0000     6.9037   108.5449    86.9393     5.7818   211.4137     5.0526   -11.7853
  741.5000     6.8281   105.9578    85.8381     5.9178   203.8407     5.4267   -11.6477
  742.0000     6.7222   103.9110    85.2075     6.3564   194.7501     5.9509   -11.5076
  742.5000     6.6467   103.6303    84.1075     6.8101   178.5282     6.2495   -11.6717
  743.0000     6.6319   104.3059    78.6256     7.0823   168.9854     6.4725   -11.8331
  743.5000     6.6932   104.4546    75.8041     7.2334   164.4472     6.6955   -11.9947
  744.0000     6.8024   104.2245    75.1487     7.3243   162.9439     6.9275   -12.1587
  744.5000     6.8940   103.9196    79.2378     7.3995   162.9617     7.1407   -12.1694
  745.0000     6.9530   103.3129    82.6970     7.5053   161.4584     7.1371   -12.3308
  745.5000     6.8318   103.0080    84.5900     7.5657   159.9516     7.0580   -12.3416
  746.0000     6.7866   102.9296    87.0476     7.6430   158.3110     7.0544   -12.3548
  746.5000     6.7718   102.9266    91.4249     7.7166   156.1899     6.9745   -12.5163
  747.0000     6.8332   102.7727    93.9242     7.7770   153.9279     6.8954   -12.5269
  747.5000     6.9400   102.9962    93.4501     7.8374   153.1869     6.8918   -12.5375
  748.0000     6.9861   103.3706    85.7773     7.8977   153.9633     6.8882   -12.3973
  748.5000     6.9560   102.9824    78.2610     7.9127   155.4950     6.8838   -12.4106
  749.0000     6.9717   102.5207    78.5694     7.9125   157.7853     6.7292   -12.4213
  749.5000     7.0026   102.3044    79.3473     7.8813   159.3171     6.6501   -11.9794
  750.0000     6.9878   103.5094    79.4992     7.7004   162.3660     6.6465   -11.5376
  750.5000     6.9728   104.4332    80.2775     7.6675   161.6336     6.6412   -10.6448
  751.0000     6.9730   105.1175    81.5237     7.6049   161.6550     6.5595   -10.0550
  751.5000     6.9579   105.6178    77.1373     7.5271   160.8776     6.3280    -9.7613
  752.0000     6.9581   105.9186    69.7786     7.4644   160.1805     6.0965    -9.7746
  752.5000     6.9585   105.6904    71.6507     7.4315   163.2423     5.7792    -9.9361
  753.0000     6.9736   105.0851    75.0890     7.4294   172.3684     5.4812   -10.2510
  753.5000     7.0041   104.4044    77.5883     7.3819   193.7568     5.0986   -10.4125
  754.0000     7.0195   104.1014    78.8357     7.3156   221.7339     4.7906   -10.4231
  754.5000     7.0196   106.7411    76.9353     6.8779   230.1014     4.4833   -10.4338
  755.0000     7.0045   111.8717    76.9486     6.4067   236.9514     4.2518   -10.4471
  755.5000     6.9895   113.1532    76.4734     5.9961   239.2490     4.3224   -10.1561
  756.0000     6.9744   113.3811    77.8772     5.4118   242.3107     4.3930   -10.1667
  756.5000     6.9594   113.6880    83.3499     5.6283   245.3671     4.0847    -9.8756
  757.0000     6.9596   113.9035    83.8160     5.4900   246.1473     3.9287   -10.1906
  757.5000     6.9597   110.5054    83.1842     4.9281   242.3752     4.0043   -10.3521
  758.0000     6.9599   107.3341    82.3972     5.8483   225.7101     4.4463   -10.5136
  758.5000     6.9600   107.1821    79.7322     6.2849   215.1094     4.8191   -10.5241
  759.0000     6.9602   108.3878    77.5367     6.3886   212.0906     4.9653   -10.3840
  759.5000     6.9604   109.5184    76.2801     6.3714   217.4285     4.8080   -10.2438
  760.0000     6.9605   110.3471    67.4804     6.1569   225.8976     4.7275    -9.9528
  760.5000     6.9606   109.8173    66.7006     5.8825   230.3751     4.6471    -9.8153
  761.0000     6.9608   108.6083    70.1619     5.5929   231.1553     4.6420    -9.7421
  761.5000     6.9610   107.3992    75.9476     5.5451   231.1768     4.6360    -9.6857
  762.0000     6.9459   105.9336    78.2916     5.5735   230.3694     4.7821    -9.3947
  762.5000     6.9156   103.9623    70.7741     5.5557   227.4261     4.9282    -9.2572
  763.0000     6.9006   102.9416    66.2311     5.5390   218.3483     5.2254    -9.4213
  763.5000     6.8856   103.0911    67.6350     5.9636   204.7127     5.3716    -9.7336
  764.0000     6.9009   103.3915    72.6382     6.6532   187.9616     5.5921    -9.9985
  764.5000     6.9011   103.6164    73.9097     6.9082   179.7231     5.8137   -10.3582
  765.0000     6.9164   103.9923    73.8706     7.0120   173.6747     5.8843   -10.5223
  765.5000     6.9340   104.0667    76.4240     7.0864   169.1385     5.8781   -10.5330
  766.0000     6.9471   103.4611    78.7231     7.1585   176.0136     5.7976   -10.3901
  766.5000     6.9473   103.1577    76.2146     7.1871   185.1254     5.5649   -10.1005
  767.0000     6.9626   103.7600    81.0602     7.2001   192.7341     5.4849    -9.9623
  767.5000     6.9628   106.4126    79.8037     7.1778   195.0318     5.4796    -9.8240
  768.0000     6.9629   107.4551    78.7036     6.8166   195.8120     5.3978    -9.8347
  768.5000     6.9631   106.5476    78.0730     6.4816   195.0747     5.4697    -9.8454
  769.0000     6.9632   106.1688    75.8775     6.3887   193.5841     5.4635    -9.8586
  769.5000     6.9634   105.5635    74.1515     6.4189   190.5707     5.4585    -9.8692
  770.0000     6.9635   104.6564    78.9982     6.4747   186.7985     5.4524   -10.0307
