~VERSION INFORMATION
 VERS.                2.0:   CWLS LOG ASCII STANDARD - VERSION 2.0
 WRAP.                 NO:   ONE LINE PER DEPTH STEP
~WELL INFORMATION
#MNEM.UNIT      DATA TYPE    INFORMATION
#----------   ------------   ------------------------------
 STRT.F            0.0000:   START DEPTH
 STOP.F          860.0000:   STOP DEPTH
 STEP.F            0.5000:   STEP LENGTH
 NULL.          -999.2500:   NO VALUE
 COMP.          U.S. NAVY:   COMPANY
 WELL. NPR #3 TEAPOT DOME #28S-35:   WELL
 FLD .             TEAPOT:   FIELD
 LOC .      S35 T39N R78W:   LOCATION
 CNTY.            NATRONA:   COUNTY
 STAT.            WYOMING:   STATE
 CTRY. UNITED STATES OF AMERICA:   COUNTRY
 SRVC.       Schlumberger:   SERVICE COMPANY
 DATE.        10-NOV-1958:   LOGDATE
 API .       490250649800:   API NUMBER
~CURVE INFORMATION
#MNEM.UNIT       API CODE    CURVE DESCRIPTION
#----------   ------------   ------------------------------
 DEPT.F                  :   
 SPR .MV     01 010 01 00:   SPONTANEOUS POTENTIAL FROM RES.
 ASN .OHMM   01 041 16 00:   AMPLIFIED SHORT NORMAL 16"
 LT18.OHMM   01 070 18 00:   LATERAL 18'
 LN  .OHMM   01 060 64 00:   LONG NORMAL 64"
 GRN .CPS    35 310 30 00:   GAMMA RAY
 NEUT.CPS    35 330 30 00:   NEUTRON
 MCAL.IN     15 280 01 00:   CALIPER FROM MICRO LOG
~PARAMETER INFORMATION
#MNEM.UNIT          VALUE    DESCRIPTION
#----------   ------------   ------------------------------
 LMF .                 KB:   LOG MEASURED FROM
 DMF .                 KB:   DRILLING MEASURED FROM
 EKB .F              5113:   KELLING BUSHING
 EGL .F              5103:   GROUND LEVEL
 DATE.         11-10-1958:   RUN DATE
 RUN .                  1:   RUN NUMBER
 DD  .F               860:   DEPTH DRILLER
 DL  .F               861:   DEPTH LOGGER
 BLI .F               860:   BOTTOM LOG INTERVAL
 TLI .F                90:   TOP LOG INTERVAL
 CBD .F                34:   CASING BOTTOM DRILLER
 BS  .IN             6.75:   BIT SIZE
 BSD .F               860:   BIT SIZE AT DEPTH
 DFT .          OIL ADDED:   DRILLING FLUID TYPE
 DFD .                 10:   DRILLING FLUID DENSITY
 DFV .                 20:   DRILLING FLUID VISCOSITY
 DFPH.                7.5:   DRILLING FLUID PH
 DFL .                4.2:   DRILLING FLUID LOSS
 RMS .OHMM              2:   RESISTIVITY MUD SAMPLE
 MST .F                62:   MUD SAMPLE TEMPERATURE
 RMF .OHMM            1.4:   RESISTIVITY MUD FILTRATE SAMPLE
 MFST.F                72:   MUD FILTRATE SAMPLE TEMPERATURE
 RMC .OHMM            1.9:   RESISTIVITY MUD CAKE
 MCST.F                72:   MUD CAKE SAMPLE TEMPERATURE
 MFSS.                  M:   MUD FILTRATE SAMPLE SOURCE
 MCSS.                  M:   MUD CAKE SAMPLE SOURCE
 RMB .OHMM            1.7:   RESISTIVITY MUD AT BHT
 BHT .F                72:   BOTTOM HOLE TEMPERATURE
 TCS .HRS               1:   TIME CURCULATED STOPPED
 MRT .F                72:   MAXIMUM RECORDED TEMPERATURE
 LUN .               2754:   LOGGING UNIT NUMBER
 LUL .                 NC:   LOGGING UNIT LOCATION
 ENGI.             QUINBY:   RECORDING ENGINEER
 WITN.             MARTIN:   WITNESSED BY
 CLNT.            A2DTECH:   CLIENT CODE
 ORIG.     1", 2.5" PRINT:   ORIGIN OF DATA
 UWI .       490250649800:   UNIQUE WELL ID
 DICO. A2D Technologies, Inc.:   DIGITIZING COMPANY
~OTHER INFORMATION
~A    DEPT     SPR        ASN       LT18         LN          GRN     NEUT       MCAL   
# ...
  227.5000    -9.7738     3.5255     4.1554     3.2247     6.2524   403.5719     6.9618
  228.0000    -9.7590     3.5157     4.1081     3.4293     6.6251   404.7020     6.9606
  228.5000    -9.7441     3.4634     4.0338     3.4358     6.7991   399.7545     6.9596
  229.0000   -10.0010     3.3297     3.9054     3.3931     6.8682   403.5719     6.9584
  229.5000    -9.9862     3.2501     3.7128     3.4465     6.9537   405.8623     6.9574
  230.0000   -10.2431     3.1705     3.4459     3.5877     7.1449   392.8832     6.9561
  230.5000   -10.2282     3.0639     3.2432     3.7289     7.0586   390.5928     6.9550
  231.0000   -10.2134     2.9302     2.9122     3.7342     6.6613   398.2584     6.9539
  231.5000   -10.1985     2.8236     2.6453     4.0113     6.2564   404.4316     6.9529
  232.0000   -10.1837     2.7170     2.4595     4.1525     5.9033   407.3892     6.9518
  232.5000    -9.8971     2.6912     2.3311     4.2937     5.9961   392.8258     6.9507
  233.0000    -9.8823     2.6656     2.2027     4.2990     5.9002   394.3106     6.9497
  233.5000    -9.8674     2.7484     2.4808     4.1684     5.8279   402.8989     6.9486
  234.0000    -9.5808     2.9931     2.6226     4.1738     6.0783   406.5033     6.9475
  234.5000    -9.5660     3.0486     2.8996     4.0432     6.5098   416.0117     6.9464
  235.0000    -9.5511     3.0771     3.3116     3.9127     6.4685   424.4653     6.9454
  235.5000   -10.3515     3.4300     3.5886     3.7590     6.5096   426.6326     6.9443
  236.0000   -11.4236     3.9450     3.7304     3.6232     6.5918   429.1128     6.9431
  236.5000   -11.1370     4.1897     3.8722     3.5211     6.8594   434.1055     6.9421
  237.0000   -10.5787     4.3263     4.0140     3.7029     6.8762   431.0787     6.9410
  237.5000   -10.0204     4.4629     4.0207     4.0308     6.6945   420.9737     6.9399
  238.0000    -9.4584     4.5995     3.8922     4.3533     6.7150   412.7335     6.9388
  238.5000    -8.8963     4.7631     3.8989     4.4148     6.7809   418.5975     6.9377
  239.0000    -8.3451     4.9268     3.7702     4.6359     6.5912   419.6048     6.9366
  239.5000    -8.0440     5.0634     3.6420     4.8442     6.4470   415.9730     6.9355
  240.0000    -7.4818     5.3622     3.5135     4.9910     6.3027   407.5421     6.9344
  240.5000    -7.2133     5.7164     3.3851     5.0598     6.3438   405.5403     6.9333
  241.0000    -6.9266     5.9363     3.3986     5.0662     6.8791   414.0003     6.9322
  241.5000    -6.9117     6.1531     3.5439     5.2074     6.9202   411.2251     6.9309
  242.0000    -6.8967     6.2654     3.6756     5.3486     6.8377   397.8966     6.9299
  242.5000    -6.9180     6.3696     3.6824     5.4898     6.7552   390.9429     6.9288
  243.0000    -7.1397     6.3981     3.6892     5.4952     6.6725   383.2708     6.9824
  243.5000    -7.1236     6.4266     3.6960     5.3641     6.5678   383.4579     7.0359
  244.0000    -7.1087     6.4281     3.7297     5.5058     6.4255   392.1303     7.1715
  244.5000    -7.0937     6.3945     3.8750     5.5112     6.4761   398.5176     7.0611
  245.0000    -7.0788     6.3184     4.0203     5.5165     6.6971   406.6258     6.9781
  245.5000    -7.0638     6.2703     4.2635     5.5218     6.8522   411.2066     6.9482
  246.0000    -6.7772     6.3043     4.2703     5.5271     7.1137   429.5299     6.9759
  246.5000    -6.7622     6.3545     4.2770     5.5326     7.0971   440.2186     6.9749
  247.0000    -6.7473     6.3560     4.2838     5.6739     6.6806   442.5090     6.9738
  247.5000    -6.7323     6.3574     4.4257     5.6794     6.7432   442.5090     7.0001
  248.0000    -6.7174     6.3317     4.4324     5.8207     7.1660   433.3473     6.9989
  248.5000    -6.7024     6.2987     4.4392     5.8551     7.1182   427.7052     6.9978
  249.0000    -6.6875     6.2536     4.5811     5.9674     6.8465   452.4341     6.9968
  249.5000    -6.7595     6.2197     4.6521     6.0127     6.5841   448.6168     6.9956
  250.0000    -6.9318     6.1666     4.8649     6.1141     6.8675   454.7245     6.9945
  250.5000    -6.9144     6.1407     4.8716     6.1196     6.7860   459.3054     6.9934
  251.0000    -6.8994     6.0877     4.5946     6.1250     6.6843   457.7784     6.9923
  251.5000    -6.8845     6.0447     4.2669     6.1304     6.5622   452.4341     6.9913
  252.0000    -7.1847     6.0573     4.0824     6.1359     6.3997   447.0898     6.9901
  252.5000    -8.2163     6.2011     3.8188     6.1413     6.2979   457.7784     6.9891
  253.0000    -7.8143     6.4359     3.6904     6.1467     6.1556   451.6707     6.9604
  253.5000    -7.3682     6.6158     3.8322     6.1532     6.2161   446.3264     6.9320
  254.0000    -7.0815     6.7263     3.9740     6.1585     6.4589   437.1490     6.9037
  254.5000    -7.0665     6.7967     4.2509     6.1639     6.6409   438.0146     6.9026
  255.0000    -7.0516     6.8527     4.3927     6.1692     6.7216   447.1664     6.9015
  255.5000    -7.0366     6.8677     4.5345     6.1745     6.4172   440.1639     6.9004
  256.0000    -7.0217     6.8962     4.8115     6.1798     6.4897   438.7419     6.8994
  256.5000    -7.0068     6.9247     4.9533     6.1852     6.9028   425.7126     6.8983
  257.0000    -7.2636     6.9109     5.0951     6.0546     6.6046   423.6637     6.8972
  257.5000    -7.2487     6.8151     5.3720     5.6524     6.2797   411.7281     6.8962
  258.0000    -7.2337     6.6592     5.5138     5.5218     6.1254   401.3131     6.8951
  258.5000    -7.2188     6.5256     5.5205     5.2536     6.0904   382.3419     6.8940
  259.0000    -7.2038     6.2568     5.6623     4.7028     6.3143   386.0188     6.9203
  259.5000    -7.1889     5.9339     5.6690     4.3150     6.7408   390.5928     6.9191
  260.0000    -6.8992     5.5300     5.5405     4.4747     6.9203   384.4850     6.9180
  260.5000    -6.8844     5.0720     5.5472     4.7572     6.5956   394.3483     6.9444
  261.0000    -6.5978     4.5329     5.4054     5.0399     6.6357   424.9722     6.9432
  261.5000    -6.5829     3.8317     5.0000     5.1866     6.4616   441.2189     6.9421
  262.0000    -6.2963     2.9953     4.6081     5.4692     6.0936   469.0986     6.9410
  262.5000    -6.0098     2.6455     4.1892     5.7518     5.9081   478.3915     6.9399
  263.0000    -5.4514     2.4848     3.6082     5.8985     5.7759   489.5289     6.9661
  263.5000    -5.4366     2.3781     2.8379     5.9330     5.7408   489.4549     6.9650
  264.0000    -5.9652     2.4607     2.2702     5.7228     5.8532   481.5378     6.9639
  264.5000    -6.4959     2.6243     1.8168     5.6612     5.9451   486.3238     6.9628
  265.0000    -6.4790     2.8420     1.8581     5.5254     6.0587   490.6847     6.9616
  265.5000    -6.4642     3.1678     2.4459     5.4674     6.1253   483.3277     6.9605
  266.0000    -6.7210     3.7098     3.1217     5.3370     6.0640   464.4476     6.9594
  266.5000    -6.7062     4.6843     4.2297     5.2065     5.9622   455.2667     6.9857
  267.0000    -7.2348     5.5506     4.8311     4.9410     5.8402   440.8817     6.9846
  267.5000    -7.4932     6.2818     5.2027     4.9464     6.0020   427.5836     6.9835
  268.0000    -8.2921     7.3985     5.5676     5.0876     6.1232   407.3892     6.9825
  268.5000    -8.5503     8.0294     5.8479     5.3646     6.2241   390.5928     6.9814
  269.0000    -8.5341     8.5484     6.0676     5.6417     6.3454   393.6467     6.9803
  269.5000    -8.5193     8.9080     6.0743     5.7829     6.5274   410.4431     6.9792
  270.0000    -8.5044     9.0187     6.2162     5.9241     6.6284   427.2395     6.9782
  270.5000    -8.4896     8.7569     6.2230     6.2012     6.3847   447.0898     6.9770
  271.0000    -8.4748     8.5498     6.1554     6.4801     5.8370   476.1018     6.9759
  271.5000    -8.4599     8.2918     5.7534     6.7554     5.3907   484.2746     6.9749
  272.0000    -8.4451     7.5546     5.2986     6.9094     5.3898   492.8982     6.9738
  272.5000    -8.1585     6.5309     4.7648     7.1921     5.6737   476.1018     6.9727
