~VERSION INFORMATION
 VERS.                2.0:   CWLS LOG ASCII STANDARD - VERSION 2.0
 WRAP.                 NO:   ONE LINE PER DEPTH STEP
~WELL INFORMATION
#MNEM.UNIT      DATA TYPE    INFORMATION
#----------   ------------   ------------------------------
 STRT.F           32.5000:   START DEPTH
 STOP.F          654.0000:   STOP DEPTH
 STEP.F            0.5000:   STEP LENGTH
 NULL.          -999.2500:   NO VALUE
 COMP. FENIX & SCISSON INC:   COMPANY
 WELL.          NPR #13-2:   WELL
 FLD .             TEAPOT:   FIELD
 LOC .       S2 T38N R78W:   LOCATION
 CNTY.            NATRONA:   COUNTY
 STAT.            WYOMING:   STATE
 CTRY. UNITED STATES OF AMERICA:   COUNTRY
 SRVC.           BIRDWELL:   SERVICE COMPANY
 DATE.        16-JAN-1978:   LOGDATE
 API .       490251055100:   API NUMBER
~CURVE INFORMATION
#MNEM.UNIT       API CODE    CURVE DESCRIPTION
#----------   ------------   ------------------------------
 DEPT.F                  :   
 ILD .OHMM   05 120 46 00:   INDUCTION LOG DEEP
 SN  .OHMM   05 040 16 00:   SHORT NORMAL 16"
 SPR .MV     05 010 01 00:   SPONTANEOUS POTENTIAL FROM RES.
 CALD.IN     45 280 60 00:   CALIPER FROM DENSITY LOG
 CORR.G/C3   45 356 01 00:   DENSITY CORRECTION
 DPHI.DEC    45 890 12 00:   DENSITY POROSITY SANDSTONE
 GRD .GAPI   45 310 01 00:   GAMMA RAY FROM DENSITY LOG
 RHOB.G/C3   45 350 01 00:   BULK DENSITY
~PARAMETER INFORMATION
#MNEM.UNIT          VALUE    DESCRIPTION
#----------   ------------   ------------------------------
 PD  .                 GL:   PERMANENT DATUM
 EPD .F              5091:   ELEVATION PERMANENT DATUM
 LMF .                 KB:   LOG MEASURED FROM
 DAPD.F                 4:   FEET ABOVE PERMANENT DATUM
 DMF .                 KB:   DRILLING MEASURED FROM
 EKB .F              5095:   KELLING BUSHING
 EGL .F              5091:   GROUND LEVEL
 DATE.        16-JAN-1978:   RUN DATE
 RUN .                  1:   RUN NUMBER
 DD  .F               652:   DEPTH DRILLER
 DL  .F               654:   DEPTH LOGGER
 BLI .F               649:   BOTTOM LOG INTERVAL
 TLI .F                30:   TOP LOG INTERVAL
 CS  .IN            8.625:   CASING SIZE
 CBD .F                20:   CASING BOTTOM DRILLER
 CBL .F                34:   CASING BOTTOM LOGGER
 BS  .IN            7.875:   BIT SIZE
 BSD .F               652:   BIT SIZE AT DEPTH
 DFT .                KCL:   DRILLING FLUID TYPE
 DFD .                8.7:   DRILLING FLUID DENSITY
 DFV .                 34:   DRILLING FLUID VISCOSITY
 DFPH.                 10:   DRILLING FLUID PH
 MSS .           FLOWLINE:   MUD SAMPLE SOURCE
 RMS .OHMM            0.3:   RESISTIVITY MUD SAMPLE
 MST .F                62:   MUD SAMPLE TEMPERATURE
 RMF .OHMM           0.26:   RESISTIVITY MUD FILTRATE SAMPLE
 MFST.F                66:   MUD FILTRATE SAMPLE TEMPERATURE
 RMC .OHMM           0.48:   RESISTIVITY MUD CAKE
 MCST.F                66:   MUD CAKE SAMPLE TEMPERATURE
 MFSS.               MEAS:   MUD FILTRATE SAMPLE SOURCE
 MCSS.               MEAS:   MUD CAKE SAMPLE SOURCE
 RMB .OHMM           0.26:   RESISTIVITY MUD AT BHT
 BHT .F                72:   BOTTOM HOLE TEMPERATURE
 TCS .HRS               3:   TIME CURCULATED STOPPED
 MRT .F                72:   MAXIMUM RECORDED TEMPERATURE
 LUN .               3027:   LOGGING UNIT NUMBER
 LUL .                GJT:   LOGGING UNIT LOCATION
 ENGI.           MARTINEZ:   RECORDING ENGINEER
 WITN.         HARRINGTON:   WITNESSED BY
 CLNT.            A2DTECH:   CLIENT CODE
 ORIG.           5" PRINT:   ORIGIN OF DATA
 UWI .       490251055100:   UNIQUE WELL ID
 DICO. A2D Technologies, Inc.:   DIGITIZING COMPANY
~OTHER INFORMATION
~A   DEPT      ILD         SN        SPR       CALD       CORR       DPHI         GRD      RHOB   
# ...
  275.5000    12.1583    12.7198   -25.9699     8.7279     0.0510     0.1145    76.9028     2.4673
  276.0000    11.9930    12.6322   -25.9640     8.7282     0.0615     0.1153    70.8268     2.4673
  276.5000    11.8302    12.5453   -25.9825     8.7284     0.0750     0.1176    70.8424     2.4673
  277.0000    11.7499    12.2879   -26.4013     8.7287     0.0810     0.1176    73.8472     2.4664
  277.5000    11.5106    12.0358   -26.6958     8.7290     0.0839     0.1176    80.5629     2.4658
  278.0000    10.9682    11.8706   -26.9917     8.7294     0.0885     0.1173    80.2612     2.4628
  278.5000    10.3793    11.6949   -27.1360     8.7346     0.0929     0.1176    80.5681     2.4598
  279.0000    10.0975    11.5470   -26.9786     8.7449     0.0989     0.1206    79.5080     2.4568
  279.5000    10.0989    11.5470   -26.6724     8.7434     0.1048     0.1245    79.3582     2.4538
  280.0000    10.1003    11.3886   -26.3663     8.7420     0.1108     0.1272    79.3619     2.4508
  280.5000    10.2426    11.3886   -26.2102     8.7406     0.1198     0.1272    79.9728     2.4492
  281.0000    10.3151    11.3886   -26.3546     8.7392     0.1288     0.1265    80.3303     2.4477
  281.5000    10.3880    11.3886   -26.3473     8.7378     0.1377     0.1253    81.1946     2.4492
  282.0000    10.5341    11.3886   -26.3419     8.7364     0.1467     0.1245    82.8693     2.4507
  282.5000    10.6822    11.3886   -26.3361     8.7350     0.1467     0.1236    84.2654     2.4553
  283.0000    10.7578    11.4675   -26.3302     8.7336     0.1482     0.1224    83.6861     2.4567
  283.5000    10.9091    11.4675   -26.3243     8.7326     0.1484     0.1209    80.9025     2.4582
  284.0000    10.9903    11.5470   -26.1682     8.7180     0.1526     0.1188    80.9063     2.4604
  284.5000    11.1411    11.5470   -26.1611     8.7033     0.1571     0.1176    80.4533     2.4612
  285.0000    11.2199    11.6271   -26.1552     8.6887     0.1601     0.1209    80.3036     2.4597
  285.5000    11.4566    11.7889   -26.3010     8.6739     0.1615     0.1211    80.4593     2.4597
  286.0000    11.5377    11.8706   -26.7441     8.6743     0.1645     0.1176    82.8939     2.4627
  286.5000    11.6193    12.0358   -26.8899     8.6595     0.1645     0.1155    83.3528     2.4672
  287.0000    11.6208    12.2033   -26.8826     8.6749     0.1644     0.1137    83.3558     2.4679
  287.5000    11.7030    12.2879   -26.8768     8.6752     0.1614     0.1134    85.4864     2.4679
  288.0000    11.7046    12.2033   -26.7207     8.7054     0.1584     0.1170    88.8328     2.4679
  288.5000    11.6255    12.1192   -26.4144     8.7057     0.1523     0.1182    89.7477     2.4686
  289.0000    11.5469    12.0358   -26.2586     8.7060     0.1493     0.1149    87.3697     2.4686
  289.5000    11.5489    11.9529   -26.4029     8.7213     0.1493     0.1122    81.0910     2.4731
  290.0000    11.3918    11.9529   -26.3956     8.7216     0.1492     0.1092    81.7026     2.4821
  290.5000    11.3933    11.9529   -26.3898     8.7219     0.1492     0.1056    85.5050     2.4896
  291.0000    11.3949    11.9529   -26.0836     8.7072     0.1492     0.1065    88.6995     2.4941
  291.5000    11.3178    11.9529   -25.6273     8.7075     0.1492     0.1050    88.8537     2.4866
  292.0000    11.2414    11.9529   -25.4713     8.7078     0.1431     0.1074    87.9455     2.4791
  292.5000    11.2429    12.0358   -26.0686     8.7081     0.1356     0.1036    87.3406     2.4851
  293.0000    11.2448    12.0358   -26.5295     8.7084     0.1371     0.1006    86.4317     2.4903
  293.5000    11.2463    12.0358   -26.8052     8.7087     0.1370     0.1002    84.6110     2.4927
  294.0000    11.3258    12.0358   -26.7978     8.7090     0.1352     0.1066    83.0942     2.4813
  294.5000    11.3273    12.0358   -26.7920     8.6793     0.1249     0.1114    83.1226     2.4729
  295.0000    11.3289    12.0358   -26.7862     8.6637     0.1114     0.1129    83.9108     2.4708
  295.5000    11.3304    12.0358   -26.7803     8.6476     0.0919     0.1117    86.9033     2.4745
  296.0000    11.3319    12.0358   -26.7745     8.6054     0.0798     0.1102    92.2254     2.4790
  296.5000    11.3335    12.0358   -27.0691     8.5907     0.0753     0.1093    91.9244     2.4813
  297.0000    11.2568    12.0358   -27.3634     8.5610     0.0723     0.1105    88.5840     2.4798
  297.5000    11.1037    11.9529   -27.6578     8.5614     0.0647     0.1162    85.8514     2.4730
  298.0000    11.0287    11.9529   -27.8021     8.5617     0.0557     0.1231    86.1583     2.4640
  298.5000    10.9542    11.9529   -27.7948     8.5919     0.0435     0.1261    88.2889     2.4572
  299.0000    10.9560    12.0358   -27.7890     8.5922     0.0342     0.1255    89.3558     2.4595
  299.5000    10.9575    12.0358   -27.7831     8.5925     0.0255     0.1234    89.5107     2.4647
  300.0000    10.9589    11.9622   -27.7766     8.5928     0.0225     0.1201    87.8419     2.4685
  300.5000    10.8842    11.7351   -27.9212     8.5968     0.0345     0.1117    88.8879     2.4730
  301.0000    10.8744    11.6287   -27.9120     8.6044     0.0436     0.1213    88.3668     2.4640
  301.5000    10.7361    11.6297   -27.9047     8.6119     0.0331     0.1291    86.1121     2.4505
  302.0000    10.5896    11.5502   -27.8973     8.6195     0.0257     0.1273    82.2948     2.4444
  302.5000    10.3729    11.4714   -27.8900     8.6258     0.0197     0.1282    80.9091     2.4467
  303.0000    10.1606    11.3149   -27.8826     8.6563     0.0137     0.1272    81.0432     2.4499
  303.5000    10.4463    11.3157   -27.8753     8.6719     0.0122     0.1213    83.0010     2.4550
  304.0000    10.8145    11.2384   -27.7177     8.6874     0.0138     0.1189    87.6943     2.4497
  304.5000    10.7407    11.2393   -27.5601     8.7030     0.0153     0.1177    86.6126     2.4429
  305.0000    10.3049    11.2401   -27.7012     8.7036     0.0168     0.1177    83.7072     2.4414
  305.5000     9.7510    11.0102   -27.6939     8.7043     0.0168     0.1183    84.1452     2.4429
  306.0000     9.2909    10.9351   -27.8385     8.6898     0.0169     0.1183    83.5194     2.4474
  306.5000     9.2275    10.6378   -27.8293     8.6905     0.0199     0.1174    81.6778     2.4520
  307.0000     9.2922    10.4839   -27.9740     8.6911     0.0259     0.1165    81.6596     2.4550
  307.5000     9.2288    10.3492   -27.9648     8.6917     0.0305     0.1186    81.6413     2.4527
  308.0000     9.2295    10.2079   -27.9574     8.6922     0.0320     0.1273    81.0117     2.4489
  308.5000     9.1664    10.1383   -27.9501     8.6929     0.0320     0.1273    81.2978     2.4474
  309.0000     9.1038    10.1391   -27.9427     8.6934     0.0353     0.1283    85.5352     2.4489
  309.5000     9.1046    10.2101   -27.9354     8.6940     0.0396     0.1285    87.9489     2.4520
  310.0000     9.1684    10.3529   -27.8479     8.6946     0.0336     0.1237    88.2395     2.4551
  310.5000     9.2967    10.4254   -27.7703     8.6952     0.0292     0.1208    85.9375     2.4580
  311.0000     9.6244    10.6445   -27.7614     8.6958     0.0397     0.1196    82.7281     2.4595
  311.5000     9.8950    10.9435   -27.7540     8.6964     0.0517     0.1208    81.1904     2.4595
  312.0000    10.0335    11.0965   -27.7467     8.6971     0.0563     0.1220    85.5798     2.4595
  312.5000    10.1038    11.0973   -27.7393     8.6977     0.0593     0.1205    92.0969     2.4595
  313.0000    10.1045    11.0216   -27.8840     8.6983     0.0684     0.1190    91.6231     2.4587
  313.5000    10.1053    11.0224   -27.7246     8.6989     0.0774     0.1193    89.2827     2.4595
  314.0000    10.1060    11.0233   -27.7173     8.6995     0.0894     0.1205    84.3101     2.4595
  314.5000    10.1067    11.0240   -27.7099     8.7001     0.1015     0.1220    82.5984     2.4565
  315.0000    10.1074    11.0248   -27.7026     8.7006     0.1120     0.1232    82.5805     2.4550
  315.5000    10.1782    11.0255   -27.6952     8.7012     0.1195     0.1238    86.5139     2.4535
