~VERSION INFORMATION
 VERS.                2.0:   CWLS LOG ASCII STANDARD - VERSION 2.0
 WRAP.                 NO:   ONE LINE PER DEPTH STEP
~WELL INFORMATION
#MNEM.UNIT      DATA TYPE    INFORMATION
#----------   ------------   ------------------------------
 STRT.F           70.0000:   START DEPTH
 STOP.F         1088.0000:   STOP DEPTH
 STEP.F            0.5000:   STEP LENGTH
 NULL.          -999.2500:   NO VALUE
 COMP. U S NAVY/INTEX OIL CO:   COMPANY
 WELL. RES 3 TEAPOT DOME #66S-11:   WELL
 FLD .             TEAPOT:   FIELD
 LOC .      S11 T38N R78W:   LOCATION
 CNTY.            NATRONA:   COUNTY
 STAT.            WYOMING:   STATE
 CTRY. UNITED STATES OF AMERICA:   COUNTRY
 SRVC.         Lane Wells:   SERVICE COMPANY
 DATE.        06-MAR-1960:   LOGDATE
 API .       490250633400:   API NUMBER
~CURVE INFORMATION
#MNEM.UNIT       API CODE    CURVE DESCRIPTION
#----------   ------------   ------------------------------
 DEPT.F                  :   
 SPR .MV     05 010 01 00:   SPONTANEOUS POTENTIAL FROM RES.
 ILD .OHMM   05 120 46 00:   INDUCTION LOG DEEP
 CILD.MMHO   05 110 00 00:   CONDUCTIVITY INDUCTION LOG
 ASN .OHMM   05 041 16 00:   AMPLIFIED SHORT NORMAL 16"
~PARAMETER INFORMATION
#MNEM.UNIT          VALUE    DESCRIPTION
#----------   ------------   ------------------------------
 PD  .                 GL:   PERMANENT DATUM
 EPD .F              5238:   ELEVATION PERMANENT DATUM
 LMF .                 KB:   LOG MEASURED FROM
 DAPD.F                 5:   FEET ABOVE PERMANENT DATUM
 DMF .                 KB:   DRILLING MEASURED FROM
 EKB .F              5243:   KELLING BUSHING
 EGL .F              5238:   GROUND LEVEL
 DATE.             3-6-60:   RUN DATE
 RUN .                  1:   RUN NUMBER
 DD  .F              1085:   DEPTH DRILLER
 DL  .F              1087:   DEPTH LOGGER
 BLI .F              1085:   BOTTOM LOG INTERVAL
 TLI .F                70:   TOP LOG INTERVAL
 CS  .IN            8.625:   CASING SIZE
 CBD .F                12:   CASING BOTTOM DRILLER
 BS  .IN            7.875:   BIT SIZE
 BSD .F              1085:   BIT SIZE AT DEPTH
 DFT .   GEL/OIL EMULSION:   DRILLING FLUID TYPE
 DFD .               10.3:   DRILLING FLUID DENSITY
 DFV .                 37:   DRILLING FLUID VISCOSITY
 DFPH.                8.5:   DRILLING FLUID PH
 DFL .                7.2:   DRILLING FLUID LOSS
 MSS .          FLOW LINE:   MUD SAMPLE SOURCE
 RMS .OHMM           1.65:   RESISTIVITY MUD SAMPLE
 MST .F                70:   MUD SAMPLE TEMPERATURE
 RMF .OHMM            1.2:   RESISTIVITY MUD FILTRATE SAMPLE
 MFST.F                68:   MUD FILTRATE SAMPLE TEMPERATURE
 RMC .OHMM            1.8:   RESISTIVITY MUD CAKE
 MCST.F                68:   MUD CAKE SAMPLE TEMPERATURE
 MFSS.              PRESS:   MUD FILTRATE SAMPLE SOURCE
 MCSS.              PRESS:   MUD CAKE SAMPLE SOURCE
 RMB .OHMM            1.5:   RESISTIVITY MUD AT BHT
 BHT .F                74:   BOTTOM HOLE TEMPERATURE
 MRT .F                74:   MAXIMUM RECORDED TEMPERATURE
 LUN .               4474:   LOGGING UNIT NUMBER
 LUL .             CASPER:   LOGGING UNIT LOCATION
 ENGI.      NELSON/GRIGGS:   RECORDING ENGINEER
 WITN.   JORGENSEN/HUDSON:   WITNESSED BY
 CLNT.            A2DTECH:   CLIENT CODE
 ORIG.       2", 5" PRINT:   ORIGIN OF DATA
 UWI .       490250633400:   UNIQUE WELL ID
 DICO. A2D Technologies, Inc.:   DIGITIZING COMPANY
~OTHER INFORMATION
~A   DEPT      SPR          ILD      CILD         ASN 
# ...
  654.0000   -36.5571     6.1577   165.6006     7.2818
  654.5000   -36.4885     6.1240   164.6712     7.2602
  655.0000   -36.4199     6.1125   163.7488     7.3229
  655.5000   -36.3512     6.1469   162.8265     7.4142
  656.0000   -36.2826     6.1954   161.9041     7.5065
  656.5000   -36.2140     6.2447   160.9818     7.5989
  657.0000   -36.1454     6.2938   160.0594     7.6935
  657.5000   -36.0767     6.3430   159.1371     7.7446
  658.0000   -36.0078     6.3923   158.2147     7.7854
  658.5000   -35.9380     6.4407   157.2910     7.8259
  659.0000   -35.8787     6.4759   156.3700     7.8668
  659.5000   -36.0219     6.4778   155.4476     7.9097
  660.0000   -36.1714     6.4864   156.0210     7.8331
  660.5000   -36.3198     6.4947   158.1292     7.7362
  661.0000   -36.4681     6.5031   160.2375     7.6381
  661.5000   -36.6166     6.5115   162.5477     7.5380
  662.0000   -36.7643     6.5198   162.3857     7.5514
  662.5000   -36.9160     6.5282   162.1804     7.5737
  663.0000   -36.8250     6.5366   161.9838     7.5954
  663.5000   -36.6056     6.5450   161.7896     7.6170
  664.0000   -36.3829     6.5533   161.5954     7.6386
  664.5000   -36.1601     6.5618   161.4012     7.6594
  665.0000   -35.9259     6.5446   161.2071     7.6255
  665.5000   -35.9816     6.5037   161.0129     7.5593
  666.0000   -36.1343     6.4628   160.8187     7.4981
  666.5000   -36.2896     6.4218   160.8843     7.5652
  667.0000   -36.4443     6.3808   161.1475     7.5078
  667.5000   -36.5993     6.3399   161.4112     7.4489
  668.0000   -36.7590     6.2989   161.6749     7.3900
  668.5000   -36.6872     6.2579   161.9383     7.3899
  669.0000   -36.5629     6.2165   162.2012     7.4199
  669.5000   -36.4313     6.2037   162.4680     7.4516
  670.0000   -36.6777     6.2035   162.7784     7.4345
  670.5000   -36.9885     6.2035   163.1138     7.3983
  671.0000   -37.3038     6.2035   163.4492     7.3613
  671.5000   -37.0729     6.2035   163.7839     7.3243
  672.0000   -36.7790     6.2035   164.1234     7.2873
  672.5000   -36.6884     6.2017   164.5725     7.2492
  673.0000   -36.9038     6.1941   165.3569     7.2637
  673.5000   -37.1175     6.1867   166.1336     7.2900
  674.0000   -37.3194     6.1793   166.9103     7.3160
  674.5000   -37.0661     6.1720   167.6870     7.3203
  675.0000   -36.7854     6.1646   168.4637     7.2800
  675.5000   -36.5061     6.1572   169.2404     7.2406
  676.0000   -36.2395     6.1498   170.0183     7.2010
  676.5000   -36.1393     6.1425   170.7992     7.1613
  677.0000   -36.0621     6.1351   171.6234     7.1218
  677.5000   -36.2100     6.1277   170.7741     7.0837
  678.0000   -36.3598     6.1203   168.9294     7.1341
  678.5000   -36.5083     6.1130   167.0847     7.2892
  679.0000   -36.6565     6.1121   165.2400     7.4433
  679.5000   -36.8050     6.1169   163.3953     7.5979
  680.0000   -36.9526     6.2262   161.5506     7.7524
  680.5000   -37.1057     6.3376   159.7059     7.9069
  681.0000   -36.9602     6.4485   157.8612     8.0614
  681.5000   -36.6792     6.5593   156.0165     8.2163
  682.0000   -36.8132     6.6586   154.1718     8.3371
  682.5000   -37.1052     6.7068   152.3271     8.4379
  683.0000   -37.2611     6.7850   151.5996     8.5379
  683.5000   -36.8746     6.8639   151.1384     8.6161
  684.0000   -36.4912     6.9220   150.6772     8.5693
  684.5000   -36.5348     6.8737   150.2161     8.5226
  685.0000   -36.6794     6.8273   150.1448     8.5282
  685.5000   -36.7566     6.7812   151.4477     8.5496
  686.0000   -36.6524     6.7351   152.7480     8.5395
  686.5000   -36.5516     6.6891   154.0513     8.4121
  687.0000   -36.4503     6.6430   155.3534     8.2889
  687.5000   -36.3484     6.5969   156.6555     8.1659
  688.0000   -36.2446     6.5508   157.9585     8.0430
  688.5000   -36.3602     6.5047   159.2598     7.9199
  689.0000   -36.4995     6.4586   160.5620     7.7965
  689.5000   -36.6391     6.4128   160.9032     7.6750
  690.0000   -36.7781     6.3816   161.0986     7.6415
  690.5000   -36.9171     6.3748   161.2917     7.6863
  691.0000   -37.0565     6.3677   161.4857     7.7523
  691.5000   -37.1972     6.3606   161.6799     7.8180
  692.0000   -37.3237     6.3535   161.8741     7.8838
  692.5000   -37.1566     6.3464   162.0682     7.9483
  693.0000   -36.9784     6.3393   162.2631     7.9408
  693.5000   -36.8015     6.3323   162.4555     7.8851
  694.0000   -36.6250     6.3252   162.5494     7.8300
  694.5000   -36.4486     6.3181   162.5478     7.7745
  695.0000   -36.2721     6.3109   162.5478     7.7192
  695.5000   -36.0956     6.3039   162.5479     7.6637
  696.0000   -35.9192     6.2964   162.5486     7.6197
  696.5000   -35.7409     6.3228   162.5477     7.5822
  697.0000   -35.5672     6.3684   162.4426     7.5772
  697.5000   -35.3228     6.4145   161.7047     7.5892
  698.0000   -35.3960     6.4605   160.9668     7.6014
  698.5000   -35.4587     6.5066   160.3770     7.6179
  699.0000   -35.5349     6.5526   158.5340     7.6361
  699.5000   -35.6757     6.5986   156.6910     7.7114
  700.0000   -35.8145     6.6446   154.8480     7.8733
  700.5000   -35.9532     6.6905   152.9229     8.0331
  701.0000   -36.0919     6.7351   150.7634     8.1985
  701.5000   -36.2306     6.8598   148.6038     8.4035
  702.0000   -36.3693     7.0048   146.4442     8.6035
  702.5000   -36.5080     7.1501   144.2846     8.8033
  703.0000   -36.6467     7.2954   142.1251     9.0031
  703.5000   -36.7855     7.4405   139.9655     9.2030
  704.0000   -36.9244     7.5857   137.8059     9.4031
  704.5000   -37.0614     7.7309   135.6463     9.6031
  705.0000   -37.1277     7.8761   133.9933     9.8004
  705.5000   -37.0605     8.0213   131.3947     9.8276
  706.0000   -36.9956     8.1666   128.9472     9.8548
  706.5000   -36.9302     8.3129   126.4997     9.8820
  707.0000   -36.8650     8.4609   124.0522    10.8213
  707.5000   -36.7998     8.4688   122.6622    11.0138
  708.0000   -36.7343     8.4679   122.6622    11.0990
  708.5000   -36.6681     8.4672   122.6622    11.1043
  709.0000   -36.6073     8.4500   122.6622    10.9992
  709.5000   -36.7166     8.4316   122.6622    10.8876
  710.0000   -36.8358     8.4132   122.6622    10.7836
  710.5000   -36.9544     8.3949   123.0892    10.6846
  711.0000   -37.0727     8.3766   123.9370    10.5861
  711.5000   -37.1910     8.3582   124.7851    10.4872
  712.0000   -37.3093     8.3399   125.6327    10.3885
  712.5000   -37.4276     8.3216   126.4799    10.2905
  713.0000   -37.5459     8.3035   127.3271    10.1897
  713.5000   -37.6642     8.2843   128.1012     9.9960
  714.0000   -37.7826     8.2370   128.3187     9.8839
  714.5000   -37.9007     8.1908   128.6858     9.7778
  715.0000   -38.0203     8.1449   129.0530     9.6723
  715.5000   -38.0620     8.0991   129.4204     9.5818
  716.0000   -38.0660     8.0533   129.7874     9.6061
  716.5000   -37.8722     8.0074   129.9562     9.6295
  717.0000   -37.5876     7.9616   130.2184     9.5968
  717.5000   -37.2985     7.9157   130.4807     9.5397
  718.0000   -37.0118     7.8699   130.7429     9.4821
  718.5000   -36.8268     7.8242   131.0052     9.4471
  719.0000   -37.0915     7.7782   131.2674     9.5125
  719.5000   -37.0478     7.7323   131.5296     9.5758
  720.0000   -36.5249     7.6865   132.1048     9.6422
  720.5000   -36.5183     7.6406   133.6345     9.5839
  721.0000   -36.6468     7.5948   135.1642     9.4911
  721.5000   -36.7788     7.5490   136.6939     9.3976
  722.0000   -36.9096     7.5031   138.2236     9.3043
  722.5000   -37.0400     7.4573   139.7533     9.2110
  723.0000   -37.1706     7.4114   141.1287     9.1187
  723.5000   -37.3013     7.3655   142.1776     9.0383
  724.0000   -37.4302     7.3200   143.2265     8.9877
  724.5000   -37.5036     7.2787   144.2755     8.9392
  725.0000   -37.4649     7.2470   145.3244     8.8068
  725.5000   -37.4284     7.2151   146.3734     8.6652
  726.0000   -37.3914     7.1832   147.4223     8.5237
  726.5000   -37.3522     7.1513   148.3763     8.4120
