~VERSION INFORMATION
 VERS.                2.0:   CWLS LOG ASCII STANDARD - VERSION 2.0
 WRAP.                 NO:   ONE LINE PER DEPTH STEP
~WELL INFORMATION
#MNEM.UNIT      DATA TYPE    INFORMATION
#----------   ------------   ------------------------------
 STRT.F           20.5000:   START DEPTH
 STOP.F          544.0000:   STOP DEPTH
 STEP.F            0.5000:   STEP LENGTH
 NULL.          -999.2500:   NO VALUE
 COMP. LAWRENCE/ALLISON INC:   COMPANY
 WELL.    45-65 SX #10-10:   WELL
 FLD .             TEAPOT:   FIELD
 LOC .      S10 T38N R78W:   LOCATION
 CNTY.            NATRONA:   COUNTY
 STAT.            WYOMING:   STATE
 CTRY. UNITED STATES OF AMERICA:   COUNTRY
 SRVC.            Unknown:   SERVICE COMPANY
 DATE.        01-SEP-1984:   LOGDATE
 API .       490251098400:   API NUMBER
~CURVE INFORMATION
#MNEM.UNIT       API CODE    CURVE DESCRIPTION
#----------   ------------   ------------------------------
 DEPT.F                  :   
 GRD .GAPI   45 310 01 00:   GAMMA RAY FROM DENSITY LOG
 CALD.IN     45 280 60 00:   CALIPER
 DEN .G/C3   45 350 01 00:   COMPENSATED BULK DENSTIY
 CORR.G/C3   45 356 01 00:   DENSITY CORRECTION
 CNC .DEC    42 890 03 00:   NEUTRON POROSITY SANDSTONE
 PORD.DEC    45 890 12 00:   POROSITY DENSITY SANDSTONE
 AC  .US/F   60 520 00 00:   ACOUSTIC SONIC
 SPR .MV     07 010 01 00:   SPONTANEOUS POTENTIAL
 RILD.OHMM   07 120 46 00:   INDUCTION LOG DEEP RESISTIVITY
 RILM.OHMM   07 120 44 00:   INDUCTION LOG MEDIUM RESISTIVITY
 RFOC.OHMM   07 220 04 00:   RESISTIVITY FOCUSED LOG
~PARAMETER INFORMATION
#MNEM.UNIT          VALUE    DESCRIPTION
#----------   ------------   ------------------------------
 PD  .                 GL:   PERMANENT DATUM
 EPD .F              5208:   ELEVATION PERMANENT DATUM
 LMF .                 KB:   LOG MEASURED FROM
 DAPD.F                12:   FEET ABOVE PERMANENT DATUM
 DMF .                 KB:   DRILLING MEASURED FROM
 EKB .F              5220:   KELLING BUSHING
 EGL .F              5208:   GROUND LEVEL
 DATE.        1-SEPT-1984:   RUN DATE
 RUN .                  1:   RUN NUMBER
 DD  .F               550:   DEPTH DRILLER
 DL  .F               544:   DEPTH LOGGER
 BLI .F               544:   BOTTOM LOG INTERVAL
 TLI .F                30:   TOP LOG INTERVAL
 CBL .F                44:   CASING BOTTOM LOGGER
 BS  .IN            7.875:   BIT SIZE
 BSD .F               550:   BIT SIZE AT DEPTH
 DFT .          KCL WATER:   DRILLING FLUID TYPE
 MSS .               TANK:   MUD SAMPLE SOURCE
 RMS .OHMM           .236:   RESISTIVITY MUD SAMPLE
 MST .F                75:   MUD SAMPLE TEMPERATURE
 TCS .HRS               3:   TIME CURCULATED STOPPED
 MRT .F               100:   MAXIMUM RECORDED TEMPERATURE
 LUN .               4082:   LOGGING UNIT NUMBER
 LUL .               ROOS:   LOGGING UNIT LOCATION
 ENGI.             MILLER:   RECORDING ENGINEER
 WITN.            JOHNSON:   WITNESSED BY
 CLNT.            A2DTECH:   CLIENT CODE
 ORIG.       2", 5" PRINT:   ORIGIN OF DATA
 UWI .       490251098400:   UNIQUE WELL ID
 DICO. A2D Technologies, Inc.:   DIGITIZING COMPANY
~OTHER INFORMATION
~A   DEPT      GRD       CALD        DEN       CORR          CNC     PORD         AC        SPR       RILD       RILM       RFOC   
# ...
  264.5000   100.9723     8.2164     2.5292     0.0377     0.2283     0.0981   119.9925   -23.1506     5.9583     6.4185     5.5767
  265.0000    98.0534     8.2166     2.5222     0.0316     0.2293     0.1058   118.5714   -22.8660     6.3297     6.8702     7.7030
  265.5000    98.1453     8.2167     2.5111     0.0126     0.2318     0.1001   113.2393   -22.9163     6.7242     7.4190    10.6399
  266.0000    98.6043     8.2167     2.5033    -0.0009     0.2374     0.1022   107.0080   -22.9620     7.2256     8.2624    11.4687
  266.5000    99.2555     8.2167     2.5086     0.0260     0.2304     0.1040   100.9890   -23.0075     8.0986     9.2016    11.0547
  267.0000   100.5841     8.2167     2.5113     0.0464     0.2312     0.1047   100.6893   -23.0575     9.0314     9.5007    11.0388
  267.5000   102.4748     8.2167     2.5058     0.0461     0.2205     0.1035   101.1246   -23.3155     9.3909     9.6615    11.0026
  268.0000   101.4016     8.2167     2.5027     0.0390     0.2173     0.1037   101.5464   -23.8875     9.7522     9.8250    10.9493
  268.5000    97.9346     8.2167     2.5038     0.0324     0.2169     0.1046   101.8946   -24.4535     9.9001     9.9912    11.0590
  269.0000    98.1433     8.2168     2.5049     0.0259     0.2184     0.1067   102.0659   -25.0139     9.9916    10.1591    10.9659
  269.5000   100.3027     8.2142     2.5055     0.0324     0.2076     0.1216   101.9119   -25.4998    10.6929    10.3354    10.8819
  270.0000   100.0600     8.2112     2.5023     0.0401     0.1889     0.1439   101.6983   -26.5297    11.8627    10.7269    10.7985
  270.5000    91.2262     8.2082     2.4852     0.0249     0.1784     0.1417   101.4885   -27.5701    13.1605    11.8715    10.7540
  271.0000    80.7663     8.2052     2.4620     0.0233     0.1810     0.1383   100.6947   -28.6062    14.6004    13.1256    12.4810
  271.5000    69.7947     8.2022     2.4351     0.0359     0.1926     0.1880    99.4791   -29.6411    16.1977    14.5123    14.3343
  272.0000    61.1380     8.1992     2.3990     0.0415     0.2044     0.1991    95.6018   -30.5927    17.9698    16.1905    18.9740
  272.5000    60.8288     8.1962     2.3626     0.0219     0.2228     0.2116    92.5674   -30.8116    19.9361    18.0866    27.4634
  273.0000    60.4764     8.1932     2.3275     0.0121     0.2289     0.2076    91.6983   -31.0072    22.1177    20.2047    27.0738
  273.5000    55.8107     8.1902     2.3271     0.0160     0.2212     0.2104    94.5934   -31.1801    24.5365    22.5709    26.5118
  274.0000    51.5373     8.1872     2.3296     0.0205     0.2317     0.2070    99.0439   -31.4087    26.9631    25.2142    26.2298
  274.5000    49.5312     8.1842     2.3314     0.0148     0.2248     0.1960   112.0302   -31.6562    27.9730    25.9898    28.2728
  275.0000    53.1290     8.1812     2.3405     0.0061     0.2190     0.1980   116.7404   -31.9028    28.6023    26.2298    29.5591
  275.5000    57.4416     8.1782     2.3546    -0.0027     0.2124     0.1960   118.8298   -32.7098    29.0443    25.5163    29.2969
  276.0000    60.6992     8.1751     2.3684    -0.0081     0.2160     0.1860   116.8524   -33.7440    29.0282    25.6261    28.7815
  276.5000    62.1644     8.1721     2.3723     0.0170     0.2202     0.1800   112.3104   -34.7845    29.0221    25.7520    28.2313
  277.0000    63.6571     8.1691     2.3756     0.0461     0.2234     0.1833   107.7343   -35.8217    28.0626    25.2130    28.3321
  277.5000    65.1355     8.1661     2.3754     0.0641     0.2248     0.1796   104.6004   -36.7831    27.3520    24.2728    28.5381
  278.0000    67.0502     8.1631     2.3611     0.0662     0.2299     0.1927   103.0869   -36.9586    26.6592    23.3592    28.7589
  278.5000    70.6204     8.1601     2.3448     0.0597     0.2329     0.2008   102.4875   -37.1545    25.9845    22.4498    27.5950
  279.0000    74.5257     8.1571     2.3433     0.0314     0.2260     0.1924   102.9091   -37.3523    25.2829    22.2104    26.0715
  279.5000    77.9685     8.1541     2.3651     0.0034     0.2157     0.1960   104.6538   -37.5286    25.2829    22.7310    24.8223
  280.0000    76.1113     8.1511     2.3652    -0.0034     0.2053     0.1825   106.4646   -37.5922    25.0515    23.4347    25.4715
  280.5000    69.7080     8.1481     2.3646     0.0329     0.1949     0.1463   108.5538   -38.0891    25.4533    24.1603    26.4347
  281.0000    64.9909     8.1451     2.3978     0.0746     0.1896     0.1452   110.3964   -38.5875    26.2118    24.9081    28.6314
  281.5000    64.3584     8.1421     2.4337     0.0607     0.1996     0.1591   109.8794   -39.0836    26.9926    25.6788    31.0433
  282.0000    63.9875     8.1391     2.4420     0.0410     0.1908     0.1717   108.7812   -39.7928    27.7973    26.4734    33.6541
  282.5000    64.2851     8.1365     2.4047     0.0376     0.2017     0.1909   104.4206   -40.6731    28.6256    27.2925    36.4845
  283.0000    64.4539     8.1347     2.3588     0.0338     0.2111     0.2188   100.1152   -41.5530    29.4786    28.1369    37.1956
  283.5000    63.3493     8.1328     2.3223     0.0244     0.2194     0.2064    96.0070   -42.4324    30.3571    29.0075    34.5649
  284.0000    61.7787     8.1310     2.2917     0.0194     0.2200     0.1988    94.3033   -43.3044    31.2617    29.9051    32.7042
  284.5000    60.2710     8.1292     2.2857     0.0237     0.2306     0.2309    98.0926   -43.8991    32.1933    30.6661    34.8071
  285.0000    59.1262     8.1273     2.2970     0.0280     0.2303     0.2195   103.4226   -44.0786    33.1781    31.0633    37.1460
  285.5000    59.2182     8.1255     2.3166     0.0163     0.2291     0.2256   109.8654   -44.2661    34.5605    31.4755    39.6399
  286.0000    62.0276     8.1236     2.3360     0.0007     0.2225     0.2309   112.9276   -44.4593    36.0010    31.8933    42.2944
  286.5000    65.0395     8.1218     2.3504     0.0175     0.2193     0.1992   113.6763   -44.8229    37.5026    32.3165    41.8382
  287.0000    65.2854     8.1200     2.3437     0.0329     0.2228     0.2092   110.5045   -45.1982    39.0710    32.6694    41.3485
  287.5000    63.1870     8.1181     2.3291     0.0423     0.2215     0.2162   107.3889   -45.5840    40.0338    33.0077    40.8747
  288.0000    61.0455     8.1184     2.3143     0.0519     0.2061     0.2233   104.8207   -45.3583    38.7785    33.3506    40.4007
  288.5000    63.4121     8.1203     2.3136     0.0533     0.2184     0.2224   104.0859   -45.0083    37.7618    33.6260    39.0000
  289.0000    66.8583     8.1222     2.3315     0.0453     0.2051     0.1962   106.1732   -44.6704    36.7718    32.5655    37.6421
  289.5000    69.1689     8.1242     2.3556     0.0279     0.2000     0.2009   109.1531   -44.9164    35.8077    31.5534    35.8528
  290.0000    70.2010     8.1262     2.3798     0.0178     0.1973     0.2052   110.0043   -45.6441    34.8689    30.5728    36.0577
  290.5000    69.6589     8.1281     2.4016     0.0318     0.1949     0.1716   107.7219   -46.3793    33.9547    29.6226    36.5318
  291.0000    69.1289     8.1300     2.4006     0.0429     0.1945     0.1647   103.6648   -47.1175    32.8677    28.7020    35.7116
  291.5000    67.6284     8.1320     2.3983     0.0324     0.1945     0.1666    99.5418   -47.8506    31.7019    27.8100    33.9172
  292.0000    66.4326     8.1339     2.3926     0.0250     0.1947     0.1684    96.8690   -48.4363    30.5775    26.9457    32.6933
  292.5000    68.0253     8.1358     2.3856     0.0503     0.1953     0.1755    94.7656   -48.6089    29.4930    26.3748    31.6132
  293.0000    69.8435     8.1368     2.3784     0.0461     0.1960     0.1796    94.5973   -48.7933    28.4920    26.1545    30.9493
  293.5000    71.5451     8.1356     2.3758     0.0283     0.2000     0.1771    95.3807   -48.9666    28.1133    25.9360    30.7565
  294.0000    71.9874     8.1345     2.3817     0.0159     0.1999     0.1816    96.2359   -49.6701    27.7553    25.7193    30.3767
  294.5000    71.1148     8.1333     2.3882     0.0269     0.1997     0.1770    97.0807   -50.3729    27.4018    25.5163    30.0017
