~VERSION INFORMATION
 VERS.                2.0:   CWLS LOG ASCII STANDARD - VERSION 2.0
 WRAP.                 NO:   ONE LINE PER DEPTH STEP
~WELL INFORMATION
#MNEM.UNIT      DATA TYPE    INFORMATION
#----------   ------------   ------------------------------
 STRT.F           16.0000:   START DEPTH
 STOP.F         1254.0000:   STOP DEPTH
 STEP.F            0.5000:   STEP LENGTH
 NULL.          -999.2500:   NO VALUE
 COMP. FENIX & SCISSON INC:   COMPANY
 WELL. NAVAL PET RESERVE 3   75-S-14 #75-14:   WELL
 FLD .             TEAPOT:   FIELD
 LOC .      S14 T38N R78W:   LOCATION
 CNTY.            NATRONA:   COUNTY
 STAT.            WYOMING:   STATE
 CTRY. UNITED STATES OF AMERICA:   COUNTRY
 SRVC.              Welex:   SERVICE COMPANY
 DATE.        17-FEB-1977:   LOGDATE
 API .       490251027400:   API NUMBER
~CURVE INFORMATION
#MNEM.UNIT       API CODE    CURVE DESCRIPTION
#----------   ------------   ------------------------------
 DEPT.F                  :   
 SGRD.OHMM   07 220 05 00:   SHALLOW RESISTIVITY
 ILM .OHMM   07 120 44 00:   INDUCTION LOG MEDIUM
 SPR .MV     07 010 01 00:   SPONTANEOUS POTENTIAL
 ILD .OHMM   07 120 46 00:   INDUCTION LOG DEEP
 CALD.IN     45 280 60 00:   CALIPER
 GRD .GAPI   45 310 01 00:   GAMMA RAY FROM DENSITY LOG
 DPHI.DEC    45 890 12 00:   DENSITY POROSITY SANDSTONE
 RHOB.G/C3   45 350 01 00:   BULK DENSITY
 CORR.G/C3   45 356 01 00:   DENSITY CORRECTION
~PARAMETER INFORMATION
#MNEM.UNIT          VALUE    DESCRIPTION
#----------   ------------   ------------------------------
 PD  .                 GL:   PERMANENT DATUM
 EPD .F              5336:   ELEVATION PERMANENT DATUM
 LMF .                 GL:   LOG MEASURED FROM
 DMF .                 GL:   DRILLING MEASURED FROM
 EKB .F              5341:   KELLING BUSHING
 EGL .F              5336:   GROUND LEVEL
 DATE.          2-17-1977:   RUN DATE
 RUN .                  1:   RUN NUMBER
 DD  .F              1260:   DEPTH DRILLER
 DL  .F              1258:   DEPTH LOGGER
 BLI .F              1256:   BOTTOM LOG INTERVAL
 TLI .F                30:   TOP LOG INTERVAL
 CS  .IN            8.625:   CASING SIZE
 CBD .F                42:   CASING BOTTOM DRILLER
 CBL .F                42:   CASING BOTTOM LOGGER
 BS  .IN            7.875:   BIT SIZE
 BSD .F              1260:   BIT SIZE AT DEPTH
 DFT .          KCL WATER:   DRILLING FLUID TYPE
 DFD .                9.5:   DRILLING FLUID DENSITY
 DFV .                 34:   DRILLING FLUID VISCOSITY
 MSS .          FLOW LINE:   MUD SAMPLE SOURCE
 RMS .OHMM            .30:   RESISTIVITY MUD SAMPLE
 MST .F                43:   MUD SAMPLE TEMPERATURE
 RMF .OHMM            .28:   RESISTIVITY MUD FILTRATE SAMPLE
 MFST.F                43:   MUD FILTRATE SAMPLE TEMPERATURE
 RMC .OHMM            .40:   RESISTIVITY MUD CAKE
 MCST.F                43:   MUD CAKE SAMPLE TEMPERATURE
 MFSS.           MEASURED:   MUD FILTRATE SAMPLE SOURCE
 MCSS.           MEASURED:   MUD CAKE SAMPLE SOURCE
 RMB .OHMM            .13:   RESISTIVITY MUD AT BHT
 BHT .F               101:   BOTTOM HOLE TEMPERATURE
 TCS .HRS               5:   TIME CURCULATED STOPPED
 MRT .F               101:   MAXIMUM RECORDED TEMPERATURE
 LUN .               8611:   LOGGING UNIT NUMBER
 LUL .           GILLETTE:   LOGGING UNIT LOCATION
 ENGI.             LAWSON:   RECORDING ENGINEER
 WITN.         STUEBINGER:   WITNESSED BY
 CLNT.            A2DTECH:   CLIENT CODE
 ORIG.       2", 5" PRINT:   ORIGIN OF DATA
 UWI .       490251027400:   UNIQUE WELL ID
 DICO. A2D Technologies, Inc.:   DIGITIZING COMPANY
~OTHER INFORMATION
~A   DEPT     SGRD        ILM        SPR        ILD       CALD         GRD      DPHI       RHOB       CORR   
# ...
 1147.5000    12.8541    11.3463   -24.4783     7.8382     8.0700    94.2356     0.1320     2.4395     0.0653
 1148.0000    12.3893    11.3749   -24.6556     7.8053     8.0728    95.7555     0.1298     2.4476     0.0682
 1148.5000    12.5135    11.4103   -24.8329     7.7725     8.0756    95.6862     0.1283     2.4441     0.0706
 1149.0000    12.7378    11.3969   -25.0101     7.7398     8.0785    94.3764     0.1311     2.4366     0.0721
 1149.5000    12.8644    11.3664   -25.1874     7.7073     8.0814    93.0705     0.1341     2.4291     0.0650
 1150.0000    12.4264    11.3357   -25.3647     7.6749     8.0816    91.7600     0.1371     2.4216     0.0622
 1150.5000    12.0261    11.3050   -25.5419     7.6426     8.0582    90.4539     0.1401     2.4141     0.0632
 1151.0000    11.6216    11.2745   -25.7192     7.6105     8.0319    89.5466     0.1432     2.4065     0.0622
 1151.5000    11.8362    11.2440   -25.8958     7.5785     8.0056    91.3893     0.1462     2.3993     0.0561
 1152.0000    12.0661    11.2136   -26.0722     7.5466     7.9794    93.2023     0.1479     2.3950     0.0529
 1152.5000    12.3018    11.0990   -26.2811     7.5148     7.9531    95.0148     0.1429     2.4312     0.0557
 1153.0000    12.6248    11.2561   -26.7223     7.4725     7.9263    95.2935     0.1380     2.4264     0.0540
 1153.5000    12.5953    11.3689   -26.8716     7.4918     7.9313    94.2802     0.1363     2.4182     0.0513
 1154.0000    12.5468    11.4827   -27.0295     7.5226     7.9424    93.2575     0.1391     2.4250     0.0486
 1154.5000    12.4993    11.5977   -27.1866     7.5533     7.9536    93.2904     0.1373     2.4403     0.0504
 1155.0000    12.4523    11.7139   -27.3438     7.5840     7.9647    94.8701     0.1332     2.4369     0.0554
 1155.5000    12.3951    11.8312   -27.5010     7.6149     7.9758    96.3984     0.1323     2.4304     0.0600
 1156.0000    12.5456    11.9497   -27.6582     7.6459     7.9868    97.8913     0.1341     2.4239     0.0576
 1156.5000    12.7440    12.0694   -27.8154     7.6770     7.9979    95.8425     0.1351     2.4225     0.0553
 1157.0000    12.9457    12.1903   -27.9721     7.7082     8.0090    92.5540     0.1325     2.4340     0.0524
 1157.5000    13.1506    12.2812   -28.1297     7.7396     8.0201    89.2410     0.1297     2.4453     0.0490
 1158.0000    13.3587    11.7770   -28.3127     7.7711     8.0312    87.9726     0.1269     2.4504     0.0460
 1158.5000    13.5893    11.3898   -28.6026     7.8027     8.0416    92.2473     0.1276     2.4436     0.0461
 1159.0000    13.5893    11.0153   -28.8836     7.8242     8.0419    95.2970     0.1295     2.4363     0.0491
 1159.5000    13.3406    10.6531   -29.1646     7.7927     8.0418    98.3419     0.1260     2.4576     0.0542
 1160.0000    13.1740    10.3028   -29.4456     7.7590     8.0421   101.3976     0.1250     2.4495     0.0561
 1160.5000    13.0095     9.9388   -29.7269     7.7256     8.0433   102.8524     0.1267     2.4414     0.0561
 1161.0000    12.8471    10.0780   -30.0080     7.6923     8.0251   101.9192     0.1285     2.4331     0.0561
 1161.5000    12.6868    10.2186   -30.2882     7.6591     8.0291   100.8504     0.1266     2.4443     0.0563
 1162.0000    12.5284    10.3612   -30.4398     7.6261     8.0336    99.7871     0.1211     2.4584     0.0609
 1162.5000    12.5093    10.5057   -30.4391     7.5932     8.0382    98.7100     0.1157     2.4725     0.0638
 1163.0000    12.7131    10.6523   -30.4248     7.5604     8.0418    99.1026     0.1147     2.4766     0.0620
 1163.5000    12.9017    10.8010   -30.4083     7.5278     8.0331   100.3046     0.1174     2.4714     0.0604
 1164.0000    13.0983    10.9517   -30.3920     7.4953     8.0127    99.0610     0.1201     2.4659     0.0588
 1164.5000    12.8604    11.1045   -30.3758     7.4630     8.0021    97.6900     0.1218     2.4608     0.0622
 1165.0000    12.6203    11.2594   -30.3596     7.4308     8.0080    98.9579     0.1192     2.4704     0.0694
 1165.5000    12.3947    11.4097   -30.3434     7.3988     8.0202   100.4774     0.1153     2.4810     0.0767
 1166.0000    12.5330    11.4097   -30.3272     7.3669     8.0324    99.3845     0.1122     2.4914     0.0840
 1166.5000    12.6981    11.2327   -30.3109     7.3351     8.0445    96.8266     0.1166     2.4987     0.0856
 1167.0000    12.8653    11.0329   -30.2947     7.3035     8.0570    96.6936     0.1219     2.4781     0.0719
 1167.5000    12.9783    10.8367   -30.2780     7.2720     8.0376   100.9071     0.1273     2.4606     0.0584
 1168.0000    12.8126    10.6439   -30.2628     7.2406     7.9970    98.5384     0.1326     2.4431     0.0551
 1168.5000    12.6685    10.4067   -30.2518     7.2095     7.9823    94.4356     0.1375     2.4218     0.0569
 1169.0000    12.5261    10.6075   -30.4583     7.1789     7.9843    89.9189     0.1375     2.4297     0.0516
 1169.5000    12.3853    10.7555   -30.5950     7.1448     7.9894    92.2866     0.1367     2.4430     0.0486
 1170.0000    12.2812    10.8967   -30.6958     7.0710     7.9946    95.2787     0.1305     2.4565     0.0534
 1170.5000    12.3164    10.7929   -30.7453     7.0710     8.0004    98.2776     0.1242     2.4704     0.0581
 1171.0000    12.3445    10.6739   -30.7898     7.0062     8.0217   101.2617     0.1178     2.4729     0.0601
 1171.5000    12.3727    10.5562   -30.6936     7.0434     8.0078   104.2494     0.1174     2.4688     0.0601
 1172.0000    12.4009    10.5029   -30.3824     7.0771     7.9947   107.3170     0.1188     2.4647     0.0601
 1172.5000    12.4292    11.0990   -30.0468     7.1110     7.9821   107.8678     0.1202     2.4608     0.0601
 1173.0000    12.4576    10.9560   -29.7064     7.1451     7.9694   106.5238     0.1216     2.4607     0.0614
 1173.5000    12.4860    10.7178   -29.3661     7.1793     7.9566   101.7440     0.1223     2.4663     0.0634
 1174.0000    12.5145    10.4848   -29.0195     7.2137     7.9440    97.3395     0.1198     2.4718     0.0679
 1174.5000    12.5430    10.4067   -28.5119     7.2483     7.9408    94.0392     0.1154     2.4773     0.0735
 1175.0000    12.5717    10.8198   -27.7999     7.2830     7.9724    95.1242     0.1122     2.4827     0.0742
 1175.5000    12.6004    11.1112   -27.0904     7.3179     8.0226    96.5486     0.1217     2.4788     0.0742
 1176.0000    12.6479    11.4104   -26.3775     7.3529     8.0392    97.9960     0.1256     2.4554     0.0741
 1176.5000    12.8076    11.7177   -25.6603     7.3882     8.0580    99.4407     0.1237     2.4541     0.0742
 1177.0000    12.9696    12.0333   -25.0609     7.4236     8.0490   100.8863     0.1218     2.4595     0.0754
 1177.5000    13.1337    12.3574   -24.4598     7.4591     8.0268   102.3361     0.1250     2.4568     0.0790
 1178.0000    13.3000    12.6860   -23.8571     7.5414     8.0044   102.4652     0.1318     2.4437     0.0826
 1178.5000    13.4678    12.8675   -23.2544     7.7310     7.9820   100.2478     0.1387     2.4294     0.0861
 1179.0000    13.5893    12.5908   -22.6519     7.8748     7.9596    98.0666     0.1455     2.4152     0.0876
 1179.5000    13.3390    12.2923   -22.0475     8.0213     7.9373    95.8879     0.1524     2.4011     0.0860
 1180.0000    13.0646    11.9988   -21.4446     8.1706     7.9149    93.7112     0.1615     2.3869     0.0845
 1180.5000    12.7959    11.7127   -20.7907     8.3226     7.8926    91.4565     0.1595     2.3689     0.0830
 1181.0000    12.5327    11.4334   -20.4865     8.4775     7.8703    90.5883     0.1564     2.3770     0.0822
 1181.5000    12.2737    11.1608   -20.1667     8.6352     7.8477    90.1050     0.1532     2.3893     0.0822
 1182.0000    12.0240    10.8948   -19.8656     8.7958     7.8378    89.6311     0.1502     2.4005     0.0822
 1182.5000    11.8404    10.6350   -19.8533     8.9821     7.8231    89.1845     0.1493     2.3919     0.0815
 1183.0000    12.6453    10.5029   -19.9082     8.8998     7.8225    89.8755     0.1559     2.3827     0.0764
 1183.5000    13.3290    10.5984   -20.0847     8.9821     7.8275    91.1657     0.1606     2.3734     0.0712
