~VERSION INFORMATION
 VERS.                2.0:   CWLS LOG ASCII STANDARD - VERSION 2.0
 WRAP.                 NO:   ONE LINE PER DEPTH STEP
~WELL INFORMATION
#MNEM.UNIT      DATA TYPE    INFORMATION
#----------   ------------   ------------------------------
 STRT.F            0.0000:   START DEPTH
 STOP.F          789.0000:   STOP DEPTH
 STEP.F            0.5000:   STEP LENGTH
 NULL.          -999.2500:   NO VALUE
 COMP. U S NAVY-INTEX OIL:   COMPANY
 WELL.        NPR #35-S-2:   WELL
 FLD .             TEAPOT:   FIELD
 LOC .       S2 T38N R78W:   LOCATION
 CNTY.            NATRONA:   COUNTY
 STAT.            WYOMING:   STATE
 CTRY. UNITED STATES OF AMERICA:   COUNTRY
 SRVC.      NL McCullough:   SERVICE COMPANY
 DATE.        14-AUG-1961:   LOGDATE
 API .       490250644100:   API NUMBER
~CURVE INFORMATION
#MNEM.UNIT       API CODE    CURVE DESCRIPTION
#----------   ------------   ------------------------------
 DEPT.F                  :   
 GR  .GAPI   42 310 01 00:   GAMMA RAY
 NPHI.DEC    42 890 00 00:   NEUTRON POROSITY
~PARAMETER INFORMATION
#MNEM.UNIT          VALUE    DESCRIPTION
#----------   ------------   ------------------------------
 PD  .                 GL:   PERMANENT DATUM
 EPD .F              5133:   ELEVATION PERMANENT DATUM
 LMF .                 KB:   LOG MEASURED FROM
 DAPD.F                 6:   FEET ABOVE PERMANENT DATUM
 DMF .                 KB:   DRILLING MEASURED FROM
 EKB .F              5139:   KELLING BUSHING
 EGL .F              5133:   GROUND LEVEL
 DATE.        14-AUG-1961:   RUN DATE
 RUN .                  1:   RUN NUMBER
 DD  .F               790:   DEPTH DRILLER
 DL  .F               791:   DEPTH LOGGER
 BLI .F             789.5:   BOTTOM LOG INTERVAL
 BS  .IN            7.875:   BIT SIZE
 BSD .F               790:   BIT SIZE AT DEPTH
 DFT .        OIL EMULSON:   DRILLING FLUID TYPE
 DFD .                9.5:   DRILLING FLUID DENSITY
 TCS .HRS             1.5:   TIME CURCULATED STOPPED
 LUN .               1206:   LOGGING UNIT NUMBER
 ENGI.            JACKSON:   RECORDING ENGINEER
 WITN.          JORGENDEN:   WITNESSED BY
 CLNT.            A2DTECH:   CLIENT CODE
 ORIG.           2" PRINT:   ORIGIN OF DATA
 UWI .       490250644100:   UNIQUE WELL ID
 DICO. A2D Technologies, Inc.:   DIGITIZING COMPANY
~OTHER INFORMATION
~A    DEPT        GR     NPHI   
# ...
  364.5000     5.3694     0.1635
  365.0000     5.5309     0.1752
  365.5000     5.5891     0.1802
  366.0000     5.5983     0.1798
  366.5000     5.6454     0.1783
  367.0000     5.7031     0.1768
  367.5000     5.7121     0.1708
  368.0000     5.6667     0.1629
  368.5000     5.5758     0.1644
  369.0000     5.4997     0.1736
  369.5000     5.5153     0.1833
  370.0000     5.5983     0.1925
  370.5000     5.7647     0.1825
  371.0000     5.8715     0.1795
  371.5000     5.7199     0.1795
  372.0000     5.5663     0.1798
  372.5000     5.7102     0.1798
  373.0000     5.7946     0.1798
  373.5000     5.5467     0.1763
  374.0000     5.1808     0.1689
  374.5000     5.0166     0.1689
  375.0000     4.9270     0.1697
  375.5000     4.8576     0.1779
  376.0000     4.7988     0.1791
  376.5000     4.6923     0.1790
  377.0000     4.6070     0.1598
  377.5000     4.6014     0.1563
  378.0000     4.8787     0.1601
  378.5000     4.9450     0.1640
  379.0000     4.9739     0.1682
  379.5000     5.0898     0.1706
  380.0000     5.2012     0.1739
  380.5000     5.2412     0.1749
  381.0000     5.1305     0.1761
  381.5000     5.0278     0.1782
  382.0000     5.1142     0.1810
  382.5000     5.2551     0.1824
  383.0000     5.1192     0.1807
  383.5000     5.0447     0.1766
  384.0000     5.0282     0.1790
  384.5000     5.0063     0.1806
  385.0000     5.0140     0.1790
  385.5000     5.2109     0.1759
  386.0000     5.3245     0.1741
  386.5000     5.2612     0.1751
  387.0000     5.1963     0.1757
  387.5000     5.1738     0.1763
  388.0000     5.1588     0.1787
  388.5000     5.3104     0.1807
  389.0000     5.4225     0.1832
  389.5000     5.4922     0.1877
  390.0000     5.3840     0.1869
  390.5000     5.2944     0.1847
  391.0000     5.2734     0.1847
  391.5000     5.2736     0.1847
  392.0000     5.2587     0.1838
  392.5000     5.1001     0.1811
  393.0000     5.0402     0.1835
  393.5000     5.0323     0.1898
  394.0000     5.1838     0.1891
  394.5000     5.3012     0.1847
  395.0000     5.4262     0.1780
  395.5000     5.4950     0.1704
  396.0000     5.6304     0.1668
  396.5000     5.6779     0.1710
  397.0000     5.6302     0.1701
  397.5000     5.5823     0.1740
  398.0000     5.5484     0.1794
  398.5000     5.5584     0.1865
  399.0000     5.6819     0.1879
  399.5000     5.8138     0.1878
  400.0000     5.8744     0.1707
  400.5000     5.6550     0.1633
  401.0000     5.5319     0.1731
  401.5000     5.4817     0.1755
  402.0000     5.5530     0.1821
  402.5000     5.7657     0.1834
  403.0000     5.8453     0.1833
  403.5000     5.6452     0.1849
  404.0000     5.4871     0.1873
  404.5000     5.2187     0.1833
  405.0000     5.2294     0.1804
  405.5000     5.3588     0.1827
  406.0000     5.4994     0.2005
  406.5000     5.5483     0.2021
  407.0000     5.4604     0.2020
  407.5000     5.2582     0.1937
  408.0000     5.2376     0.1908
  408.5000     5.1975     0.1909
  409.0000     5.1529     0.1904
  409.5000     5.1182     0.1892
  410.0000     5.1006     0.1842
  410.5000     5.1916     0.1871
  411.0000     5.3500     0.1972
  411.5000     5.5401     0.1992
  412.0000     5.7552     0.1963
  412.5000     5.9334     0.1838
  413.0000     6.1612     0.1805
  413.5000     6.1499     0.1835
  414.0000     6.1239     0.1851
  414.5000     6.1242     0.1804
  415.0000     6.0125     0.1764
  415.5000     5.9129     0.1765
  416.0000     5.9132     0.1766
  416.5000     5.8447     0.1724
  417.0000     5.5454     0.1705
  417.5000     5.3769     0.1696
  418.0000     5.1047     0.1696
  418.5000     5.0446     0.1714
  419.0000     5.0098     0.1724
  419.5000     4.9921     0.1707
  420.0000     5.0757     0.1590
  420.5000     5.4211     0.1592
  421.0000     5.6545     0.1718
  421.5000     5.6740     0.1686
  422.0000     5.5671     0.1597
  422.5000     5.4348     0.1592
  423.0000     5.3798     0.1605
  423.5000     5.2127     0.1619
  424.0000     5.0290     0.1607
  424.5000     4.9192     0.1574
  425.0000     4.9012     0.1565
  425.5000     4.8970     0.1695
  426.0000     5.1469     0.1738
  426.5000     5.3477     0.1778
  427.0000     5.4424     0.1852
  427.5000     5.2653     0.1893
  428.0000     5.0025     0.1909
  428.5000     4.9743     0.1782
  429.0000     5.0156     0.1721
  429.5000     5.1452     0.1764
  430.0000     5.2928     0.1803
  430.5000     5.3252     0.1737
  431.0000     5.1059     0.1727
  431.5000     5.0288     0.1724
  432.0000     5.0065     0.1685
  432.5000     4.9742     0.1585
  433.0000     4.9767     0.1552
  433.5000     5.0531     0.1530
  434.0000     5.1317     0.1491
  434.5000     5.1968     0.1487
  435.0000     5.1702     0.1494
  435.5000     4.9099     0.1458
  436.0000     4.8569     0.1370
  436.5000     4.8121     0.1358
  437.0000     4.6853     0.1418
  437.5000     4.6298     0.1440
  438.0000     4.5708     0.1446
  438.5000     4.5528     0.1316
  439.0000     4.6163     0.1239
  439.5000     4.6624     0.1198
  440.0000     4.6536     0.1107
  440.5000     4.5742     0.1054
  441.0000     4.5800     0.1049
  441.5000     4.6444     0.1161
  442.0000     4.6580     0.1181
  442.5000     4.7396     0.1016
  443.0000     4.7579     0.0910
  443.5000     4.5932     0.0935
  444.0000     4.5785     0.1092
  444.5000     4.6204     0.1109
  445.0000     4.5867     0.1086
  445.5000     4.3958     0.1064
  446.0000     4.4285     0.1128
  446.5000     4.4467     0.1214
  447.0000     4.4516     0.1224
  447.5000     4.4299     0.1218
  448.0000     4.3643     0.1169
  448.5000     4.2906     0.1103
  449.0000     4.3105     0.1099
  449.5000     4.3651     0.1127
  450.0000     4.3918     0.1124
  450.5000     4.4472     0.1060
  451.0000     4.6382     0.1141
  451.5000     4.7074     0.1169
  452.0000     4.6210     0.1166
  452.5000     4.3969     0.1166
  453.0000     4.4275     0.1213
  453.5000     4.4824     0.1262
  454.0000     4.5365     0.1304
  454.5000     4.7487     0.1311
  455.0000     5.0354     0.1298
  455.5000     5.1852     0.1282
  456.0000     5.0983     0.1265
  456.5000     4.9884     0.1254
  457.0000     4.9364     0.1368
  457.5000     5.0470     0.1431
  458.0000     5.1307     0.1450
  458.5000     5.1490     0.1455
  459.0000     5.1075     0.1440
  459.5000     4.9893     0.1387
  460.0000     4.6506     0.1289
  460.5000     4.6333     0.1231
  461.0000     4.7289     0.1237
  461.5000     4.7648     0.1246
  462.0000     4.4111     0.1207
  462.5000     4.2119     0.1169
  463.0000     4.1681     0.1135
  463.5000     4.2395     0.1095
  464.0000     4.3501     0.1078
  464.5000     4.3826     0.1068
  465.0000     4.4164     0.1170
  465.5000     4.6232     0.1292
  466.0000     4.8413     0.1322
  466.5000     4.9792     0.1342
  467.0000     4.9114     0.1363
  467.5000     4.7577     0.1391
  468.0000     4.6547     0.1470
  468.5000     4.7383     0.1534
  469.0000     4.7950     0.1569
  469.5000     4.6803     0.1565
  470.0000     4.4668     0.1551
  470.5000     4.4336     0.1526
  471.0000     4.4555     0.1522
  471.5000     4.5583     0.1545
  472.0000     4.6442     0.1580
  472.5000     4.7560     0.1589
  473.0000     4.8610     0.1547
  473.5000     4.9270     0.1456
  474.0000     4.9076     0.1471
  474.5000     4.8639     0.1481
  475.0000     4.8381     0.1498
  475.5000     4.8252     0.1508
  476.0000     4.8337     0.1526
  476.5000     4.8709     0.1547
  477.0000     4.9546     0.1545
  477.5000     5.0112     0.1486
  478.0000     4.8961     0.1455
  478.5000     4.7436     0.1394
  479.0000     4.8038     0.1317
  479.5000     4.9270     0.1294
  480.0000     5.0772     0.1304
  480.5000     5.2404     0.1335
  481.0000     5.5565     0.1389
  481.5000     5.6218     0.1408
  482.0000     5.5018     0.1416
  482.5000     5.3493     0.1450
  483.0000     5.1378     0.1498
  483.5000     4.9050     0.1500
  484.0000     4.9630     0.1500
  484.5000     4.9963     0.1469
  485.0000     4.9512     0.1401
  485.5000     4.9791     0.1381
