~VERSION INFORMATION
 VERS.                2.0:   CWLS LOG ASCII STANDARD - VERSION 2.0
 WRAP.                 NO:   ONE LINE PER DEPTH STEP
~WELL INFORMATION
#MNEM.UNIT      DATA TYPE    INFORMATION
#----------   ------------   ------------------------------
 STRT.F           40.0000:   START DEPTH
 STOP.F          468.0000:   STOP DEPTH
 STEP.F            0.5000:   STEP LENGTH
 NULL.          -999.2500:   NO VALUE
 COMP. BROWN JOHN E&C INC:   COMPANY
 WELL. NAVAL PETROLEUM RESERVE 3 SX-1 #73-2-10:   WELL
 FLD .             TEAPOT:   FIELD
 LOC .      S10 T38N R78W:   LOCATION
 CNTY.            NATRONA:   COUNTY
 STAT.            WYOMING:   STATE
 CTRY. UNITED STATES OF AMERICA:   COUNTRY
 SRVC.     Atlas Wireline:   SERVICE COMPANY
 DATE.        05-MAY-1991:   LOGDATE
 API .       490251134000:   API NUMBER
~CURVE INFORMATION
#MNEM.UNIT       API CODE    CURVE DESCRIPTION
#----------   ------------   ------------------------------
 DEPT.F                  :   
 RILD.OHMM   07 120 46 00:   INDUCTION LOG DEEP RESISTIVITY
 RILM.OHMM   07 120 44 00:   INDUCTION LOG MEDIUM RESISTIVITY
 GRD .GAPI   45 310 01 00:   GAMMA RAY FROM DENSITY LOG
 CALD.IN     45 280 60 00:   CALIPER FROM DENSITY LOG
 CORR.G/C3   45 356 01 00:   DENSITY CORRECTION
 PORD.DEC    45 890 12 00:   POROSITY DENSITY SANDSTONE
 DEN .G/C3   45 350 01 00:   COMPENSATED BULK DENSTIY
~PARAMETER INFORMATION
#MNEM.UNIT          VALUE    DESCRIPTION
#----------   ------------   ------------------------------
 PD  .                 GL:   PERMANENT DATUM
 EPD .F              5178:   ELEVATION PERMANENT DATUM
 LMF .                 KB:   LOG MEASURED FROM
 DAPD.F                 5:   FEET ABOVE PERMANENT DATUM
 DMF .                 KB:   DRILLING MEASURED FROM
 EKB .F              5183:   KELLING BUSHING
 EGL .F              5178:   GROUND LEVEL
 DATE.        05-MAY-1991:   RUN DATE
 RUN .                  1:   RUN NUMBER
 DD  .F               470:   DEPTH DRILLER
 DL  .F               470:   DEPTH LOGGER
 BLI .F               468:   BOTTOM LOG INTERVAL
 TLI .F                 0:   TOP LOG INTERVAL
 CS  .IN            8.625:   CASING SIZE
 CBD .F                45:   CASING BOTTOM DRILLER
 CBL .F                45:   CASING BOTTOM LOGGER
 BS  .IN            7.875:   BIT SIZE
 BSD .F               470:   BIT SIZE AT DEPTH
 DFT .                AIR:   DRILLING FLUID TYPE
 LUN .            HL-6272:   LOGGING UNIT NUMBER
 LUL .             CASPER:   LOGGING UNIT LOCATION
 ENGI.            KINNETT:   RECORDING ENGINEER
 WITN.             STRONG:   WITNESSED BY
 CLNT.            A2DTECH:   CLIENT CODE
 ORIG.           5" PRINT:   ORIGIN OF DATA
 UWI .       490251134000:   UNIQUE WELL ID
 DICO. A2D Technologies, Inc.:   DIGITIZING COMPANY
~OTHER INFORMATION
~A   DEPT     RILD       RILM          GRD     CALD       CORR       PORD        DEN   
# ...
  176.5000     5.8299     5.8873    65.6950     8.5829     0.0119     0.1068     2.4699
  177.0000     5.1617     5.4158    62.9733     8.5827     0.0180     0.1086     2.4661
  177.5000     4.4922     4.8455    60.4778     8.5826     0.0136     0.1107     2.4593
  178.0000     3.9919     4.2458    58.6642     8.5824     0.0106     0.1167     2.4420
  178.5000     3.4025     3.7204    57.9857     8.5823     0.0092     0.1263     2.4172
  179.0000     2.7434     3.1487    57.9914     8.5821     0.0108     0.1357     2.3976
  179.5000     2.6163     2.6648    61.1777     8.5668     0.0138     0.1507     2.3667
  180.0000     2.5065     2.5735    65.7276     8.5667     0.0139     0.1720     2.3351
  180.5000     2.4548     2.5732    64.3685     8.5665     0.0110     0.1901     2.3080
  181.0000     2.4719     2.6270    57.7821     8.5664     0.0081     0.2249     2.2800
  181.5000     2.5240     2.7195    53.0139     8.5662     0.0096     0.2415     2.2473
  182.0000     2.6497     2.8744    48.9275     8.5661     0.0263     0.2754     2.2037
  182.5000     2.9203     3.0595    45.9775     8.5659     0.0414     0.2659     2.2041
  183.0000     3.2864     3.3481    50.0729     8.5658     0.0292     0.2441     2.2568
  183.5000     3.6983     3.8488    55.0774     8.5808     0.0218     0.2121     2.2982
  184.0000     4.2200     4.4916    60.0819     8.5806     0.0205     0.1884     2.3419
  184.5000     4.6188     5.1650    60.5634     8.5805     0.0251     0.1709     2.3667
  185.0000     4.9855     5.6145    59.1818     8.5803     0.0237     0.1472     2.4066
  185.5000     5.6495     6.0801    60.3453     8.5802     0.0178     0.1255     2.4435
  186.0000     6.0139     6.3380    63.1154     8.5800     0.0118     0.1153     2.4623
  186.5000     6.1406     6.5157    65.5818     8.5798     0.0104     0.1129     2.4691
  187.0000     6.1406     6.5148    63.1699     8.5797     0.0060     0.1102     2.4721
  187.5000     6.1406     6.4240    60.5680     8.5795     0.0060     0.1057     2.4759
  188.0000     6.0095     6.3787    62.3918     8.5794     0.0091     0.1024     2.4789
  188.5000     5.6805     6.1601    63.9872     8.5792     0.0122     0.1015     2.4812
  189.0000     5.4129     5.9079    63.5361     8.5791     0.0123     0.1021     2.4812
  189.5000     5.1260     5.4347    64.4508     8.5789     0.0108     0.1027     2.4804
  190.0000     4.9168     5.0693    68.0917     8.5788     0.0079     0.1045     2.4774
  190.5000     4.7820     4.8956    72.1871     8.5635     0.0065     0.1072     2.4676
  191.0000     4.6510     4.8610    75.8279     8.5633     0.0081     0.1130     2.4330
  191.5000     4.5868     4.8267    77.6506     8.5632     0.0126     0.1454     2.4006
  192.0000     4.5868     4.8597    75.8370     8.5630     0.0202     0.1575     2.3938
  192.5000     4.6188     4.9959    72.2051     8.5629     0.0204     0.1551     2.3968
  193.0000     4.6834     5.1718    67.8914     8.5627     0.0189     0.1509     2.4014
  193.5000     4.8489     5.3550    62.6687     8.5626     0.0160     0.1485     2.4123
  194.0000     5.0905     5.5887    56.5368     8.5624     0.0160     0.1434     2.4299
  194.5000     5.3814     5.9546    58.3595     8.5623     0.0146     0.1310     2.4448
  195.0000     5.7685     6.3371    65.8640     8.5621     0.0132     0.1238     2.4646
  195.5000     6.0981     6.7291    72.2322     8.5620     0.0133     0.1148     2.4752
  196.0000     6.4465     7.1126    76.3276     8.5618     0.0148     0.1067     2.4819
  196.5000     6.8149     7.4143    75.4230     8.5617     0.0164     0.1025     2.4864
  197.0000     7.1056     7.6753    73.1548     8.5615     0.0165     0.0997     2.4910
  197.5000     7.3594     7.8904    70.2047     8.5614     0.0166     0.0970     2.4962
  198.0000     7.6159     8.0000    67.7092     8.5612     0.0166     0.0946     2.4985
  198.5000     7.7763     8.1105    65.6683     8.5611     0.0152     0.0932     2.4977
  199.0000     7.7763     8.0532    66.3546     8.5609     0.0138     0.0944     2.4947
  199.5000     7.6690     7.9964    68.1773     8.5759     0.0108     0.0971     2.4902
  200.0000     7.5484     7.8009    71.3636     8.5758     0.0094     0.1008     2.4866
  200.5000     7.4017     7.6201    68.3986     8.5760     0.0085     0.1024     2.4833
  201.0000     7.2524     7.3030    65.3509     8.5611     0.0079     0.1044     2.4781
  201.5000     7.1019     7.0527    65.3622     8.5614     0.0079     0.1073     2.4721
  202.0000     6.8111     6.8585    66.2840     8.5919     0.0079     0.1079     2.4713
  202.5000     6.5321     6.7162    67.6611     8.5922     0.0079     0.1079     2.4713
  203.0000     6.2213     6.6226    68.8106     8.6227     0.0094     0.1079     2.4713
  203.5000     5.8030     6.5758    69.9600     8.6230     0.0124     0.1076     2.4720
  204.0000     5.4129     6.4393    72.0199     8.6232     0.0169     0.1058     2.4743
  204.5000     5.1196     6.0905    73.1665     8.6083     0.0184     0.1028     2.4780
  205.0000     4.9088     5.1189    69.9941     8.6086     0.0154     0.1019     2.4810
  205.5000     4.7724     4.8415    67.2740     8.5937     0.0109     0.1040     2.4803
  206.0000     4.6756     4.7741    68.1958     8.5939     0.0049     0.1100     2.4735
  206.5000     4.6426     4.8100    75.5173     8.5942     0.0049     0.1169     2.4599
  207.0000     4.6802     4.9164    79.9425     8.5945     0.0079     0.1265     2.4245
  207.5000     4.8052     5.1272    78.9939     8.5947     0.0139     0.1481     2.3703
  208.0000     5.0090     5.5590    75.2679     8.5950     0.0214     0.1770     2.3635
  208.5000     5.2579     5.9168    70.3225     8.5800     0.0260     0.1596     2.3891
  209.0000     5.5191     6.2541    68.8410     8.5803     0.0305     0.1424     2.4169
  209.5000     5.9564     6.6105    70.0378     8.5654     0.0245     0.1184     2.4628
  210.0000     6.4285     6.9389    72.0876     8.5657     0.0094     0.1066     2.4801
  210.5000     6.8423     7.2332    74.1060     8.5659     0.0049     0.1027     2.4861
  211.0000     7.1822     7.3845    74.7927     8.5662     0.0064     0.1009     2.4854
  211.5000     7.3835     7.5392    75.6717     8.5816     0.0094     0.1006     2.4831
  212.0000     7.5905     7.7503    74.6957     8.5818     0.0094     0.1018     2.4823
  212.5000     7.6426     7.9675    72.3903     8.5821     0.0094     0.1027     2.4816
  213.0000     7.7484     8.0779    67.4373     8.5823     0.0096     0.1036     2.4808
  213.5000     7.8014     8.1900    66.8394     8.5826     0.0109     0.1039     2.4800
  214.0000     7.8000     8.1886    65.8517     8.5828     0.0109     0.1033     2.4800
  214.5000     7.7990     8.1308    63.3572     8.5831     0.0124     0.1018     2.4816
  215.0000     7.7979     8.0175    62.3144     8.5682     0.0124     0.1003     2.4846
  215.5000     7.7968     7.9610    65.2702     8.5836     0.0094     0.0997     2.4867
  216.0000     7.7418     7.9048    67.7709     8.5838     0.0064     0.0997     2.4860
  216.5000     7.6871     7.9037    68.2293     8.5841     0.0064     0.0991     2.4867
  217.0000     7.6329     7.9026    69.3685     8.5843     0.0079     0.0975     2.4904
  217.5000     7.5790     7.9015    71.8693     8.5997     0.0079     0.0954     2.4934
  218.0000     7.5779     7.8457    74.8239     8.6000     0.0079     0.0951     2.4897
  218.5000     7.4724     7.8446    74.1476     8.6306     0.0064     0.0957     2.4859
  219.0000     7.4196     7.8436    72.1098     8.6135     0.0079     0.0969     2.4851
  219.5000     7.3672     7.8425    71.2055     8.5704     0.0064     0.0990     2.4881
  220.0000     7.3662     7.8414    72.1188     8.5708     0.0079     0.0987     2.4889
  220.5000     7.3652     7.7860    73.0311     8.5710     0.0079     0.0993     2.4866
  221.0000     7.3640     7.7814    73.9433     8.5864     0.0079     0.1008     2.4828
  221.5000     7.3630     7.7300    75.0825     8.6018     0.0094     0.1008     2.4835
