~VERSION INFORMATION
 VERS.                2.0:   CWLS LOG ASCII STANDARD - VERSION 2.0
 WRAP.                 NO:   ONE LINE PER DEPTH STEP
~WELL INFORMATION
#MNEM.UNIT      DATA TYPE    INFORMATION
#----------   ------------   ------------------------------
 STRT.F           30.0000:   START DEPTH
 STOP.F          618.0000:   STOP DEPTH
 STEP.F            0.5000:   STEP LENGTH
 NULL.          -999.2500:   NO VALUE
 COMP. FENNIX & SCISSON, INC.:   COMPANY
 WELL.       NPR #88-S-10:   WELL
 FLD .              NPR-3:   FIELD
 LOC .      S10 T38N R78W:   LOCATION
 CNTY.            NATRONA:   COUNTY
 STAT.            WYOMING:   STATE
 CTRY. UNITED STATES OF AMERICA:   COUNTRY
 SRVC.              Welex:   SERVICE COMPANY
 DATE.        22-APR-1977:   LOGDATE
 API .       490251034200:   API NUMBER
~CURVE INFORMATION
#MNEM.UNIT       API CODE    CURVE DESCRIPTION
#----------   ------------   ------------------------------
 DEPT.F                  :   
 CALD.IN     45 280 60 00:   CALIPER FROM DENSITY LOG
 GRD .GAPI   45 310 01 00:   GAMMA RAY FROM DENSITY LOG
 CORR.G/C3   45 356 01 00:   DENSITY CORRECTION
 RHOB.G/C3   45 350 01 00:   BULK DENSITY
 DPHI.DEC    45 890 12 00:   DENSITY POROSITY SANDSTONE
 ILD .OHMM   07 120 46 00:   INDUCTION LOG DEEP
 ILM .OHMM   07 120 44 00:   INDUCTION LOG MEDIUM
 SGRD.OHMM   07 220 05 00:   SHALLOW GUARD RESISTIVITY
 SPR .MV     07 010 01 00:   SPONTANEOUS POTENTIAL FROM RES.
~PARAMETER INFORMATION
#MNEM.UNIT          VALUE    DESCRIPTION
#----------   ------------   ------------------------------
 PD  .                 GL:   PERMANENT DATUM
 EPD .F              5255:   ELEVATION PERMANENT DATUM
 LMF .                 GL:   LOG MEASURED FROM
 DMF .                 GL:   DRILLING MEASURED FROM
 EGL .F              5255:   GROUND LEVEL
 DATE.        22-APR-1977:   RUN DATE
 RUN .                  1:   RUN NUMBER
 DD  .F               630:   DEPTH DRILLER
 DL  .F               620:   DEPTH LOGGER
 BLI .F               618:   BOTTOM LOG INTERVAL
 TLI .F                38:   TOP LOG INTERVAL
 CS  .IN            8.625:   CASING SIZE
 CBD .F                40:   CASING BOTTOM DRILLER
 BS  .IN            7.875:   BIT SIZE
 BSD .F               630:   BIT SIZE AT DEPTH
 DFT .            KCL GEL:   DRILLING FLUID TYPE
 DFD .                9.0:   DRILLING FLUID DENSITY
 DFV .                 40:   DRILLING FLUID VISCOSITY
 DFPH.                8.0:   DRILLING FLUID PH
 DFL .                6.4:   DRILLING FLUID LOSS
 MSS .            MUD PIT:   MUD SAMPLE SOURCE
 RMS .OHMM            .20:   RESISTIVITY MUD SAMPLE
 MST .F                65:   MUD SAMPLE TEMPERATURE
 RMF .OHMM            .18:   RESISTIVITY MUD FILTRATE SAMPLE
 MFST.F                65:   MUD FILTRATE SAMPLE TEMPERATURE
 RMC .OHMM            .28:   RESISTIVITY MUD CAKE
 MCST.F                65:   MUD CAKE SAMPLE TEMPERATURE
 MFSS.               MEAS:   MUD FILTRATE SAMPLE SOURCE
 MCSS.               MEAS:   MUD CAKE SAMPLE SOURCE
 RMB .OHMM            .18:   RESISTIVITY MUD AT BHT
 BHT .F                71:   BOTTOM HOLE TEMPERATURE
 TCS .HRS            0300:   TIME CURCULATED STOPPED
 MRT .F                71:   MAXIMUM RECORDED TEMPERATURE
 LUN .               8611:   LOGGING UNIT NUMBER
 LUL .             CASPER:   LOGGING UNIT LOCATION
 ENGI.          T. JOYNER:   RECORDING ENGINEER
 WITN.           ROB LYON:   WITNESSED BY
 CLNT.            A2DTECH:   CLIENT CODE
 ORIG.           5" PRINT:   ORIGIN OF DATA
 UWI .       490251034200:   UNIQUE WELL ID
 DICO. A2D Technologies, Inc.:   DIGITIZING COMPANY
~OTHER INFORMATION
~A   DEPT     CALD        GRD       CORR       RHOB       DPHI        ILD        ILM       SGRD        SPR   
# ...
  431.5000     7.7805    85.2190     0.0313     2.3413     0.1881    16.9196    22.8562    29.5429   -14.1207
  432.0000     7.7950    84.3238     0.0313     2.3279     0.2011    17.3850    25.3396    32.2973   -13.9762
  432.5000     7.8243    83.4286     0.0298     2.3009     0.2162    17.6190    27.5173    36.0464   -13.8318
  433.0000     7.8239    82.5334     0.0269     2.2934     0.2169    18.1037    29.0688    37.8109   -13.8364
  433.5000     7.8085    84.3328     0.0254     2.2927     0.2163    18.4750    30.9231    35.2746   -13.5433
  434.0000     7.7931    87.3299     0.0254     2.2979     0.2163    18.8556    32.4450    33.3657   -13.5477
  434.5000     7.7777    92.4227     0.0270     2.3099     0.2097    19.1059    33.1061    39.0799   -13.2546
  435.0000     7.7623    94.0724     0.0270     2.3271     0.1908    19.2300    30.6340    32.8772   -13.2590
  435.5000     7.7469    95.1532     0.0286     2.3375     0.1864    19.0900    28.3905    31.3132   -12.9658
  436.0000     7.7464    93.9477     0.0271     2.3435     0.1858    19.0821    27.0353    29.8237   -12.9703
  436.5000     7.7460    90.3590     0.0271     2.3525     0.1807    19.0909    25.7670    28.7993   -12.8259
  437.0000     7.7605    87.1636     0.0256     2.3607     0.1753    19.3311    25.0535    28.1962   -12.6815
  437.5000     7.7600    86.4396     0.0241     2.3555     0.1768    19.0150    24.7266    27.9890   -12.6860
  438.0000     7.7596    86.6208     0.0211     2.3532     0.1801    17.8596    24.5481    28.1691   -12.3928
  438.5000     7.7742    88.1117     0.0197     2.3547     0.1798    16.8206    24.5380    28.3503   -12.3973
  439.0000     7.7887    89.7545     0.0167     2.3622     0.1744    16.1329    24.8725    28.3366   -12.4018
  439.5000     7.7881    90.8054     0.0167     2.3756     0.1663    15.6880    25.2095    27.1554   -12.4062
  440.0000     7.7877    91.8563     0.0167     2.3861     0.1609    15.1506    25.7256    25.8706   -12.7083
  440.5000     7.7872    92.9073     0.0168     2.3838     0.1576    14.5311    25.1900    25.1526   -12.7128
  441.0000     7.8018    93.8274     0.0168     2.3876     0.1508    14.0334    23.9941    24.4544   -12.8661
  441.5000     7.8013    93.6617     0.0168     2.3950     0.1487    13.6463    22.8551    24.1056   -13.0193
  442.0000     7.7859    93.5150     0.0169     2.4070     0.1496    13.2700    21.4717    23.7619   -13.3214
  442.5000     7.7855    96.2120     0.0169     2.4033     0.1520    12.9040    19.8957    23.2835   -13.4747
  443.0000     7.7851    95.1678     0.0169     2.4003     0.1505    12.6349    18.6915    23.0891   -13.6280
  443.5000     7.7697    93.8236     0.0170     2.4017     0.1469    12.4569    17.6817    22.9425   -13.6324
  444.0000     7.7692    92.4793     0.0170     2.4092     0.1433    12.3663    16.8423    22.9314   -13.6627
  444.5000     7.7688    90.9853     0.0170     2.4197     0.1373    12.4466    16.3783    23.0794   -13.7902
  445.0000     7.7683    90.0901     0.0170     2.4257     0.1337    12.7891    16.6001    23.5476   -13.9443
  445.5000     7.7697    89.7930     0.0171     2.4249     0.1322    13.2318    17.5361    24.5302   -13.9488
  446.0000     7.7824    89.9464     0.0171     2.4121     0.1513    13.5026    18.5248    27.0028   -13.9532
  446.5000     7.7819    91.1470     0.0171     2.3882     0.1609    13.8741    19.7047    28.7175   -13.9577
  447.0000     7.7815    93.9944     0.0172     2.3730     0.1729    14.2559    20.9598    30.1228   -13.9621
  447.5000     7.7960    93.8469     0.0172     2.3583     0.1785    14.5476    21.9893    28.4927   -13.8167
  448.0000     7.7955    93.5513     0.0157     2.3516     0.1815    14.7448    22.5988    24.4713   -13.6723
  448.5000     7.7951    93.4039     0.0157     2.3486     0.1821    14.9433    22.1264    22.9880   -13.6779
  449.0000     7.7946    93.5573     0.0143     2.3493     0.1812    15.0404    21.5167    21.7441   -13.5324
  449.5000     7.7942    95.2071     0.0158     2.3523     0.1782    15.1381    20.7800    20.7097   -13.3880
  450.0000     7.8536    97.6214     0.0173     2.3613     0.1743    15.0762    19.9306    22.4877   -13.0960
  450.5000     7.8689    95.6604     0.0159     2.3568     0.1767    14.9154    19.8571    22.3253   -13.1036
  451.0000     7.8544    94.4639     0.0113     2.3560     0.1791    14.9082    19.7823    22.4720   -13.1128
  451.5000     7.8549    94.6155     0.0083     2.3567     0.1794    14.9011    19.7768    22.4623   -13.1219
  452.0000     7.8554    96.4130     0.0084     2.3597     0.1782    14.8939    19.7713    22.1471   -13.1322
  452.5000     7.8408    92.9718     0.0099     2.3627     0.1744    14.8867    19.9041    21.8363   -13.1411
  453.0000     7.8413    92.8232     0.0144     2.3657     0.1732    14.7774    19.8972    21.5299   -13.1500
  453.5000     7.8418    94.7712     0.0159     2.3679     0.1699    14.6689    19.8917    21.2278   -13.1589
  454.0000     7.8422    95.9703     0.0175     2.3702     0.1693    14.5611    19.7495    20.9299   -13.1677
  454.5000     7.8427    98.6664     0.0160     2.3687     0.1699    14.2564    19.6083    20.7789   -13.1766
  455.0000     7.8280   101.0631     0.0130     2.3672     0.1714    14.0546    19.3343    20.6291   -13.1855
  455.5000     7.8286   101.6630     0.0100     2.3634     0.1735    13.7605    19.0640    20.4803   -13.3432
  456.0000     7.8140    97.6230     0.0100     2.3619     0.1747    13.4725    18.2859    20.3326   -13.3520
  456.5000     7.8145    98.5227     0.0115     2.3642     0.1696    13.2818    16.4837    20.3256   -13.3609
  457.0000     7.8000   100.3206     0.0100     2.3589     0.1738    13.0038    14.9619    20.3186   -13.5186
  457.5000     7.8005   102.5676     0.0085     2.3574     0.1771    12.8197    13.9606    20.3116   -13.5275
  458.0000     7.8009   103.7667     0.0085     2.3641     0.1711    12.6382    13.2073    20.1651   -13.6852
  458.5000     7.7863   102.4208     0.0116     2.3626     0.1741    12.4593    13.1129    20.0196   -13.6941
  459.0000     7.7869   100.9253     0.0116     2.3619     0.1756    12.4533    14.3393    20.0127   -13.8517
  459.5000     7.7723    99.7292     0.0086     2.3589     0.1783    12.4473    15.8984    20.0059   -13.8606
  460.0000     7.7728    98.5331     0.0056     2.3506     0.1792    12.5288    17.3854    19.9990   -13.8695
  460.5000     7.7733    96.8879     0.0026     2.3596     0.1765    12.5213    18.4940    19.9921   -13.8784
  461.0000     7.7737    95.0930     0.0011     2.3678     0.1720    12.6033    19.4037    20.1252   -14.1849
  461.5000     7.7891    93.1484     0.0011     2.3648     0.1714    12.5957    19.5340    20.2574   -14.3426
  462.0000     7.7896    97.1918     0.0011     2.3656     0.1732    12.6782    19.1272    20.3888   -14.5002
  462.5000     7.7900    98.8400     0.0011     2.3723     0.1702    12.5835    19.1219    20.3818   -14.6579
  463.0000     7.8054    99.8894     0.0011     2.3738     0.1675    12.5775    19.5164    20.5175   -14.8156
  463.5000     7.8059   101.0885     0.0012     2.3730     0.1672    12.4851    20.3357    20.6505   -15.1221
  464.0000     7.8212   102.1379     0.0012     2.3715     0.1699    12.3934    20.7566    20.5016   -15.1310
  464.5000     7.8217   100.4927     0.0012     2.3708     0.1693    12.3024    20.3244    20.4945   -15.4375
  465.0000     7.8221    98.6977     0.0012     2.3715     0.1685    12.2121    19.2277    20.0681   -15.4514
  465.5000     7.8226    97.0525     0.0012     2.3722     0.1685    12.1224    18.0652    19.6505   -15.6126
  466.0000     7.8230    94.9582     0.0012     2.3767     0.1664    11.8687    16.3974    19.2417   -15.7619
  466.5000     7.8085    93.7621     0.0028     2.3864     0.1580    11.7007    14.3789    18.9716   -15.7708
  467.0000     7.8090    92.7157     0.0058     2.3999     0.1541    11.4558    13.1418    18.9651   -15.7986
  467.5000     7.8094    92.1180     0.0118     2.3991     0.1523    11.2936    12.2623    19.3548   -15.9375
