~VERSION INFORMATION
 VERS.                2.0:   CWLS LOG ASCII STANDARD - VERSION 2.0
 WRAP.                 NO:   ONE LINE PER DEPTH STEP
~WELL INFORMATION
#MNEM.UNIT      DATA TYPE    INFORMATION
#----------   ------------   ------------------------------
 STRT.F            0.0000:   START DEPTH
 STOP.F          860.0000:   STOP DEPTH
 STEP.F            0.5000:   STEP LENGTH
 NULL.          -999.2500:   NO VALUE
 COMP.          U.S. NAVY:   COMPANY
 WELL. NPR #3 TEAPOT DOME #28S-35:   WELL
 FLD .             TEAPOT:   FIELD
 LOC .      S35 T39N R78W:   LOCATION
 CNTY.            NATRONA:   COUNTY
 STAT.            WYOMING:   STATE
 CTRY. UNITED STATES OF AMERICA:   COUNTRY
 SRVC.       Schlumberger:   SERVICE COMPANY
 DATE.        10-NOV-1958:   LOGDATE
 API .       490250649800:   API NUMBER
~CURVE INFORMATION
#MNEM.UNIT       API CODE    CURVE DESCRIPTION
#----------   ------------   ------------------------------
 DEPT.F                  :   
 SPR .MV     01 010 01 00:   SPONTANEOUS POTENTIAL FROM RES.
 ASN .OHMM   01 041 16 00:   AMPLIFIED SHORT NORMAL 16"
 LT18.OHMM   01 070 18 00:   LATERAL 18'
 LN  .OHMM   01 060 64 00:   LONG NORMAL 64"
 GRN .CPS    35 310 30 00:   GAMMA RAY
 NEUT.CPS    35 330 30 00:   NEUTRON
 MCAL.IN     15 280 01 00:   CALIPER FROM MICRO LOG
~PARAMETER INFORMATION
#MNEM.UNIT          VALUE    DESCRIPTION
#----------   ------------   ------------------------------
 LMF .                 KB:   LOG MEASURED FROM
 DMF .                 KB:   DRILLING MEASURED FROM
 EKB .F              5113:   KELLING BUSHING
 EGL .F              5103:   GROUND LEVEL
 DATE.         11-10-1958:   RUN DATE
 RUN .                  1:   RUN NUMBER
 DD  .F               860:   DEPTH DRILLER
 DL  .F               861:   DEPTH LOGGER
 BLI .F               860:   BOTTOM LOG INTERVAL
 TLI .F                90:   TOP LOG INTERVAL
 CBD .F                34:   CASING BOTTOM DRILLER
 BS  .IN             6.75:   BIT SIZE
 BSD .F               860:   BIT SIZE AT DEPTH
 DFT .          OIL ADDED:   DRILLING FLUID TYPE
 DFD .                 10:   DRILLING FLUID DENSITY
 DFV .                 20:   DRILLING FLUID VISCOSITY
 DFPH.                7.5:   DRILLING FLUID PH
 DFL .                4.2:   DRILLING FLUID LOSS
 RMS .OHMM              2:   RESISTIVITY MUD SAMPLE
 MST .F                62:   MUD SAMPLE TEMPERATURE
 RMF .OHMM            1.4:   RESISTIVITY MUD FILTRATE SAMPLE
 MFST.F                72:   MUD FILTRATE SAMPLE TEMPERATURE
 RMC .OHMM            1.9:   RESISTIVITY MUD CAKE
 MCST.F                72:   MUD CAKE SAMPLE TEMPERATURE
 MFSS.                  M:   MUD FILTRATE SAMPLE SOURCE
 MCSS.                  M:   MUD CAKE SAMPLE SOURCE
 RMB .OHMM            1.7:   RESISTIVITY MUD AT BHT
 BHT .F                72:   BOTTOM HOLE TEMPERATURE
 TCS .HRS               1:   TIME CURCULATED STOPPED
 MRT .F                72:   MAXIMUM RECORDED TEMPERATURE
 LUN .               2754:   LOGGING UNIT NUMBER
 LUL .                 NC:   LOGGING UNIT LOCATION
 ENGI.             QUINBY:   RECORDING ENGINEER
 WITN.             MARTIN:   WITNESSED BY
 CLNT.            A2DTECH:   CLIENT CODE
 ORIG.     1", 2.5" PRINT:   ORIGIN OF DATA
 UWI .       490250649800:   UNIQUE WELL ID
 DICO. A2D Technologies, Inc.:   DIGITIZING COMPANY
~OTHER INFORMATION
~A    DEPT     SPR        ASN       LT18         LN          GRN     NEUT       MCAL   
# ...
  364.0000    -9.9015     8.0915     7.7675     7.3261     6.8241   401.2218     6.8524
  364.5000    -9.8964     8.1508     7.7723     7.3281     6.8864   395.8888     6.8517
  365.0000    -9.8912     8.1514     7.7770     7.3732     6.9298   394.3720     6.8237
  365.5000    -9.8859     8.1790     7.7818     7.4681     7.0768   405.0731     6.8231
  366.0000    -9.8804     8.1795     7.7865     7.3342     7.2471   420.3538     6.8224
  366.5000    -9.9556     8.2070     7.9272     7.3366     7.4519   406.6226     6.8217
  367.0000   -10.1424     8.2055     7.9317     7.3386     7.6833   400.5261     6.8205
  367.5000   -10.1359     8.1392     7.8010     7.3405     7.8559   397.4836     6.7930
  368.0000   -10.4012     7.9957     7.8055     7.3424     7.6673   397.4334     6.7650
  368.5000   -10.6678     7.8360     7.6749     7.3374     7.6506   414.3025     6.7371
  369.0000   -10.3909     7.7225     7.6586     7.1893     7.8931   428.0564     6.7364
  369.5000   -10.1140     7.5887     7.5140     7.0765     8.1554   420.4329     6.7357
  370.0000   -10.3806     7.5082     7.4181     7.0788     8.1869   425.0255     6.7350
  370.5000   -10.9189     7.4546     7.2885     7.1449     8.0398   427.6122     6.7291
  371.0000   -11.4573     7.4551     7.2932     7.2188     7.9340   427.0030     6.7063
  371.5000   -11.0716     7.4574     7.2987     7.2211     7.8788   407.5707     6.6783
  372.0000   -10.3550     7.4833     7.3032     7.2230     7.7261   393.0044     6.7541
  372.5000    -9.8088     7.4838     7.3077     7.2250     7.4808   412.9424     6.8841
  373.0000    -9.8036     7.5114     7.3122     7.2269     7.2789   422.2234     6.9581
  373.5000   -10.0706     7.5389     7.3032     7.2427     7.3654   427.8438     6.9488
  374.0000   -16.5868     7.5936     7.1860     7.3668     7.2965   426.6440     6.9381
  374.5000   -19.0579     7.6482     7.1912     7.3689     7.1924   428.1844     6.9201
  375.0000   -19.8823     7.7568     7.1960     7.3709     7.0472   426.6669     6.9194
  375.5000   -20.3757     7.9465     7.2007     7.2371     6.9019   425.9166     6.9187
  376.0000   -20.3696     8.2785     7.3414     7.1036     6.7528   422.1106     6.9181
  376.5000   -20.3641     8.5730     7.4810     7.1056     6.9725   414.4871     6.9039
  377.0000   -20.3577     9.0292     7.7558     7.1075     7.6314   418.3158     6.8752
  377.5000   -20.3525     8.8392     7.8954     7.2453     7.3267   417.5636     6.8613
  378.0000   -20.0756     8.7784     8.0350     7.2472     6.8534   420.6288     6.9035
  378.5000   -20.0705     8.5181     7.7693     7.3852     6.9155   423.6940     6.9854
  379.0000   -19.7935     8.0276     7.4694     7.4221     7.2247   425.2323     7.0064
  379.5000   -19.7880     7.8830     7.0545     7.7102     7.2456   432.8783     6.8585
  380.0000   -19.5109     8.0596     6.9099     7.7989     7.2871   422.2010     6.8305
  380.5000   -19.6078     8.1141     6.8426     7.8010     7.4521   418.3949     6.8572
  381.0000   -19.7717     8.1957     6.9832     7.9392     7.6789   427.5679     6.8839
  381.5000   -20.0370     8.2773     6.9877     7.9411     7.6175   429.9105     6.9104
  382.0000   -20.0319     8.2778     7.1273     7.9430     7.5766   435.9887     6.9371
  382.5000   -20.0267     8.2513     7.2669     7.9450     7.7828   436.2032     6.9364
  383.0000   -19.7498     8.2790     7.2716     7.9470     7.9890   446.1506     6.9357
  383.5000   -19.4729     8.2895     7.2763     7.9491     8.0099   435.2904     6.9077
  384.0000   -19.7789     8.4000     7.2811     7.9511     8.1544   426.1088     6.8797
  384.5000   -20.0752     8.5509     7.2858     7.9531     8.3194   431.2316     6.8517
  385.0000   -20.2727     8.7136     7.2905     7.9552     7.9903   436.6678     6.8511
  385.5000   -20.5381     8.8492     7.2961     7.8217     7.9082   443.5610     6.8231
  386.0000   -20.5315     8.9038     7.3006     7.8236     7.8662   451.3486     6.8224
  386.5000   -20.5264     8.9592     7.4402     7.8256     7.6984   436.8539     6.7944
  387.0000   -20.7930     9.0438     7.4447     7.8275     7.4499   444.0848     6.7937
  387.5000   -20.7878     9.0676     7.4493     7.8351     7.2917   448.3305     6.7657
  388.0000   -20.7826     9.0951     7.5892     7.9673     7.4361   449.8668     6.7650
  388.5000   -20.7772     9.0830     7.6280     7.9695     7.4158   445.2973     6.7644
  389.0000   -20.7718     9.0423     7.7338     8.1074     7.4985   448.9961     6.7637
  389.5000   -20.7663     8.9887     7.8737     8.1094     7.3752   444.1617     6.7630
  390.0000   -20.7609     8.9352     7.8018     8.2473     7.4991   436.6304     6.7623
  390.5000   -20.7554     8.8006     7.7480     8.2496     7.7877   437.6902     6.7616
  391.0000   -20.7492     8.9378     7.6181     8.3874     7.7056   449.6935     6.7609
  391.5000   -20.7440     9.1095     7.4874     8.5253     7.9041   461.4726     6.7602
  392.0000   -20.7389     9.3146     7.4919     8.5272     8.1157   465.8816     6.7322
  392.5000   -20.7337     9.4797     7.4966     8.6775     8.1802   456.0820     6.7316
  393.0000   -20.7283     9.6389     7.5014     8.8297     7.7061   457.6202     6.7036
  393.5000   -20.7228     9.7689     7.5061     8.9819     7.5001   471.3740     6.7029
  394.0000   -20.7174     9.8855     7.5658     9.0788     7.4192   468.3315     6.7022
  394.5000   -20.7120     9.9671     7.6507     9.0808     7.6128   459.1811     6.6908
  395.0000   -20.9782     9.9665     7.7914     9.2191     7.5949   444.6864     6.6735
  395.5000   -20.7003     9.7617     7.9310     9.2211     7.5025   434.7726     6.6334
  396.0000   -20.6951     9.8335     7.9355     9.3589     7.6264   430.2030     6.6175
  396.5000   -20.6900     9.9102     8.0752     9.4967     7.5443   431.7412     6.6034
  397.0000   -20.6848    10.1049     8.2198     9.4986     7.6682   447.7855     6.6999
  397.5000   -20.9514    10.2406     8.3739     9.6365     7.5109   454.6681     6.8215
  398.0000   -21.2180    10.3762     8.5279     9.6385     7.6688   457.7332     6.8606
  398.5000   -21.2119    10.3768     8.6820     9.6407     7.5238   448.5829     6.8762
  399.0000   -21.2065    10.5124     8.8360     9.7047     7.3958   441.7229     6.8866
  399.5000   -21.2011    10.3778     9.0493     9.7806     7.4226   457.7672     6.8858
  400.0000   -21.1968    10.3827     9.1445     9.9514     7.3702   458.5419     6.8873
  400.5000   -21.1948    10.3572     8.9205    10.0557     7.1742   441.7854     6.8926
  401.0000   -21.2962    10.2708     8.6515    10.1929     6.9300   431.8945     6.8980
  401.5000   -21.4636    10.1359     8.5176    10.1813     6.9518   426.5844     6.9033
  402.0000   -21.4619    10.0011     8.5191    10.0597     7.0604   430.5836     6.9092
  402.5000   -21.5829    10.0013     8.6555    10.0611     7.2201   419.0181     6.9084
  403.0000   -21.7310     9.9364     8.7920    10.0625     7.4122   429.7409     6.9349
  403.5000   -21.7297    10.0019     8.9285    10.0639     7.6505   437.4099     6.9341
  404.0000   -21.7282    10.0022     8.9298    10.0308     7.5350   417.5938     6.9333
  404.5000   -21.7269    10.1376     9.0663     9.9305     7.2843   417.2292     6.9325
  405.0000   -21.7256    10.1379     9.2027     9.8891     7.5938   423.7700     6.9044
  405.5000   -21.6128    10.0030     9.2041     9.7973     7.6035   426.8581     6.9309
  406.0000   -21.4508    10.0033     9.4757     9.7989     7.8472   422.3115     6.9301
  406.5000   -21.4495    10.0036     9.6121     9.8003     7.8634   428.4535     6.9292
  407.0000   -21.1764     9.8687     9.7486     9.7414     7.7610   437.6494     6.9284
  407.5000   -21.1751     9.7338     9.6148     9.6671     7.8152   440.7375     6.9276
  408.0000   -21.1737     9.7341     9.6162     9.6685     7.9056   452.2238     6.9268
  408.5000   -22.2593     9.7344     9.6176     9.6699     8.1406   449.2041     6.9260
  409.0000   -21.7145     9.8698     9.6189     9.5353     8.4035   443.1305     6.9252
