~VERSION INFORMATION
 VERS.                2.0:   CWLS LOG ASCII STANDARD - VERSION 2.0
 WRAP.                 NO:   ONE LINE PER DEPTH STEP
~WELL INFORMATION
#MNEM.UNIT      DATA TYPE    INFORMATION
#----------   ------------   ------------------------------
 STRT.F           16.5000:   START DEPTH
 STOP.F          475.0000:   STOP DEPTH
 STEP.F            0.5000:   STEP LENGTH
 NULL.          -999.2500:   NO VALUE
 COMP. BROWN JOHN E&C INC:   COMPANY
 WELL. NAVAL PETROLEUM RESERVE 3 SX-1 #71-1-10:   WELL
 FLD .             TEAPOT:   FIELD
 LOC .      S10 T38N R78W:   LOCATION
 CNTY.            NATRONA:   COUNTY
 STAT.            WYOMING:   STATE
 CTRY. UNITED STATES OF AMERICA:   COUNTRY
 SRVC.     Atlas Wireline:   SERVICE COMPANY
 DATE.        01-OCT-1991:   LOGDATE
 API .       490252244700:   API NUMBER
~CURVE INFORMATION
#MNEM.UNIT       API CODE    CURVE DESCRIPTION
#----------   ------------   ------------------------------
 DEPT.F                  :   
 GRR .GAPI   07 310 01 00:   GAMMA RAY
 RILD.OHMM   07 120 46 00:   INDUCTION LOG DEEP RESISTIVITY
 RILM.OHMM   07 120 44 00:   RESITIVITY LONG MEDIUM
~PARAMETER INFORMATION
#MNEM.UNIT          VALUE    DESCRIPTION
#----------   ------------   ------------------------------
 PD  .                 GL:   PERMANENT DATUM
 EPD .F              5142:   ELEVATION PERMANENT DATUM
 LMF .                 KB:   LOG MEASURED FROM
 DAPD.F                10:   FEET ABOVE PERMANENT DATUM
 DMF .                 KB:   DRILLING MEASURED FROM
 EKB .F              5152:   KELLING BUSHING
 EDF .F              5151:   DRILLING FLOOR
 EGL .F              5142:   GROUND LEVEL
 DATE.        01-OCT-1991:   RUN DATE
 RUN .                  1:   RUN NUMBER
 DD  .F               485:   DEPTH DRILLER
 DL  .F               483:   DEPTH LOGGER
 BLI .F               475:   BOTTOM LOG INTERVAL
 TLI .F                97:   TOP LOG INTERVAL
 CS  .IN            8.625:   CASING SIZE
 CBD .F                89:   CASING BOTTOM DRILLER
 CBL .F                91:   CASING BOTTOM LOGGER
 BS  .IN            7.875:   BIT SIZE
 BSD .F               485:   BIT SIZE AT DEPTH
 DFT . WEIGHTED DISPERSED:   DRILLING FLUID TYPE
 DFD .               16.5:   DRILLING FLUID DENSITY
 DFV .                 37:   DRILLING FLUID VISCOSITY
 DFPH.                9.8:   DRILLING FLUID PH
 DFL .               10.0:   DRILLING FLUID LOSS
 MSS .           FLOWLINE:   MUD SAMPLE SOURCE
 RMS .OHMM           1.67:   RESISTIVITY MUD SAMPLE
 MST .F                70:   MUD SAMPLE TEMPERATURE
 RMF .OHMM           1.44:   RESISTIVITY MUD FILTRATE SAMPLE
 MFST.F                70:   MUD FILTRATE SAMPLE TEMPERATURE
 RMC .OHMM           1.93:   RESISTIVITY MUD CAKE
 MCST.F                70:   MUD CAKE SAMPLE TEMPERATURE
 MFSS.               MEAS:   MUD FILTRATE SAMPLE SOURCE
 MCSS.               MEAS:   MUD CAKE SAMPLE SOURCE
 RMB .OHMM           1.30:   RESISTIVITY MUD AT BHT
 BHT .F                90:   BOTTOM HOLE TEMPERATURE
 TCS .HRS               2:   TIME CURCULATED STOPPED
 MRT .F                99:   MAXIMUM RECORDED TEMPERATURE
 LUN .            HL/6272:   LOGGING UNIT NUMBER
 LUL .             CASPER:   LOGGING UNIT LOCATION
 ENGI.             RAUTIO:   RECORDING ENGINEER
 WITN.             STRONG:   WITNESSED BY
 CLNT.            A2DTECH:   CLIENT CODE
 ORIG.           5" PRINT:   ORIGIN OF DATA
 UWI .       490252244700:   UNIQUE WELL ID
 DICO. A2D Technologies, Inc.:   DIGITIZING COMPANY
~OTHER INFORMATION
~A   DEPT       GRR      RILD       RILM   
# ...
  380.5000    62.4306    15.5021    14.1812
  381.0000    64.4942    15.2917    13.9920
  381.5000    64.7314    14.9805    13.9004
  382.0000    64.5097    14.8792    13.7138
  382.5000    63.8358    14.6651    13.6117
  383.0000    61.7779    14.3798    13.3477
  383.5000    59.6743    14.0853    13.0782
  384.0000    60.8966    13.8941    12.9025
  384.5000    63.8735    13.8014    12.7291
  385.0000    65.4805    13.7093    12.5581
  385.5000    65.2588    13.6186    12.4755
  386.0000    64.5849    13.5278    12.3940
  386.5000    63.9089    13.4375    12.3129
  387.0000    63.2237    13.1640    12.2324
  387.5000    63.2420    12.8944    12.1524
  388.0000    64.1659    12.9889    11.9903
  388.5000    66.2296    13.0833    11.9119
  389.0000    71.2613    13.0868    12.0001
  389.5000    71.7268    12.9986    11.9929
  390.0000    70.1374    13.0030    11.9264
  390.5000    66.9499    12.9162    11.8484
  391.0000    64.6514    13.0102    11.8544
  391.5000    63.7713    13.0144    11.8592
  392.0000    64.9239    13.0179    11.8641
  392.5000    66.3026    12.9310    11.9519
  393.0000    67.6813    12.9345    11.9567
  393.5000    68.8317    12.9380    11.9617
  394.0000    69.2950    12.9415    11.8845
  394.5000    66.3380    12.8552    11.8056
  395.0000    64.5204    12.7577    11.7284
  395.5000    64.3009    12.5961    11.7344
  396.0000    63.3988    12.5120    11.6576
  396.5000    62.4944    12.4294    11.6624
  397.0000    63.1874    12.4327    11.5861
  397.5000    68.0062    12.3489    11.5103
  398.0000    68.4563    12.2672    11.4351
  398.5000    65.4993    12.1854    11.3614
  399.0000    65.9648    12.0201    11.3660
  399.5000    67.8001    11.9399    11.2906
  400.0000    68.9505    11.8610    11.1400
  400.5000    68.2744    11.8642    11.1445
  401.0000    66.4568    11.8674    11.2270
  401.5000    64.6286    11.8706    11.3892
  402.0000    66.4384    11.7906    11.3939
  402.5000    70.5479    11.7946    11.3995
  403.0000    73.9726    11.7978    11.4042
  403.5000    71.9178    11.8011    11.4088
  404.0000    70.7763    11.8047    11.4134
  404.5000    69.6347    11.7259    11.4180
  405.0000    71.2329    11.7291    11.4227
  405.5000    70.2839    11.6507    11.3480
  406.0000    68.4931    11.6546    11.3527
  406.5000    71.9178    11.5768    11.3583
  407.0000    74.2009    11.4988    11.3630
  407.5000    75.3425    11.4220    11.2886
  408.0000    71.0046    11.2676    11.1358
  408.5000    67.8082    11.1148    10.9110
  409.0000    65.9817    11.0406    10.7642
  409.5000    65.7534    10.9676    10.6197
  410.0000    70.3196    10.9706    10.3996
  410.5000    74.4292    10.8217    10.1943
  411.0000    73.0594    10.7494    10.0563
  411.5000    70.0913    10.6776     9.9212
  412.0000    65.2968    10.5260     9.7879
  412.5000    63.6986    10.2467     9.6573
  413.0000    63.7001    10.1069     9.3299
  413.5000    66.0720     9.9012     9.3346
  414.0000    71.6895     9.6990     9.3384
  414.5000    79.2237     9.2398     9.2129
  415.0000    81.2785     8.7352     8.5367
  415.5000    80.5936     7.6600     7.8466
  416.0000    80.1370     6.6655     7.2527
  416.5000    80.1370     6.0900     6.2912
  417.0000    80.3721     5.8016     5.5908
  417.5000    81.8074     5.7625     5.1087
  418.0000    84.0183     5.8048     5.0799
  418.5000    85.8447     5.8470     5.4164
  419.0000    86.9863     5.9724     5.7741
  419.5000    87.2146     6.2290     5.9741
  420.0000    82.1918     6.5878     6.0595
  420.5000    75.3425     7.0160     6.2324
  421.0000    72.3744     7.4201     6.8251
  421.5000    75.3425     8.0813     7.6853
  422.0000    77.6256     8.8990     8.7853
  422.5000    75.5708     9.4774     9.3464
  423.0000    72.6027     9.8847     9.2189
  423.5000    72.3744    10.0961     9.2220
  424.0000    76.9406    10.2405     9.1598
  424.5000    81.5069    10.2440     9.2915
  425.0000    84.4749    10.3178     9.7585
  425.5000    83.7900    10.3211    10.1072
  426.0000    78.7671    10.4688    10.3962
  426.5000    76.4840    10.9186    10.6929
  427.0000    77.8539    11.2301    10.9216
  427.5000    78.7671    11.3117    11.0009
  428.0000    77.8539    11.3232    11.1583
  428.5000    76.4840    11.4773    11.3180
  429.0000    75.5456    11.5607    11.4806
  429.5000    75.1142    11.5638    11.5639
  430.0000    74.6575    11.6477    11.5670
  430.5000    74.8858    11.8144    11.5701
  431.0000    76.9406    11.9873    11.6542
  431.5000    78.5388    12.1556    11.6573
  432.0000    78.0822    12.3294    11.8363
  432.5000    75.7934    12.5058    12.0778
  433.0000    73.9414    12.5966    12.2506
  433.5000    72.3744    12.6881    12.5127
  434.0000    71.2329    12.7802    12.6035
  434.5000    69.6347    12.7965    12.6069
  435.0000    67.8082    12.8764    12.6104
  435.5000    66.2100    12.7905    12.6145
  436.0000    64.6119    12.6169    12.6179
  436.5000    62.3128    12.5326    12.7095
  437.0000    61.1872    12.3634    12.6238
  437.5000    63.6986    12.2738    12.3667
  438.0000    68.9498    12.1141    12.1143
  438.5000    73.5160    11.9497    11.9499
  439.0000    74.8858    11.9537    11.9539
  439.5000    74.2009    11.8731    11.9571
  440.0000    75.1142    11.7945    11.9603
  440.5000    75.7991    11.7159    11.8805
  441.0000    75.3425    11.6384    11.7192
  441.5000    74.6575    11.6416    11.5554
  442.0000    72.6027    11.5631    11.2462
  442.5000    70.5479    11.4061    11.0158
  443.0000    71.2329    11.2513    10.7167
  443.5000    72.6027    11.0993    10.5705
  444.0000    74.6575    10.9487    10.4278
  444.5000    79.9087    10.8756    10.2862
  445.0000    78.5388    10.7287    10.2082
  445.5000    76.9406    10.6564    10.0096
  446.0000    76.7123    10.4394     9.9427
  446.5000    78.0822    10.2977     9.8757
  447.0000    79.6804    10.1580     9.8098
  447.5000    79.4521    10.0201     9.7449
  448.0000    78.0822     9.8841     9.6763
  448.5000    77.8539     9.7506     9.5485
  449.0000    78.0822     9.6849     9.4195
  449.5000    77.1690     9.6207     9.3560
  450.0000    75.1142     9.5566     9.2935
  450.5000    74.2009     9.5593     9.2315
  451.0000    74.8858     9.5624     9.2346
  451.5000    74.6575     9.6318     9.1729
  452.0000    76.0335     9.5669     9.1760
  452.5000    76.9406     9.5701     9.1785
  453.0000    75.5708     9.5726     9.1810
  453.5000    73.5160     9.5087     9.1197
  454.0000    71.4612     9.3803     8.9334
  454.5000    72.1461     9.2530     8.7510
  455.0000    74.6575     9.0634     8.8768
  455.5000    76.7123     8.8783     8.6351
  456.0000    78.5571     8.6372     8.3417
  456.5000    80.4421     8.4000     8.1147
  457.0000    81.5069     8.1739     7.9484
  457.5000  -999.2500     8.1188     7.7866
  458.0000  -999.2500     8.0646     7.7888
  458.5000  -999.2500     8.0108     7.7913
  459.0000  -999.2500     7.9573     7.7934
  459.5000  -999.2500     7.8498     7.6343
  460.0000  -999.2500     7.5235     7.1722
  460.5000  -999.2500     7.1246     6.8326
  461.0000  -999.2500     6.7402     6.0661
  461.5000  -999.2500     6.6021     5.9887
  462.0000  -999.2500     6.6043     6.3341
  462.5000  -999.2500     6.6988     6.6063
  463.0000  -999.2500     6.8456     6.7948
  463.5000  -999.2500     7.0870     6.9401
  464.0000  -999.2500     7.2892     7.1382
  464.5000  -999.2500     1.7602     7.5675
  465.0000  -999.2500  -999.2500     8.2678
  465.5000  -999.2500  -999.2500     8.9912
  466.0000  -999.2500  -999.2500     9.3124
  466.5000  -999.2500  -999.2500     9.4456
  467.0000  -999.2500  -999.2500     9.4481
  467.5000  -999.2500  -999.2500     9.4507
  468.0000  -999.2500  -999.2500     9.5199
  468.5000  -999.2500  -999.2500     9.6561
  469.0000  -999.2500  -999.2500     9.7262
  469.5000  -999.2500  -999.2500     9.7288
  470.0000  -999.2500  -999.2500     9.5295
  470.5000  -999.2500  -999.2500     9.4665
  471.0000  -999.2500  -999.2500     9.4033
