~VERSION INFORMATION
 VERS.                2.0:   CWLS LOG ASCII STANDARD - VERSION 2.0
 WRAP.                 NO:   ONE LINE PER DEPTH STEP
~WELL INFORMATION
#MNEM.UNIT      DATA TYPE    INFORMATION
#----------   ------------   ------------------------------
 STRT.F           24.0000:   START DEPTH
 STOP.F          570.0000:   STOP DEPTH
 STEP.F            0.5000:   STEP LENGTH
 NULL.          -999.2500:   NO VALUE
 COMP. FENIX & SCISSON INC:   COMPANY
 WELL.   NPR-3 #32SX10-10:   WELL
 FLD .  TEAPOT COME NPR-3:   FIELD
 LOC .      S10 T38N R78W:   LOCATION
 CNTY.            NATRONA:   COUNTY
 STAT.            WYOMING:   STATE
 CTRY. UNITED STATES OF AMERICA:   COUNTRY
 SRVC.            Unknown:   SERVICE COMPANY
 DATE.        27-JUN-1978:   LOGDATE
 API .       490251065300:   API NUMBER
~CURVE INFORMATION
#MNEM.UNIT       API CODE    CURVE DESCRIPTION
#----------   ------------   ------------------------------
 DEPT.F                  :   
 CALD.IN     45 280 60 00:   CALIPER FROM DENSITY LOG
 GRD .GAPI   45 310 01 00:   GAMMA RAY FROM DENSITY LOG
 CORR.G/C3   45 356 01 00:   DENSITY CORRECTION
 DPHI.DEC    45 890 12 00:   DENSITY POROSITY SANDSTONE
 RHOB.G/C3   45 350 01 00:   BULK DENSITY
 SPR .MV     05 010 01 00:   SPONTANEOUS POTENTIAL FROM RES.
 SN  .OHMM   05 040 16 00:   SHORT NORMAL 16"
 ILD .OHMM   05 120 46 00:   INDUCTION LOG DEEP
~PARAMETER INFORMATION
#MNEM.UNIT          VALUE    DESCRIPTION
#----------   ------------   ------------------------------
 PD  .                 GL:   PERMANENT DATUM
 EPD .F              5239:   ELEVATION PERMANENT DATUM
 LMF .                 GL:   LOG MEASURED FROM
 DAPD.F                 4:   FEET ABOVE PERMANENT DATUM
 DMF .                 GL:   DRILLING MEASURED FROM
 EKB .F              5243:   KELLING BUSHING
 EGL .F              5239:   GROUND LEVEL
 DATE.        27-JUN-1978:   RUN DATE
 RUN .                  1:   RUN NUMBER
 DD  .F               565:   DEPTH DRILLER
 DL  .F               574:   DEPTH LOGGER
 BLI .F               572:   BOTTOM LOG INTERVAL
 TLI .F                30:   TOP LOG INTERVAL
 CS  .IN            8.625:   CASING SIZE
 CBD .F                40:   CASING BOTTOM DRILLER
 CBL .F                40:   CASING BOTTOM LOGGER
 BS  .IN            7.875:   BIT SIZE
 BSD .F               565:   BIT SIZE AT DEPTH
 DFT .                KCL:   DRILLING FLUID TYPE
 DFD .                8.7:   DRILLING FLUID DENSITY
 DFV .                 35:   DRILLING FLUID VISCOSITY
 DFPH.                 10:   DRILLING FLUID PH
 DFL .                 14:   DRILLING FLUID LOSS
 MSS .           FLOWLINE:   MUD SAMPLE SOURCE
 RMS .OHMM            .36:   RESISTIVITY MUD SAMPLE
 MST .F                78:   MUD SAMPLE TEMPERATURE
 RMF .OHMM             .3:   RESISTIVITY MUD FILTRATE SAMPLE
 MFST.F                86:   MUD FILTRATE SAMPLE TEMPERATURE
 RMC .OHMM            .36:   RESISTIVITY MUD CAKE
 MCST.F                87:   MUD CAKE SAMPLE TEMPERATURE
 MFSS.               MEAS:   MUD FILTRATE SAMPLE SOURCE
 MCSS.               MEAS:   MUD CAKE SAMPLE SOURCE
 RMB .OHMM            3.9:   RESISTIVITY MUD AT BHT
 BHT .F                72:   BOTTOM HOLE TEMPERATURE
 TCS .HRS            0300:   TIME CURCULATED STOPPED
 MRT .F                72:   MAXIMUM RECORDED TEMPERATURE
 LUN .               2938:   LOGGING UNIT NUMBER
 LUL .               CASP:   LOGGING UNIT LOCATION
 ENGI.            POINTER:   RECORDING ENGINEER
 WITN.         ZARGARNIAN:   WITNESSED BY
 CLNT.            A2DTECH:   CLIENT CODE
 ORIG.     2.5", 5" PRINT:   ORIGIN OF DATA
 UWI .       490251065300:   UNIQUE WELL ID
 DICO. A2D Technologies, Inc.:   DIGITIZING COMPANY
~OTHER INFORMATION
~A   DEPT     CALD         GRD      CORR       DPHI       RHOB        SPR         SN        ILD   
# ...
  388.5000     7.6044    97.7340     0.0108     0.1727     2.3929   -13.8000    14.1531    16.1264
  389.0000     7.5916    97.6081     0.0095     0.1733     2.3930   -13.7970    14.0831    16.1286
  389.5000     7.5942    97.1844     0.0097     0.1732     2.3931   -13.7940    13.9639    16.1308
  390.0000     7.5808    97.0579     0.0084     0.1732     2.3940   -13.8110    13.9662    16.2220
  390.5000     7.5680    97.5361     0.0071     0.1728     2.3941   -14.0867    13.9681    16.3576
  391.0000     7.5552    99.2126     0.0057     0.1728     2.3942   -14.0836    13.9700    16.5853
  391.5000     7.5428   100.0966     0.0044     0.1727     2.3943   -14.0806    14.0568    16.8161
  392.0000     7.5299   100.2674     0.0046     0.1730     2.3945   -14.1134    14.1667    16.9235
  392.5000     7.5321   100.7851     0.0048     0.1726     2.3938   -14.3733    14.1686    17.0525
  393.0000     7.5491   103.2882     0.0050     0.1729     2.3917   -14.3702    14.1706    17.0548
  393.5000     7.5511   104.7962     0.0047     0.1743     2.3873   -14.3672    14.1725    17.1731
  394.0000     7.5383   105.4127     0.0042     0.1752     2.3867   -14.3642    14.1745    17.2946
  394.5000     7.5404   104.6918     0.0038     0.1761     2.3860   -14.3612    14.1764    17.2969
  395.0000     7.5276   103.5252     0.0034     0.1778     2.3869   -14.3582    14.1783    17.5376
  395.5000     7.5296   103.2446     0.0029     0.1787     2.3878   -14.3552    14.1803    17.5401
  396.0000     7.5317   104.4610     0.0046     0.1735     2.3954   -14.3523    14.1822    17.5425
  396.5000     7.5488   104.9288     0.0062     0.1726     2.3970   -14.3492    14.1842    17.5449
  397.0000     7.5657   104.6538     0.0079     0.1722     2.3963   -14.4219    14.1861    17.5473
  397.5000     7.5678   104.0815     0.0096     0.1719     2.3972   -14.6422    14.1884    17.5502
  398.0000     7.5549   103.9495     0.0113     0.1727     2.3964   -14.6388    13.9972    17.3135
  398.5000     7.5128   103.6800     0.0114     0.1787     2.3895   -14.6359    13.9991    17.0805
  399.0000     7.4403    99.3930     0.0116     0.1786     2.3848   -14.6328    14.0010    16.8511
  399.5000     7.3828    96.5919     0.0133     0.1771     2.3872   -14.6298    14.0029    16.8534
  400.0000     7.3545    95.4094     0.0135     0.1729     2.3946   -14.6951    13.9714    16.5686
  400.5000     7.3571    95.3465     0.0140     0.1689     2.4025   -15.1037    13.8733    16.3970
  401.0000     7.3747    96.0663     0.0146     0.1649     2.4103   -15.5164    13.7752    16.2255
  401.5000     7.4366    99.2100     0.0151     0.1598     2.4183   -15.5134    13.6771    16.0540
  402.0000     7.4687   101.3135     0.0157     0.1553     2.4229   -15.8090    13.4404    15.8824
  402.5000     7.4860   100.8172     0.0158     0.1537     2.4261   -15.8059    13.4404    15.7351
  403.0000     7.4883    95.2939     0.0160     0.1522     2.4285   -15.8029    13.4404    15.7340
  403.5000     7.4757    91.8795     0.0161     0.1495     2.4330   -16.0984    13.2574    15.7329
  404.0000     7.4632    90.5655     0.0148     0.1455     2.4384   -16.0954    13.2574    15.5180
  404.5000     7.4655    90.7374     0.0135     0.1418     2.4467   -16.0924    13.2574    15.5170
  405.0000     7.4386    97.4472     0.0106     0.1370     2.4558   -16.3881    13.2574    15.5159
  405.5000     7.4410   100.1451     0.0063     0.1310     2.4627   -16.3849    13.2574    15.5149
  406.0000     7.4433   100.3111     0.0020     0.1300     2.4665   -16.3819    13.2574    15.5138
  406.5000     7.4301    98.5572    -0.0009     0.1333     2.4584   -16.3789    13.2574    15.5127
  407.0000     7.4027    93.3799    -0.0037     0.1362     2.4540   -16.3759    13.2574    15.3008
  407.5000     7.4056    90.7286    -0.0065     0.1398     2.4496   -16.3729    13.4404    15.2998
  408.0000     7.3924    90.0089    -0.0079     0.1452     2.4437   -16.3699    13.2574    15.2987
  408.5000     7.3655    93.7598     0.0013     0.1523     2.4333   -16.3669    13.2574    15.0897
  409.0000     7.3529    94.0684     0.0105     0.1613     2.4161   -16.3639    13.2574    15.0887
  409.5000     7.3255    94.0965     0.0136     0.1627     2.4126   -16.3609    13.2574    15.0877
  410.0000     7.3427   101.8464     0.0153     0.1621     2.4135   -16.3579    13.2574    15.0866
  410.5000     7.3601   103.5041     0.0169     0.1567     2.4219   -16.6537    13.2574    15.0856
  411.0000     7.3778   104.1218     0.0186     0.1524     2.4295   -16.9489    13.2574    14.8795
  411.5000     7.3950   101.6191     0.0188     0.1511     2.4326   -17.2444    13.2574    14.8785
  412.0000     7.3974    98.6706     0.0174     0.1496     2.4334   -17.5399    13.2574    15.0826
  412.5000     7.3997    99.2882     0.0176     0.1477     2.4358   -17.5369    13.2574    15.0815
  413.0000     7.4020   101.5404     0.0178     0.1444     2.4441   -17.6119    13.2574    15.0805
  413.5000     7.4044   105.3148     0.0179     0.1402     2.4502   -17.5309    13.0769    15.0795
  414.0000     7.4067   108.5745     0.0196     0.1374     2.4526   -17.8268    13.0769    15.0784
  414.5000     7.4239   108.8949     0.0197     0.1347     2.4557   -17.8234    13.0769    15.0685
  415.0000     7.4412   108.1753     0.0184     0.1340     2.4581   -17.8204    13.0769    14.8646
  415.5000     7.4736   104.0381     0.0156     0.1316     2.4629   -17.8174    12.8989    14.4689
  416.0000     7.4906    96.0376     0.0142     0.1288     2.4673   -17.8144    12.8989    14.0722
  416.5000     7.4935    96.0609     0.0129     0.1288     2.4674   -17.8114    12.8006    13.5095
  417.0000     7.4803    96.2328     0.0116     0.1293     2.4675   -17.8084    12.4568    12.9658
  417.5000     7.4683    96.1070     0.0102     0.1302     2.4676   -17.5069    12.2108    12.9649
  418.0000     7.4856    97.3195     0.0089     0.1359     2.4610   -17.5039    12.0446    12.9640
  418.5000     7.4879    98.8538     0.0076     0.1367     2.4528   -17.5009    11.9615    12.7869
  419.0000     7.5051   100.2397     0.0062     0.1304     2.4612   -17.4979    11.8806    12.7860
  419.5000     7.5224   106.3105     0.0049     0.1300     2.4658   -17.4949    11.8030    12.7851
  420.0000     7.5247   109.3055     0.0051     0.1315     2.4629   -17.4925    11.7189    12.7843
  420.5000     7.5419   110.5175     0.0053     0.1356     2.4563   -17.4895    11.7189    12.7834
  421.0000     7.5592   107.4204     0.0055     0.1377     2.4527   -17.6597    11.7189    12.6088
  421.5000     7.5615   105.6607     0.0071     0.1379     2.4505   -17.9523    11.7189    12.6079
  422.0000     7.5639   104.4953     0.0073     0.1385     2.4499   -18.2448    11.7189    12.4357
  422.5000     7.5668   103.1812     0.0089     0.1462     2.4493   -18.5373    11.6551    12.4348
  423.0000     7.5691   101.4215     0.0106     0.1489     2.4494   -18.6687    11.5594    12.4339
  423.5000     7.5559    99.9589     0.0107     0.1504     2.4495   -18.6657    11.5594    12.4331
  424.0000     7.5440    99.8336     0.0109     0.1512     2.4496   -18.8179    11.4020    12.2633
  424.5000     7.5308   100.4641     0.0126     0.1512     2.4489   -18.9582    11.4020    12.4314
  425.0000     7.5039   100.9213     0.0127     0.1505     2.4483   -18.9552    11.4020    12.2616
  425.5000     7.4908   101.0980     0.0129     0.1499     2.4484   -18.9523    11.4020    12.2607
  426.0000     7.4788    99.9326     0.0146     0.1492     2.4493   -19.2478    11.4020    12.4289
  426.5000     7.4811    98.0242     0.0147     0.1495     2.4494   -19.2448    11.4020    12.4280
  427.0000     7.4834    97.1501     0.0149     0.1494     2.4503   -19.3791    11.4020    12.4271
  427.5000     7.5008    97.0248     0.0151     0.1475     2.4512   -19.5373    11.3606    12.4263
  428.0000     7.5334    97.2025     0.0152     0.1448     2.4551   -19.5343    11.2468    12.4254
  428.5000     7.5506    97.9688     0.0139     0.1427     2.4596   -19.5314    11.2468    12.4245
