~VERSION INFORMATION
 VERS.                2.0:   CWLS LOG ASCII STANDARD - VERSION 2.0
 WRAP.                 NO:   ONE LINE PER DEPTH STEP
~WELL INFORMATION
#MNEM.UNIT      DATA TYPE    INFORMATION
#----------   ------------   ------------------------------
 STRT.F            0.0000:   START DEPTH
 STOP.F          678.0000:   STOP DEPTH
 STEP.F            0.5000:   STEP LENGTH
 NULL.          -999.2500:   NO VALUE
 COMP. FENIX & SCISSON INC:   COMPANY
 WELL. 37-21 SX 11 WO #37-11:   WELL
 FLD .             TEAPOT:   FIELD
 LOC .      S11 T38N R78W:   LOCATION
 CNTY.            NATRONA:   COUNTY
 STAT.            WYOMING:   STATE
 CTRY. UNITED STATES OF AMERICA:   COUNTRY
 SRVC.      Dresser Atlas:   SERVICE COMPANY
 DATE.        14-OCT-1983:   LOGDATE
 API .       490251084300:   API NUMBER
~CURVE INFORMATION
#MNEM.UNIT       API CODE    CURVE DESCRIPTION
#----------   ------------   ------------------------------
 DEPT.F                  :   
 SPR .MV     07 010 01 00:   SPONTANEOUS POTENTIAL
 SFLU.OHMM   07 220 01 00:   SPHERICALLY FOCUSED LOG UNAVERAGED RESISTIVITY
 ILM .OHMM   07 120 44 00:   INDUCTION LOG MEDIUM
 ILD .OHMM   07 120 46 00:   INDUCTION LOG DEEP
 NPHI.DEC    42 890 03 00:   NEUTRON POROSITY SANDSTONE
 DPHI.DEC    45 890 12 00:   DENSITY POROSITY SANDSTONE
 RHOB.G/C3   45 350 01 00:   BULK DENSITY
 CORR.G/C3   45 356 01 00:   DENSITY CORRECTION
 GRD .GAPI   45 310 01 00:   GAMMA RAY FROM DENSITY LOG
 CALD.IN     45 280 60 00:   CALIPER
~PARAMETER INFORMATION
#MNEM.UNIT          VALUE    DESCRIPTION
#----------   ------------   ------------------------------
 PD  .                 GL:   PERMANENT DATUM
 EPD .F              5188:   ELEVATION PERMANENT DATUM
 LMF .                 KB:   LOG MEASURED FROM
 DAPD.F                 5:   FEET ABOVE PERMANENT DATUM
 DMF .                 KB:   DRILLING MEASURED FROM
 EKB .F              5193:   KELLING BUSHING
 EGL .F              5188:   GROUND LEVEL
 DATE.           10-14-83:   RUN DATE
 RUN .                  4:   RUN NUMBER
 DD  .F               629:   DEPTH DRILLER
 DL  .F               630:   DEPTH LOGGER
 BLI .F               624:   BOTTOM LOG INTERVAL
 TLI .F               335:   TOP LOG INTERVAL
 BS  .IN             8.75:   BIT SIZE
 BSD .F               629:   BIT SIZE AT DEPTH
 DFT .          KCL WATER:   DRILLING FLUID TYPE
 LUN .               6307:   LOGGING UNIT NUMBER
 LUL .               GLTE:   LOGGING UNIT LOCATION
 ENGI.            DEYOUNG:   RECORDING ENGINEER
 WITN.            SCHULTE:   WITNESSED BY
 CLNT.            A2DTECH:   CLIENT CODE
 ORIG.       2", 5" PRINT:   ORIGIN OF DATA
 UWI .       490251084300:   UNIQUE WELL ID
 DICO. A2D Technologies, Inc.:   DIGITIZING COMPANY
~OTHER INFORMATION
~A    DEPT     SPR       SFLU        ILM        ILD       NPHI       DPHI       RHOB       CORR        GRD       CALD   
# ...
  234.5000   -33.3987     9.6874     9.2504     8.8872     0.2354     0.1178     2.4782     0.0809    95.5711     9.5374
  235.0000   -33.2965     9.8581     9.4428     9.1280     0.2324     0.1209     2.4821     0.0747    94.8177     9.5385
  235.5000   -33.0985    10.0317     9.6393     9.2929     0.2304     0.1235     2.4882     0.0748    95.2668     9.5397
  236.0000   -32.9047    10.2084     9.8374     9.4609     0.2291     0.1224     2.4830     0.0749    95.6103     9.5409
  236.5000   -32.8059    10.3883    10.0569     9.6319     0.2277     0.1200     2.4775     0.0768    93.9191     9.5420
  237.0000   -32.9026    10.5712    10.2786     9.8060     0.2302     0.1197     2.4899     0.0818    93.4822     9.5432
  237.5000   -32.9958    10.7053    10.5052     9.9832     0.2350     0.1227     2.4977     0.0868    93.6424     9.5443
  238.0000   -33.0894    10.7629    10.7368    10.0977     0.2360     0.1210     2.4926     0.0851    92.0203     9.5455
  238.5000   -33.1830    10.8208    10.9286    10.1968     0.2313     0.1163     2.4839     0.0792    91.4121     9.5467
  239.0000   -33.2765    10.8790    11.0539    10.2970     0.2261     0.1114     2.4866     0.0756    93.2996     9.5478
  239.5000   -33.3702    10.9378    11.1806    10.3980     0.2218     0.1157     2.4801     0.0722    95.0931     9.5490
  240.0000   -33.4648    10.9974    11.3088    10.5001     0.2233     0.1200     2.4708     0.0690    95.6377     9.5501
  240.5000   -33.5576    11.0807    11.4941    10.5844     0.2315     0.1198     2.4780     0.0679    93.6832     9.5513
  241.0000   -33.4873    10.9492    11.4407    10.4759     0.2384     0.1215     2.4838     0.0741    93.2663     9.5525
  241.5000   -33.4047    10.8676    11.3483    10.3842     0.2398     0.1278     2.4896     0.0802    91.5149     9.5536
  242.0000   -33.3225    10.7867    11.2567    10.2932     0.2424     0.1282     2.4904     0.0864    93.8308     9.5548
  242.5000   -33.2407    10.7064    11.1658    10.2030     0.2445     0.1195     2.4971     0.0925    94.3192     9.5559
  243.0000   -33.1588    10.6266    11.0757    10.1136     0.2463     0.1158     2.4982     0.0878    92.6529     9.5571
  243.5000   -33.0769    10.5475    10.9863    10.0250     0.2514     0.1156     2.4872     0.0788    90.9557     9.5583
  244.0000   -32.9950    10.4690    10.8976     9.9372     0.2565     0.1117     2.4771     0.0728    89.8789     9.5594
  244.5000   -32.9130    10.3910    10.8096     9.8501     0.2616     0.1141     2.4675     0.0675    90.0261     9.5602
  245.0000   -32.8326    10.3136    10.7224     9.7639     0.2598     0.1200     2.4622     0.0628    90.9986     9.5602
  245.5000   -32.7961    10.2368    10.6628     9.6783     0.2527     0.1259     2.4595     0.0611    92.6336     9.5602
  246.0000   -32.8682    10.1606    10.6267     9.5935     0.2480     0.1318     2.4504     0.0591    94.7777     9.5602
  246.5000   -32.9382    10.0852    10.5907     9.5666     0.2445     0.1343     2.4521     0.0572    96.8636     9.5602
  247.0000   -33.0084    10.0172    10.5548     9.5599     0.2392     0.1361     2.4577     0.0640    96.1533     9.5602
  247.5000   -33.0787    10.0087    10.5190     9.5537     0.2357     0.1427     2.4690     0.0717    96.9503     9.5602
  248.0000   -33.1518     9.9992    10.4834     9.5475     0.2325     0.1450     2.4889     0.0793    96.4984     9.5602
  248.5000   -33.1691     9.9899    10.4479     9.5412     0.2355     0.1345     2.5100     0.0870    94.5881     9.5602
  249.0000   -33.1695     9.9806    10.4124     9.5350     0.2287     0.1263     2.5128     0.0885    93.4844     9.5602
  249.5000   -33.1693     9.9713    10.3772     9.5288     0.2235     0.1141     2.5017     0.0844    94.5054     9.5602
  250.0000   -33.1695     9.9620    10.3420     9.5225     0.2241     0.1022     2.4939     0.0802    93.5102     9.5602
  250.5000   -33.1695     9.9526    10.3070     9.5163     0.2287     0.1062     2.4879     0.0758    90.7260     9.5602
  251.0000   -33.1593     9.9435    10.2720     9.5100     0.2384     0.1101     2.4966     0.0782    92.2021     9.5602
  251.5000   -33.0734     9.9341    10.2372     9.5038     0.2484     0.1140     2.5052     0.0829    94.6313     9.5602
  252.0000   -32.9869     9.9285    10.2025     9.4976     0.2475     0.1166     2.5175     0.0868    97.0411     9.5602
  252.5000   -32.9006     9.9922    10.1680     9.4913     0.2498     0.1103     2.5227     0.0837    98.1889     9.5602
  253.0000   -32.8143    10.0408    10.1335     9.4843     0.2531     0.1042     2.5198     0.0806    98.2191     9.5602
  253.5000   -32.7280    10.0897    10.0948     9.5165     0.2539     0.0980     2.5070     0.0774    99.9248     9.5602
  254.0000   -32.6417    10.1388    10.0484     9.5606     0.2539     0.0960     2.4955     0.0743    98.4080     9.5602
  254.5000   -32.5552    10.1882    10.0021     9.6047     0.2539     0.0954     2.4996     0.0712    96.6706     9.5602
  255.0000   -32.4679    10.2378     9.9561     9.6491     0.2563     0.1073     2.4938     0.0681    98.7823     9.5602
  255.5000   -32.3878    10.2876     9.9102     9.6938     0.2605     0.1119     2.4879     0.0649   101.3002     9.5602
  256.0000   -32.4938    10.3377     9.8646     9.7477     0.2645     0.1115     2.4820     0.0617   103.3321     9.5602
  256.5000   -32.6092    10.3881     9.8192     9.6589     0.2609     0.1144     2.4823     0.0634   101.7696     9.5602
  257.0000   -32.7240    10.4387     9.7740     9.4299     0.2573     0.1181     2.4874     0.0667   100.2424     9.5602
  257.5000   -32.8389    10.4872     9.6386     9.2023     0.2538     0.1215     2.4887     0.0702    98.7387     9.5602
  258.0000   -32.9549    10.1353     9.3848     8.9801     0.2396     0.1184     2.4934     0.0733    97.6698     9.5600
  258.5000   -32.9530     9.7974     9.1359     8.8130     0.2291     0.1156     2.4990     0.0775    98.4706     9.5593
  259.0000   -32.9295     9.4718     8.8940     8.5935     0.2314     0.1147     2.5035     0.0817    99.2420     9.5587
  259.5000   -32.9057     9.1573     8.6585     8.3376     0.2349     0.1139     2.5066     0.0859    99.8233     9.5580
  260.0000   -32.8820     8.8533     8.4293     8.0893     0.2470     0.1109     2.5041     0.0901    97.9973     9.5573
  260.5000   -32.8584     8.5594     8.2062     7.8484     0.2531     0.1066     2.5019     0.0890    96.2056     9.5566
  261.0000   -32.8349     8.2752     7.9890     7.6147     0.2567     0.1049     2.4996     0.0865    95.2033     9.5560
  261.5000   -32.8111     7.9694     7.7535     7.4066     0.2609     0.1088     2.4948     0.0840    97.0151     9.5553
  262.0000   -32.7861     8.0905     7.8410     7.5013     0.2645     0.1109     2.4842     0.0813    96.6200     9.5546
  262.5000   -32.7019     8.2281     7.9736     7.6460     0.2664     0.1090     2.4795     0.0850    95.6725     9.5539
  263.0000   -32.5524     8.3687     8.1072     7.7919     0.2683     0.1153     2.4923     0.0877    94.7096     9.5533
  263.5000   -32.4046     8.5545     8.2427     7.9404     0.2702     0.1233     2.4966     0.0844    93.7439     9.5526
  264.0000   -32.2548     9.0719     8.3819     8.0917     0.2672     0.1193     2.5001     0.0812    93.4308     9.5519
  264.5000   -32.2191     9.6589     8.6538     8.2459     0.2568     0.1123     2.5101     0.0840    93.3099     9.5512
  265.0000   -32.2798     9.5977     9.1405     8.4030     0.2485     0.1116     2.5168     0.0879    91.3604     9.5506
  265.5000   -32.3416     9.5150     9.0995     8.5631     0.2554     0.1070     2.5191     0.0919    89.6962     9.5499
  266.0000   -32.4038     9.3972     9.0134     8.7335     0.2565     0.0990     2.5312     0.0958    90.4035     9.5492
  266.5000   -32.4658     9.4988     8.9766     8.6786     0.2540     0.1007     2.5182     0.0965    91.0929     9.5485
  267.0000   -32.5278     9.6832     9.2258     8.6216     0.2504     0.0960     2.5062     0.0870    91.7046     9.5479
  267.5000   -32.5918     9.8374     9.1848     8.5650     0.2433     0.0906     2.5041     0.0834    92.3083     9.5472
