~VERSION INFORMATION
 VERS.                2.0:   CWLS LOG ASCII STANDARD - VERSION 2.0
 WRAP.                 NO:   ONE LINE PER DEPTH STEP
~WELL INFORMATION
#MNEM.UNIT      DATA TYPE    INFORMATION
#----------   ------------   ------------------------------
 STRT.F           30.0000:   START DEPTH
 STOP.F          500.0000:   STOP DEPTH
 STEP.F            0.5000:   STEP LENGTH
 NULL.          -999.2500:   NO VALUE
 COMP. FENIX & SCISSON INC:   COMPANY
 WELL.     3-FI #55-45 SX:   WELL
 FLD .             TEAPOT:   FIELD
 LOC .       S3 T38N R78W:   LOCATION
 CNTY.            NATRONA:   COUNTY
 STAT.            WYOMING:   STATE
 CTRY. UNITED STATES OF AMERICA:   COUNTRY
 SRVC.              Welex:   SERVICE COMPANY
 DATE.        16-MAY-1980:   LOGDATE
 API .       490251082700:   API NUMBER
~CURVE INFORMATION
#MNEM.UNIT       API CODE    CURVE DESCRIPTION
#----------   ------------   ------------------------------
 DEPT.F                  :   
 SPR .MV     07 010 01 00:   SPONTANEOUS POTENTIAL
 GURD.OHMM   07 220 05 00:   GUARD RESISTIVITY
 CALD.IN     45 280 60 00:   CALIPER
 GRD .GAPI   45 310 01 00:   GAMMA RAY FROM DENSITY LOG
 RHOB.G/C3   45 350 01 00:   BULK DENSITY
 CORR.G/C3   45 356 01 00:   DENSITY CORRECTION
 NPHI.DEC    42 890 03 00:   NEUTRON POROSITY SANDSTONE
 DPHI.DEC    45 890 12 00:   DENSITY POROSITY SANDSTONE
 ILD .OHMM   07 120 46 00:   INDUCTION LOG DEEP
 ILM .OHMM   07 120 44 00:   INDUCTION LOG MEDIUM
~PARAMETER INFORMATION
#MNEM.UNIT          VALUE    DESCRIPTION
#----------   ------------   ------------------------------
 PD  .                 GL:   PERMANENT DATUM
 EPD .F              5167:   ELEVATION PERMANENT DATUM
 LMF .                 KB:   LOG MEASURED FROM
 DAPD.F                 5:   FEET ABOVE PERMANENT DATUM
 DMF .                 KB:   DRILLING MEASURED FROM
 EKB .F              5172:   KELLING BUSHING
 EGL .F              5167:   GROUND LEVEL
 DATE.            5-16-80:   RUN DATE
 RUN .                  1:   RUN NUMBER
 DD  .F               483:   DEPTH DRILLER
 DL  .F               496:   DEPTH LOGGER
 BLI .F               494:   BOTTOM LOG INTERVAL
 TLI .F                35:   TOP LOG INTERVAL
 BS  .IN             9.75:   BIT SIZE
 BSD .F               483:   BIT SIZE AT DEPTH
 DFT .            KCL MUD:   DRILLING FLUID TYPE
 DFD .                9.5:   DRILLING FLUID DENSITY
 DFV .                 45:   DRILLING FLUID VISCOSITY
 DFL .                7.5:   DRILLING FLUID LOSS
 MSS .            MUD PIT:   MUD SAMPLE SOURCE
 RMS .OHMM            .29:   RESISTIVITY MUD SAMPLE
 MST .F                75:   MUD SAMPLE TEMPERATURE
 RMF .OHMM            .23:   RESISTIVITY MUD FILTRATE SAMPLE
 MFST.F                75:   MUD FILTRATE SAMPLE TEMPERATURE
 RMC .OHMM            .35:   RESISTIVITY MUD CAKE
 MCST.F                75:   MUD CAKE SAMPLE TEMPERATURE
 MFSS.           MEASURED:   MUD FILTRATE SAMPLE SOURCE
 MCSS.           MEASURED:   MUD CAKE SAMPLE SOURCE
 TCS .HRS               2:   TIME CURCULATED STOPPED
 LUN .               9685:   LOGGING UNIT NUMBER
 LUL .             CASPER:   LOGGING UNIT LOCATION
 ENGI.            TOTHILL:   RECORDING ENGINEER
 WITN.              AMEND:   WITNESSED BY
 CLNT.            A2DTECH:   CLIENT CODE
 ORIG.           5" PRINT:   ORIGIN OF DATA
 UWI .       490251082700:   UNIQUE WELL ID
 DICO. A2D Technologies, Inc.:   DIGITIZING COMPANY
~OTHER INFORMATION
~A   DEPT      SPR         GURD     CALD        GRD       RHOB       CORR         NPHI       DPHI        ILD        ILM 
# ...
  398.5000   -40.4320     9.8566     9.9406    89.6442     2.4413     0.0321     0.2639     0.1403     7.1062     8.8843
  399.0000   -40.4091     9.5858     9.9475    90.1255     2.4501     0.0339     0.2579     0.1436     7.1062     8.7238
  399.5000   -40.3861     9.2288     9.9536    90.6075     2.4376     0.0210     0.2536     0.1367     7.1064     8.7495
  400.0000   -40.3632     9.3510     9.9599    91.1105     2.4400     0.0269     0.2507     0.1403     7.1062     8.8116
  400.5000   -40.3401     9.4413     9.9661    91.2301     2.4461     0.0345     0.2491     0.1182     7.1061     8.8740
  401.0000   -40.3173     9.5007     9.9724    91.1531     2.4609     0.0433     0.2489     0.1186     7.1075     8.9369
  401.5000   -40.2942     9.5612     9.9781    90.8774     2.4828     0.0594     0.2523     0.1202     7.0903     9.0003
  402.0000   -40.2710     9.6201     9.9780    90.6311     2.4761     0.0642     0.2523     0.1178     7.0435     9.0553
  402.5000   -40.2495     9.6791     9.9780    90.9545     2.4723     0.0542     0.2585     0.1089     6.9975     8.8673
  403.0000   -40.2237     9.7564     9.9780    91.3914     2.4883     0.0647     0.2647     0.1052     6.9517     8.6167
  403.5000   -40.2028     9.5756     9.9779    91.8909     2.5007     0.0750     0.2690     0.1111     6.9062     8.2493
  404.0000   -40.2153     9.3228     9.9779    92.1394     2.4939     0.0721     0.2733     0.1136     6.8611     8.2720
  404.5000   -40.4136     9.0767     9.9789    91.6695     2.4862     0.0640     0.2759     0.1106     6.8162     8.3195
  405.0000   -40.5882     8.8370     9.9924    91.0216     2.4888     0.0667     0.2731     0.1069     6.7718     8.3674
  405.5000   -40.5980     8.5627     9.9458    90.3565     2.4943     0.0697     0.2643     0.1046     6.7277     8.4155
  406.0000   -40.6066     8.9101     9.8880    90.3156     2.5015     0.0730     0.2610     0.1113     6.6836     8.4626
  406.5000   -40.5504     9.3759     9.8301    91.1877     2.5045     0.0588     0.2617     0.1252     6.6399     8.5118
  407.0000   -40.4567     9.8661     9.7701    92.9319     2.4665     0.0382     0.2643     0.1332     6.5955     8.5623
  407.5000   -40.3666    10.4503     9.8037    94.7566     2.4616     0.0300     0.2705     0.1363     6.6325     8.5625
  408.0000   -40.2780    10.3311     9.8431    96.4387     2.4477     0.0229     0.2734     0.1363     6.6706     8.5624
  408.5000   -40.2024    10.0969     9.8774    96.7971     2.4480     0.0248     0.2704     0.1343     6.7090     8.5620
  409.0000   -40.2011     9.8680     9.8972    97.1886     2.4500     0.0292     0.2716     0.1318     6.7476     8.7050
  409.5000   -40.1990     9.6443     9.8797    97.5804     2.4518     0.0295     0.2679     0.1282     6.7864     8.9079
  410.0000   -40.2006     9.5762     9.8639    97.8079     2.4598     0.0309     0.2702     0.1221     6.8254     9.0553
  410.5000   -40.1998     9.5142     9.8476    97.4886     2.4703     0.0410     0.2747     0.1183     6.8461     8.6280
  411.0000   -40.1986     9.4440     9.8202    97.1749     2.4799     0.0507     0.2737     0.1364     6.7512     8.1660
  411.5000   -40.2047     9.3744     9.8212    96.8577     2.4523     0.0322     0.2711     0.1411     6.6633     7.7287
  412.0000   -40.1489     9.3054     9.8497    96.5404     2.4409     0.0168     0.2684     0.1459     6.5955     7.2399
  412.5000   -40.0556     9.2368     9.8779    96.0182     2.4318     0.0046     0.2663     0.1380     6.5203     7.3762
  413.0000   -39.9608     9.1687     9.9061    96.0395     2.4379     0.0032     0.2670     0.1281     6.4289     7.4918
  413.5000   -39.8775     9.1013     9.9342    96.1720     2.4572     0.0171     0.2701     0.1201     6.3388     7.6874
  414.0000   -39.8196     9.0343     9.9586    96.3091     2.4769     0.0314     0.2741     0.1176     6.2500     7.8924
  414.5000   -40.0548     8.9678     9.9580    96.4462     2.4805     0.0438     0.2771     0.1230     6.1624     8.1034
  415.0000   -40.2588     8.9019     9.9556    96.5833     2.4744     0.0433     0.2771     0.1308     6.1215     8.3202
  415.5000   -40.4805     8.8364     9.9515    96.7192     2.4610     0.0361     0.2745     0.1315     6.0815     8.5628
  416.0000   -40.6938     8.7713     9.9474    96.8508     2.4543     0.0322     0.2771     0.1287     6.0260     8.3730
  416.5000   -40.9089     8.6667     9.9433    96.9641     2.4659     0.0419     0.2792     0.1572     5.9709     7.9982
  417.0000   -41.1250     8.4609     9.9392    97.8022     2.4261     0.0186     0.2839     0.1638     5.9164     7.6400
  417.5000   -41.3399     8.2595     9.9351    98.6991     2.4028    -0.0011     0.2822     0.1626     5.8624     7.2977
  418.0000   -41.5554     8.0634     9.9310    99.5937     2.3994    -0.0023     0.2874     0.1587     5.8089     6.9716
  418.5000   -41.7712     7.8720     9.9269   100.4872     2.4116     0.0045     0.2918     0.1534     5.7234     6.9783
  419.0000   -41.9851     7.6852     9.9228   101.3806     2.4193     0.0121     0.2959     0.1564     5.4252     6.9784
  419.5000   -42.2025     7.5027     9.9186   102.2739     2.4223     0.0098     0.2989     0.1610     5.1425     6.9790
  420.0000   -42.4178     7.3246     9.9178   103.1674     2.4048     0.0036     0.2970     0.1479     4.8746     6.9150
  420.5000   -42.5946     7.1508     9.9178   104.0608     2.4049     0.0056     0.3000     0.1528     4.6206     6.7414
  421.0000   -42.5988     6.7155     9.9178   104.9549     2.4296     0.0227     0.3045     0.1602     4.3799     6.5714
  421.5000   -42.6016     6.3589     9.9178   105.8540     2.4104     0.0129     0.3118     0.1542     4.1517     6.4017
  422.0000   -42.5998     6.0465     9.9179   106.7447     2.4086     0.0063     0.3106     0.1522     3.9354     6.4737
  422.5000   -42.6042     5.3153     9.9180   107.2008     2.4162     0.0213     0.3199     0.1570     3.7303     5.6484
  423.0000   -42.5430     4.2787     9.9178   105.0864     2.4223     0.0266     0.3209     0.1402     3.5359     5.0862
  423.5000   -42.3307     3.4439     9.9064   102.9699     2.4147     0.0246     0.3066     0.1277     3.3709     4.8039
  424.0000   -42.1230     2.9172     9.8401   100.8575     2.4464     0.0372     0.2957     0.1253     3.4697     4.8943
  424.5000   -41.9099     5.2971     9.7745    98.7389     2.4641     0.0451     0.2863     0.1231     3.5649     5.4031
  425.0000   -41.7019     7.2130     9.7095    96.7058     2.4690     0.0302     0.2862     0.1211     3.5642     6.0802
  425.5000   -41.4873     7.6211     9.6556    96.6068     2.4738     0.0192     0.2870     0.1182     3.7573     6.3193
  426.0000   -41.3844     7.8005     9.6930    96.4858     2.4697     0.0198     0.2803     0.1144     4.0149     6.5512
  426.5000   -41.4137     7.8005     9.7512    96.3591     2.4788     0.0285     0.2815     0.1237     4.2906     6.7912
  427.0000   -41.4167     7.8005     9.7994    96.2300     2.4884     0.0375     0.2812     0.1363     4.5855     7.0393
  427.5000   -41.7685     7.8005     9.7724    96.1009     2.4595     0.0180     0.2862     0.1272     4.9010     7.1073
  428.0000   -41.4134     7.8005     9.7410    95.9714     2.4497    -0.0051     0.2811     0.1191     5.2380     7.1069
  428.5000   -41.0250     7.8005     9.7075    95.8427     2.4638     0.0001     0.2815     0.1204     5.5978     7.1056
  429.0000   -40.5955     7.8014     9.7239    95.7407     2.4784     0.0257     0.2799     0.1261     5.7942     7.1062
  429.5000   -40.1962     7.9476     9.7383    95.8444     2.4751     0.0250     0.2801     0.1311     5.8714     7.1062
  430.0000   -39.8158     8.0290     9.7477    96.0979     2.4649     0.0178     0.2803     0.1218     5.9437     7.1062
  430.5000   -39.7385     8.2149     9.7561    96.3480     2.4526     0.0163     0.2773     0.1128     6.0169     7.2399
  431.0000   -39.6713     8.4054     9.7644    96.6085     2.4718     0.0313     0.2743     0.1209     6.0912     7.4054
  431.5000   -39.6146     8.6007     9.7727    96.2263     2.4865     0.0450     0.2763     0.1259     6.1888     7.6120
