~VERSION INFORMATION
 VERS.                2.0:   CWLS LOG ASCII STANDARD - VERSION 2.0
 WRAP.                 NO:   ONE LINE PER DEPTH STEP
~WELL INFORMATION
#MNEM.UNIT      DATA TYPE    INFORMATION
#----------   ------------   ------------------------------
 STRT.F           61.0000:   START DEPTH
 STOP.F          527.0000:   STOP DEPTH
 STEP.F            0.5000:   STEP LENGTH
 NULL.          -999.2500:   NO VALUE
 COMP.       F D SERV INC:   COMPANY
 WELL.  82-5 SX 10 #82-10:   WELL
 FLD .             TEAPOT:   FIELD
 LOC .      S10 T38N R78W:   LOCATION
 CNTY.            NATRONA:   COUNTY
 STAT.            WYOMING:   STATE
 CTRY. UNITED STATES OF AMERICA:   COUNTRY
 SRVC.     Atlas Wireline:   SERVICE COMPANY
 DATE.        08-FEB-1993:   LOGDATE
 API .       490252258800:   API NUMBER
~CURVE INFORMATION
#MNEM.UNIT       API CODE    CURVE DESCRIPTION
#----------   ------------   ------------------------------
 DEPT.F                  :   
 C13 .IN     45 280 13 00:   CALIPER
 GRD .GAPI   45 310 01 00:   GAMMA RAY FROM DENSITY LOG
 NPHI.DEC    42 890 03 00:   NEUTRON POROSITY SANDSTONE
 PORZ.DEC    45 890 12 00:   DENSITY POROSITY SANDSTONE
 ZCOR.G/C3   45 356 01 00:   DENSITY CORRECTION
 ZDEN.G/C3   45 350 01 00:   BULK DENSITY
 RILD.OHMM   07 120 46 00:   INDUCTION LOG DEEP RESISTIVITY
 RILM.OHMM   07 120 44 00:   RESITIVITY LONG MEDIUM
~PARAMETER INFORMATION
#MNEM.UNIT          VALUE    DESCRIPTION
#----------   ------------   ------------------------------
 PD  .                 GL:   PERMANENT DATUM
 EPD .F              5166:   ELEVATION PERMANENT DATUM
 LMF .                 KB:   LOG MEASURED FROM
 DAPD.F                10:   FEET ABOVE PERMANENT DATUM
 DMF .                 KB:   DRILLING MEASURED FROM
 EKB .F              5176:   KELLING BUSHING
 EDF .F              5175:   DRILLING FLOOR
 EGL .F              5166:   GROUND LEVEL
 DATE.        08-FEB-1993:   RUN DATE
 RUN .                  1:   RUN NUMBER
 DD  .F               530:   DEPTH DRILLER
 DL  .F               532:   DEPTH LOGGER
 BLI .F               529:   BOTTOM LOG INTERVAL
 TLI .F                96:   TOP LOG INTERVAL
 CS  .IN            8.625:   CASING SIZE
 CBD .F                90:   CASING BOTTOM DRILLER
 CBL .F                96:   CASING BOTTOM LOGGER
 BS  .IN            7.875:   BIT SIZE
 BSD .F               530:   BIT SIZE AT DEPTH
 DFT .                AIR:   DRILLING FLUID TYPE
 MRT .F                60:   MAXIMUM RECORDED TEMPERATURE
 LUN .            HL 6274:   LOGGING UNIT NUMBER
 LUL .             CASPER:   LOGGING UNIT LOCATION
 ENGI.          V. RAUTIO:   RECORDING ENGINEER
 WITN.          G. STRONG:   WITNESSED BY
 CLNT.            A2DTECH:   CLIENT CODE
 ORIG.           5" PRINT:   ORIGIN OF DATA
 UWI .       490252258800:   UNIQUE WELL ID
 DICO. A2D Technologies, Inc.:   DIGITIZING COMPANY
~OTHER INFORMATION
~A   DEPT      C13        GRD       NPHI       PORZ       ZCOR       ZDEN       RILD       RILM   
# ...
  344.5000     8.0902   136.7799     0.2447     0.1400     0.0353     2.4226    26.2380    23.0008
  345.0000     8.1053   137.3795     0.2450     0.1460     0.0129     2.4098    25.1743    22.5320
  345.5000     8.1053   138.2796     0.2446     0.1529     0.0144     2.4023    23.6335    22.2262
  346.0000     8.1053   139.1811     0.2446     0.1544     0.0175     2.3963    23.1745    21.7731
  346.5000     8.1053   140.3831     0.2470     0.1532     0.0176     2.3978    23.1801    21.6270
  347.0000     8.1203   140.3789     0.2507     0.1514     0.0116     2.3986    23.1847    21.9342
  347.5000     8.1203   140.0749     0.2531     0.1520     0.0072     2.3994    23.5130    22.5973
  348.0000     8.1203   138.5661     0.2573     0.1529     0.0057     2.3986    23.6822    23.1949
  348.5000     8.1053   136.6836     0.2591     0.1545     0.0058     2.3956    23.8516    23.0392
  349.0000     8.1060   134.6441     0.2573     0.1589     0.0104     2.3896    24.1892    22.8844
  349.5000     8.1203   134.9426     0.2555     0.1626     0.0149     2.3814    24.1941    22.8892
  350.0000     8.1199   135.5422     0.2549     0.1629     0.0180     2.3799    24.3782    23.0528
  350.5000     8.1174   136.0230     0.2598     0.1596     0.0180     2.3882    24.5214    22.9966
  351.0000     8.1149   137.0482     0.2651     0.1601     0.0090     2.3889    24.6646    22.9445
  351.5000     8.1124   137.3494     0.2654     0.1628     0.0059     2.3857    24.8078    22.9035
  352.0000     8.1099   135.8434     0.2642     0.1664     0.0061     2.3754    24.5368    22.9073
  352.5000     8.1074   136.1446     0.2639     0.1667     0.0121     2.3732    24.3674    22.7513
  353.0000     8.1053   139.4578     0.2636     0.1658     0.0122     2.3755    24.1991    22.7550
  353.5000     8.1053   140.9639     0.2648     0.1649     0.0137     2.3762    23.8649    22.2896
  354.0000     8.1053   139.7590     0.2654     0.1679     0.0032     2.3710    23.5375    21.9864
  354.5000     8.1053   140.3615     0.2648     0.1691     0.0063     2.3688    23.5375    21.6858
  355.0000     8.1053   141.2651     0.2632     0.1682     0.0078     2.3718    23.2135    21.6893
  355.5000     8.1203   141.8675     0.2617     0.1652     0.0138     2.3785    23.0532    21.6928
  356.0000     8.1053   142.1687     0.2608     0.1631     0.0153     2.3816    22.8940    21.5451
  356.5000     8.1053   143.0732     0.2605     0.1661     0.0154     2.3756    22.8940    21.5486
  357.0000     8.1053   143.9759     0.2602     0.1670     0.0154     2.3740    22.7337    21.1079
  357.5000     8.1053   143.9759     0.2599     0.1664     0.0139     2.3749    22.2680    20.9649
  358.0000     8.0902   145.7831     0.2599     0.1652     0.0125     2.3771    22.1142    20.3950
  358.5000     8.0902   147.5994     0.2602     0.1640     0.0125     2.3786    21.8098    20.1169
  359.0000     8.1053   146.9879     0.2611     0.1627     0.0125     2.3803    21.6592    19.9811
  359.5000     8.1053   144.2771     0.2611     0.1615     0.0126     2.3817    21.3611    19.9837
  360.0000     8.1053   139.4578     0.2608     0.1627     0.0081     2.3817    21.2135    19.9863
  360.5000     8.1053   139.1566     0.2605     0.1618     0.0036     2.3802    21.0670    19.9889
  361.0000     8.1053   143.0723     0.2608     0.1594     0.0006     2.3832    21.0670    19.9921
  361.5000     8.1053   146.0843     0.2602     0.1588    -0.0008     2.3862    21.0670    20.1338
  362.0000     8.1203   145.1807     0.2599     0.1639     0.0052     2.3870    21.2135    20.4174
  362.5000     8.1203   140.8634     0.2596     0.1708     0.0142     2.3810    21.0670    20.2790
  363.0000     8.1203   137.9518     0.2584     0.1762     0.0141     2.3608    21.0670    20.4234
  363.5000     8.1053   136.7470     0.2581     0.1759     0.0098     2.3563    21.0670    20.2843
  364.0000     8.1053   138.2530     0.2581     0.1732     0.0068     2.3593    21.0670    20.1474
  364.5000     8.1053   139.1897     0.2584     0.1720     0.0039     2.3638    20.9215    20.0109
  365.0000     8.1053   140.6626     0.2584     0.1717     0.0099     2.3661    20.7770    19.6023
  365.5000     8.1053   142.4699     0.2581     0.1705     0.0129     2.3676    20.4911    19.2015
  366.0000     8.1053   142.8072     0.2578     0.1675     0.0144     2.3721    20.0694    18.8088
  366.5000     8.0902   141.8675     0.2578     0.1578     0.0130     2.3808    19.6565    18.5529
  367.0000     8.1053   140.3615     0.2578     0.1530     0.0130     2.3947    19.5207    18.4265
  367.5000     8.1050   138.5542     0.2578     0.1527     0.0085     2.3984    19.3859    18.3022
  368.0000     8.1053   139.7590     0.2578     0.1527     0.0026     2.3992    19.1191    18.0532
  368.5000     8.1203   141.5663     0.2578     0.1518     0.0011     2.4000    19.1191    17.9303
  369.0000     8.1053   143.0723     0.2577     0.1518     0.0026     2.3992    18.9870    17.6863
  369.5000     8.1053   143.6747     0.2574     0.1533     0.0042     2.4000    18.8559    17.4451
  370.0000     8.1053   143.0723     0.2565     0.1564     0.0057     2.3970    18.4679    17.0890
  370.5000     8.0902   141.5663     0.2550     0.1566     0.0087     2.3910    18.2137    16.8559
  371.0000     8.1053   140.9639     0.2529     0.1527     0.0162     2.3933    17.9580    16.6215
  371.5000     8.1053   142.1687     0.2553     0.1481     0.0222     2.3993    17.5934    16.3993
  372.0000     8.1053   142.1807     0.2553     0.1454     0.0163     2.4062    17.4719    16.2881
  372.5000     8.1053   139.7590     0.2559     0.1439     0.0133     2.4121    17.4598    16.5182
  373.0000     8.1053   138.5542     0.2574     0.1400     0.0089     2.4174    17.3512    16.8679
  373.5000     8.1053   139.4578     0.2601     0.1358     0.0104     2.4226    17.3512    16.8701
  374.0000     8.1053   139.1566     0.2586     0.1349     0.0089     2.4264    17.1124    16.9896
  374.5000     8.1053   137.9518     0.2523     0.1376    -0.0017     2.4212    16.9942    16.8744
  375.0000     8.1203   136.7470     0.2487     0.1487    -0.0195     2.4047    17.1124    16.6443
  375.5000     8.1053   137.6506     0.2475     0.1550    -0.0164     2.3934    17.1124    16.4173
  376.0000     8.1053   140.0684     0.2517     0.1523    -0.0089     2.3987    16.9942    16.8815
  376.5000     8.1071   140.9639     0.2553     0.1475    -0.0012     2.4047    16.8768    16.8843
  377.0000     8.1101   140.3615     0.2583     0.1481     0.0016     2.4062    16.8768    16.3113
  377.5000     8.1131   140.6626     0.2601     0.1481     0.0016     2.4055    16.5295    15.8674
  378.0000     8.1161   139.7590     0.2601     0.1478    -0.0013     2.4070    16.1835    15.5316
  378.5000     8.1191   139.4578     0.2601     0.1466     0.0017     2.4093    15.6381    14.9123
  379.0000     8.1053   139.7590     0.2598     0.1421     0.0032     2.4138    15.3163    14.7085
  379.5000     8.1053   140.6626     0.2601     0.1312     0.0048     2.4238    15.1055    14.5084
  380.0000     8.1053   141.2651     0.2610     0.1198     0.0033     2.4438    14.8975    14.5107
  380.5000     8.1053   141.8675     0.2619     0.1192     0.0018     2.4514    14.6925    14.4119
  381.0000     8.1053   142.7711     0.2616     0.1237     0.0004     2.4506    14.6925    14.4142
  381.5000     8.1053   143.3735     0.2601     0.1267     0.0019     2.4452    14.4902    14.4161
  382.0000     8.1053   142.7149     0.2592     0.1243     0.0034     2.4394    14.2908    14.3184
  382.5000     8.0902   141.2651     0.2589     0.1197     0.0079     2.4484    14.1921    14.0256
  383.0000     8.1053   141.5663     0.2607     0.1110     0.0095     2.4574    14.0941    13.9309
  383.5000     8.1053   143.3735     0.2622     0.1116     0.0080     2.4657    14.1921    13.8365
  384.0000     8.1053   145.4819     0.2631     0.1140     0.0035     2.4665    14.2908    13.9350
  384.5000     8.1053   145.1807     0.2634     0.1197    -0.0009     2.4590    14.2908    14.0337
