~VERSION INFORMATION
 VERS.                2.0:   CWLS LOG ASCII STANDARD - VERSION 2.0
 WRAP.                 NO:   ONE LINE PER DEPTH STEP
~WELL INFORMATION
#MNEM.UNIT      DATA TYPE    INFORMATION
#----------   ------------   ------------------------------
 STRT.F           31.0000:   START DEPTH
 STOP.F         1450.0000:   STOP DEPTH
 STEP.F            0.5000:   STEP LENGTH
 NULL.          -999.2500:   NO VALUE
 COMP. FENIX & SCISSON INC:   COMPANY
 WELL.    NPR-3 SX #86-14:   WELL
 FLD .             TEAPOT:   FIELD
 LOC .      S14 T38N R78W:   LOCATION
 CNTY.            NATRONA:   COUNTY
 STAT.            WYOMING:   STATE
 CTRY. UNITED STATES OF AMERICA:   COUNTRY
 SRVC.            Unknown:   SERVICE COMPANY
 DATE.        05-APR-1978:   LOGDATE
 API .       490251060800:   API NUMBER
~CURVE INFORMATION
#MNEM.UNIT       API CODE    CURVE DESCRIPTION
#----------   ------------   ------------------------------
 DEPT.F                  :   
 CALD.IN     45 280 60 00:   CALIPER
 GRD .GAPI   45 310 01 00:   GAMMA RAY FROM DENSITY LOG
 RHOB.G/C3   45 350 01 00:   BULK DENSITY
 CORR.G/C3   45 356 01 00:   DENSITY CORRECTION
 DPHI.DEC    45 890 12 00:   DENSITY POROSITY SANDSTONE
 SPR .MV     05 010 01 00:   SPONTANEOUS POTENTIAL FROM RES.
 SN  .OHMM   05 040 16 00:   SHORT NORMAL 16"
 ILD .OHMM   05 120 46 00:   INDUCTION LOG DEEP
~PARAMETER INFORMATION
#MNEM.UNIT          VALUE    DESCRIPTION
#----------   ------------   ------------------------------
 PD  .                 GL:   PERMANENT DATUM
 EPD .F              5367:   ELEVATION PERMANENT DATUM
 LMF .                 KB:   LOG MEASURED FROM
 DMF .                 KB:   DRILLING MEASURED FROM
 EKB .F              5371:   KELLING BUSHING
 EGL .F              5369:   GROUND LEVEL
 DATE.           4-5-1978:   RUN DATE
 RUN .                  1:   RUN NUMBER
 DD  .F              1455:   DEPTH DRILLER
 DL  .F              1446:   DEPTH LOGGER
 BLI .F              1440:   BOTTOM LOG INTERVAL
 TLI .F               100:   TOP LOG INTERVAL
 CS  .IN            8.625:   CASING SIZE
 CBD .F                40:   CASING BOTTOM DRILLER
 BS  .IN            7.875:   BIT SIZE
 BSD .F              1455:   BIT SIZE AT DEPTH
 DFT .                KCL:   DRILLING FLUID TYPE
 DFD .                8.6:   DRILLING FLUID DENSITY
 DFV .                 31:   DRILLING FLUID VISCOSITY
 DFPH.                 10:   DRILLING FLUID PH
 DFL .                8.4:   DRILLING FLUID LOSS
 MSS .           FLOWLINE:   MUD SAMPLE SOURCE
 RMS .OHMM            .95:   RESISTIVITY MUD SAMPLE
 MST .F                54:   MUD SAMPLE TEMPERATURE
 RMF .OHMM            .95:   RESISTIVITY MUD FILTRATE SAMPLE
 MFST.F                62:   MUD FILTRATE SAMPLE TEMPERATURE
 RMC .OHMM             .8:   RESISTIVITY MUD CAKE
 MCST.F                62:   MUD CAKE SAMPLE TEMPERATURE
 MFSS.               MEAS:   MUD FILTRATE SAMPLE SOURCE
 RMB .OHMM            .66:   RESISTIVITY MUD AT BHT
 BHT .F                78:   BOTTOM HOLE TEMPERATURE
 TCS .HRS               6:   TIME CURCULATED STOPPED
 MRT .F                78:   MAXIMUM RECORDED TEMPERATURE
 LUN .               2958:   LOGGING UNIT NUMBER
 LUL .               CASP:   LOGGING UNIT LOCATION
 ENGI.             MILLER:   RECORDING ENGINEER
 WITN.           MCGINLEY:   WITNESSED BY
 CLNT.            A2DTECH:   CLIENT CODE
 ORIG.        2" 5" PRINT:   ORIGIN OF DATA
 UWI .       490251060800:   UNIQUE WELL ID
 DICO. A2D Technologies, Inc.:   DIGITIZING COMPANY
~OTHER INFORMATION
~A   DEPT     CALD         GRD      RHOB       CORR       DPHI        SPR         SN        ILD   
# ...
  598.0000     8.2321    74.9606     2.4411     0.0195     0.1373   -97.3054     8.9891     8.3479
  598.5000     8.2420    74.9692     2.4415     0.0132     0.1177   -97.3055     8.8819     8.2882
  599.0000     8.2517    75.9844     2.4513     0.0071     0.1197   -97.3047     8.7953     8.2397
  599.5000     8.2614    75.9861     2.4469     0.0008     0.1219   -97.3437     8.7095     8.1913
  600.0000     8.2710    75.2842     2.4676     0.0172     0.1238   -97.3997     8.5830     8.1433
  600.5000     8.2807    76.6378     2.4876     0.0115     0.1146   -97.4561     8.6066     8.0956
  601.0000     8.2904    79.7999     2.4582     0.0063     0.1098   -97.4974     8.6534     8.0450
  601.5000     8.3001    81.0764     2.4538     0.0165     0.1197   -97.4239     8.7004     8.1039
  602.0000     8.3095    80.9596     2.4284     0.0281     0.1286   -97.3523     8.7478     8.1676
  602.5000     8.3054    77.2205     2.4560     0.0239     0.1259   -97.3323     8.7961     8.1951
  603.0000     8.3005    76.4368     2.4708     0.0225     0.1230   -97.4112     8.8241     8.0692
  603.5000     8.2956    77.2509     2.4830     0.0209     0.1170   -97.4846     8.6899     7.9787
  604.0000     8.2903    77.3935     2.4558     0.0062     0.1212   -97.7514     8.5944     7.8892
  604.5000     8.3062    79.8400     2.4328     0.0021     0.1280   -98.0592     8.5017     7.8008
  605.0000     8.3257    82.0860     2.4301     0.0110     0.1287   -98.3683     8.0979     7.6814
  605.5000     8.3453    82.4158     2.4372     0.0111     0.1284   -98.6749     7.8973     7.6469
  606.0000     8.3649    82.2199     2.4274     0.0045     0.1305   -98.9091     7.8631     7.6071
  606.5000     8.3852    81.2856     2.4180     0.0026     0.1343   -98.7774     7.8129     7.5675
  607.0000     8.3900    81.3068     2.4155     0.0033     0.1343   -98.5949     7.7630     7.5281
  607.5000     8.3901    81.3022     2.4219     0.0041     0.1353   -98.5558     7.7135     7.4892
  608.0000     8.3900    81.0067     2.4154     0.0034     0.1382   -98.6521     7.6814     7.4711
  608.5000     8.3900    78.9519     2.4094     0.0026     0.1401   -98.6879     7.7190     7.4728
  609.0000     8.3900    78.2854     2.4033     0.0018     0.1420   -98.8825     7.7470     7.4713
  609.5000     8.3900    79.2887     2.3974     0.0010     0.1439   -98.7947     7.7750     7.1061
  610.0000     8.3900    79.5977     2.4049     0.0002     0.1430   -98.7057     7.8031     6.8578
  610.5000     8.3900    79.8201     2.4130    -0.0006     0.1424   -98.7037     7.8248     6.7809
  611.0000     8.3900    80.8676     2.4096    -0.0014     0.1432   -98.7663     7.4914     6.7049
  611.5000     8.3900    79.1822     2.3949    -0.0022     0.1431   -98.8313     7.3266     6.6297
  612.0000     8.3900    77.3823     2.4016    -0.0030     0.1418   -98.8960     7.2123     6.5554
  612.5000     8.3901    75.5665     2.4031    -0.0038     0.1465   -98.9606     7.1333     6.4855
  613.0000     8.3976    74.7432     2.3944    -0.0029     0.1463   -99.0252     7.1619     6.4249
  613.5000     8.4234    77.4804     2.4002     0.0058     0.1434   -99.0898     7.2180     6.3648
  614.0000     8.4487    80.5518     2.4085     0.0145     0.1404   -99.1544     7.2665     6.3052
  614.5000     8.4702    81.6864     2.4097     0.0216     0.1390   -99.2190     7.2329     6.2459
  615.0000     8.4669    80.4225     2.4113     0.0255     0.1388   -99.2861     7.2033     6.2097
  615.5000     8.4641    77.2582     2.4103     0.0293     0.1387  -999.2500     7.1740     6.2709
  616.0000     8.4613    73.5548     2.4048     0.0367     0.1410  -999.2500     7.1337     6.3500
  616.5000     8.4586    75.3177     2.3995     0.0443     0.1325  -999.2500     7.2380     6.4300
  617.0000     8.4558    78.1473     2.4085     0.0714     0.1156  -999.2500     7.4100     6.5207
  617.5000     8.4531    83.4639     2.4402     0.0817     0.1375  -999.2500     7.5861     6.6146
  618.0000     8.4505    83.3571     2.4088     0.0673     0.1511  -999.2500     7.7528     6.7098
  618.5000     8.4431    83.8801     2.3808     0.0932     0.1364  -999.2500     7.7706     6.8064
  619.0000     8.4354    83.4945     2.4390     0.1196     0.1196  -999.2500     7.7866     6.8855
  619.5000     8.4315    82.3116     2.4594     0.0905     0.1082  -999.2500     7.8027     6.9215
  620.0000     8.4367    81.3914     2.4241     0.0329     0.1433  -999.2500     7.8190     6.9385
  620.5000     8.4418    81.0894     2.3914     0.0315     0.1534  -999.2500     7.8354     6.9385
  621.0000     8.4469    80.3042     2.3846     0.0426     0.1655  -999.2500     7.8518     6.9385
  621.5000     8.4519    78.6055     2.3683     0.0533     0.1809  -999.2500     7.8682     6.9385
  622.0000     8.4570    78.3059     2.3343     0.0654     0.2013  -999.2500     7.8846     6.9562
  622.5000     8.4621    77.7723     2.3006     0.1177     0.2216  -999.2500     7.9025     7.0009
  623.0000     8.4671    77.0387     2.2667     0.1774     0.2294  -999.2500     7.9267     7.0459
  623.5000     8.4682    77.2053     2.2473     0.2925     0.2033  -999.2500     7.9508     7.0913
  624.0000     8.4639    78.3128     2.3195     0.3625     0.1853  -999.2500     7.9749     7.1336
  624.5000     8.4596    78.4328     2.3375     0.2752     0.2089  -999.2500     7.9991     7.1204
  625.0000     8.4553    76.3828     2.2926     0.2400     0.2220  -999.2500     8.0234     7.1007
  625.5000     8.4494    74.3863     2.2731     0.2714     0.0797  -999.2500     8.0454     7.0812
  626.0000     8.5231    74.8633     2.5006     0.2837     0.0842  -999.2500     8.0448     7.0680
  626.5000     8.6238    79.3501     2.4059     0.0316     0.0929  -999.2500     8.0450     7.1573
  627.0000     8.8476    82.1897     2.4696     0.0329     0.1018  -999.2500     8.0145     7.1995
  627.5000     9.1062    79.6276     2.4677     0.0298     0.1042  -999.2500     7.8284     7.1169
  628.0000     8.8327    75.8008     2.4777     0.0161     0.1136  -999.2500     7.7065     7.0564
  628.5000     8.7274    82.3848     2.4382     0.0094     0.1210  -999.2500     7.6298     6.9963
  629.0000     8.9152    78.9824     2.4654     0.0160     0.1206   -98.1664     7.5532     6.9382
  629.5000     8.6795    74.4049     2.4503     0.0221     0.1197   -97.2960     7.5407     6.9526
  630.0000     8.4097    77.6490     2.4364     0.0208     0.1230   -96.5127     7.5995     6.9699
  630.5000     8.3962    71.7978     2.4374     0.0258     0.1126   -95.9490     7.6472     6.9872
  631.0000     8.4279    70.5041     2.4351     0.0406     0.1038   -95.3777     7.6814     7.0029
  631.5000     8.4477    70.0417     2.4710     0.0410     0.1125   -94.7226     7.6017     6.9643
  632.0000     8.4379    69.7641     2.4549     0.0381     0.1251   -93.6511     7.5404     6.8878
  632.5000     8.4298    73.5441     2.4328     0.0511     0.1377   -92.5824     7.4796     6.8121
  633.0000     8.4335    78.6387     2.4106     0.0687     0.1475   -91.5029     7.4193     6.7486
  633.5000     8.4398    79.8890     2.3909     0.1068     0.1428   -91.1312     7.3594     6.9539
  634.0000     8.4462    79.2446     2.3925     0.1235     0.1380   -91.3276     7.3012     7.0029
  634.5000     8.4525    76.5607     2.4100     0.1469     0.1322   -91.5051     7.2668     6.5983
  635.0000     8.4587    71.5362     2.4216     0.1566     0.1463   -91.2776     7.1469     6.3256
  635.5000     8.4653    69.9746     2.3948     0.1420     0.1694   -90.9455     7.0293     6.2413
  636.0000     8.4811    66.4609     2.4203     0.1032     0.1920   -90.3012     6.8746     6.1597
  636.5000     8.5278    65.3172     2.3190     0.0824     0.2113   -90.3162     6.8825     6.0793
  637.0000     8.5772    65.7749     2.2880     0.1073     0.2239   -90.3204     6.8945     5.9998
  637.5000     8.6318    67.8965     2.2545     0.1706     0.2310   -90.3243     6.9065     5.9291
  638.0000     8.7573    70.2591     2.4483     0.2199     0.1732   -90.4947     6.9185     5.9534
