~VERSION INFORMATION
 VERS.                2.0:   CWLS LOG ASCII STANDARD - VERSION 2.0
 WRAP.                 NO:   ONE LINE PER DEPTH STEP
~WELL INFORMATION
#MNEM.UNIT      DATA TYPE    INFORMATION
#----------   ------------   ------------------------------
 STRT.F            0.0000:   START DEPTH
 STOP.F         2694.5000:   STOP DEPTH
 STEP.F            0.5000:   STEP LENGTH
 NULL.          -999.2500:   NO VALUE
 COMP. FENIX & SCISSON INC:   COMPANY
 WELL.       102 A #20-20:   WELL
 FLD .        TEAPOT DOME:   FIELD
 LOC .      S20 T39N R78W:   LOCATION
 CNTY.            NATRONA:   COUNTY
 STAT.            WYOMING:   STATE
 CTRY. UNITED STATES OF AMERICA:   COUNTRY
 SRVC.            Unknown:   SERVICE COMPANY
 DATE.        17-AUG-1965:   LOGDATE
 API .       490251022200:   API NUMBER
~CURVE INFORMATION
#MNEM.UNIT       API CODE    CURVE DESCRIPTION
#----------   ------------   ------------------------------
 DEPT.F                  :   
 CALI.IN     30 280 01 00:   CALIPER FROM GAMMA RAY LOG
 GR  .GAPI   30 310 01 00:   GAMMA RAY
~PARAMETER INFORMATION
#MNEM.UNIT          VALUE    DESCRIPTION
#----------   ------------   ------------------------------
 PD  .                 GL:   PERMANENT DATUM
 LMF .                 GL:   LOG MEASURED FROM
 DMF .                 GL:   DRILLING MEASURED FROM
 DATE.            8-17-65:   RUN DATE
 RUN .                  1:   RUN NUMBER
 DD  .F            2696.5:   DEPTH DRILLER
 DL  .F              2697:   DEPTH LOGGER
 BLI .F              2695:   BOTTOM LOG INTERVAL
 TLI .F              2000:   TOP LOG INTERVAL
 CS  .IN                7:   CASING SIZE
 CBD .F              2678:   CASING BOTTOM DRILLER
 DFT .                OIL:   DRILLING FLUID TYPE
 TCS .HRS               1:   TIME CURCULATED STOPPED
 ENGI.            JACKSON:   RECORDING ENGINEER
 WITN.          JORGENSEN:   WITNESSED BY
 CLNT.            A2DTECH:   CLIENT CODE
 ORIG.           5" PRINT:   ORIGIN OF DATA
 UWI .       490251022200:   UNIQUE WELL ID
 DICO. A2D Technologies, Inc.:   DIGITIZING COMPANY
~OTHER INFORMATION
~A    DEPT      CALI       GR   
# ...
 2187.0000     6.4663   116.1435
 2187.5000     6.4798   113.7477
 2188.0000     6.4804   112.0734
 2188.5000     6.4110   119.9733
 2189.0000     6.4197   122.9570
 2189.5000     6.4208   122.5236
 2190.0000     6.4150   129.9590
 2190.5000     6.4252   135.2289
 2191.0000     6.4277   135.7184
 2191.5000     6.4304   130.4970
 2192.0000     6.4331   125.7205
 2192.5000     6.4464   123.6070
 2193.0000     6.4624   124.1283
 2193.5000     6.4385   117.0583
 2194.0000     6.4311   122.3093
 2194.5000     6.4274   125.6829
 2195.0000     6.4238   121.8145
 2195.5000     6.4202   124.7674
 2196.0000     6.4168   126.4964
 2196.5000     6.4226   126.8759
 2197.0000     6.4447   128.9716
 2197.5000     6.4599   129.5835
 2198.0000     6.4362   132.4371
 2198.5000     6.4506   129.6554
 2199.0000     6.4616   126.5294
 2199.5000     6.4455   125.9360
 2200.0000     6.4283   128.4323
 2200.5000     6.4387   127.3171
 2201.0000     6.4419   125.9216
 2201.5000     6.4387   124.0849
 2202.0000     6.4348   121.1665
 2202.5000     6.4485   123.2230
 2203.0000     6.4588   120.8099
 2203.5000     6.4383   118.2707
 2204.0000     6.4238   125.0226
 2204.5000     6.4242   127.2309
 2205.0000     6.4242   123.6119
 2205.5000     6.4241   122.2894
 2206.0000     6.4236   123.4827
 2206.5000     6.4362   121.3023
 2207.0000     6.4892   116.7824
 2207.5000     6.5173   113.6123
 2208.0000     6.4627   114.1167
 2208.5000     6.4672   115.6452
 2209.0000     6.4707   119.8956
 2209.5000     6.4676   125.7606
 2210.0000     6.4425   133.3175
 2210.5000     6.4237   134.6317
 2211.0000     6.4242   132.9793
 2211.5000     6.4280   137.2716
 2212.0000     6.4388   134.2535
 2212.5000     6.4587   125.8589
 2213.0000     6.4782   121.2841
 2213.5000     6.4898   118.7906
 2214.0000     6.4735   123.8793
 2214.5000     6.4791   131.7044
 2215.0000     6.4723   130.2935
 2215.5000     6.4472   125.5374
 2216.0000     6.4589   124.2550
 2216.5000     6.4768   123.8092
 2217.0000     6.4811   123.3960
 2217.5000     6.4779   122.7191
 2218.0000     6.4747   117.8977
 2218.5000     6.4759   117.5510
 2219.0000     6.4817   112.9055
 2219.5000     6.4880   108.5099
 2220.0000     6.4921   110.6737
 2220.5000     6.4570   109.6142
 2221.0000     6.4620   109.0645
 2221.5000     6.4724   116.0725
 2222.0000     6.4446   116.1365
 2222.5000     6.4438   111.1756
 2223.0000     6.4439   113.6132
 2223.5000     6.4439   112.5211
 2224.0000     6.4433   106.2368
 2224.5000     6.4640   101.4931
 2225.0000     6.4823   101.5063
 2225.5000     6.4686    99.1387
 2226.0000     6.4542    98.2290
 2226.5000     6.4614    97.3035
 2227.0000     6.4805    95.8335
 2227.5000     6.4971    91.7430
 2228.0000     6.5854    88.4810
 2228.5000     6.4862    86.6562
 2229.0000     6.4806    85.9716
 2229.5000     6.4781    88.7452
 2230.0000     6.4753    94.2330
 2230.5000     6.4788    93.5081
 2231.0000     6.4923    94.2290
 2231.5000     6.4772    96.7295
 2232.0000     6.4647    97.7511
 2232.5000     6.4939   102.1095
 2233.0000     6.4925   104.0416
 2233.5000     6.4754   102.2865
 2234.0000     6.4713   102.9368
 2234.5000     6.4698   102.9795
 2235.0000     6.4680   100.6126
 2235.5000     6.4662    98.8623
 2236.0000     6.4645    96.1353
 2236.5000     6.4675    94.3585
 2237.0000     6.4733    90.2552
 2237.5000     6.4704    91.6211
 2238.0000     6.4677    93.5784
 2238.5000     6.4651    90.5777
 2239.0000     6.4624    91.9785
 2239.5000     6.4597    91.1447
 2240.0000     6.4571    97.0856
 2240.5000     6.4547   100.0966
 2241.0000     6.4433   100.8558
 2241.5000     6.4291   100.9804
 2242.0000     6.4159    96.0679
 2242.5000     6.4517    97.1075
 2243.0000     6.4401    97.7156
 2243.5000     6.4251    98.7623
 2244.0000     6.4332    98.8603
 2244.5000     6.4653    98.4974
 2245.0000     6.4527    95.8468
 2245.5000     6.4275    95.8032
 2246.0000     6.4270    92.6981
 2246.5000     6.4516    91.9932
 2247.0000     6.4762    92.7528
 2247.5000     6.5225    91.8673
 2248.0000     6.5328    90.3818
 2248.5000     6.4549    90.5023
 2249.0000     6.4807    89.7203
 2249.5000     6.4462    89.6644
 2250.0000     6.4327    89.2323
 2250.5000     6.4494    88.0768
 2251.0000     6.4493    92.6007
 2251.5000     6.4434    96.5546
 2252.0000     6.4373    99.4038
 2252.5000     6.4311   100.4425
 2253.0000     6.4250    98.2775
 2253.5000     6.4191    96.1402
 2254.0000     6.4200    95.3729
 2254.5000     6.4448    96.7730
 2255.0000     6.4605    98.1424
 2255.5000     6.4442    98.8040
 2256.0000     6.4438    99.0906
 2256.5000     6.4439   100.2532
 2257.0000     6.4457    98.9990
 2257.5000     6.4486    96.7508
 2258.0000     6.4514    94.1141
 2258.5000     6.4538    88.2058
 2259.0000     6.4537    85.3774
 2259.5000     6.4538    82.2020
 2260.0000     6.4538    73.8730
 2260.5000     6.4534    75.8976
 2261.0000     6.4367    78.8645
 2261.5000     6.4193    79.6428
 2262.0000     6.4061    79.7031
 2262.5000     6.4214    78.4810
 2263.0000     6.4095    79.6286
 2263.5000     6.3893    79.3029
 2264.0000     6.3948    76.1641
 2264.5000     6.4079    73.3428
 2265.0000     6.4143    73.2675
 2265.5000     6.4144    71.6306
 2266.0000     6.4145    70.5445
 2266.5000     6.4207    74.0973
 2267.0000     6.4326    75.4766
 2267.5000     6.4261    76.9964
 2268.0000     6.4171    78.7666
 2268.5000     6.4847    76.2039
 2269.0000     6.4746    75.0886
 2269.5000     6.4567    74.8760
 2270.0000     6.4454    79.0235
 2270.5000     6.4565    77.7369
 2271.0000     6.4720    76.8767
 2271.5000     6.4501    78.1003
 2272.0000     6.4251    77.6121
 2272.5000     6.4303    76.2790
 2273.0000     6.4332    74.2034
 2273.5000     6.4314    73.3353
 2274.0000     6.4295    72.9454
 2274.5000     6.4275    72.8364
 2275.0000     6.4259    72.7403
 2275.5000     6.4275    73.2800
 2276.0000     6.4646    75.3093
 2276.5000     6.4627    73.4081
 2277.0000     6.4492    70.9387
 2277.5000     6.4359    68.6035
 2278.0000     6.4313    70.9831
 2278.5000     6.4747    71.4224
 2279.0000     6.4513    71.7682
 2279.5000     6.4339    72.4362
 2280.0000     6.4345    71.1311
 2280.5000     6.4578    73.2288
 2281.0000     6.4630    73.6430
 2281.5000     6.4249    72.7331
 2282.0000     6.4121    71.7961
 2282.5000     6.4082    71.3233
 2283.0000     6.4046    71.2116
 2283.5000     6.4044    72.5398
 2284.0000     6.4047    78.2169
 2284.5000     6.4192    81.5165
 2285.0000     6.4334    83.4611
 2285.5000     6.4235    88.7223
 2286.0000     6.4153    92.5215
 2286.5000     6.4350    90.5204
 2287.0000     6.4540    89.1652
 2287.5000     6.4275    88.1845
 2288.0000     6.4093    87.1920
 2288.5000     6.4321    90.3553
 2289.0000     6.4715    89.7138
 2289.5000     6.4978    88.2241
 2290.0000     6.4352    89.3413
 2290.5000     6.4315    89.0901
 2291.0000     6.4404    89.3579
 2291.5000     6.4321    90.0700
 2292.0000     6.4244    88.4546
 2292.5000     6.4242    86.2639
 2293.0000     6.4242    86.6326
 2293.5000     6.4242    89.1696
 2294.0000     6.4242    88.8345
 2294.5000     6.4253    88.5557
 2295.0000     6.4272    87.4407
 2295.5000     6.4290    90.4188
 2296.0000     6.4309    88.9112
 2296.5000     6.4328    87.9651
 2297.0000     6.4353    89.5397
 2297.5000     6.4400    92.9350
 2298.0000     6.4484    96.3411
 2298.5000     6.4820    98.7523
 2299.0000     6.4833    98.3552
 2299.5000     6.4685    97.7150
 2300.0000     6.4452    97.7447
 2300.5000     6.4345    95.4701
 2301.0000     6.4449    93.7704
 2301.5000     6.4527    92.3999
 2302.0000     6.4298    90.6958
 2302.5000     6.4400    93.2690
 2303.0000     6.4624    93.3740
 2303.5000     6.4548    96.6216
 2304.0000     6.4445    99.6409
 2304.5000     6.4547   100.3414
 2305.0000     6.4604    99.5512
 2305.5000     6.4474    94.2421
 2306.0000     6.4347    92.9606
 2306.5000     6.4449    94.1899
 2307.0000     6.4571    95.4874
 2307.5000     6.4511    94.9703
 2308.0000     6.4365    95.7339
