~VERSION INFORMATION
 VERS.                2.0:   CWLS LOG ASCII STANDARD - VERSION 2.0
 WRAP.                 NO:   ONE LINE PER DEPTH STEP
~WELL INFORMATION
#MNEM.UNIT      DATA TYPE    INFORMATION
#----------   ------------   ------------------------------
 STRT.F           44.0000:   START DEPTH
 STOP.F          666.0000:   STOP DEPTH
 STEP.F            0.5000:   STEP LENGTH
 NULL.          -999.2500:   NO VALUE
 COMP. FENIX & SCISSON INC:   COMPANY
 WELL.     NPR-3 #22SX-10:   WELL
 FLD .             TEAPOT:   FIELD
 LOC .      S10 T38N R78W:   LOCATION
 CNTY.            NATRONA:   COUNTY
 STAT.            WYOMING:   STATE
 CTRY. UNITED STATES OF AMERICA:   COUNTRY
 SRVC.            Unknown:   SERVICE COMPANY
 DATE.        11-JUL-1978:   LOGDATE
 API .       490251065600:   API NUMBER
~CURVE INFORMATION
#MNEM.UNIT       API CODE    CURVE DESCRIPTION
#----------   ------------   ------------------------------
 DEPT.F                  :   
 CALD.IN     45 280 60 00:   CALIPER FROM DENSITY LOG
 GRD .GAPI   45 310 01 00:   GAMMA RAY FROM DENSITY LOG
 CORR.G/C3   45 356 01 00:   DENSITY CORRECTION
 DPHI.DEC    45 890 12 00:   DENSITY POROSITY SANDSTONE
 RHOB.G/C3   45 350 01 00:   BULK DENSITY
 SPR .MV     05 010 01 00:   SPONTANEOUS POTENTIAL FROM RES.
 SN  .OHMM   05 040 16 00:   SHORT NORMAL 16"
 ILD .OHMM   05 120 46 00:   INDUCTION LOG DEEP
~PARAMETER INFORMATION
#MNEM.UNIT          VALUE    DESCRIPTION
#----------   ------------   ------------------------------
 PD  .                 GL:   PERMANENT DATUM
 EPD .F              5263:   ELEVATION PERMANENT DATUM
 LMF .                 KB:   LOG MEASURED FROM
 DAPD.F                 4:   FEET ABOVE PERMANENT DATUM
 DMF .                 KB:   DRILLING MEASURED FROM
 EKB .F              5267:   KELLING BUSHING
 EGL .F              5263:   GROUND LEVEL
 DATE.        11-JUL-1978:   RUN DATE
 RUN .                  1:   RUN NUMBER
 DD  .F               657:   DEPTH DRILLER
 DL  .F               666:   DEPTH LOGGER
 BLI .F               660:   BOTTOM LOG INTERVAL
 TLI .F                50:   TOP LOG INTERVAL
 CS  .IN            8.625:   CASING SIZE
 CBD .F                40:   CASING BOTTOM DRILLER
 BS  .IN            7.875:   BIT SIZE
 BSD .F               657:   BIT SIZE AT DEPTH
 DFT .                KCL:   DRILLING FLUID TYPE
 DFD .                8.6:   DRILLING FLUID DENSITY
 DFV .                 33:   DRILLING FLUID VISCOSITY
 DFPH.                9.0:   DRILLING FLUID PH
 DFL .                 14:   DRILLING FLUID LOSS
 MSS .           FLOWLINE:   MUD SAMPLE SOURCE
 RMS .OHMM            .16:   RESISTIVITY MUD SAMPLE
 MST .F                89:   MUD SAMPLE TEMPERATURE
 RMF .OHMM            .15:   RESISTIVITY MUD FILTRATE SAMPLE
 MFST.F                89:   MUD FILTRATE SAMPLE TEMPERATURE
 RMC .OHMM            .32:   RESISTIVITY MUD CAKE
 MCST.F                88:   MUD CAKE SAMPLE TEMPERATURE
 MFSS.               MEAS:   MUD FILTRATE SAMPLE SOURCE
 BHT .F                76:   BOTTOM HOLE TEMPERATURE
 TCS .HRS            0200:   TIME CURCULATED STOPPED
 MRT .F                76:   MAXIMUM RECORDED TEMPERATURE
 LUN .               2958:   LOGGING UNIT NUMBER
 LUL .               CASP:   LOGGING UNIT LOCATION
 ENGI.             MILLER:   RECORDING ENGINEER
 WITN.           MCGINLEY:   WITNESSED BY
 CLNT.            A2DTECH:   CLIENT CODE
 ORIG.           5" PRINT:   ORIGIN OF DATA
 UWI .       490251065600:   UNIQUE WELL ID
 DICO. A2D Technologies, Inc.:   DIGITIZING COMPANY
~OTHER INFORMATION
~A   DEPT     CALD         GRD      CORR       DPHI       RHOB        SPR         SN        ILD   
# ...
  327.5000     7.8356    78.5720    -0.0072     0.1412     2.4458   -72.4629     7.0598     7.3805
  328.0000     7.8042    81.7358    -0.0078     0.1412     2.4473   -72.4454     7.0162     7.2331
  328.5000     7.7577    84.4484    -0.0080     0.1472     2.4397   -72.5763     7.0214     7.2386
  329.0000     7.7109    84.8918    -0.0081     0.1487     2.4352   -72.5544     7.0259     7.2430
  329.5000     7.6798    85.0352    -0.0082     0.1487     2.4329   -72.6896     7.0316     7.2974
  330.0000     7.6485    79.7270    -0.0068     0.1487     2.4329   -72.6677     7.0363     7.4029
  330.5000     7.6485    78.5062    -0.0053     0.1484     2.4336   -72.6502     7.0411     7.5617
  331.0000     7.6484    79.5546    -0.0054     0.1433     2.4344   -72.6327     7.0944     7.7239
  331.5000     7.6484    81.0570    -0.0040     0.1379     2.4449   -72.6152     7.1975     7.8897
  332.0000     7.6484    81.2243    -0.0026     0.1355     2.4516   -72.7504     7.3020     7.9556
  332.5000     7.6484    79.2205    -0.0011     0.1337     2.4546   -72.7285     7.4081     8.0098
  333.0000     7.6483    78.7561     0.0003     0.1328     2.4576   -72.7110     7.5675     8.0146
  333.5000     7.6483    79.3507     0.0017     0.1328     2.4591   -72.6935     7.6248     8.0195
  334.0000     7.6483    86.9045     0.0002     0.1322     2.4605   -72.8243     7.6300     7.9682
  334.5000     7.6483    86.7427    -0.0014     0.1298     2.4695   -72.8068     7.6352     7.9742
  335.0000     7.6482    82.7987    -0.0030     0.1217     2.4808   -72.9377     7.6404     8.0341
  335.5000     7.6482    79.3086    -0.0076     0.1257     2.4785   -73.0685     7.5930     8.0944
  336.0000     7.6482    79.4535    -0.0122     0.1311     2.4672   -73.0504     7.5994     8.1552
  336.5000     7.6481    80.3519    -0.0153     0.1320     2.4597   -73.1819     7.5512     8.2164
  337.0000     7.6481    80.6386    -0.0184     0.1368     2.4544   -73.0116     7.5045     8.3352
  337.5000     7.6324    80.6279    -0.0184     0.1398     2.4491   -72.9941     7.5108     8.4557
  338.0000     7.6162    80.4498    -0.0200     0.1392     2.4453   -72.9766     7.4644     8.5193
  338.5000     7.6000    80.1528    -0.0186     0.1441     2.4423   -72.9591     7.4694     8.5834
  339.0000     7.5838    80.1422    -0.0157     0.1464     2.4378   -72.9416     7.4745     8.5897
  339.5000     7.5982    80.6655    -0.0097     0.1416     2.4347   -72.9241     7.4795     8.5347
  340.0000     7.5968    83.7498    -0.0083     0.1416     2.4392   -72.9066     7.4845     8.5412
  340.5000     7.6264    85.2521    -0.0099     0.1416     2.4445   -72.8890     7.4897     8.5463
  341.0000     7.6708    85.6981    -0.0084     0.1407     2.4459   -73.0243     7.4948     8.4930
  341.5000     7.6849    85.6849    -0.0085     0.1398     2.4459   -73.1507     7.5009     8.4981
  342.0000     7.6990    85.3718    -0.0086     0.1385     2.4474   -73.1332     7.5577     8.5033
  342.5000     7.7131    85.6665    -0.0086     0.1364     2.4497   -73.2641     7.5628     8.5084
  343.0000     7.7420    85.6533    -0.0086     0.1340     2.4535   -73.2466     7.5679     8.5136
  343.5000     7.7410    83.3735    -0.0086     0.1274     2.4580   -73.3774     7.6253     8.5188
  344.0000     7.7551    80.4886    -0.0086     0.1156     2.4679   -73.3556     7.6304     8.5240
  344.5000     7.7540    80.7806    -0.0086     0.1094     2.4791   -73.4908     7.6355     8.5292
  345.0000     7.7681    81.3778    -0.0086     0.1120     2.4927   -73.4689     7.6407     8.5356
  345.5000     7.7671    81.3647    -0.0086     0.1270     2.4991   -73.4514     7.6458     8.5407
  346.0000     7.7660    81.3542    -0.0086     0.1258     2.4690   -73.4362     7.5986     8.4861
  346.5000     7.7650    82.4044    -0.0086     0.1264     2.4750   -73.4164     7.5516     8.4344
  347.0000     7.7942    82.5451    -0.0086     0.1312     2.4667   -73.3988     7.5567     8.3817
  347.5000     7.8235    82.3807    -0.0086     0.1384     2.4547   -73.3813     7.4087     8.3280
  348.0000     7.8679    82.2189    -0.0086     0.1408     2.4479   -73.3638     7.2126     8.2193
  348.5000     7.8820    81.1494    -0.0086     0.1345     2.4448   -73.3463     7.1668     8.0025
  349.0000     7.8961    81.1388    -0.0086     0.1366     2.4561   -73.3288     7.1225     7.7902
  349.5000     7.9102    82.3386    -0.0086     0.1372     2.4553   -73.3113     7.1285     7.6358
  350.0000     7.9091    83.3129    -0.0086     0.1341     2.4553   -73.2938     7.0833     7.5361
  350.5000     7.9080    83.9894    -0.0086     0.1312     2.4547   -73.4246     7.1561     7.3371
  351.0000     7.9070    83.2284    -0.0086     0.1270     2.4605   -73.5787     7.2186     7.4437
  351.5000     7.8907    78.8366    -0.0086     0.1325     2.4725   -73.8349     7.2811     7.6039
  352.0000     7.8745    79.7397    -0.0086     0.1382     2.4620   -73.8131     7.3016     7.5569
  352.5000     7.8735    82.7609    -0.0086     0.1415     2.4515   -73.7956     7.2565     7.4587
  353.0000     7.8724    83.0590    -0.0086     0.1349     2.4462   -73.7781     7.2116     7.3033
  353.5000     7.8713    81.3902    -0.0086     0.1265     2.4582   -73.7607     7.1192     7.0704
  354.0000     7.8703    71.7033    -0.0086     0.1365     2.4717   -73.8960     6.9786     6.8833
  354.5000     7.8541    70.7911    -0.0085     0.1451     2.4491   -74.0225     6.8408     6.7473
  355.0000     7.8075    78.8046    -0.0084     0.1506     2.4356   -74.0051     6.7519     6.7045
  355.5000     7.7762    85.9105    -0.0083     0.1511     2.4296   -73.9876     6.6631     6.6642
  356.0000     7.7751    84.9983    -0.0082     0.1486     2.4296   -73.9702     6.6219     6.6687
  356.5000     7.7589    84.6923    -0.0080     0.1447     2.4318   -73.8042     6.5810     6.6732
  357.0000     7.7730    86.3507    -0.0079     0.1451     2.4386   -73.6380     6.5865     6.6780
  357.5000     7.7719    86.8000    -0.0078     0.1472     2.4415   -73.6167     6.6364     6.7282
  358.0000     7.7709    86.7955    -0.0077     0.1370     2.4385   -73.5992     6.6867     6.7328
  358.5000     7.7698    82.4036    -0.0076     0.1361     2.4460   -73.5818     6.7387     6.7839
  359.0000     7.7687    81.0375    -0.0074     0.1361     2.4558   -73.5643     6.8353     6.8354
  359.5000     7.7677    83.6048    -0.0073     0.1368     2.4565   -73.5469     6.8882     6.8881
  360.0000     7.7666    84.2065    -0.0072     0.1371     2.4535   -73.5294     6.9404     6.9403
  360.5000     7.7655    77.5442    -0.0071     0.1380     2.4505   -73.5120     6.9929     6.9450
  361.0000     7.7645    76.6320    -0.0070     0.1392     2.4490   -73.4945     7.0459     6.9976
  361.5000     7.7634    77.6864    -0.0069     0.1356     2.4519   -73.4770     7.0507     7.0023
  362.0000     7.7472    80.7076    -0.0067     0.1338     2.4579   -73.3112     7.0554     6.9578
  362.5000     7.7461    83.5774    -0.0066     0.1347     2.4654   -73.2938     7.1089     6.9637
  363.0000     7.7451    84.4806    -0.0065     0.1341     2.4519   -73.4247     7.1137     6.9684
  363.5000     7.7288    84.9299    -0.0095     0.1329     2.4511   -73.4065     7.1185     6.9731
  364.0000     7.7278    85.2290    -0.0156     0.1380     2.4616   -73.3854     7.1233     6.9778
  364.5000     7.7116    85.2234    -0.0171     0.1458     2.4594   -73.5207     7.0792     6.9346
  365.0000     7.7105    87.0342    -0.0156     0.1500     2.4466   -73.4989     6.9873     6.8918
  365.5000     7.7094    89.7528    -0.0142     0.1518     2.4285   -73.4814     6.9373     6.8034
  366.0000     7.7084    89.2944    -0.0127     0.1524     2.4218   -73.6167     6.7615     6.7150
  366.5000     7.7087    87.3231    -0.0113     0.1534     2.4270   -73.5949     6.6280     6.6267
  367.0000     7.7091    84.1416    -0.0098     0.1549     2.4277   -73.7258     6.4526     6.4958
  367.5000     7.7094    83.5330    -0.0099     0.1573     2.4229   -73.7083     6.2818     6.3250
