~VERSION INFORMATION
 VERS.                2.0:   CWLS LOG ASCII STANDARD - VERSION 2.0
 WRAP.                 NO:   ONE LINE PER DEPTH STEP
~WELL INFORMATION
#MNEM.UNIT      DATA TYPE    INFORMATION
#----------   ------------   ------------------------------
 STRT.F            0.0000:   START DEPTH
 STOP.F          539.0000:   STOP DEPTH
 STEP.F            0.5000:   STEP LENGTH
 NULL.          -999.2500:   NO VALUE
 COMP. FENIX & SCISSON INC:   COMPANY
 WELL.     NPR 3 SX #23-3:   WELL
 FLD .             TEAPOT:   FIELD
 LOC .       S3 T38N R78W:   LOCATION
 CNTY.            NATRONA:   COUNTY
 STAT.            WYOMING:   STATE
 CTRY. UNITED STATES OF AMERICA:   COUNTRY
 SRVC.           BIRDWELL:   SERVICE COMPANY
 DATE.        27-JUL-1978:   LOGDATE
 API .       490251067500:   API NUMBER
~CURVE INFORMATION
#MNEM.UNIT       API CODE    CURVE DESCRIPTION
#----------   ------------   ------------------------------
 DEPT.F                  :   
 ILD .OHMM   05 120 40 00:   INDUCTION LOG DEEP
 SPR .MV     05 010 01 00:   SPONTANEOUS POTENTIAL
 SN  .OHMM   05 040 16 00:   SHORT NORMAL 16"
 CALD.IN     45 280 60 00:   CALIPER FROM DENSITY LOG
 CORR.G/C3   45 356 01 00:   DENSITY CORRECTION
 DPHI.DEC    45 890 12 00:   DENSITY POROSITY SANDSTONE
 GRD .GAPI   45 310 01 00:   GAMMA RAY FROM DENSITY LOG
 RHOB.G/C3   45 350 01 00:   BULK DENSITY
~PARAMETER INFORMATION
#MNEM.UNIT          VALUE    DESCRIPTION
#----------   ------------   ------------------------------
 PD  .                 GL:   PERMANENT DATUM
 EPD .F              5787:   ELEVATION PERMANENT DATUM
 LMF .                 KB:   LOG MEASURED FROM
 DAPD.F                 4:   FEET ABOVE PERMANENT DATUM
 DMF .                 KB:   DRILLING MEASURED FROM
 EKB .F              5191:   KELLING BUSHING
 EGL .F              5187:   GROUND LEVEL
 DATE.         7-JUL-1978:   RUN DATE
 RUN .                  1:   RUN NUMBER
 DD  .F               540:   DEPTH DRILLER
 DL  .F               540:   DEPTH LOGGER
 BLI .F               539:   BOTTOM LOG INTERVAL
 CS  .IN            8.625:   CASING SIZE
 CBD .F                40:   CASING BOTTOM DRILLER
 BS  .IN            7.875:   BIT SIZE
 BSD .F               540:   BIT SIZE AT DEPTH
 DFT .                KCL:   DRILLING FLUID TYPE
 DFD .                8.6:   DRILLING FLUID DENSITY
 DFV .                 30:   DRILLING FLUID VISCOSITY
 DFPH.                  9:   DRILLING FLUID PH
 MSS .           FLOWLINE:   MUD SAMPLE SOURCE
 MRT .F                74:   MAXIMUM RECORDED TEMPERATURE
 LUN .               2958:   LOGGING UNIT NUMBER
 LUL .               CASP:   LOGGING UNIT LOCATION
 ENGI.            POINTER:   RECORDING ENGINEER
 WITN.              AMEND:   WITNESSED BY
 CLNT.            A2DTECH:   CLIENT CODE
 ORIG.           5" PRINT:   ORIGIN OF DATA
 UWI .       490251067500:   UNIQUE WELL ID
 DICO. A2D Technologies, Inc.:   DIGITIZING COMPANY
~OTHER INFORMATION
~A    DEPT     ILD        SPR         SN         CALD     CORR       DPHI         GRD      RHOB   
# ...
  364.5000    21.5922   -20.9945    14.6954     9.3154     0.0799     0.2116    64.5207     2.2995
  365.0000    21.4501   -21.4303    14.7038     9.3142     0.0798     0.2108    65.2724     2.2885
  365.5000    21.4561   -21.5615    14.6083     9.2828     0.0797     0.2102    65.7212     2.2877
  366.0000    21.3158   -21.5474    14.3192     9.2511     0.0795     0.2093    65.8668     2.2877
  366.5000    21.0008   -21.3839    14.3258     9.2500     0.0794     0.2117    65.8596     2.2846
  367.0000    20.8923   -20.7716    14.3339     9.2035     0.0822     0.2178    65.2477     2.2786
  367.5000    20.7561   -20.4634    14.3404     9.1872     0.0911     0.2190    64.6358     2.2748
  368.0000    20.3384   -20.8922    14.3470     9.1861     0.1149     0.2193    64.0239     2.2725
  368.5000    20.3437   -21.3245    14.3535     9.1547     0.1268     0.2097    63.4120     2.2748
  369.0000    20.2097   -21.9021    14.3602     9.1233     0.1311     0.1993    63.4061     2.2889
  369.5000    19.8031   -21.8879    14.3671     9.1067     0.1325     0.1981    63.3989     2.3008
  370.0000    19.8088   -22.0262    14.3740     9.1207     0.1323     0.1950    64.0006     2.3112
  370.5000    19.6365   -22.1577    14.3809     9.1195     0.1262     0.1843    64.4478     2.3262
  371.0000    19.2829   -22.4408    14.3879     9.1791     0.1201     0.1808    64.2905     2.3351
  371.5000    19.2882   -22.5720    14.3961     9.1323     0.1140     0.1796    63.6786     2.3441
  372.0000    18.9012   -23.0043    14.4026     9.0858     0.1018     0.1805    63.3697     2.3470
  372.5000    18.7756   -22.9902    14.4092     9.0357     0.0972     0.1808    64.1200     2.3440
  373.0000    18.7817   -23.2737    14.4157     8.9623     0.0926     0.1809    65.1748     2.3379
  373.5000    18.5304   -23.5572    14.4223     8.9309     0.0880     0.1800    64.5629     2.3379
  374.0000    18.4085   -23.5395    14.4293     8.8694     0.0834     0.1761    63.4965     2.3408
  374.5000    18.4145   -23.5254    14.4371     8.8531     0.0772     0.1749    62.7331     2.3468
  375.0000    18.4192   -23.5113    14.4437     8.8066     0.0741     0.1774    62.1212     2.3527
  375.5000    18.4240   -23.4933    14.4502     8.7907     0.0710     0.1807    61.8121     2.3528
  376.0000    18.5559   -23.1819    14.4570     8.7438     0.0693     0.1834    61.9566     2.3433
  376.5000    18.6896   -23.0190    14.4651     8.6971     0.0647     0.1846    64.5265     2.3368
  377.0000    18.6944   -22.8561    14.4716     8.6657     0.0646     0.1838    62.0964     2.3375
  377.5000    18.5714   -22.8420    14.4782     8.6192     0.0644     0.1835    60.2724     2.3382
  378.0000    18.5763   -22.8274    14.4848     8.5576     0.0643     0.1826    59.6605     2.3404
  378.5000    18.4540   -22.4888    14.4931     8.5111     0.0642     0.1844    59.9757     2.3403
  379.0000    18.3325   -22.2024    14.4997     8.4949     0.0655     0.1916    61.4656     2.3373
  379.5000    18.3385   -22.1867    14.5063     8.4332     0.0938     0.1998    63.2780     2.3147
  380.0000    18.3432   -22.1726    14.5129     8.3714     0.1327     0.1971    65.0903     2.2982
  380.5000    18.3492   -22.1550    14.7213     8.3400     0.1145     0.1515    66.2981     2.3821
  381.0000    18.3540   -22.1444    15.2417     8.3086     0.0934     0.1376    66.2908     2.4053
  381.5000    18.3587   -22.2791    15.5653     8.3075     0.0813     0.1330    66.1335     2.4120
  382.0000    18.8746   -22.4107    15.7873     8.3063     0.0872     0.1297    67.1868     2.4179
  382.5000    19.9543   -22.6937    16.2335     8.3202     0.0930     0.1244    68.3931     2.4284
  383.0000    21.0776   -22.9737    16.2410     8.3342     0.0929     0.1082    69.1448     2.4628
  383.5000    21.6699   -23.2608    16.2501     8.3327     0.0897     0.0944    65.5026     2.5237
  384.0000    21.6755   -23.6895    16.2575     8.3468     0.0866     0.0953    64.4362     2.5381
  384.5000    21.3856   -24.1218    16.2649     8.3609     0.0865     0.0987    63.8242     2.5406
  385.0000    21.0996   -24.9971    15.9412     8.3594     0.0849     0.1035    63.2110     2.5286
  385.5000    20.5335   -24.9829    15.5930     8.3920     0.0847     0.1083    62.5991     2.5045
  386.0000    19.9827   -24.9688    15.0014     8.4175     0.0861     0.1215    61.9872     2.4775
  386.5000    18.9213   -24.5083    14.6024     8.4163     0.0860     0.1503    62.5874     2.4504
  387.0000    17.8635   -23.7500    13.8313     8.4149     0.0918     0.1770    64.7028     2.4137
  387.5000    16.5041   -24.1789    13.0994     8.4137     0.1456     0.1828    67.2727     2.3718
  388.0000    15.8424   -24.6112    12.7524     8.4163     0.1634     0.1812    66.8121     2.3363
  388.5000    15.2072   -24.8982    12.8460     8.4419     0.1693     0.1696    66.5035     2.3393
  389.0000    14.6967   -25.1786    12.8518     8.4707     0.1661     0.1612    66.8007     2.3497
  389.5000    14.4022   -25.1637    12.8577     8.4695     0.1570     0.1487    66.7934     2.3692
  390.0000    14.2096   -24.5512    12.7757     8.4854     0.1449     0.1409    66.3330     2.4171
  390.5000    14.2142   -23.6442    12.6956     8.5276     0.1139     0.1418    65.4181     2.4515
  391.0000    14.1206   -24.2254    12.4416     8.5261     0.0707     0.1505    64.8061     2.4582
  391.5000    14.1103   -24.2113    12.3334     8.5703     0.0322     0.1551    65.5565     2.4372
  392.0000    14.0314   -24.7924    12.1174     8.5845     0.0261     0.1563    64.9446     2.4109
  392.5000    14.0359   -25.3700    11.9473     8.5830     0.0305     0.1542    64.3328     2.3921
  393.0000    13.9426   -25.6535    11.8006     8.5819     0.0303     0.1473    63.7209     2.3943
  393.5000    13.8468   -25.9375    11.7254     8.6044     0.0332     0.1459    64.6241     2.4017
  394.0000    13.6674   -26.5181    11.6506     8.6097     0.0316     0.1471    65.7151     2.4084
  394.5000    13.6709   -26.5004    11.6573     8.6083     0.0299     0.1472    67.3383     2.4107
  395.0000    13.6745   -26.0399    11.5038     8.6222     0.0298     0.1465    67.9385     2.4076
  395.5000    13.6780   -25.2817    11.5096     8.6211     0.0296     0.1450    67.3266     2.4051
  396.0000    13.4959   -24.9700    11.5156     8.6199     0.0280     0.1436    66.1087     2.4060
  396.5000    13.3154   -26.0640    11.5208     8.6187     0.0249     0.1436    66.5574     2.4104
  397.0000    13.3189   -27.0251    11.5262     8.6327     0.0233     0.1436    66.7031     2.4134
  397.5000    13.3223   -26.8586    11.5317     8.7521     0.0231     0.1449    66.9988     2.4156
  398.0000    13.3174   -26.3981    11.5379     8.9322     0.0275     0.1437    67.9021     2.4133
  398.5000    13.2381   -25.9350    11.5432     8.9310     0.0288     0.1404    69.1084     2.4102
  399.0000    13.2424   -25.7746    11.5557     8.8694     0.0287     0.1386    68.4965     2.4111
  399.5000    13.3371   -26.7987    11.5634     8.8229     0.0286     0.1405    67.2785     2.4206
  400.0000    13.3405   -26.9369    11.7198     8.7764     0.0284     0.1507    68.6364     2.4250
  400.5000    13.6225   -26.9192    11.7251     8.7450     0.0283     0.1510    69.6911     2.4190
  401.0000    13.6260   -26.7411    11.8924     8.7436     0.0342     0.1537    69.0778     2.4062
  401.5000    13.3509   -25.6970    11.8978     8.7273     0.0430     0.1570    68.6174     2.4009
  402.0000    13.3553   -25.0876    12.0688     8.7111     0.0549     0.1523    68.3086     2.3948
  402.5000    13.3589   -25.6723    11.9905     8.7099     0.0457     0.1505    67.8176     2.3948
  403.0000    13.3631   -26.2500    11.9973     8.7087     0.0381     0.1525    67.1990     2.3987
  403.5000    13.7386   -26.2322    11.9195     8.7109     0.0395     0.1595    66.5796     2.4067
  404.0000    14.1246   -26.2181    11.9263     8.6949     0.0573     0.1814    66.5681     2.3916
  404.5000    14.3276   -26.2040    11.9320     8.7244     0.0721     0.1838    66.5566     2.3533
