~VERSION INFORMATION
 VERS.                2.0:   CWLS LOG ASCII STANDARD - VERSION 2.0
 WRAP.                 NO:   ONE LINE PER DEPTH STEP
~WELL INFORMATION
#MNEM.UNIT      DATA TYPE    INFORMATION
#----------   ------------   ------------------------------
 STRT.F            2.0000:   START DEPTH
 STOP.F          467.0000:   STOP DEPTH
 STEP.F            0.5000:   STEP LENGTH
 NULL.          -999.2500:   NO VALUE
 COMP. LAWRENCE/ALLISON INC:   COMPANY
 WELL.      57-36 SX #3-3:   WELL
 FLD .             TEAPOT:   FIELD
 LOC .       S3 T38N R78W:   LOCATION
 CNTY.            NATRONA:   COUNTY
 STAT.            WYOMING:   STATE
 CTRY. UNITED STATES OF AMERICA:   COUNTRY
 SRVC.      NL McCullough:   SERVICE COMPANY
 DATE.        13-SEP-1988:   LOGDATE
 API .       490251120900:   API NUMBER
~CURVE INFORMATION
#MNEM.UNIT       API CODE    CURVE DESCRIPTION
#----------   ------------   ------------------------------
 DEPT.F                  :   
 GRR .GAPI   07 310 01 00:   GAMMA RAY
 ILD .OHMM   07 120 46 00:   INDUCTION LOG DEEP
 ILM .OHMM   07 120 44 00:   INDUCTION LOG MEDIUM
~PARAMETER INFORMATION
#MNEM.UNIT          VALUE    DESCRIPTION
#----------   ------------   ------------------------------
 PD  .                 GL:   PERMANENT DATUM
 EPD .F              5186:   ELEVATION PERMANENT DATUM
 LMF .                 KB:   LOG MEASURED FROM
 DMF .                 KB:   DRILLING MEASURED FROM
 EKB .F              5191:   KELLING BUSHING
 EGL .F              5186:   GROUND LEVEL
 DATE.        13-SEP-1988:   RUN DATE
 RUN .                  1:   RUN NUMBER
 DD  .F               409:   DEPTH DRILLER
 DL  .F               409:   DEPTH LOGGER
 BLI .F               404:   BOTTOM LOG INTERVAL
 BSD .F               409:   BIT SIZE AT DEPTH
 DFT .              WATER:   DRILLING FLUID TYPE
 ENGI.          BANGERTER:   RECORDING ENGINEER
 WITN.            SCHULTE:   WITNESSED BY
 CLNT.            A2DTECH:   CLIENT CODE
 ORIG.           5" PRINT:   ORIGIN OF DATA
 UWI .       490251120900:   UNIQUE WELL ID
 DICO. A2D Technologies, Inc.:   DIGITIZING COMPANY
~OTHER INFORMATION
~A    DEPT      GRR       ILD        ILM   
    2.0000    58.5967  -999.2500  -999.2500
    2.5000    58.9956  -999.2500  -999.2500
    3.0000    59.3946  -999.2500  -999.2500
    3.5000    59.6507  -999.2500  -999.2500
    4.0000    60.2760  -999.2500  -999.2500
    4.5000    61.5121  -999.2500  -999.2500
    5.0000    63.0534  -999.2500  -999.2500
    5.5000    64.9038  -999.2500  -999.2500
    6.0000    64.6131  -999.2500  -999.2500
    6.5000    64.6278  -999.2500  -999.2500
    7.0000    64.3334  -999.2500  -999.2500
    7.5000    64.6571  -999.2500  -999.2500
    8.0000    65.2824  -999.2500  -999.2500
    8.5000    65.9084  -999.2500  -999.2500
    9.0000    66.5368  -999.2500  -999.2500
    9.5000    67.1621  -999.2500  -999.2500
   10.0000    68.3982  -999.2500  -999.2500
   10.5000    69.0235  -999.2500  -999.2500
   11.0000    67.2061  -999.2500  -999.2500
   11.5000    64.7817  -999.2500  -999.2500
   12.0000    64.7963  -999.2500  -999.2500
   12.5000    66.3377  -999.2500  -999.2500
   13.0000    68.4898  -999.2500  -999.2500
   13.5000    71.2525  -999.2500  -999.2500
   14.0000    73.4046  -999.2500  -999.2500
   14.5000    74.0299  -999.2500  -999.2500
   15.0000    72.2162  -999.2500  -999.2500
   15.5000    71.0095  -999.2500  -999.2500
   16.0000    70.4098  -999.2500  -999.2500
   16.5000    70.1227  -999.2500  -999.2500
   17.0000    70.1374  -999.2500  -999.2500
   17.5000    70.1527  -999.2500  -999.2500
   18.0000    70.4757  -999.2500  -999.2500
   18.5000    71.4064  -999.2500  -999.2500
   19.0000    72.3371  -999.2500  -999.2500
   19.5000    71.7405  -999.2500  -999.2500
   20.0000    70.5343  -999.2500  -999.2500
   20.5000    68.7206  -999.2500  -999.2500
   21.0000    67.8192  -999.2500  -999.2500
   21.5000    66.9179  -999.2500  -999.2500
   22.0000    65.7111  -999.2500  -999.2500
   22.5000    63.8937  -999.2500  -999.2500
   23.0000    62.9924  -999.2500  -999.2500
   23.5000    63.4148  -999.2500  -999.2500
   24.0000    64.8574  -999.2500  -999.2500
   24.5000    66.3988  -999.2500  -999.2500
   25.0000    68.2455  -999.2500  -999.2500
   25.5000    69.4815  -999.2500  -999.2500
   26.0000    69.4962  -999.2500  -999.2500
   26.5000    68.9002  -999.2500  -999.2500
   27.0000    68.9185  -999.2500  -999.2500
   27.5000    69.2385  -999.2500  -999.2500
   28.0000    70.1692  -999.2500  -999.2500
   28.5000    70.4892  -999.2500  -999.2500
   29.0000    69.5878  -999.2500  -999.2500
   29.5000    69.6031  -999.2500  -999.2500
   30.0000    70.8421  -999.2500  -999.2500
   30.5000    72.0782  -999.2500  -999.2500
   31.0000    71.7838  -999.2500  -999.2500
   31.5000    70.2754  -999.2500  -999.2500
   32.0000    69.3740  -999.2500  -999.2500
   32.5000    69.0834  -999.2500  -999.2500
   33.0000    69.1017  -999.2500  -999.2500
   33.5000    69.1163  -999.2500  -999.2500
   34.0000    69.4363  -999.2500  -999.2500
   34.5000    70.6724  -999.2500  -999.2500
   35.0000    71.6031  -999.2500  -999.2500
   35.5000    71.5674  -999.2500  -999.2500
   36.0000    70.4110  -999.2500  -999.2500
   36.5000    69.8186  -999.2500  -999.2500
   37.0000    69.5279  -999.2500  -999.2500
   37.5000    69.5426  -999.2500  -999.2500
   38.0000    71.0840  -999.2500  -999.2500
   38.5000    75.6285  -999.2500  -999.2500
   39.0000    92.4910  -999.2500  -999.2500
   39.5000   109.9102  -999.2500  -999.2500
   40.0000   112.9783     2.5310    45.7059
   40.5000   113.6037     2.1739     9.1510
   41.0000   113.6183     2.2362     3.7526
   41.5000   111.8046     3.3853     2.9769
   42.0000   111.2049     9.7121     3.4022
   42.5000   112.4446    17.4854     3.9156
   43.0000   114.5966    14.4997     6.1669
   43.5000   116.1380    11.7459    11.2266
   44.0000   117.0687     9.3823    12.1295
   44.5000   117.6977     8.3272    11.3884
   45.0000   118.3231     8.0408    10.0379
   45.5000   120.1698     8.4180     8.9727
   46.0000   121.0968     9.5205     8.4213
   46.5000   119.5884     9.8622     7.9100
   47.0000   118.9924     9.9331     7.3747
   47.5000   120.2321     9.4577     7.0713
   48.0000   122.0788     9.0050     7.6941
   48.5000   123.3148     8.7570     8.1970
   49.0000   123.9402     8.6360     8.4914
   49.5000   123.0388     8.6371     8.7342
   50.0000   122.1374     8.6383     8.7354
   50.5000   119.4070     8.6395     8.8601
   51.0000   119.7344     8.7015     8.8613
   51.5000   120.3628     8.7644     8.9878
   52.0000   120.9911     8.8896     9.0524
   52.5000   121.6195     8.8908     9.1174
   53.0000   122.5532     9.0178     8.9915
   53.5000   123.7924     8.9559     8.9930
   54.0000   123.8143     8.9571     8.9310
   54.5000   123.8320     8.8956     8.9325
   55.0000   123.8497     8.8345     8.9337
   55.5000   124.1683     8.7738     8.9349
   56.0000   123.5797     8.7753     8.8736
   56.5000   122.9867     8.7150     8.7510
   57.0000   121.7506     8.7162     8.6910
   57.5000   117.8356     8.6564     8.6925
   58.0000   115.1052     8.4773     8.6328
   58.5000   114.2024     8.3016     8.5136
   59.0000   116.0565     8.2443     8.3963
   59.5000   120.0437     8.1306     8.3412
   60.0000   126.4736     8.0748     8.2062
   60.5000   128.3481     8.0194     8.1100
   61.0000   127.1240     7.9643     8.1111
   61.5000   124.0883     7.9656     8.1694
   62.0000   121.6632     7.9107     8.1707
   62.5000   118.6274     7.9120     8.2294
   63.0000   117.1184     8.0250     8.2884
   63.5000   116.5254     8.0828     8.4068
   64.0000   116.2377     8.1985     8.4672
   64.5000   116.2598     8.3156     8.5280
   65.0000   116.8881     8.5537     8.6500
   65.5000   117.5165     8.7371     8.6512
   66.0000   118.1449     8.9244     8.7133
   66.5000   118.1625     9.0626     8.7759
   67.0000   118.1842     9.1816     8.7771
   67.5000   117.5064     9.1828     8.8432
   68.0000   117.2995     9.1840     8.9036
   68.5000   118.2376     9.1853     8.9678
   69.0000   118.8660     9.2513     8.9690
   69.5000   118.2730     9.2526     8.9702
   70.0000   117.6794     9.3193     8.9714
   70.5000   116.7816     9.3206     8.9726
   71.0000   115.8833     9.2563     8.9111
   71.5000   115.5956     9.1927     8.9126
   72.0000   115.3079     9.1943     8.9138
   72.5000   116.5514     9.1311     8.7904
   73.0000   117.7904     9.0684     8.7304
   73.5000   119.0295     9.0699     8.6699
   74.0000   119.6702     9.0712     8.6110
   74.5000   120.2906     9.1364     8.5519
   75.0000   119.9985     9.2669     8.6136
   75.5000   120.3260     9.3338     8.6754
   76.0000   120.0339     9.4671     8.7377
   76.5000   119.7462     9.5352     8.8625
   77.0000   118.5469     9.6037     8.9358
   77.5000   115.4504     9.6050     9.0538
   78.0000   111.2584     9.7422     9.1188
   78.5000   110.9664    10.0216     9.1843
   79.0000   111.9045    10.3086     9.3811
   79.5000   113.1435    10.4558     9.6495
   80.0000   113.7719    10.7553     9.8655
   80.5000   113.7895    10.9859    10.1386
   81.0000   113.8076    11.3005    10.3558
   81.5000   113.8293    11.6245    10.5776
   82.0000   112.6256    11.8737    10.9570
   82.5000   110.8068    12.2138    11.1917
   83.0000   110.5191    12.5636    11.5212
   83.5000   110.5412    12.8329    11.8418
   84.0000   109.9482    13.0162    12.1807
   84.5000   108.7084    13.2957    12.4416
   85.0000   107.2355    13.4857    12.7081
   85.5000   105.1201    13.6783    12.9804
   86.0000   102.3897    13.6802    12.9822
   86.5000   101.1816    13.6820    12.9843
   87.0000   103.0358    13.4930    12.8948
   87.5000   105.1908    13.4952    12.8970
   88.0000   104.2483    13.3083    12.8080
   88.5000   103.6995    13.1244    12.9004
   89.0000   103.4118    12.9434    12.9022
   89.5000   104.0446    12.7646    12.8137
   90.0000   105.5890    12.6769    12.8158
   90.5000   107.1334    12.5899    12.8175
   91.0000   107.4564    12.3294    12.7292
   91.5000   105.0357    12.2443    12.5538
   92.0000   103.2213    12.2463    12.1988
   92.5000   103.2390    12.0770    11.8714
