~VERSION INFORMATION
 VERS.                2.0:   CWLS LOG ASCII STANDARD - VERSION 2.0
 WRAP.                 NO:   ONE LINE PER DEPTH STEP
~WELL INFORMATION
#MNEM.UNIT      DATA TYPE    INFORMATION
#----------   ------------   ------------------------------
 STRT.F           33.0000:   START DEPTH
 STOP.F         1310.0000:   STOP DEPTH
 STEP.F            0.5000:   STEP LENGTH
 NULL.          -999.2500:   NO VALUE
 COMP. FENIX & SCISSON INC:   COMPANY
 WELL.    NPR-3 #76-14 SX:   WELL
 FLD .        TEAPOT DOME:   FIELD
 LOC .      S14 T38N R78W:   LOCATION
 CNTY.            NATRONA:   COUNTY
 STAT.            WYOMING:   STATE
 CTRY. UNITED STATES OF AMERICA:   COUNTRY
 SRVC.            Unknown:   SERVICE COMPANY
 DATE.        12-APR-1978:   LOGDATE
 API .       490251061200:   API NUMBER
~CURVE INFORMATION
#MNEM.UNIT       API CODE    CURVE DESCRIPTION
#----------   ------------   ------------------------------
 DEPT.F                  :   
 SPR .MV     05 010 01 00:   SPONTANEOUS POTENTIAL FROM RES.
 SN  .OHMM   05 040 16 00:   SHORT NORMAL 16"
 ILD .OHMM   05 120 46 00:   INDUCTION LOG DEEP
 CALD.IN     45 280 60 00:   CALIPER FROM DENSITY LOG
 GRD .GAPI   45 310 01 00:   GAMMA RAY FROM DENSITY LOG
 DPOR.DEC    45 890 12 00:   DENSITY POROSITY SANDSTONE
 CORR.G/C3   45 356 01 00:   DENSITY CORRECTION
 RHOB.G/C3   45 350 01 00:   BULK DENSITY
~PARAMETER INFORMATION
#MNEM.UNIT          VALUE    DESCRIPTION
#----------   ------------   ------------------------------
 PD  .                 GL:   PERMANENT DATUM
 EPD .F              5332:   ELEVATION PERMANENT DATUM
 LMF .                 KB:   LOG MEASURED FROM
 DMF .                 KB:   DRILLING MEASURED FROM
 EKB .F              5336:   KELLING BUSHING
 EGL .F              5332:   GROUND LEVEL
 DATE.          4-12-1978:   RUN DATE
 RUN .                  1:   RUN NUMBER
 DD  .F              1300:   DEPTH DRILLER
 DL  .F              1302:   DEPTH LOGGER
 BLI .F              1298:   BOTTOM LOG INTERVAL
 TLI .F                50:   TOP LOG INTERVAL
 CS  .IN            8.625:   CASING SIZE
 CBD .F                40:   CASING BOTTOM DRILLER
 CBL .F                46:   CASING BOTTOM LOGGER
 BS  .IN            7.875:   BIT SIZE
 BSD .F              1300:   BIT SIZE AT DEPTH
 DFT .                KCL:   DRILLING FLUID TYPE
 DFD .                8.5:   DRILLING FLUID DENSITY
 DFV .                 28:   DRILLING FLUID VISCOSITY
 MSS .            MUD PIT:   MUD SAMPLE SOURCE
 RMS .OHMM           1.45:   RESISTIVITY MUD SAMPLE
 MST .F                50:   MUD SAMPLE TEMPERATURE
 RMF .OHMM           1.25:   RESISTIVITY MUD FILTRATE SAMPLE
 MFST.F                62:   MUD FILTRATE SAMPLE TEMPERATURE
 RMC .OHMM           1.65:   RESISTIVITY MUD CAKE
 MCST.F                61:   MUD CAKE SAMPLE TEMPERATURE
 MFSS.           MEASURED:   MUD FILTRATE SAMPLE SOURCE
 MCSS.           MEASURED:   MUD CAKE SAMPLE SOURCE
 RMB .OHMM            .93:   RESISTIVITY MUD AT BHT
 BHT .F                78:   BOTTOM HOLE TEMPERATURE
 TCS .HRS               6:   TIME CURCULATED STOPPED
 MRT .F                78:   MAXIMUM RECORDED TEMPERATURE
 LUN .               2958:   LOGGING UNIT NUMBER
 LUL .                CAS:   LOGGING UNIT LOCATION
 ENGI.             MILLER:   RECORDING ENGINEER
 WITN.           MCGINLEY:   WITNESSED BY
 CLNT.            A2DTECH:   CLIENT CODE
 ORIG.      2" , 5" PRINT:   ORIGIN OF DATA
 UWI .       490251061200:   UNIQUE WELL ID
 DICO. A2D Technologies, Inc.:   DIGITIZING COMPANY
~OTHER INFORMATION
~A   DEPT      SPR         SN        ILD       CALD         GRD      DPOR       CORR       RHOB   
# ...
  600.0000   -16.9000     4.5015     4.2088     7.6473    49.0864     0.1307     0.0559     2.4272
  600.5000   -16.9000     4.5155     4.1491     7.6220    48.1936     0.1286     0.0518     2.4350
  601.0000   -16.9000     4.5296     4.0904     7.5965    47.2553     0.1283     0.0472     2.4359
  601.5000   -16.9000     4.5485     4.0324     7.5711    47.0895     0.1302     0.0426     2.4343
  602.0000   -16.9000     4.5054     3.9960     7.5727    46.9076     0.1321     0.0380     2.4312
  602.5000   -16.9000     4.4543     4.0282     7.5815    46.7184     0.1340     0.0372     2.4282
  603.0000   -16.9000     4.3674     4.0519     7.5901    46.5246     0.1359     0.0365     2.4251
  603.5000   -16.9000     4.2822     4.0705     7.5986    46.7380     0.1378     0.0359     2.4221
  604.0000   -16.9000     4.1987     3.9695     7.6072    49.4606     0.1404     0.0352     2.4174
  604.5000   -16.9000     4.1167     3.8888     7.6157    51.2153     0.1461     0.0345     2.4116
  605.0000   -16.9000     4.0365     3.8159     7.6242    47.5441     0.1518     0.0338     2.4055
  605.5000   -16.9000     3.9053     3.6736     7.6328    39.6318     0.1575     0.0331     2.3919
  606.0000   -16.9000     3.7261     3.5464     7.6413    37.0979     0.1632     0.0325     2.3781
  606.5000   -16.9000     3.5551     3.4236     7.6498    42.1923     0.1689     0.0318     2.3644
  607.0000   -16.8996     3.3919     3.3051     7.6584    47.7135     0.1746     0.0318     2.3514
  607.5000   -16.9181     3.2363     3.1907     7.6669    49.7324     0.1798     0.0330     2.3432
  608.0000   -16.9437     3.2021     3.1147     7.6755    50.0560     0.1805     0.0452     2.3384
  608.5000   -16.9695     3.2021     3.1214     7.6840    48.6833     0.1692     0.0587     2.3497
  609.0000   -16.9952     3.2318     3.1327     7.6925    46.3871     0.1477     0.0618     2.3772
  609.5000   -17.0210     3.2920     3.1436     7.7011    44.0658     0.1244     0.0527     2.4078
  610.0000   -17.0467     3.3844     3.2318     7.7096    43.3713     0.1232     0.0425     2.4390
  610.5000   -17.0724     3.8019     3.4802     7.7182    46.1146     0.1232     0.0336     2.4449
  611.0000   -17.0982     4.3044     3.7517     7.7268    47.1080     0.1237     0.0338     2.4446
  611.5000   -17.1239     4.8506     4.0464     7.7278    48.1229     0.1242     0.0338     2.4435
  612.0000   -17.1496     4.8956     4.3805     7.7243    49.1364     0.1248     0.0338     2.4425
  612.5000   -17.1754     4.9161     4.4437     7.7208    49.7117     0.1254     0.0338     2.4415
  613.0000   -17.2011     4.9381     4.5073     7.7172    49.7016     0.1259     0.0338     2.4405
  613.5000   -17.2269     4.9603     4.5479     7.7137    46.8648     0.1292     0.0338     2.4394
  614.0000   -17.2526     4.9868     4.5468     7.7101    42.0533     0.1337     0.0338     2.4363
  614.5000   -17.2783     4.9185     4.5472     7.7066    37.1535     0.1382     0.0338     2.4301
  615.0000   -17.3041     4.8352     4.5054     7.7031    36.3796     0.1427     0.0338     2.4217
  615.5000   -17.3298     4.7533     4.4230     7.6995    36.4066     0.1469     0.0338     2.4104
  616.0000   -17.3555     4.6728     4.0831     7.6960    41.0016     0.1562     0.0338     2.3992
  616.5000   -17.3813     4.4496     3.7609     7.6925    46.3199     0.1649     0.0338     2.3885
  617.0000   -17.4070     4.0961     3.4641     7.6889    51.4665     0.1736     0.0338     2.3691
  617.5000   -17.4327     3.7708     3.1727     7.6854    52.4797     0.1823     0.0366     2.3494
  618.0000   -17.4585     3.4712     3.1147     7.6818    52.9652     0.1902     0.0419     2.3289
  618.5000   -17.4842     3.2618     3.1243     7.6783    53.4516     0.1868     0.0473     2.3187
  619.0000   -17.5100     3.2618     3.1416     7.6747    53.8954     0.1753     0.0528     2.3268
  619.5000   -17.5357     3.2618     3.1590     7.6715    52.6792     0.1598     0.0525     2.3633
  620.0000   -17.5614     3.3181     3.1727     7.6894    48.7076     0.1443     0.0507     2.3994
  620.5000   -17.5872     3.3725     3.2318     7.7326    44.8642     0.1307     0.0520     2.4268
  621.0000   -17.6129     3.6958     3.3844     7.7755    42.0374     0.1285     0.0556     2.4318
  621.5000   -17.6386     4.0718     3.5918     7.8186    42.5764     0.1272     0.0593     2.4370
  622.0000   -17.6644     4.1848     3.8001     7.8616    46.0646     0.1261     0.0629     2.4420
  622.5000   -17.6901     4.3128     3.9960     7.9051    48.4428     0.1250     0.0665     2.4455
  623.0000   -17.7158     4.4336     3.9986     7.9483    50.8511     0.1238     0.0702     2.4467
  623.5000   -17.7416     4.5604     4.0064     7.9435    52.0300     0.1227     0.0738     2.4478
  624.0000   -17.7673     4.6334     4.0143     7.8959    48.9436     0.1216     0.0774     2.4523
  624.5000   -17.7931     4.6738     4.0221     7.8487    44.7843     0.1204     0.0791     2.4562
  625.0000   -17.8188     4.6762     4.0329     7.8017    42.4867     0.1210     0.0748     2.4552
  625.5000   -17.8445     4.6768     4.0232     7.7547    42.6753     0.1256     0.0707     2.4470
  626.0000   -17.8703     4.6335     4.0067     7.7077    43.6699     0.1303     0.0667     2.4371
  626.5000   -17.8962     4.5156     3.9904     7.6607    44.6441     0.1349     0.0632     2.4272
  627.0000   -17.9001     4.4454     3.9741     7.6135    45.6167     0.1373     0.0611     2.4183
  627.5000   -17.9001     4.3824     3.9593     7.5705    46.5823     0.1389     0.0589     2.4169
  628.0000   -17.9000     4.1242     3.6788     7.5697    47.6899     0.1418     0.0541     2.4153
  628.5000   -17.9000     3.9006     3.4386     7.5700    48.8411     0.1469     0.0473     2.4093
  629.0000   -17.9000     3.6888     3.2021     7.5700    50.0587     0.1577     0.0420     2.4019
  629.5000   -17.9000     3.4886     3.1352     7.5755    51.8857     0.1686     0.0438     2.3874
  630.0000   -17.9000     3.2994     3.0830     7.5862    53.8041     0.1746     0.0454     2.3615
  630.5000   -17.9000     3.1193     3.0317     7.5969    52.7064     0.1725     0.0469     2.3448
  631.0000   -17.9000     3.0697     2.9813     7.6076    49.9806     0.1714     0.0453     2.3470
  631.5000   -17.9000     3.0488     2.9317     7.6217    47.2528     0.1735     0.0393     2.3547
  632.0000   -17.9000     3.0286     2.8829     7.6369    44.5291     0.1755     0.0339     2.3513
  632.5000   -17.9000     3.0084     2.8538     7.6522    41.8076     0.1872     0.0348     2.3464
  633.0000   -17.9000     2.9894     2.8347     7.6674    39.4695     0.1988     0.0368     2.3311
  633.5000   -17.9000     2.9282     2.8140     7.6826    40.5071     0.1951     0.0389     2.3115
  634.0000   -17.9000     2.7643     2.7123     7.6978    41.7462     0.1984     0.0394     2.3074
  634.5000   -17.9000     2.6075     2.6044     7.7130    42.8987     0.2031     0.0386     2.3043
  635.0000   -17.9000     2.4602     2.5009     7.7282    43.3156     0.2078     0.0380     2.2999
  635.5000   -17.9000     2.3182     2.4015     7.7434    43.8280     0.2103     0.0428     2.2884
  636.0000   -17.9000     2.2969     2.3606     7.7586    46.4197     0.2077     0.0482     2.2834
  636.5000   -17.9000     2.3182     2.3610     7.7740    48.9429     0.2023     0.0535     2.2851
  637.0000   -17.9000     2.3397     2.4059     7.7893    51.1753     0.1884     0.0589     2.2993
  637.5000   -17.9000     2.4822     2.5479     7.7913    51.1382     0.1720     0.0548     2.3382
  638.0000   -17.9000     2.6359     2.6940     7.7924    47.4549     0.1557     0.0416     2.3767
  638.5000   -17.9000     2.7991     2.8486     7.7936    42.7904     0.1393     0.0336     2.4107
  639.0000   -17.9000     3.0702     3.1485     7.7948    42.0934     0.1361     0.0334     2.4165
  639.5000   -17.9000     3.6233     3.4995     7.7961    43.9983     0.1414     0.0331     2.4169
  640.0000   -17.9000     4.0015     3.7116     7.7973    47.3528     0.1450     0.0327     2.4125
