~VERSION INFORMATION
 VERS.                2.0:   CWLS LOG ASCII STANDARD - VERSION 2.0
 WRAP.                 NO:   ONE LINE PER DEPTH STEP
~WELL INFORMATION
#MNEM.UNIT      DATA TYPE    INFORMATION
#----------   ------------   ------------------------------
 STRT.F           40.0000:   START DEPTH
 STOP.F          534.0000:   STOP DEPTH
 STEP.F            0.5000:   STEP LENGTH
 NULL.          -999.2500:   NO VALUE
 COMP. LAWRENCE/ALLISON INC:   COMPANY
 WELL.   55-41 SX FI #3-3:   WELL
 FLD .             TEAPOT:   FIELD
 LOC .       S3 T38N R78W:   LOCATION
 CNTY.            NATRONA:   COUNTY
 STAT.            WYOMING:   STATE
 CTRY. UNITED STATES OF AMERICA:   COUNTRY
 SRVC.      Dresser Atlas:   SERVICE COMPANY
 DATE.        12-DEC-1983:   LOGDATE
 API .       490251089400:   API NUMBER
~CURVE INFORMATION
#MNEM.UNIT       API CODE    CURVE DESCRIPTION
#----------   ------------   ------------------------------
 DEPT.F                  :   
 RILD.OHMM   07 120 46 00:   INDUCTION LOG DEEP RESISTIVITY
 RILM.OHMM   07 120 44 00:   INDUCTION LOG MEDIUM RESISTIVITY
 RFOC.OHMM   07 220 04 00:   RESISTIVITY FOCUSED LOG
 CALD.IN     45 280 60 00:   CALIPER FROM DENSITY LOG
 GRD .GAPI   45 310 01 00:   GAMMA RAY FROM DENSITY LOG
 CORR.G/C3   45 356 01 00:   DENSITY CORRECTION
 DPHI.DEC    45 890 12 00:   DENSITY POROSITY SANDSTONE
 RHOB.G/C3   45 350 01 00:   BULK DENSITY
~PARAMETER INFORMATION
#MNEM.UNIT          VALUE    DESCRIPTION
#----------   ------------   ------------------------------
 PD  .                 GL:   PERMANENT DATUM
 EPD .F              5161:   ELEVATION PERMANENT DATUM
 LMF .                 KB:   LOG MEASURED FROM
 DAPD.F                10:   FEET ABOVE PERMANENT DATUM
 DMF .                 KB:   DRILLING MEASURED FROM
 EKB .F              5171:   KELLING BUSHING
 EGL .F              5161:   GROUND LEVEL
 DATE.        12-DEC-1983:   RUN DATE
 RUN .                  1:   RUN NUMBER
 DD  .F               490:   DEPTH DRILLER
 DL  .F               489:   DEPTH LOGGER
 BLI .F               487:   BOTTOM LOG INTERVAL
 CS  .IN            10.75:   CASING SIZE
 CBD .F                52:   CASING BOTTOM DRILLER
 CBL .F                46:   CASING BOTTOM LOGGER
 BS  .IN             8.75:   BIT SIZE
 BSD .F               490:   BIT SIZE AT DEPTH
 DFT .           AIR FOAM:   DRILLING FLUID TYPE
 TCS .HRS               3:   TIME CURCULATED STOPPED
 MRT .F                72:   MAXIMUM RECORDED TEMPERATURE
 LUN .               6274:   LOGGING UNIT NUMBER
 LUL .               GLTE:   LOGGING UNIT LOCATION
 ENGI.             RAUTIO:   RECORDING ENGINEER
 WITN.             GROOMS:   WITNESSED BY
 CLNT.            A2DTECH:   CLIENT CODE
 ORIG.           5" PRINT:   ORIGIN OF DATA
 UWI .       490251089400:   UNIQUE WELL ID
 DICO. A2D Technologies, Inc.:   DIGITIZING COMPANY
~OTHER INFORMATION
~A   DEPT     RILD       RILM       RFOC       CALD         GRD      CORR       DPHI       RHOB   
# ...
  485.5000     9.9474     8.9016    22.7085    11.6840    77.5773     0.0128     0.1160     2.4933
  486.0000     9.9542     8.9084    19.8003    11.6846    73.9242     0.0114     0.1174     2.4828
  486.5000     9.9610     8.9160    20.2369    11.6852    73.4841     0.0115     0.1168     2.4761
  487.0000     9.9678     8.9854    22.4727    11.6858    77.0532     0.0131     0.1156     2.4800
  487.5000  -999.2500  -999.2500  -999.2500    11.6865    78.1710     0.0165     0.1137     2.4862
  488.0000  -999.2500  -999.2500  -999.2500    11.6870    75.9537     0.0282     0.1119     2.4921
  488.5000  -999.2500  -999.2500  -999.2500    11.6877    74.4025     0.0342     0.1110     2.4935
  489.0000  -999.2500  -999.2500  -999.2500    11.6882    73.5173     0.0448     0.1116     2.4891
  489.5000  -999.2500  -999.2500  -999.2500    11.6888    72.8563     0.0523     0.1289     2.4606
  490.0000  -999.2500  -999.2500  -999.2500    11.6745    72.8646     0.0397     0.1511     2.4202
  490.5000  -999.2500  -999.2500  -999.2500    11.6751    73.7615     0.0121     0.1496     2.4263
  491.0000  -999.2500  -999.2500  -999.2500    11.6758    75.5485     0.0054     0.1424     2.4428
  491.5000  -999.2500  -999.2500  -999.2500    11.6764    78.2258     0.0070     0.1379     2.4533
  492.0000  -999.2500  -999.2500  -999.2500    11.6769    80.2354     0.0108     0.1325     2.4631
  492.5000  -999.2500  -999.2500  -999.2500    11.6776    79.7970     0.0138     0.1253     2.4736
  493.0000  -999.2500  -999.2500  -999.2500    11.6782    77.1330     0.0124     0.1175     2.4631
  493.5000  -999.2500  -999.2500  -999.2500    11.6788    74.4690     0.0103     0.1109     2.4714
  494.0000  -999.2500  -999.2500  -999.2500    11.6794    73.5838     0.0096     0.1064     2.4947
  494.5000  -999.2500  -999.2500  -999.2500    11.6800    72.9244     0.0172     0.1028     2.5067
  495.0000  -999.2500  -999.2500  -999.2500    11.6806    73.1536     0.0187     0.1022     2.5097
  495.5000  -999.2500  -999.2500  -999.2500    11.6812    73.6054     0.0166     0.1043     2.5045
  496.0000  -999.2500  -999.2500  -999.2500    11.6817    73.8346     0.0136     0.1064     2.5008
  496.5000  -999.2500  -999.2500  -999.2500    11.6823    74.2864     0.0160     0.1082     2.4986
  497.0000  -999.2500  -999.2500  -999.2500    11.6829    74.7381     0.0198     0.1096     2.4979
  497.5000  -999.2500  -999.2500  -999.2500    11.6686    74.7448     0.0228     0.1093     2.4979
  498.0000  -999.2500  -999.2500  -999.2500    11.6693    75.8642     0.0281     0.1084     2.4981
  498.5000  -999.2500  -999.2500  -999.2500    11.6699    78.5414     0.0327     0.1054     2.5010
  499.0000  -999.2500  -999.2500  -999.2500    11.6705    80.1060     0.0388     0.1006     2.5048
  499.5000  -999.2500  -999.2500  -999.2500    11.6698    75.8841     0.0433     0.0985     2.5108
  500.0000  -999.2500  -999.2500  -999.2500    11.6626    67.2094     0.0389     0.1033     2.5075
  500.5000  -999.2500  -999.2500  -999.2500    11.6554    65.8593     0.0350     0.1075     2.4981
  501.0000  -999.2500  -999.2500  -999.2500    11.6482    71.1857     0.0310     0.1078     2.4966
  501.5000  -999.2500  -999.2500  -999.2500    11.6410    76.2896     0.0257     0.1038     2.5058
  502.0000  -999.2500  -999.2500  -999.2500    11.6339    78.7228     0.0138     0.0994     2.5153
  502.5000  -999.2500  -999.2500  -999.2500    11.6267    78.2629     0.0049     0.1033     2.5089
  503.0000  -999.2500  -999.2500  -999.2500    11.6080    75.3549     0.0027     0.1206     2.4717
  503.5000  -999.2500  -999.2500  -999.2500    11.5925    73.1145     0.0073     0.1251     2.3692
  504.0000  -999.2500  -999.2500  -999.2500    11.5769    71.7643     0.0231     0.1266     2.4405
  504.5000  -999.2500  -999.2500  -999.2500    11.5761    72.4172     0.0321     0.1182     2.5010
  505.0000  -999.2500  -999.2500  -999.2500    11.5901    75.5181     0.0352     0.1047     2.5122
  505.5000  -999.2500  -999.2500  -999.2500    11.5895    78.1738     0.0360     0.0979     2.5130
  506.0000  -999.2500  -999.2500  -999.2500    11.5888    79.7206     0.0331     0.1014     2.5070
  506.5000  -999.2500  -999.2500  -999.2500    11.5880    77.9216     0.0272     0.1044     2.4995
  507.0000  -999.2500  -999.2500  -999.2500    11.5873    76.3489     0.0220     0.1131     2.4875
  507.5000  -999.2500  -999.2500  -999.2500    11.5866    74.5537     0.0154     0.1209     2.4762
  508.0000  -999.2500  -999.2500  -999.2500    11.5858    74.0974     0.0102     0.1229     2.4702
  508.5000  -999.2500  -999.2500  -999.2500    11.5851    76.0818     0.0065     0.1244     2.4665
  509.0000  -999.2500  -999.2500  -999.2500    11.5843    77.1798     0.0066     0.1271     2.4612
  509.5000  -999.2500  -999.2500  -999.2500    11.5984    77.6137     0.0082     0.1313     2.4529
  510.0000  -999.2500  -999.2500  -999.2500    11.5975    76.2599     0.0240     0.1394     2.4320
  510.5000  -999.2500  -999.2500  -999.2500    11.5968    75.1323     0.0345     0.1627     2.3885
  511.0000  -999.2500  -999.2500  -999.2500    11.5962    76.0077     0.0398     0.1800     2.3368
  511.5000  -999.2500  -999.2500  -999.2500    11.5953    78.2183     0.0436     0.2018     2.2716
  512.0000  -999.2500  -999.2500  -999.2500    11.5797    78.6523     0.0460     0.2491     2.2394
  512.5000  -999.2500  -999.2500  -999.2500    11.5790    71.7347     0.0341     0.2688     2.2326
  513.0000  -999.2500  -999.2500  -999.2500    11.5636    69.0492     0.0147     0.2359     2.2514
  513.5000  -999.2500  -999.2500  -999.2500    11.5627    67.9216     0.0073     0.1779     2.3622
  514.0000  -999.2500  -999.2500  -999.2500    11.5324    70.7999     0.0156     0.1390     2.4326
  514.5000  -999.2500  -999.2500  -999.2500    11.5317    73.4557     0.0299     0.1162     2.4933
  515.0000  -999.2500  -999.2500  -999.2500    11.5161    75.4439     0.0404     0.0969     2.5165
  515.5000  -999.2500  -999.2500  -999.2500    11.5154    76.3230     0.0472     0.0963     2.5142
  516.0000  -999.2500  -999.2500  -999.2500    11.4999    75.6367     0.0421     0.1064     2.4880
  516.5000  -999.2500  -999.2500  -999.2500    11.4991    73.3964     0.0204     0.1091     2.4543
  517.0000  -999.2500  -999.2500  -999.2500    11.4836    72.0462     0.0063     0.1082     2.4498
  517.5000  -999.2500  -999.2500  -999.2500    11.4829    73.3667     0.0146     0.1055     2.4572
  518.0000  -999.2500  -999.2500  -999.2500    11.4821    76.6902     0.0296     0.1052     2.5037
  518.5000  -999.2500  -999.2500  -999.2500    11.4814    80.6813     0.0380     0.1070     2.5062
  519.0000  -999.2500  -999.2500  -999.2500    11.4807    85.5626     0.0298     0.1124     2.4977
  519.5000  -999.2500  -999.2500  -999.2500    11.4849    87.5507     0.0186     0.1159     2.4894
  520.0000  -999.2500  -999.2500  -999.2500    11.4941    88.4261     0.0120     0.1115     2.4819
  520.5000  -999.2500  -999.2500  -999.2500    11.4932    87.9661     0.0076     0.1122     2.4789
  521.0000  -999.2500  -999.2500  -999.2500    11.4926    84.3905     0.0160     0.1180     2.4789
  521.5000  -999.2500  -999.2500  -999.2500    11.5066    72.1353     0.0228     0.1164     2.4834
  522.0000  -999.2500  -999.2500  -999.2500    11.5059     5.5762     0.0272     0.1056     2.4953
  522.5000  -999.2500  -999.2500  -999.2500    11.5052  -999.2500     0.0288     0.0942     2.5208
  523.0000  -999.2500  -999.2500  -999.2500    11.5043  -999.2500     0.0274     0.0932     2.5170
  523.5000  -999.2500  -999.2500  -999.2500    11.5036  -999.2500     0.0244     0.1037     2.5087
  524.0000  -999.2500  -999.2500  -999.2500    11.5177  -999.2500     0.0206     0.1108     2.4981
  524.5000  -999.2500  -999.2500  -999.2500    11.5317  -999.2500     0.0163     0.1159     2.4868
  525.0000  -999.2500  -999.2500  -999.2500    11.5309  -999.2500     0.0134     0.1183     2.4802
  525.5000  -999.2500  -999.2500  -999.2500    11.5302  -999.2500     0.0120     0.1174     2.4780
