~VERSION INFORMATION
 VERS.                2.0:   CWLS LOG ASCII STANDARD - VERSION 2.0
 WRAP.                 NO:   ONE LINE PER DEPTH STEP
~WELL INFORMATION
#MNEM.UNIT      DATA TYPE    INFORMATION
#----------   ------------   ------------------------------
 STRT.F           30.0000:   START DEPTH
 STOP.F          602.0000:   STOP DEPTH
 STEP.F            0.5000:   STEP LENGTH
 NULL.          -999.2500:   NO VALUE
 COMP. FENIX & SCISSON U.S NAVY:   COMPANY
 WELL.   S-3 NPR #3 #51-3:   WELL
 FLD .             TEAPOT:   FIELD
 LOC .       S3 T38N R78W:   LOCATION
 CNTY.            NATRONA:   COUNTY
 STAT.            WYOMING:   STATE
 CTRY. UNITED STATES OF AMERICA:   COUNTRY
 SRVC.              Welex:   SERVICE COMPANY
 DATE.        08-MAR-1977:   LOGDATE
 API .       490251030800:   API NUMBER
~CURVE INFORMATION
#MNEM.UNIT       API CODE    CURVE DESCRIPTION
#----------   ------------   ------------------------------
 DEPT.F                  :   
 SPR .MV     07 010 01 00:   SPONTANEOUS POTENTIAL
 ILD .OHMM   07 120 46 00:   INDUCTION LOG DEEP
 ILM .OHMM   07 120 44 00:   INDUCTION LOG MEDIUM
 SGRD.OHMM   07 221 05 00:   SHALLOW SHORT GUARD RESISTIVITY
 CALD.IN     45 280 60 00:   CALIPER FROM DENSITY LOG
 CORR.G/C3   45 356 01 00:   DENSITY CORRECTION
 RHOB.G/C3   45 350 01 00:   BULK DENSITY
 DPHI.DEC    45 890 12 00:   DENSITY POROSITY SANDSTONE
 GRD .GAPI   45 310 01 00:   GAMMA RAY FROM DENSITY LOG
~PARAMETER INFORMATION
#MNEM.UNIT          VALUE    DESCRIPTION
#----------   ------------   ------------------------------
 PD  .                 GL:   PERMANENT DATUM
 EPD .F              5140:   ELEVATION PERMANENT DATUM
 LMF .                 GL:   LOG MEASURED FROM
 DAPD.F                  :   FEET ABOVE PERMANENT DATUM
 DMF .                 GL:   DRILLING MEASURED FROM
 EKB .F                  :   KELLING BUSHING
 EDF .F                  :   DRILLING FLOOR
 EGL .F              5140:   GROUND LEVEL
 DATE.             3-8-77:   RUN DATE
 RUN .                  1:   RUN NUMBER
 DD  .F               611:   DEPTH DRILLER
 DL  .F               555:   DEPTH LOGGER
 BLI .F               553:   BOTTOM LOG INTERVAL
 TLI .F                40:   TOP LOG INTERVAL
 CS  .IN            8.625:   CASING SIZE
 CBD .F                40:   CASING BOTTOM DRILLER
 CBL .F                40:   CASING BOTTOM LOGGER
 BS  .IN            7.875:   BIT SIZE
 BSD .F               611:   BIT SIZE AT DEPTH
 DFT .           CHEM GEL:   DRILLING FLUID TYPE
 DFD .                8.6:   DRILLING FLUID DENSITY
 DFV .                 42:   DRILLING FLUID VISCOSITY
 DFPH.                  8:   DRILLING FLUID PH
 DFL .                3.2:   DRILLING FLUID LOSS
 MSS .           FLOWLINE:   MUD SAMPLE SOURCE
 RMS .OHMM           1.49:   RESISTIVITY MUD SAMPLE
 MST .F                48:   MUD SAMPLE TEMPERATURE
 RMF .OHMM           1.07:   RESISTIVITY MUD FILTRATE SAMPLE
 MFST.F                48:   MUD FILTRATE SAMPLE TEMPERATURE
 RMC .OHMM           2.34:   RESISTIVITY MUD CAKE
 MCST.F                48:   MUD CAKE SAMPLE TEMPERATURE
 MFSS.           MEASURED:   MUD FILTRATE SAMPLE SOURCE
 MCSS.           MEASURED:   MUD CAKE SAMPLE SOURCE
 RMB .OHMM           1.19:   RESISTIVITY MUD AT BHT
 BHT .F                60:   BOTTOM HOLE TEMPERATURE
 TCS .HRS               2:   TIME CURCULATED STOPPED
 TLAB.HRS                :   TIME LOGGER AT BOTTOM
 MRT .F                60:   MAXIMUM RECORDED TEMPERATURE
 LUN .               0716:   LOGGING UNIT NUMBER
 LUL .             VERNAL:   LOGGING UNIT LOCATION
 ENGI.           CALLAHAN:   RECORDING ENGINEER
 WITN.         STUEBINGER:   WITNESSED BY
 CLNT.            A2DTECH:   CLIENT CODE
 ORIG.       2", 5" PRINT:   ORIGIN OF DATA
 UWI .       490251030800:   UNIQUE WELL ID
 DICO. A2D Technologies, Inc.:   DIGITIZING COMPANY
 OS  .                   :   OTHER SERVICES
 PWI .                   :   PRIMARY WELL IDENTIFIER
 R1  .                   :   REMARKS 1
 R2  .                   :   REMARKS 2
 LSRV.                   :   LOG MNEMONIC
~OTHER INFORMATION
~A   DEPT      SPR        ILD        ILM       SGRD       CALD       CORR       RHOB       DPHI        GRD   
# ...
  176.0000   -34.5816     9.7569    10.1072    12.6523     7.9077     0.0383     2.5094     0.0829   130.2115
  176.5000   -34.2875     9.7524    10.1031    12.3871     7.9223     0.0368     2.5018     0.0859   129.7583
  177.0000   -34.1425     9.7478    10.3825    12.1265     7.9368     0.0367     2.4988     0.0916   129.3051
  177.5000   -33.9974     9.7431    10.6697    11.7904     7.9363     0.0336     2.4957     0.0913   129.0030
  178.0000   -34.1538     9.6704    10.6545    11.9501     7.9359     0.0201     2.4912     0.0964   128.5499
  178.5000   -34.4591     9.4671    10.3691    12.5399     7.9354     0.0065     2.4762     0.0998   128.0785
  179.0000   -34.9146     9.3325    10.3650    12.5336     7.9350     0.0004     2.4679     0.1001   127.1903
  179.5000   -35.2200     9.2638    10.3608    12.2710     7.9346     0.0003     2.4859     0.0982   126.7372
  180.0000   -34.7758     9.2595    10.4286    11.8484     7.9341     0.0108     2.5087     0.0938   126.7372
  180.5000   -35.0811     9.2551    10.2812    11.8427     7.9336     0.0229     2.5219     0.0866   127.3414
  181.0000   -35.6867     9.2498    10.0658    11.8379     7.9332     0.0379     2.5257     0.0800   128.3988
  181.5000   -35.8407     9.3108     9.9915    11.9166     7.9327     0.0423     2.5219     0.0776   129.3172
  182.0000   -34.9461     9.3054    10.0579    12.2452     7.9173     0.0317     2.5046     0.0797   130.3625
  182.5000   -34.5006     9.3667    10.0529    12.5841     7.9169     0.0106     2.4880     0.0947   131.2689
  183.0000   -35.5580     9.3613    10.1187    12.4899     7.9314     0.0046     2.4912     0.0938   131.8731
  183.5000   -35.5630     9.3569    10.1146    11.6387     7.9309     0.0120     2.5030     0.0866   132.0242
  184.0000   -35.4166     9.3524    10.1105    11.5655     7.9305     0.0210     2.5067     0.0854   132.0242
  184.5000   -35.5731     9.2826    10.0359    11.9682     7.9300     0.0240     2.5075     0.0842   131.7160
  185.0000   -35.5781     9.1506    10.0319    12.8212     7.9146     0.0255     2.5067     0.0861   130.6647
  185.5000   -35.2828     9.2099     9.9587    12.4660     7.8992     0.0239     2.5059     0.0855   127.7946
  186.0000   -34.9888     9.2707     9.9547    11.3096     7.8988     0.0239     2.5035     0.0909   126.7372
  186.5000   -35.1440     9.3298     9.9508    11.8798     7.8983     0.0238     2.4961     0.0951   126.1329
  187.0000   -35.2992     9.4553    10.0159    12.5375     7.8978     0.0223     2.4795     0.1098   125.6798
  187.5000   -34.7036     9.5166    10.0109    11.8559     7.8974     0.0068     2.4645     0.1186   125.9819
  188.0000   -34.1080     9.5771    10.2168    12.0164     7.8970    -0.0095     2.4344     0.1261   126.2840
  188.5000   -35.1654     9.5727    10.4269    12.5212     7.9267     0.0040     2.4306     0.1283   125.3776
  189.0000   -35.3206     9.5682    10.6414    12.8690     8.0308     0.0115     2.4591     0.1175   124.3202
  189.5000   -35.1742     9.6971    10.7855    13.0420     8.9586     0.0070     2.4787     0.1087   125.2266
  190.0000   -35.0291     9.7600    10.8560    12.9407     8.0598     0.0054     2.4944     0.1030   126.5861
  190.5000   -35.0354     9.8232    10.8506    12.4999     7.9247     0.0039     2.4937     0.1024   127.7946
  191.0000   -34.7401     9.9544    10.8462    12.4949     7.9093     0.0038     2.4756     0.1087   128.3988
  191.5000   -34.4448    10.0200    10.8419    12.8407     7.8939     0.0053     2.4726     0.1111   128.5499
  192.0000   -34.6013    10.0850    10.8376    13.1050     7.8785     0.0052     2.4703     0.1132   127.7946
  192.5000   -34.9066    10.0791    10.8333    13.1921     7.8930     0.0067     2.4515     0.1192   127.1903
  193.0000   -35.0618    10.0048    10.9076    13.2772     7.8775     0.0082     2.4710     0.1135   127.1903
  193.5000   -34.7620     9.8622    11.0517    13.1801     7.8771     0.0158     2.4732     0.1118   127.3414
  194.0000   -34.4712     9.7223    10.9700    12.6374     7.8766     0.0291     2.4860     0.0940   127.6435
  194.5000   -34.9280     9.5831    10.7403    12.4599     7.8762     0.0321     2.4972     0.1007   127.7946
  195.0000   -35.0831     9.5125    10.4429    12.8047     7.8757     0.0245     2.4920     0.1046   127.3414
  195.5000   -34.6377     9.3126    10.2243    12.4486     7.8752     0.0200     2.4859     0.1064   125.3776
  196.0000   -34.3423     9.2440    10.0084    12.4436     7.8748     0.0108     2.4829     0.1073   123.7160
  196.5000   -34.6607     9.1759     9.9363    12.4386     7.8744     0.0274     2.4821     0.1067   123.4925
  197.0000   -35.4048     9.1083     9.9323    11.9905     7.8739     0.0198     2.4821     0.1073   124.7734
  197.5000   -35.4099     9.0402     9.9283    11.6765     7.8735     0.0153     2.4773     0.1097   124.7734
  198.0000   -35.4149     9.0999     9.9244    11.6719     7.8881     0.0047     2.4617     0.1148   124.9245
  198.5000   -35.4199     9.0945     9.9204    11.4273     7.9026     0.0062     2.4602     0.1158   125.5287
  199.0000   -35.2748     9.0903     9.9165    11.1878     7.9171     0.0076     2.4609     0.1158   126.5861
  199.5000   -35.1297     9.0861     9.9115    11.1834     7.9166     0.0073     2.4639     0.1154   127.6435
  200.0000   -35.1352     9.0191     9.8941    11.1789     7.9162     0.0043     2.4639     0.1156   127.7946
  200.5000   -35.2920     8.9346     9.7140    11.0200     7.9233     0.0015     2.4553     0.1175   128.8369
  201.0000   -35.7483     8.8889     9.6326    11.0921     7.9305    -0.0046     2.4481     0.1209   130.0604
  201.5000   -35.7541     8.8859     9.7636    11.2423     7.9376    -0.0047     2.4511     0.1212   130.8157
  202.0000   -35.7599     8.8823     9.8970    12.1273     7.9449     0.0013     2.4609     0.1194   130.5136
  202.5000   -35.6155     8.9417     9.9637    12.3769     7.9446     0.0058     2.4744     0.1149   129.9094
  203.0000   -36.3735     9.0627    10.0296    11.8684     7.9293     0.0103     2.4797     0.1058   128.3988
  203.5000   -36.8298     9.2498    10.0269    12.1957     7.8691     0.0102     2.4684     0.1116   127.6435
  204.0000   -36.8356     9.4409    10.0939    12.3608     7.7341     0.0102     2.4517     0.1210   127.6616
  204.5000   -36.9915     9.5693    10.1606    12.4430     7.6140     0.0101     2.4503     0.1195   128.0967
  205.0000   -36.9973     9.6326    10.2284    11.8483     7.5688     0.0070     2.4616     0.1159   128.3988
  205.5000   -36.7028     9.6963    10.2257    12.0087     7.5835    -0.0110     2.4638     0.1150   128.3988
  206.0000   -36.5585     9.7597    10.2940    12.3638     7.6739    -0.0126     2.4435     0.1234   127.0393
  206.5000   -36.5657     9.7564    10.4346    12.8582     7.8074    -0.0036     2.4518     0.1221   124.9245
  207.0000   -36.7217     9.7532    10.5042    13.1228     7.8222     0.0024     2.4668     0.1138   123.1118
  207.5000   -36.8776     9.6826    10.5007    13.2101     7.8068     0.0114     2.4826     0.1063   121.4200
  208.0000   -36.8834     9.6786    10.4979    13.2965     7.8066     0.0204     2.4971     0.0931   120.0906
  208.5000   -37.0394     9.6754    10.4951    12.5736     7.8063     0.0295     2.5157     0.0841   119.6375
  209.0000   -37.0452     9.6054    10.4200    12.0543     7.8210     0.0413     2.5269     0.0814   119.0332
  209.5000   -37.0511     9.5359    10.3454    11.9691     7.8057     0.0458     2.5292     0.0763   118.8822
  210.0000   -37.0582     9.4670    10.3426    12.2991     7.8204     0.0458     2.5194     0.0769   120.5438
  210.5000   -36.6121     9.4638    10.3392    12.4669     7.8050     0.0397     2.5149     0.0794   117.3716
  211.0000   -36.4678     9.3953    10.3364    12.3746     7.8048     0.0291     2.5119     0.0811   117.5589
  211.5000   -36.4750     9.3915    10.3337    11.7844     7.8195     0.0321     2.5088     0.0874   118.7311
  212.0000   -36.7811     9.4544    10.4033    11.6176     7.8191     0.0320     2.5057     0.0883   116.9184
