~VERSION INFORMATION
 VERS.                2.0:   CWLS LOG ASCII STANDARD - VERSION 2.0
 WRAP.                 NO:   ONE LINE PER DEPTH STEP
~WELL INFORMATION
#MNEM.UNIT      DATA TYPE    INFORMATION
#----------   ------------   ------------------------------
 STRT.F         1470.0000:   START DEPTH
 STOP.F         2310.0000:   STOP DEPTH
 STEP.F            0.5000:   STEP LENGTH
 NULL.          -999.2500:   NO VALUE
 COMP. BROWN JOHN E&C INC:   COMPANY
 WELL. NAVAL PETROLEUM RESERVE 3 STX- #22-10:   WELL
 FLD .             TEAPOT:   FIELD
 LOC .      S10 T38N R78W:   LOCATION
 CNTY.            NATRONA:   COUNTY
 STAT.            WYOMING:   STATE
 CTRY. UNITED STATES OF AMERICA:   COUNTRY
 SRVC.            Unknown:   SERVICE COMPANY
 DATE.        26-AUG-1991:   LOGDATE
 API .       490251111700:   API NUMBER
~CURVE INFORMATION
#MNEM.UNIT       API CODE    CURVE DESCRIPTION
#----------   ------------   ------------------------------
 DEPT.F                  :   
 ROP .MIN/FT 91 810 01 00:   RAT OF DRILLING PENETRATION
 TGAS.UNITS  91 830 01 00:   TOTAL GAS FROM HOTWIRE
~PARAMETER INFORMATION
#MNEM.UNIT          VALUE    DESCRIPTION
#----------   ------------   ------------------------------
 EKB .F              5277:   KELLING BUSHING
 EGL .F              5267:   GROUND LEVEL
 DATE.            8-26-91:   RUN DATE
 DD  .F              2311:   DEPTH DRILLER
 TCS .HRS            0200:   TIME CURCULATED STOPPED
 TLAB.HRS            2335:   TIME LOGGER AT BOTTOM
 ENGI.              TOWER:   RECORDING ENGINEER
 WITN.               HUSK:   WITNESSED BY
 CLNT.            A2DTECH:   CLIENT CODE
 ORIG.           5" PRINT:   ORIGIN OF DATA
 UWI .       490251111700:   UNIQUE WELL ID
 DICO. A2D Technologies, Inc.:   DIGITIZING COMPANY
~OTHER INFORMATION
~A  DEPT         ROP      TGAS  
# ...
 2199.0000     0.6949   177.9559
 2199.5000     0.7329   177.7465
 2200.0000     0.6939   177.5791
 2200.5000     0.6614   177.9049
 2201.0000     0.6744   178.2230
 2201.5000     0.6875   178.5373
 2202.0000     0.6833   178.8512
 2202.5000     0.6299   179.1657
 2203.0000     0.5783   179.4821
 2203.5000     0.5264   179.8115
 2204.0000     0.4726   180.0818
 2204.5000     0.4462   177.4964
 2205.0000     0.4947   174.6477
 2205.5000     0.5294   171.8039
 2206.0000     0.5588   168.9606
 2206.5000     0.5905   166.1120
 2207.0000     0.6401   163.3011
 2207.5000     0.6900   160.7837
 2208.0000     0.7391   159.5576
 2208.5000     0.7639   158.1587
 2209.0000     0.7306   156.7553
 2209.5000     0.6991   155.3616
 2210.0000     0.6666   154.3938
 2210.5000     0.6737   153.9268
 2211.0000     0.6922   153.4471
 2211.5000     0.7113   152.9719
 2212.0000     0.7316   152.4926
 2212.5000     0.7006   151.9807
 2213.0000     0.6553   152.8474
 2213.5000     0.6101   153.9868
 2214.0000     0.5777   155.1416
 2214.5000     0.6289   156.2954
 2215.0000     0.6788   157.4369
 2215.5000     0.7281   158.3619
 2216.0000     0.7604   158.3343
 2216.5000     0.7440   158.3327
 2217.0000     0.7158   158.3338
 2217.5000     0.7197   158.3333
 2218.0000     0.7359   158.3309
 2218.5000     0.7527   158.3261
 2219.0000     0.7316   158.3412
 2219.5000     0.6837   158.8763
 2220.0000     0.6364   161.2699
 2220.5000     0.6089   163.6129
 2221.0000     0.6901   165.9591
 2221.5000     0.7426   168.2916
 2222.0000     0.7102   168.4732
 2222.5000     0.6634   168.2962
 2223.0000     0.6160   168.1134
 2223.5000     0.5697   167.9330
 2224.0000     0.5089   167.7540
 2224.5000     0.4460   167.5758
 2225.0000     0.4401   167.3976
 2225.5000     0.4887   167.3331
 2226.0000     0.5384   167.3812
 2226.5000     0.5209   167.4294
 2227.0000     0.4896   167.4783
 2227.5000     0.4595   167.5272
 2228.0000     0.4699   167.5759
 2228.5000     0.5206   167.6247
 2229.0000     0.5697   167.6735
 2229.5000     0.6186   167.7222
 2230.0000     0.6674   167.7710
 2230.5000     0.7175   167.8197
 2231.0000     0.6736   167.8685
 2231.5000     0.5803   167.9173
 2232.0000     0.4869   167.9660
 2232.5000     0.4386   168.0148
 2233.0000     0.4087   168.0635
 2233.5000     0.4320   168.1123
 2234.0000     0.4199   168.1610
 2234.5000     0.4116   168.2098
 2235.0000     0.5016   168.2585
 2235.5000     0.5840   168.3073
 2236.0000     0.6312   168.3561
 2236.5000     0.6219   168.4048
 2237.0000     0.5838   168.4539
 2237.5000     0.5451   168.5034
 2238.0000     0.5093   168.5505
 2238.5000     0.5085   168.5267
 2239.0000     0.5303   168.1885
 2239.5000     0.5556   167.8549
 2240.0000     0.5807   167.5222
 2240.5000     0.5472   167.1892
 2241.0000     0.5041   166.8563
 2241.5000     0.4607   166.5234
 2242.0000     0.4223   166.1905
 2242.5000     0.4430   165.8574
 2243.0000     0.4393   165.5251
 2243.5000     0.4231   165.1925
 2244.0000     0.4466   164.8429
 2244.5000     0.4766   164.8918
 2245.0000     0.5064   165.1090
 2245.5000     0.5348   165.3318
 2246.0000     0.5674   165.5543
 2246.5000     0.5624   165.7763
 2247.0000     0.5180   165.9982
 2247.5000     0.4737   166.2202
 2248.0000     0.4338   166.4421
 2248.5000     0.4332   166.6641
 2249.0000     0.4334   166.8864
 2249.5000     0.4334   167.1087
 2250.0000     0.4334   167.3062
 2250.5000  -999.2500   167.2870
 2251.0000  -999.2500   167.2619
 2251.5000  -999.2500   167.2375
 2252.0000  -999.2500   167.2132
 2252.5000  -999.2500   167.1890
 2253.0000  -999.2500   167.1647
 2253.5000  -999.2500   167.1405
 2254.0000  -999.2500   167.1163
 2254.5000  -999.2500   167.0920
 2255.0000  -999.2500   167.0678
 2255.5000  -999.2500   167.0436
 2256.0000  -999.2500   167.0193
 2256.5000  -999.2500   166.9951
 2257.0000  -999.2500   166.9709
 2257.5000  -999.2500   166.9466
 2258.0000  -999.2500   166.9224
 2258.5000  -999.2500   166.8982
 2259.0000  -999.2500   166.8739
 2259.5000  -999.2500   166.8497
 2260.0000  -999.2500   166.8255
 2260.5000  -999.2500   166.8012
 2261.0000  -999.2500   166.7770
 2261.5000  -999.2500   166.7528
 2262.0000  -999.2500   166.7285
 2262.5000  -999.2500   166.7043
 2263.0000  -999.2500   166.6801
 2263.5000  -999.2500   166.6558
 2264.0000  -999.2500   166.6316
 2264.5000  -999.2500   166.6074
 2265.0000  -999.2500   166.5831
 2265.5000  -999.2500   166.5589
 2266.0000  -999.2500   166.5347
 2266.5000  -999.2500   166.5104
 2267.0000  -999.2500   166.4862
 2267.5000  -999.2500   166.4620
 2268.0000  -999.2500   166.4377
 2268.5000  -999.2500   166.4135
 2269.0000  -999.2500   166.3893
 2269.5000  -999.2500   166.3650
 2270.0000  -999.2500   166.3408
 2270.5000  -999.2500   166.3166
 2271.0000  -999.2500   166.2923
 2271.5000  -999.2500   166.2681
 2272.0000  -999.2500   166.2439
 2272.5000  -999.2500   166.2197
 2273.0000  -999.2500   166.1954
 2273.5000  -999.2500   166.1712
 2274.0000  -999.2500   166.1470
 2274.5000  -999.2500   166.1227
 2275.0000  -999.2500   166.0985
 2275.5000  -999.2500   166.0742
 2276.0000  -999.2500   166.0497
 2276.5000  -999.2500   166.0267
 2277.0000  -999.2500   166.0445
 2277.5000  -999.2500   166.0641
 2278.0000  -999.2500   166.0835
 2278.5000  -999.2500   166.1028
 2279.0000  -999.2500   166.1221
 2279.5000  -999.2500   166.1414
 2280.0000  -999.2500   166.1608
 2280.5000  -999.2500   166.1801
 2281.0000  -999.2500   166.1994
 2281.5000  -999.2500   166.2187
 2282.0000  -999.2500   166.2380
 2282.5000  -999.2500   166.2574
 2283.0000  -999.2500   166.2767
 2283.5000  -999.2500   166.2960
 2284.0000  -999.2500   166.3153
 2284.5000  -999.2500   166.3346
 2285.0000  -999.2500   166.3539
 2285.5000  -999.2500   166.3733
 2286.0000  -999.2500   166.3926
 2286.5000  -999.2500   166.4119
 2287.0000  -999.2500   166.4312
 2287.5000  -999.2500   166.4505
 2288.0000  -999.2500   166.4698
 2288.5000  -999.2500   166.4892
 2289.0000  -999.2500   166.5085
 2289.5000  -999.2500   166.5278
 2290.0000  -999.2500   166.5471
 2290.5000  -999.2500   166.5665
 2291.0000  -999.2500   166.5858
 2291.5000  -999.2500   166.6051
 2292.0000  -999.2500   166.6244
 2292.5000  -999.2500   166.6437
 2293.0000  -999.2500   166.6630
 2293.5000  -999.2500   166.6824
 2294.0000  -999.2500   166.7017
 2294.5000  -999.2500   166.7210
 2295.0000  -999.2500   166.7403
 2295.5000  -999.2500   166.7596
 2296.0000  -999.2500   166.7789
 2296.5000  -999.2500   166.7983
 2297.0000  -999.2500   166.8176
 2297.5000  -999.2500   166.8369
 2298.0000  -999.2500   166.8562
 2298.5000  -999.2500   166.8755
 2299.0000  -999.2500   166.8949
 2299.5000  -999.2500   166.9142
 2300.0000  -999.2500   166.9335
 2300.5000  -999.2500   166.9528
 2301.0000  -999.2500   166.9721
 2301.5000  -999.2500   166.9915
 2302.0000  -999.2500   167.0108
 2302.5000  -999.2500   167.0301
 2303.0000  -999.2500   167.0494
 2303.5000  -999.2500   167.0687
 2304.0000  -999.2500   167.0880
 2304.5000  -999.2500   167.1074
 2305.0000  -999.2500   167.1267
 2305.5000  -999.2500   167.1460
 2306.0000  -999.2500   167.1653
 2306.5000  -999.2500   167.1846
 2307.0000  -999.2500   167.2040
 2307.5000  -999.2500   167.2233
 2308.0000  -999.2500   167.2426
 2308.5000  -999.2500   167.2619
 2309.0000  -999.2500   167.2812
 2309.5000  -999.2500   167.3007
 2310.0000  -999.2500   167.3076
