~VERSION INFORMATION
 VERS.                2.0:   CWLS LOG ASCII STANDARD - VERSION 2.0
 WRAP.                 NO:   ONE LINE PER DEPTH STEP
~WELL INFORMATION
#MNEM.UNIT      DATA TYPE    INFORMATION
#----------   ------------   ------------------------------
 STRT.F           30.0000:   START DEPTH
 STOP.F         1178.5000:   STOP DEPTH
 STEP.F            0.5000:   STEP LENGTH
 NULL.          -999.2500:   NO VALUE
 COMP. FENIX & SCISSON INC:   COMPANY
 WELL.     64-S-14 #14-14:   WELL
 FLD .        TEAPOT DOME:   FIELD
 LOC .      S14 T38N R78W:   LOCATION
 CNTY.            NATRONA:   COUNTY
 STAT.            WYOMING:   STATE
 CTRY. UNITED STATES OF AMERICA:   COUNTRY
 SRVC.            Unknown:   SERVICE COMPANY
 DATE.        19-APR-1978:   LOGDATE
 API .       490251061400:   API NUMBER
~CURVE INFORMATION
#MNEM.UNIT       API CODE    CURVE DESCRIPTION
#----------   ------------   ------------------------------
 DEPT.F                  :   
 SPR .MV     05 010 01 00:   SPONTANEOUS POTENTIAL
 SN  .OHMM   05 040 16 00:   SHORT NORMAL 16'
 ILD .OHMM   05 120 46 00:   INDUCTION LOG DEEP
 CALD.IN     45 280 60 00:   CALIPER
 GRD .GAPI   45 310 01 00:   GAMMA RAY FROM DENSITY LOG
 RHOB.G/C3   45 350 01 00:   BULK DENSITY
 DPHI.DEC    45 890 12 00:   DENSITY POROSITY SANDSTONE
 CORR.G/C3   45 356 01 00:   DENSITY CORRECTION
~PARAMETER INFORMATION
#MNEM.UNIT          VALUE    DESCRIPTION
#----------   ------------   ------------------------------
 PD  .                 GL:   PERMANENT DATUM
 EPD .F              5235:   ELEVATION PERMANENT DATUM
 LMF .                 KB:   LOG MEASURED FROM
 DMF .                 KB:   DRILLING MEASURED FROM
 EKB .F              5299:   KELLING BUSHING
 EGL .F              5295:   GROUND LEVEL
 DATE.          4-19-1978:   RUN DATE
 RUN .                  1:   RUN NUMBER
 DD  .F              1180:   DEPTH DRILLER
 DL  .F              1182:   DEPTH LOGGER
 BLI .F              1176:   BOTTOM LOG INTERVAL
 TLI .F                50:   TOP LOG INTERVAL
 CS  .IN            8.625:   CASING SIZE
 CBD .F                40:   CASING BOTTOM DRILLER
 CBL .F                50:   CASING BOTTOM LOGGER
 BS  .IN            7.875:   BIT SIZE
 BSD .F              1180:   BIT SIZE AT DEPTH
 DFT .                KCL:   DRILLING FLUID TYPE
 DFD .                8.7:   DRILLING FLUID DENSITY
 DFV .                 33:   DRILLING FLUID VISCOSITY
 DFPH.               10.5:   DRILLING FLUID PH
 DFL .               12.3:   DRILLING FLUID LOSS
 MSS .            MUD PIT:   MUD SAMPLE SOURCE
 RMS .OHMM            .54:   RESISTIVITY MUD SAMPLE
 MST .F                62:   MUD SAMPLE TEMPERATURE
 RMF .OHMM            .65:   RESISTIVITY MUD FILTRATE SAMPLE
 MFST.F                60:   MUD FILTRATE SAMPLE TEMPERATURE
 RMC .OHMM            .35:   RESISTIVITY MUD CAKE
 MCST.F                60:   MUD CAKE SAMPLE TEMPERATURE
 MFSS.           MEASURED:   MUD FILTRATE SAMPLE SOURCE
 RMB .OHMM            .42:   RESISTIVITY MUD AT BHT
 BHT .F                80:   BOTTOM HOLE TEMPERATURE
 TCS .HRS               2:   TIME CURCULATED STOPPED
 MRT .F                80:   MAXIMUM RECORDED TEMPERATURE
 LUN .               2955:   LOGGING UNIT NUMBER
 LUL .               CASP:   LOGGING UNIT LOCATION
 ENGI.             MILLER:   RECORDING ENGINEER
 WITN.           MCGINLEY:   WITNESSED BY
 CLNT.            A2DTECH:   CLIENT CODE
 ORIG.      2" & 5" PRINT:   ORIGIN OF DATA
 UWI .       490251061400:   UNIQUE WELL ID
 DICO. A2D Technologies, Inc.:   DIGITIZING COMPANY
~OTHER INFORMATION
~A   DEPT      SPR         SN        ILD       CALD         GRD      RHOB       DPHI       CORR   
# ...
  718.5000   -42.5575     6.6742     6.0828     7.4476    93.5611     2.4713     0.1272     0.0092
  719.0000   -42.5550     6.6420     6.0842     7.4978    91.0349     2.4645     0.1252     0.0117
  719.5000   -42.5525     6.6100     6.0857     7.6055    91.2396     2.4677     0.1226     0.0175
  720.0000   -42.5500     6.5782     6.0871     7.7540    92.4597     2.4748     0.1200     0.0231
  720.5000   -42.5475     6.5465     6.0886     7.9020    93.8667     2.4765     0.1207     0.0286
  721.0000   -42.5450     6.5149     6.0900     8.0498    96.2088     2.4743     0.1227     0.0346
  721.5000   -42.5425     6.4834     6.0914     8.1837    98.5708     2.4720     0.1225     0.0532
  722.0000   -42.5400     6.4785     6.0929     8.2425   100.8792     2.4771     0.1166     0.0732
  722.5000   -42.5375     6.4785     6.0943     8.2842   101.0895     2.4925     0.1077     0.0932
  723.0000   -42.5350     6.4785     6.0958     8.2454    99.1746     2.5076     0.0988     0.1126
  723.5000   -42.5325     6.4785     6.0972     8.2087    97.2616     2.5197     0.0968     0.1127
  724.0000   -42.5300     6.4785     6.0987     8.1619    95.5286     2.5278     0.0999     0.1029
  724.5000   -42.5275     6.4786     6.1001     8.1185    95.8276     2.5148     0.1029     0.0933
  725.0000   -42.5249     6.4821     6.1016     8.0053    96.5529     2.5022     0.1060     0.0861
  725.5000   -42.5224     6.5012     6.1030     7.8867    96.9314     2.4976     0.1092     0.0849
  726.0000   -42.5199     6.5201     6.1045     7.7677    94.9037     2.4975     0.1100     0.0837
  726.5000   -42.5174     6.5391     6.1059     7.6494    94.0060     2.4998     0.1108     0.0817
  727.0000   -42.5149     6.5582     6.1074     7.5462    93.5712     2.4947     0.1112     0.0756
  727.5000   -42.5124     6.5773     6.1088     7.4995    93.3421     2.4893     0.1113     0.0696
  728.0000   -42.5099     6.5964     6.1103     7.4474    94.6279     2.4783     0.1121     0.0638
  728.5000   -42.5074     6.6156     6.1117     7.3951    95.8685     2.4676     0.1182     0.0537
  729.0000   -42.5049     6.6349     6.1132     7.3428    95.3301     2.4660     0.1242     0.0428
  729.5000   -42.5024     6.6542     6.1146     7.2905    93.4953     2.4583     0.1302     0.0320
  730.0000   -42.4999     6.6835     6.1161     7.2381    92.8333     2.4477     0.1375     0.0243
  730.5000   -42.4974     6.7166     6.1175     7.1903    94.4293     2.4434     0.1343     0.0279
  731.0000   -42.4949     6.7497     6.1190     7.1902    95.0917     2.4534     0.1290     0.0327
  731.5000   -42.4924     6.7831     6.1204     7.2038    95.2484     2.4642     0.1237     0.0376
  732.0000   -42.4898     6.8165     6.1219     7.2701    95.0341     2.4749     0.1183     0.0352
  732.5000   -42.4873     6.8502     6.1233     7.3529    94.5962     2.4813     0.1180     0.0308
  733.0000   -42.4848     6.8840     6.1248     7.4377    93.6618     2.4788     0.1237     0.0267
  733.5000   -42.4823     6.9078     6.1262     7.5890    92.8428     2.4702     0.1276     0.0287
  734.0000   -42.4798     6.7757     6.1277     7.8635    94.4005     2.4617     0.1296     0.0368
  734.5000   -42.4773     6.7134     6.1290     8.0583    96.3698     2.4585     0.1308     0.0458
  735.0000   -42.4748     6.6517     6.1307     8.1252    96.6537     2.4565     0.1312     0.0739
  735.5000   -42.4723     6.5906     6.1326     8.1905    95.2319     2.4576     0.1280     0.1015
  736.0000   -42.4698     6.5300     6.0875     8.1502    93.7721     2.4662     0.1240     0.1289
  736.5000   -42.4673     6.4700     6.0466     8.1177    92.6993     2.4767     0.1181     0.1569
  737.0000   -42.4648     6.4106     6.0060     8.0859    92.8267     2.4875     0.1128     0.1684
  737.5000   -42.4622     6.3516     5.9656     8.0526    92.9306     2.4875     0.1218     0.1652
  738.0000   -42.4598     6.2933     5.9255     7.8840    93.0289     2.4732     0.1248     0.1612
  738.5000   -42.4572     6.2354     5.8857     7.6941    92.9301     2.4855     0.1091     0.1514
  739.0000   -42.4547     6.1781     5.8461     7.5617    92.3796     2.5006     0.1052     0.1152
  739.5000   -42.4522     6.1213     5.8068     7.4405    91.8403     2.5052     0.1140     0.0793
  740.0000   -42.4497     6.0651     5.7677     7.3902    91.5073     2.4883     0.1188     0.0595
  740.5000   -42.4472     6.0093     5.7289     7.3953    91.9960     2.4816     0.1194     0.0433
  741.0000   -42.4447     5.9656     5.6985     7.4236    92.5057     2.4829     0.1176     0.0371
  741.5000   -42.4422     5.9656     5.6985     7.4642    93.0228     2.4844     0.1164     0.0305
  742.0000   -42.4397     6.0287     5.7607     7.5847    92.8220     2.4824     0.1187     0.0238
  742.5000   -42.4372     6.0822     5.8108     7.7318    92.5512     2.4764     0.1221     0.0225
  743.0000   -42.4347     6.1359     5.8612     7.8803    92.8231     2.4705     0.1255     0.0224
  743.5000   -42.4322     6.1894     5.9121     8.0298    93.0973     2.4645     0.1288     0.0245
  744.0000   -42.4296     6.2431     5.9635     8.1832    92.2925     2.4587     0.1301     0.0287
  744.5000   -42.4276     6.2973     6.0153     8.1614    91.3796     2.4571     0.1286     0.0412
  745.0000   -42.4258     6.3520     6.0675     8.1188    90.4681     2.4605     0.1271     0.0744
  745.5000   -42.4241     6.4072     6.1202     8.0764    89.6613     2.4653     0.1223     0.1061
  746.0000   -42.4223     6.4629     6.1734     8.0084    89.5665     2.4795     0.1143     0.1378
  746.5000   -42.4206     6.5190     6.2270     7.8921    87.7583     2.4940     0.1062     0.1710
  747.0000   -42.4188     6.5756     6.2811     7.7765    85.5083     2.5088     0.0992     0.1796
  747.5000   -42.4171     6.6327     6.3357     7.6607    85.1629     2.5115     0.0998     0.1258
  748.0000   -42.4153     6.6903     6.3907     7.5450    88.5101     2.5114     0.1048     0.0983
  748.5000   -42.4136     6.7484     6.4462     7.4285    90.9215     2.5018     0.1145     0.0476
  749.0000   -42.4118     6.8071     6.5022     7.4047    92.9148     2.4789     0.1241     0.0252
  749.5000   -42.4100     6.8657     6.5587     7.4717    93.5980     2.4560     0.1336     0.0165
  750.0000   -42.4083     6.9092     6.5984     7.4271    93.1272     2.4401     0.1394     0.0110
  750.5000   -42.4065     6.9058     6.6591     7.3446    89.9201     2.4376     0.1396     0.0136
  751.0000   -42.4048     6.9731     6.6591     7.3174    88.6443     2.4384     0.1394     0.0160
  751.5000   -42.4030     6.9268     6.6166     7.2865    93.4266     2.4393     0.1393     0.0184
  752.0000   -42.4013     6.8927     6.5840     7.2000    98.0792     2.4405     0.1392     0.0174
  752.5000   -42.3995     6.8587     6.5515     7.0610    99.6096     2.4462     0.1336     0.0154
  753.0000   -42.3978     6.8249     6.5192     7.2609    96.4475     2.4500     0.1331     0.0093
  753.5000   -42.3960     6.7912     6.4870     7.6170    96.6443     2.4469     0.1347     0.0154
  754.0000   -42.3943     6.7577     6.4550     7.8195    97.8756     2.4501     0.1315     0.0238
  754.5000   -42.3925     6.7244     6.4232     8.0452    98.4689     2.4617     0.1252     0.0324
  755.0000   -42.3908     6.7204     6.4194     8.0879    96.4603     2.4688     0.1238     0.0465
  755.5000   -42.3890     6.7204     6.4194     8.1328    93.1958     2.4713     0.1212     0.0671
  756.0000   -42.3873     6.7204     6.4194     8.1456    89.9483     2.4813     0.1134     0.0875
  756.5000   -42.3855     6.8162     6.5109     8.0315    87.0927     2.4979     0.1049     0.1050
  757.0000   -42.3838     6.9063     6.5970     8.0388    87.0017     2.5120     0.0996     0.0971
  757.5000   -42.3820     6.9977     6.6842     8.0452    87.2818     2.5020     0.1098     0.0771
  758.0000   -42.3802     7.0902     6.7727     8.0446    87.5480     2.4839     0.1200     0.0793
  758.5000   -42.3785     7.1840     6.8623     7.9138    87.4239     2.4799     0.1112     0.0944
