~VERSION INFORMATION
 VERS.                2.0:   CWLS LOG ASCII STANDARD - VERSION 2.0
 WRAP.                 NO:   ONE LINE PER DEPTH STEP
~WELL INFORMATION
#MNEM.UNIT      DATA TYPE    INFORMATION
#----------   ------------   ------------------------------
 STRT.F           20.0000:   START DEPTH
 STOP.F          672.0000:   STOP DEPTH
 STEP.F            0.5000:   STEP LENGTH
 NULL.          -999.2500:   NO VALUE
 COMP.              FENIX:   COMPANY
 WELL.    NPR ##3 23-S-11:   WELL
 FLD .        TEAPOT DOME:   FIELD
 LOC .      S11 T38N R78W:   LOCATION
 CNTY.            NATRONA:   COUNTY
 STAT.            WYOMING:   STATE
 CTRY. UNITED STATES OF AMERICA:   COUNTRY
 SRVC.           BIRDWELL:   SERVICE COMPANY
 DATE.        05-FEB-1978:   LOGDATE
 API .       490251057300:   API NUMBER
~CURVE INFORMATION
#MNEM.UNIT       API CODE    CURVE DESCRIPTION
#----------   ------------   ------------------------------
 DEPT.F                  :   
 ILD .OHMM   05 120 46 00:   INDUCTION LOG DEEP
 SN  .OHMM   05 040 16 00:   SHORT NORMAL 16"
 SPR .MV     05 010 01 00:   SPONTANEOUS POTENTIAL FROM RES.
 CALD.IN     45 280 60 00:   CALIPER FROM DENSITY LOG
 CORR.G/C3   45 356 01 00:   DENSITY CORRECTION
 DPHI.DEC    45 890 10 00:   DENSITY POROSITY LIMESTONE
 GRD .GAPI   45 310 01 00:   GAMMA RAY FROM DENSITY LOG
 RHOB.G/C3   45 350 01 00:   BULK DENSITY
~PARAMETER INFORMATION
#MNEM.UNIT          VALUE    DESCRIPTION
#----------   ------------   ------------------------------
 PD  .                 GL:   PERMANENT DATUM
 EPD .F              5175:   ELEVATION PERMANENT DATUM
 LMF .                 KB:   LOG MEASURED FROM
 DMF .                 KB:   DRILLING MEASURED FROM
 EKB .F              5178:   KELLING BUSHING
 EGL .F              5175:   GROUND LEVEL
 DATE.        05-FEB-1978:   RUN DATE
 RUN .                  1:   RUN NUMBER
 DD  .F               670:   DEPTH DRILLER
 DL  .F               675:   DEPTH LOGGER
 BLI .F               670:   BOTTOM LOG INTERVAL
 TLI .F                40:   TOP LOG INTERVAL
 CS  .IN            8.625:   CASING SIZE
 CBD .F                39:   CASING BOTTOM DRILLER
 CBL .F                40:   CASING BOTTOM LOGGER
 BS  .IN            7.875:   BIT SIZE
 BSD .F               670:   BIT SIZE AT DEPTH
 DFT .                KCL:   DRILLING FLUID TYPE
 DFD .                8.4:   DRILLING FLUID DENSITY
 DFV .                 32:   DRILLING FLUID VISCOSITY
 DFPH.                  8:   DRILLING FLUID PH
 DFL .                8.8:   DRILLING FLUID LOSS
 MSS .           FLOWLINE:   MUD SAMPLE SOURCE
 RMS .OHMM           0.58:   RESISTIVITY MUD SAMPLE
 MST .F                62:   MUD SAMPLE TEMPERATURE
 RMF .OHMM           0.58:   RESISTIVITY MUD FILTRATE SAMPLE
 MFST.F                62:   MUD FILTRATE SAMPLE TEMPERATURE
 RMC .OHMM            0.9:   RESISTIVITY MUD CAKE
 MCST.F                66:   MUD CAKE SAMPLE TEMPERATURE
 MFSS.               MEAS:   MUD FILTRATE SAMPLE SOURCE
 RMB .OHMM           0.55:   RESISTIVITY MUD AT BHT
 BHT .F                72:   BOTTOM HOLE TEMPERATURE
 TCS .HRS               1:   TIME CURCULATED STOPPED
 MRT .F                72:   MAXIMUM RECORDED TEMPERATURE
 LUN .               2958:   LOGGING UNIT NUMBER
 LUL .               CASP:   LOGGING UNIT LOCATION
 ENGI.            POINTER:   RECORDING ENGINEER
 WITN.         HARRINGTON:   WITNESSED BY
 CLNT.            A2DTECH:   CLIENT CODE
 ORIG.           5" PRINT:   ORIGIN OF DATA
 UWI .       490251057300:   UNIQUE WELL ID
 DICO. A2D Technologies, Inc.:   DIGITIZING COMPANY
~OTHER INFORMATION
~A   DEPT      ILD         SN        SPR       CALD       CORR       DPHI         GRD      RHOB   
# ...
  141.5000     6.5938     6.6576   -55.8151     7.8967     0.0289     0.1269    78.6403     2.4379
  142.0000     6.5459     6.6549   -55.8244     7.8964     0.0319     0.1269    78.1867     2.4379
  142.5000     6.5430     6.6518   -55.6784     7.8960     0.0326     0.1272    77.5826     2.4387
  143.0000     6.5860     6.6491   -55.6397     7.8958     0.0356     0.1275    77.5812     2.4387
  143.5000     6.7217     6.7053   -55.5398     7.8955     0.0386     0.1281    77.8810     2.4402
  144.0000     6.7657     6.7371   -55.5490     7.8951     0.0394     0.1278    78.7832     2.4402
  144.5000     6.8101     6.7339   -55.5564     7.8948     0.0401     0.1275    79.3839     2.4402
  145.0000     6.8547     6.7305   -55.5640     7.8946     0.0385     0.1263    79.0813     2.4402
  145.5000     6.8516     6.7754   -55.5830     7.8942     0.0349     0.1263    76.7666     2.4380
  146.0000     6.8485     6.7723   -55.7329     7.8939     0.0341     0.1269    75.4637     2.4365
  146.5000     6.8459     6.7692   -55.7393     7.8937     0.0380     0.1278    75.4623     2.4342
  147.0000     6.8421     6.8138   -55.7922     7.8934     0.0454     0.1329    75.9488     2.4312
  147.5000     6.7929     6.8110   -55.9075     7.8780     0.0469     0.1371    81.3326     2.4282
  148.0000     6.7427     6.8081   -55.9149     7.8928     0.0415     0.1407    82.3854     2.4237
  148.5000     6.7400     6.8048   -56.0747     7.8925     0.0274     0.1407    83.5949     2.4206
  149.0000     6.6907     6.8020   -56.1618     7.8921     0.0206     0.1404    83.8887     2.4207
  149.5000     6.6881     6.7993   -56.3963     7.8768     0.0146     0.1401    81.4773     2.4237
  150.0000     6.6392     6.7971   -56.3750     7.8614     0.0094     0.1389    79.8193     2.4237
  150.5000     6.6547     6.7966   -56.3342     7.8611     0.0124     0.1341    78.6162     2.4207
  151.0000     6.6702     6.7960   -56.2933     7.8608     0.0161     0.1314    77.8647     2.4251
  151.5000     6.6813     6.7954   -56.2677     7.8605     0.0176     0.1263    78.0167     2.4357
  152.0000     6.7264     6.7948   -56.4275     7.9204     0.0176     0.1233    80.8796     2.4417
  152.5000     6.7247     6.7944   -56.5854     7.9012     0.0175     0.1221    82.2364     2.4447
  153.0000     6.7234     6.7821   -56.7442     7.9002     0.0144     0.1221    81.3346     2.4439
  153.5000     6.7221     6.7465   -56.7501     7.8842     0.0153     0.1224    80.4324     2.4409
  154.0000     6.7207     6.7460   -56.7561     7.8829     0.0220     0.1236    78.9278     2.4349
  154.5000     6.6729     6.6989   -56.7622     7.8819     0.0235     0.1248    78.1763     2.4431
  155.0000     6.6715     6.6521   -56.7683     7.8659     0.0227     0.1212    77.4146     2.4499
  155.5000     6.6238     6.6516   -56.7744     7.8649     0.0219     0.1188    76.9743     2.4544
  156.0000     6.5767     6.6051   -56.7811     7.8639     0.0234     0.1180    78.0303     2.4551
  156.5000     6.4848     6.6047   -56.7870     7.8626     0.0249     0.1177    78.4832     2.4543
  157.0000     6.4835     6.6042   -56.7302     7.8769     0.0264     0.1180    76.6778     2.4528
  157.5000     6.4822     6.6499   -56.6463     7.8757     0.0256     0.1183    75.0151     2.4506
  158.0000     6.5260     6.7168   -56.6524     7.8747     0.0233     0.1186    74.5722     2.4497
  158.5000     6.6619     6.8361   -56.6597     7.8885     0.0174     0.1198    77.5860     2.4475
  159.0000     6.8952     7.0769   -56.6656     7.8875     0.0151     0.1204    81.2019     2.4475
  159.5000     7.1371     7.3263   -56.5176     7.8865     0.0128     0.1192    84.6672     2.4513
  160.0000     7.4388     7.5845   -56.3716     7.8855     0.0113     0.1176    83.8955     2.4588
  160.5000     7.7534     7.7976   -56.3781     7.8996     0.0143     0.1150    72.7729     2.4625
  161.0000     8.0812     8.0723   -56.3841     7.8983     0.0255     0.1144    65.2442     2.4625
  161.5000     8.3851     8.2416   -56.2378     7.8973     0.0353     0.1144    64.3416     2.4700
  162.0000     8.7790     8.4730   -56.2439     7.8963     0.0375     0.1027    70.8193     2.5075
  162.5000     8.3031     8.2883   -56.2511     7.9104     0.0292     0.0744    75.2887     2.5219
  163.0000     7.9631     8.0142   -56.2570     7.8941     0.0262     0.0814    78.3527     2.5115
  163.5000     7.7975     7.9582   -56.1855     7.8931     0.0262     0.1051    78.6549     2.4789
  164.0000     7.7421     7.9577   -55.9639     7.8921     0.0262     0.1093    75.9459     2.4669
  164.5000     7.7405     7.9021   -55.8174     7.8911     0.0254     0.1093    73.3871     2.4639
  165.0000     7.6854     7.8469   -55.6707     7.9049     0.0262     0.1112    73.0873     2.4609
  165.5000     7.5254     7.7379   -55.6768     7.9039     0.0291     0.1184    75.3481     2.4562
  166.0000     7.4202     7.5705   -55.6829     7.9029     0.0321     0.1193    77.3074     2.4473
  166.5000     7.2157     7.3192   -55.6901     7.9019     0.0314     0.1187    79.2667     2.4473
  167.0000     7.0169     7.1183   -55.6960     7.8858     0.0239     0.1187    78.6657     2.4443
  167.5000     6.8235     6.9711   -55.7012     7.8846     0.0178     0.1205    75.2033     2.4367
  168.0000     6.6324     6.7798   -55.7078     7.8836     0.0178     0.1250    75.0541     2.4276
  168.5000     6.5880     6.6859   -55.7137     7.8826     0.0193     0.1283    75.6583     2.4284
  169.0000     6.6960     6.7320   -55.8720     7.8967     0.0200     0.1301    76.4128     2.4352
  169.5000     6.8652     6.8140   -55.8780     7.9108     0.0223     0.1268    78.2214     2.4412
  170.0000     7.0569     6.9688   -56.0366     7.9095     0.0260     0.1235    78.6747     2.4434
  170.5000     7.2539     7.1644   -56.0437     7.9085     0.0417     0.1220    75.9656     2.4442
  171.0000     7.5607     7.3146   -56.0488     7.9075     0.0492     0.1199    72.8044     2.4577
  171.5000     7.8322     7.4005   -56.0998     7.9063     0.0470     0.1106    69.4926     2.4712
  172.0000     8.1000     7.5720   -56.2138     7.9053     0.0499     0.0977    67.0844     2.4802
  172.5000     8.2690     7.7845   -56.0678     7.9196     0.0522     0.0953    67.3494     2.4869
  173.0000     8.2670     7.8440   -56.0732     7.9184     0.0522     0.0922    73.1117     2.4976
  173.5000     8.2082     8.0026   -56.0285     7.9324     0.0454     0.0755    76.1252     2.5102
  174.0000     8.0935     8.0020   -55.8892     7.9312     0.0221     0.1007    77.9338     2.4741
  174.5000     8.0350     8.0014   -55.7866     7.9302     0.0206     0.1137    78.2365     2.4651
  175.0000     7.8598     7.8360   -55.7927     7.9292     0.0184     0.1110    78.5395     2.4726
  175.5000     7.7049     7.7813   -55.7988     7.9282     0.0116     0.1080    79.1433     2.4702
  176.0000     7.5973     7.6484   -55.6528     7.9269     0.0003     0.1098    79.4459     2.4628
  176.5000     7.5957     7.5672   -55.6585     7.9259     0.0011     0.1170    79.5980     2.4552
  177.0000     7.5943     7.4623   -55.6646     7.9249     0.0033     0.1200    79.2982     2.4492
  177.5000     7.5927     7.4618   -55.5171     7.9239     0.0063     0.1194    78.8478     2.4440
  178.0000     7.6440     7.5132   -55.5250     7.9227     0.0085     0.1188    78.5484     2.4485
  178.5000     7.6421     7.5127   -55.3769     7.9217     0.0100     0.1188    79.3029     2.4499
  179.0000     7.6406     7.5122   -55.3848     7.9207     0.0122     0.1191    81.4127     2.4499
  179.5000     7.6390     7.4598   -55.2368     7.9197     0.0137     0.1197    81.4147     2.4491
  180.0000     7.5847     7.4077   -55.2439     7.9187     0.0152     0.1200    80.3617     2.4484
  180.5000     7.5308     7.4070   -55.2500     7.9175     0.0182     0.1198    80.0616     2.4469
  181.0000     7.4255     7.3554   -55.2561     7.9165     0.0212     0.1194    82.0212     2.4461
  181.5000     7.3668     7.3548   -55.2634     7.9155     0.0212     0.1186    82.4745     2.4476
