~VERSION INFORMATION
 VERS.                2.0:   CWLS LOG ASCII STANDARD - VERSION 2.0
 WRAP.                 NO:   ONE LINE PER DEPTH STEP
~WELL INFORMATION
#MNEM.UNIT      DATA TYPE    INFORMATION
#----------   ------------   ------------------------------
 STRT.F           16.0000:   START DEPTH
 STOP.F          900.0000:   STOP DEPTH
 STEP.F            0.5000:   STEP LENGTH
 NULL.          -999.2500:   NO VALUE
 COMP. FENIX & SCISSON INC:   COMPANY
 WELL.    NPR-3 #65S15-15:   WELL
 FLD .             TEAPOT:   FIELD
 LOC .      S15 T38N R78W:   LOCATION
 CNTY.            NATRONA:   COUNTY
 STAT.            WYOMING:   STATE
 CTRY. UNITED STATES OF AMERICA:   COUNTRY
 SRVC.            Unknown:   SERVICE COMPANY
 DATE.        11-MAY-1978:   LOGDATE
 API .       490251062400:   API NUMBER
~CURVE INFORMATION
#MNEM.UNIT       API CODE    CURVE DESCRIPTION
#----------   ------------   ------------------------------
 DEPT.F                  :   
 RHOB.G/C3   45 350 01 00:   BULK DENSITY
 DPHI.DEC    45 890 12 00:   DENSITY POROSITY SANDSTONE
 CORR.G/C3   45 356 01 00:   DENSITY CORRECTION
 GRD .GAPI   45 310 01 00:   GAMMA RAY FROM DENSITY LOG
 CALD.IN     45 280 60 00:   CALIPER FROM DENSITY LOG
 SPR .MV     05 010 01 00:   SPONTANEOUS POTENTIAL FROM RES.
 SN  .OHMM   05 040 16 00:   SHORT NORMAL 16"
 IL  .OHMM   05 120 00 00:   INDUCTION LOG
~PARAMETER INFORMATION
#MNEM.UNIT          VALUE    DESCRIPTION
#----------   ------------   ------------------------------
 PD  .                 GL:   PERMANENT DATUM
 EPD .F              5289:   ELEVATION PERMANENT DATUM
 LMF .                 KB:   LOG MEASURED FROM
 DAPD.F                 4:   FEET ABOVE PERMANENT DATUM
 DMF .                 KB:   DRILLING MEASURED FROM
 EKB .F              5293:   KELLING BUSHING
 EDF .F                  :   DRILLING FLOOR
 EGL .F              5289:   GROUND LEVEL
 DATE.          5-11-1978:   RUN DATE
 RUN .                  1:   RUN NUMBER
 DD  .F               887:   DEPTH DRILLER
 DL  .F               889:   DEPTH LOGGER
 BLI .F               883:   BOTTOM LOG INTERVAL
 TLI .F                40:   TOP LOG INTERVAL
 CS  .IN            8.625:   CASING SIZE
 CBD .F                40:   CASING BOTTOM DRILLER
 CBL .F                40:   CASING BOTTOM LOGGER
 BS  .IN            7.875:   BIT SIZE
 BSD .F               887:   BIT SIZE AT DEPTH
 DFT .                KCL:   DRILLING FLUID TYPE
 DFD .                8.6:   DRILLING FLUID DENSITY
 DFV .                 30:   DRILLING FLUID VISCOSITY
 DFPH.                9.5:   DRILLING FLUID PH
 DFL .                  8:   DRILLING FLUID LOSS
 MSS .                   :   MUD SAMPLE SOURCE
 RMS .OHMM            .42:   RESISTIVITY MUD SAMPLE
 MST .F                68:   MUD SAMPLE TEMPERATURE
 RMF .OHMM            .38:   RESISTIVITY MUD FILTRATE SAMPLE
 MFST.F                68:   MUD FILTRATE SAMPLE TEMPERATURE
 RMC .OHMM            .68:   RESISTIVITY MUD CAKE
 MCST.F                66:   MUD CAKE SAMPLE TEMPERATURE
 MFSS.           MEASURED:   MUD FILTRATE SAMPLE SOURCE
 MCSS.                   :   MUD CAKE SAMPLE SOURCE
 RMB .OHMM               :   RESISTIVITY MUD AT BHT
 BHT .F                72:   BOTTOM HOLE TEMPERATURE
 TCS .HRS               2:   TIME CURCULATED STOPPED
 TLAB.HRS                :   TIME LOGGER AT BOTTOM
 MRT .F                72:   MAXIMUM RECORDED TEMPERATURE
 LUN .              CASP.:   LOGGING UNIT NUMBER
 LUL .               2958:   LOGGING UNIT LOCATION
 ENGI.             MILLER:   RECORDING ENGINEER
 WITN.           MCGINLEY:   WITNESSED BY
 CLNT.            A2DTECH:   CLIENT CODE
 ORIG.      2" & 5" PRINT:   ORIGIN OF DATA
 UWI .       490251062400:   UNIQUE WELL ID
 DICO. A2D Technologies, Inc.:   DIGITIZING COMPANY
 OS  .                   :   OTHER SERVICES
 PWI .                   :   PRIMARY WELL IDENTIFIER
 R1  .                   :   REMARKS 1
 R2  .                   :   REMARKS 2
~OTHER INFORMATION
~A   DEPT     RHOB       DPHI       CORR         GRD      CALD        SPR         SN         IL   
# ...
  178.0000     2.4142     0.1521     0.0085    74.8225     7.3690   -45.2007     4.6672     4.3155
  178.5000     2.4168     0.1508     0.0085    73.8392     7.4283   -45.2264     4.7114     4.3155
  179.0000     2.4214     0.1508     0.0085    71.8817     7.4876   -45.2522     4.7561     4.3155
  179.5000     2.4243     0.1508     0.0075    70.2330     7.5471   -45.2779     4.8198     4.3155
  180.0000     2.4249     0.1598     0.0030    70.7846     7.6035   -45.3036     4.7197     4.3165
  180.5000     2.4176     0.1681    -0.0013    72.6369     7.6048   -45.3293     4.5490     4.2282
  181.0000     2.4000     0.1757     0.0000    73.7803     7.5954   -45.3550     4.3846     4.0812
  181.5000     2.3845     0.1744     0.0056    74.0921     7.5873   -45.3808     4.2260     3.9215
  182.0000     2.3847     0.1688     0.0123    74.4170     7.5396   -45.4065     4.0740     3.7083
  182.5000     2.3881     0.1669     0.0166    74.4367     7.4885   -45.4322     3.9358     3.5067
  183.0000     2.3924     0.1743     0.0165    74.4251     7.4425   -45.4581     3.7109     3.3161
  183.5000     2.3882     0.1797     0.0167    73.9574     7.4342   -45.4832     3.5122     3.1358
  184.0000     2.3817     0.1851     0.0112    73.3759     7.4258   -45.5126     3.3242     2.9856
  184.5000     2.3710     0.1942     0.0061    71.2003     7.4381   -45.3329     3.1462     3.0054
  185.0000     2.3508     0.2098     0.0047    70.2243     7.4514   -45.0627     3.0411     3.0535
  185.5000     2.3310     0.2260     0.0076    71.7203     7.4646   -44.7885     2.9906     3.1288
  186.0000     2.3116     0.2236     0.0151    73.6880     7.4778   -44.5154     2.9311     3.2059
  186.5000     2.2981     0.2162     0.0299    75.7382     7.4910   -44.2402     3.0918     3.2848
  187.0000     2.3229     0.1912     0.0231    76.2265     7.5043   -44.1431     3.4115     3.3656
  187.5000     2.3631     0.1662     0.0108    73.9774     7.4982   -44.1719     3.9267     3.5478
  188.0000     2.4003     0.1416     0.0081    71.2414     7.4906   -44.2031     4.5197     4.1069
  188.5000     2.4328     0.1416     0.0076    68.9655     7.4831   -44.2345     4.8980     4.9094
  189.0000     2.4432     0.1416     0.0071    69.7335     7.4757   -44.2656     4.9702     4.9015
  189.5000     2.4437     0.1420     0.0067    70.6153     7.4682   -44.2967     5.0418     4.8900
  190.0000     2.4428     0.1428     0.0044    71.4210     7.4608   -44.3278     5.1147     4.8785
  190.5000     2.4379     0.1495     0.0014    71.4099     7.4533   -44.3589     5.1890     4.8672
  191.0000     2.4330     0.1570    -0.0015    72.5476     7.4453   -44.3900     5.2364     4.8357
  191.5000     2.4233     0.1591    -0.0036    73.5348     7.4180   -44.4211     5.1408     4.7983
  192.0000     2.4132     0.1595    -0.0013    73.8214     7.3880   -44.4522     5.1416     4.7605
  192.5000     2.4069     0.1599     0.0024    74.1205     7.3579   -44.4833     4.9693     4.6583
  193.0000     2.4069     0.1653     0.0012    74.4159     7.3279   -44.5144     4.8301     4.3464
  193.5000     2.4059     0.1739    -0.0003    74.7098     7.2979   -44.5455     4.6425     4.0554
  194.0000     2.3979     0.1826    -0.0010    75.0066     7.2680   -44.5766     4.3160     3.7839
  194.5000     2.3822     0.1912     0.0017    75.3607     7.2441   -44.6077     4.0125     3.5305
  195.0000     2.3666     0.1998     0.0042    76.5186     7.2406   -44.6388     3.7303     3.3654
  195.5000     2.3509     0.2085     0.0073    78.4211     7.2367   -44.6705     3.4679     3.3705
  196.0000     2.3352     0.2172     0.0133    80.2990     7.2329   -44.7020     3.2139     3.3777
  196.5000     2.3197     0.2182     0.0205    77.2106     7.2290   -44.7177     3.2255     3.3849
  197.0000     2.3096     0.2149     0.0334    75.7634     7.2151   -44.4425     3.2491     3.3922
  197.5000     2.3096     0.1952     0.0319    72.5379     7.1467   -43.6645     3.2743     3.4571
  198.0000     2.3399     0.1718     0.0210    69.1168     7.0887   -43.3213     3.5384     3.6125
  198.5000     2.3747     0.1641     0.0117    65.9325     7.0467   -43.1284     3.8217     3.7748
  199.0000     2.3988     0.1753     0.0087    66.3027     7.0045   -43.1688     4.0955     3.9367
  199.5000     2.3874     0.1643     0.0144    68.9797     6.9625   -43.2033     4.2921     4.0829
  200.0000     2.3944     0.1549     0.0213    70.2358     6.9204   -43.2376     4.3160     4.1594
  200.5000     2.4053     0.1553     0.0282    70.3958     6.8792   -43.2719     4.2719     4.1172
  201.0000     2.4164     0.1565     0.0351    70.3139     6.7217   -43.3036     4.2370     4.0835
  201.5000     2.4148     0.1630     0.0421    70.2790     6.5336   -43.2138     4.1993     4.0474
  202.0000     2.4039     0.1741     0.0570    71.2751     6.4257   -42.8951     4.1337     3.9842
  202.5000     2.3905     0.1788     0.0884    72.7904     6.4524   -42.5759     3.9220     3.7979
  203.0000     2.3866     0.1652     0.1197    74.0824     6.4945   -42.6141     3.6890     3.5930
  203.5000     2.4002     0.1457     0.1317    74.1732     6.6602   -42.7166     3.4699     3.3991
  204.0000     2.4283     0.1363     0.0724    74.5666     6.8544   -42.8217     3.2637     3.2157
  204.5000     2.3687     0.2134     0.0391    75.3985     7.0279   -42.9205     3.0698     3.0958
  205.0000     2.3338     0.2159     0.0316    75.9874     7.1199   -42.6750     2.9856     3.0966
  205.5000     2.3209     0.2184     0.0311    75.7608     7.2121   -42.3984     2.9856     3.1678
  206.0000     2.3108     0.1991     0.0432    73.5903     7.2546   -42.1271     3.0232     3.2215
  206.5000     2.3101     0.1831     0.0489    69.8255     7.2884   -42.4425     3.0874     3.2736
  207.0000     2.3493     0.1861     0.0302    63.1548     7.3120   -42.9987     3.3100     3.5110
  207.5000     2.3734     0.1754     0.0272    59.8145     7.3255   -44.1774     3.5812     3.7562
  208.0000     2.3854     0.1582     0.0191    61.7733     7.3390   -44.9342     3.8746     3.9388
  208.5000     2.4157     0.1529     0.0125    65.3430     7.3525   -44.8457     4.0855     3.9486
  209.0000     2.4195     0.1532     0.0125    69.8513     7.3659   -44.7761     4.1004     3.9584
  209.5000     2.4199     0.1535     0.0119    74.4995     7.3795   -44.8174     4.1153     3.9683
  210.0000     2.4193     0.1581     0.0068    75.9997     7.3818   -45.3917     4.1213     3.9722
  210.5000     2.4141     0.1642     0.0022    75.7373     7.3762   -45.6621     3.9912     3.8477
  211.0000     2.4046     0.1702     0.0010    75.4037     7.3704   -45.5256     3.9014     3.7617
  211.5000     2.3925     0.1763     0.0032    75.2266     7.3646   -45.3931     3.8137     3.6776
  212.0000     2.3842     0.1808     0.0079    76.0229     7.3588   -45.2585     3.7279     3.5895
  212.5000     2.3827     0.1849     0.0124    80.0016     7.3530   -45.1240     3.6562     3.3383
  213.0000     2.3760     0.1909     0.0125    83.5925     7.3471   -45.0679     3.4025     3.0613
  213.5000     2.3612     0.1999     0.0126    84.2211     7.3620   -45.0171     3.1548     2.8078
  214.0000     2.3466     0.2089     0.0169    84.2172     7.4094   -44.9602     2.9251     2.6252
  214.5000     2.3319     0.2179     0.0265    84.2026     7.4663   -44.7231     2.7121     2.7327
  215.0000     2.3172     0.2265     0.0298    84.6798     7.4608   -43.7887     2.5294     2.8167
  215.5000     2.3025     0.2340     0.0330    85.3352     7.4566   -43.3994     2.6177     2.9038
  216.0000     2.2878     0.2415     0.0395    85.9994     7.4525   -43.6738     2.7209     2.9933
  216.5000     2.2705     0.2454     0.0498    86.6950     7.4484   -43.4088     2.8292     3.0856
  217.0000     2.3055     0.1905     0.0405    86.8508     7.4463   -42.9889     3.0718     3.3076
  217.5000     2.3579     0.1786     0.0300    80.6477     7.4547   -42.7228     3.5283     3.8452
  218.0000     2.4123     0.1607     0.0286    73.2432     7.4629   -42.7048     4.4451     4.4702
