~VERSION INFORMATION
 VERS.                2.0:   CWLS LOG ASCII STANDARD - VERSION 2.0
 WRAP.                 NO:   ONE LINE PER DEPTH STEP
~WELL INFORMATION
#MNEM.UNIT      DATA TYPE    INFORMATION
#----------   ------------   ------------------------------
 STRT.F           20.0000:   START DEPTH
 STOP.F          541.0000:   STOP DEPTH
 STEP.F            0.5000:   STEP LENGTH
 NULL.          -999.2500:   NO VALUE
 COMP. LAWRENCE/ALLISON INC:   COMPANY
 WELL.   NPR3 #58-66SHX10:   WELL
 FLD .             TEAPOT:   FIELD
 LOC .      S10 T38N R78W:   LOCATION
 CNTY.            NATRONA:   COUNTY
 STAT.            WYOMING:   STATE
 CTRY. UNITED STATES OF AMERICA:   COUNTRY
 SRVC.           Gearhart:   SERVICE COMPANY
 DATE.        15-JUN-1986:   LOGDATE
 API .       490251108800:   API NUMBER
~CURVE INFORMATION
#MNEM.UNIT       API CODE    CURVE DESCRIPTION
#----------   ------------   ------------------------------
 DEPT.F                  :   
 GRR .GAPI   07 310 01 00:   GAMMA RAY FROM RES. LOG.
 RILD.OHMM   07 120 46 00:   INDUCTION LOG DEEP RESISTIVITY
 RILM.OHMM   07 120 44 00:   INDUCTION LOG MEDIUM
~PARAMETER INFORMATION
#MNEM.UNIT          VALUE    DESCRIPTION
#----------   ------------   ------------------------------
 PD  .                 GL:   PERMANENT DATUM
 EPD .F              5196:   ELEVATION PERMANENT DATUM
 LMF .                 KB:   LOG MEASURED FROM
 DAPD.F                 5:   FEET ABOVE PERMANENT DATUM
 DMF .                 KB:   DRILLING MEASURED FROM
 EKB .F              5201:   KELLING BUSHING
 EGL .F              5196:   GROUND LEVEL
 DATE.          6-15-1986:   RUN DATE
 RUN .                  1:   RUN NUMBER
 DD  .F               554:   DEPTH DRILLER
 DL  .F               550:   DEPTH LOGGER
 BLI .F               549:   BOTTOM LOG INTERVAL
 TLI .F                47:   TOP LOG INTERVAL
 CS  .IN            8.625:   CASING SIZE
 CBD .F                47:   CASING BOTTOM DRILLER
 BS  .IN            7.875:   BIT SIZE
 BSD .F               554:   BIT SIZE AT DEPTH
 DFT .        AIR DRILLED:   DRILLING FLUID TYPE
 TLAB.HRS            0600:   TIME LOGGER AT BOTTOM
 MRT .F                65:   MAXIMUM RECORDED TEMPERATURE
 LUN .               7609:   LOGGING UNIT NUMBER
 LUL .           GILLETTE:   LOGGING UNIT LOCATION
 ENGI.         WEATHERMON:   RECORDING ENGINEER
 WITN.              FIVAS:   WITNESSED BY
 CLNT.            A2DTECH:   CLIENT CODE
 ORIG.       2", 5" PRINT:   ORIGIN OF DATA
 UWI .       490251108800:   UNIQUE WELL ID
 DICO. A2D Technologies, Inc.:   DIGITIZING COMPANY
~OTHER INFORMATION
~A   DEPT       GRR      RILD       RILM   
# ...
  384.0000    85.2718    16.1530    15.8547
  384.5000    84.1335    16.0354    15.7392
  385.0000    85.0247    15.9185    15.6245
  385.5000    86.0618    15.8026    15.5107
  386.0000    88.6100    15.6874    15.3977
  386.5000    90.2968    15.5731    15.2855
  387.0000    89.9578    15.4597    15.1741
  387.5000    88.4565    15.3470    15.0636
  388.0000    86.4422    15.2353    14.9538
  388.5000    85.2903    15.1386    14.8591
  389.0000    85.7482    15.0522    14.7742
  389.5000    86.1826    14.9662    14.6898
  390.0000    86.8595    14.8807    14.6058
  390.5000    88.2084    14.7957    14.5224
  391.0000    90.9663    14.7112    14.4394
  391.5000    93.7423    14.6271    14.3569
  392.0000    91.7332    14.5435    14.2749
  392.5000    88.0611    14.4586    14.1933
  393.0000    85.1363    14.3836    14.1122
  393.5000    86.9421    14.2248    13.9688
  394.0000    89.6107    14.2317    13.9688
  394.5000    89.2914    14.4292    14.1025
  395.0000    87.6495    14.6195    14.2308
  395.5000    86.8237    14.8127    14.3603
  396.0000    86.0299    15.0087    14.4910
  396.5000    84.9443    15.1941    14.6228
  397.0000    83.4894    15.0696    14.7724
  397.5000    82.0392    14.8907    14.6626
  398.0000    82.4650    14.7138    14.5021
  398.5000    84.3229    14.5390    14.3433
  399.0000    86.4790    14.3664    14.1862
  399.5000    89.9185    14.1957    14.0308
  400.0000    92.7087    14.0271    13.8772
  400.5000    94.4747    13.8605    13.7252
  401.0000    89.3341    13.6959    13.5749
  401.5000    85.7635    13.5836    13.4263
  402.0000    86.1914    13.5836    13.2795
  402.5000    91.2393    13.8392    13.2061
  403.0000    95.4703    14.0996    13.3329
  403.5000    97.3140    14.4995    13.5836
  404.0000    96.1626    15.3531    14.1867
  404.5000    92.7972    16.6061    14.8663
  405.0000    86.7290    17.9610    15.8560
  405.5000    79.0058    19.4272    17.4937
  406.0000    72.5360    21.0134    19.2936
  406.5000    69.1579    22.7278    21.2760
  407.0000    70.2714    24.6674    23.3342
  407.5000    75.9975    25.7962    24.8366
  408.0000    81.7086    27.0583    26.4357
  408.5000    87.0949    27.6205    27.0775
  409.0000    88.9378    27.8679    27.3378
  409.5000    85.9065    27.7071    27.3766
  410.0000    82.8160    27.5894    27.4154
  410.5000    79.4187    27.4723    27.4543
  411.0000    76.0027    27.3557    27.4933
  411.5000    73.6478    27.2396    27.5323
  412.0000    73.9435    27.0775    27.5714
  412.5000    76.2106    27.1003    27.6112
  413.0000    78.5592    27.1408    27.6516
  413.5000    80.4258    27.1805    27.6921
  414.0000    81.5623    27.2204    27.7326
  414.5000    81.5632    27.2599    27.7729
  415.0000    79.9130    27.3243    27.8385
  415.5000    77.7188    27.3525    27.8673
  416.0000    74.7171    27.0775    27.5661
  416.5000    75.6118    26.9242    27.4309
  417.0000    77.2156    26.5711    27.0712
  417.5000    78.7598    26.2227    26.7165
  418.0000    77.0483    25.8789    26.3659
  418.5000    75.0094    25.5395    26.0202
  419.0000    72.9554    25.2046    25.6790
  419.5000    71.5810    24.8741    25.3423
  420.0000    71.9680    24.5480    25.0100
  420.5000    72.5116    24.1323    24.5864
  421.0000    75.0271    23.6765    24.1221
  421.5000    79.3194    23.2294    23.6666
  422.0000    83.7361    22.7907    23.2196
  422.5000    86.7770    22.3603    22.7811
  423.0000    88.3087    22.0567    22.4718
  423.5000    88.3615    22.0301    22.4447
  424.0000    86.0976    22.0055    22.4197
  424.5000    83.0230    21.9810    22.3947
  425.0000    80.2828    21.9566    22.3697
  425.5000    80.2683    21.9321    22.3448
  426.0000    81.2827    21.9078    22.3201
  426.5000    82.3010    21.8853    22.2971
  427.0000    83.3603    21.8614    22.2728
  427.5000    83.6383    21.8296    22.2404
  428.0000    81.7651    22.0584    22.4619
  428.5000    79.2539    21.8520    22.2496
  429.0000    77.1286    21.6493    22.0526
  429.5000    76.6986    21.2494    21.6806
  430.0000    78.4383    20.7818    21.1522
  430.5000    81.1517    20.2512    20.6353
  431.0000    84.9130    19.7342    20.1061
  431.5000    87.6349    19.2304    19.5923
  432.0000    89.7471    18.7394    19.0921
  432.5000    90.0798    18.2610    18.6044
  433.0000    89.5805    17.7948    18.1297
  433.5000    86.9853    17.3405    17.6668
  434.0000    85.6679    17.0347    17.3552
  434.5000    84.6199    16.8207    17.1271
  435.0000    84.1192    16.7885    17.1045
  435.5000    83.6105    16.7608    17.0762
  436.0000    83.2113    16.7333    17.0483
  436.5000    83.3624    16.7059    17.0203
  437.0000    83.4953    16.6785    16.9924
  437.5000    83.2727    16.6511    16.9645
  438.0000    81.3780    16.6238    16.9366
  438.5000    79.5799    16.5966    16.9089
  439.0000    80.5298    16.5693    16.8813
  439.5000    81.7567    16.5419    16.8532
  440.0000    83.0093    16.4905    16.8003
  440.5000    82.2353    16.3440    16.6515
  441.0000    80.7896    16.2003    16.5052
  441.5000    80.3014    16.0579    16.3601
  442.0000    80.0087    15.9168    16.2163
  442.5000    80.3161    15.7768    16.0738
  443.0000    80.6173    15.6382    15.9325
  443.5000    81.5256    15.5007    15.7924
  444.0000    83.3605    15.3644    15.6536
  444.5000    87.2121    15.2294    15.5160
  445.0000    87.2599    15.0955    15.3796
  445.5000    85.4483    15.0023    15.2846
  446.0000    85.2835    14.9298    15.2108
  446.5000    86.6549    14.8577    15.1373
  447.0000    87.7650    14.7859    15.0642
  447.5000    87.9203    14.7145    14.9914
  448.0000    87.2815    14.6434    14.9190
  448.5000    86.6315    14.5726    14.8469
  449.0000    85.6265    14.5022    14.7752
  449.5000    83.9779    14.4322    14.7038
  450.0000    83.2734    14.3625    14.6327
  450.5000    84.8022    14.2931    14.5621
  451.0000    87.5741    14.2317    14.4995
  451.5000    90.8641    14.2320    14.4999
  452.0000    93.9801    14.2317    14.4995
  452.5000    95.2742    14.2317    14.4995
  453.0000    96.6804    14.2317    14.4995
  453.5000    96.7043    14.2317    14.4995
  454.0000    93.9273    14.2317    14.4995
  454.5000    90.4199    14.2317    14.4995
  455.0000    87.6641    14.2319    14.4997
  455.5000    86.1364    14.2332    14.5011
  456.0000    86.7750    14.1688    14.4354
  456.5000    88.6254    14.0873    14.3524
  457.0000    90.0147    14.0062    14.2698
  457.5000    89.4256    13.9256    14.1877
  458.0000    88.8800    13.8455    14.1060
  458.5000    88.4408    13.7658    14.0249
  459.0000    89.8028    13.6866    13.9441
  459.5000    92.0909    13.6078    13.8639
  460.0000    93.8391    13.5295    13.7841
  460.5000    94.9934    13.4517    13.7048
  461.0000    94.7889    13.3743    13.6259
  461.5000    93.9456    13.2973    13.5474
  462.0000    95.5273    13.2089    13.4572
  462.5000    97.7783    13.2219    13.4707
  463.0000    96.9960    13.2419    13.4911
  463.5000    95.5971    13.2619    13.5115
  464.0000    94.9502    13.2819    13.5319
  464.5000    94.9426    13.3022    13.5525
  465.0000    94.2514    13.3215    13.5826
  465.5000    92.9791    13.3327    13.5528
  466.0000    91.7186    13.2403    13.4894
  466.5000    91.0211    13.1783    13.4263
  467.0000    91.4510    13.1167    13.3635
  467.5000    92.1339    13.0553    13.3010
  468.0000    93.3037    12.9942    13.2388
  468.5000    94.4889    12.9334    13.1768
  469.0000    94.1375    12.8729    13.1152
  469.5000    92.8329    12.7674    13.0077
  470.0000    91.4609    12.6231    12.8606
  470.5000    93.2122    12.4804    12.7153
  471.0000    95.5420    12.3393    12.5715
  471.5000    97.7402    12.1999    12.4294
  472.0000    96.4261    12.0619    12.2889
  472.5000    95.7675    11.9216    12.1459
  473.0000    95.7986    11.7199    11.9405
  473.5000    93.9873    11.5156    11.7324
  474.0000    92.0074    11.3149    11.5280
  474.5000    90.0480    11.1207    11.3289
