~VERSION INFORMATION
 VERS.                2.0:   CWLS LOG ASCII STANDARD - VERSION 2.0
 WRAP.                 NO:   ONE LINE PER DEPTH STEP
~WELL INFORMATION
#MNEM.UNIT      DATA TYPE    INFORMATION
#----------   ------------   ------------------------------
 STRT.F           31.0000:   START DEPTH
 STOP.F          662.0000:   STOP DEPTH
 STEP.F            0.5000:   STEP LENGTH
 NULL.          -999.2500:   NO VALUE
 COMP. FENIX & SCISSON INC:   COMPANY
 WELL.   NPR-3 #83SX15-15:   WELL
 FLD .             TEAPOT:   FIELD
 LOC .      S15 T38N R78W:   LOCATION
 CNTY.            NATRONA:   COUNTY
 STAT.            WYOMING:   STATE
 CTRY. UNITED STATES OF AMERICA:   COUNTRY
 SRVC.            Unknown:   SERVICE COMPANY
 DATE.        17-MAY-1978:   LOGDATE
 API .       490251062500:   API NUMBER
~CURVE INFORMATION
#MNEM.UNIT       API CODE    CURVE DESCRIPTION
#----------   ------------   ------------------------------
 DEPT.F                  :   
 SN  .OHMM   07 040 16 00:   SHORT NORMAL 16'
 ILD .OHMM   07 120 46 00:   INDUCTION LOG DEEP
 CALD.IN     45 280 60 00:   CALIPER
 GRD .GAPI   45 310 01 00:   GAMMA RAY FROM DENSITY LOG
 RHOB.G/C3   45 350 01 00:   BULK DENSITY
 DPHI.DEC    45 890 10 00:   DENSITY POROSITY SANDSTONE
 CORR.G/C3   45 356 01 00:   DENSITY CORRECTION
~PARAMETER INFORMATION
#MNEM.UNIT          VALUE    DESCRIPTION
#----------   ------------   ------------------------------
 PD  .                 GL:   PERMANENT DATUM
 EPD .F              5265:   ELEVATION PERMANENT DATUM
 LMF .                 KB:   LOG MEASURED FROM
 DMF .                 KB:   DRILLING MEASURED FROM
 EKB .F              5269:   KELLING BUSHING
 EGL .F              5265:   GROUND LEVEL
 DATE.          5-17-1978:   RUN DATE
 RUN .                  1:   RUN NUMBER
 DD  .F               670:   DEPTH DRILLER
 DL  .F               668:   DEPTH LOGGER
 BLI .F               662:   BOTTOM LOG INTERVAL
 TLI .F                40:   TOP LOG INTERVAL
 CS  .IN            8.625:   CASING SIZE
 CBD .F                40:   CASING BOTTOM DRILLER
 BS  .IN            7.875:   BIT SIZE
 BSD .F               670:   BIT SIZE AT DEPTH
 DFT .                KCL:   DRILLING FLUID TYPE
 DFD .                8.6:   DRILLING FLUID DENSITY
 DFV .                 31:   DRILLING FLUID VISCOSITY
 DFPH.                 10:   DRILLING FLUID PH
 BHT .F                75:   BOTTOM HOLE TEMPERATURE
 TCS .HRS               2:   TIME CURCULATED STOPPED
 MRT .F                75:   MAXIMUM RECORDED TEMPERATURE
 LUN .               3006:   LOGGING UNIT NUMBER
 LUL .                CPR:   LOGGING UNIT LOCATION
 ENGI.             MILLER:   RECORDING ENGINEER
 WITN.           MCGINLEY:   WITNESSED BY
 CLNT.            A2DTECH:   CLIENT CODE
 ORIG.      2" & 5" PRINT:   ORIGIN OF DATA
 UWI .       490251062500:   UNIQUE WELL ID
 DICO. A2D Technologies, Inc.:   DIGITIZING COMPANY
~OTHER INFORMATION
~A   DEPT       SN        ILD       CALD         GRD      RHOB       DPHI       CORR   
# ...
  304.0000     7.0040     7.1305     7.4805    83.6207     2.4923     0.1147     0.0444
  304.5000     6.9885     7.1032     7.4948    86.8736     2.5062     0.1063     0.0466
  305.0000     6.9677     7.0963     7.5092    87.1382     2.5152     0.1003     0.0489
  305.5000     6.9884     7.1154     7.5236    85.6989     2.5199     0.0962     0.0511
  306.0000     7.0246     7.1624     7.5379    82.5288     2.5282     0.0916     0.0521
  306.5000     7.0610     7.2096     7.5523    82.1189     2.5371     0.0870     0.0454
  307.0000     7.0976     7.2572     7.5667    82.6955     2.5296     0.0951     0.0391
  307.5000     7.1344     7.3052     7.5810    81.9956     2.5188     0.0994     0.0391
  308.0000     7.1654     7.3534     7.5954    77.6180     2.5138     0.0981     0.0427
  308.5000     7.1790     7.4019     7.6098    73.1151     2.5090     0.0992     0.0464
  309.0000     7.1927     7.4508     7.6242    73.2111     2.5050     0.1019     0.0488
  309.5000     7.2064     7.4995     7.6385    74.6187     2.5030     0.1045     0.0477
  310.0000     7.2201     7.5032     7.6529    76.0050     2.5016     0.1061     0.0468
  310.5000     7.2338     7.5068     7.6589    76.2953     2.5002     0.1054     0.0458
  311.0000     7.2476     7.5105     7.6648    76.2970     2.4986     0.1074     0.0443
  311.5000     7.2614     7.5141     7.6563    76.8159     2.4962     0.1094     0.0398
  312.0000     7.2752     7.5178     7.6285    78.5338     2.4940     0.1102     0.0355
  312.5000     7.2890     7.5215     7.5998    79.4328     2.4929     0.1122     0.0332
  313.0000     7.3029     7.5251     7.5712    79.4338     2.4919     0.1146     0.0339
  313.5000     7.3168     7.5288     7.5433    80.0639     2.4895     0.1171     0.0345
  314.0000     7.3307     7.5325     7.5246    80.6720     2.4871     0.1195     0.0351
  314.5000     7.3446     7.5361     7.5077    80.3366     2.4887     0.1155     0.0357
  315.0000     7.3586     7.5398     7.4889    79.0816     2.4906     0.1140     0.0363
  315.5000     7.3726     7.5435     7.4685    77.8223     2.4901     0.1166     0.0368
  316.0000     7.3866     7.5472     7.4481    76.5629     2.4891     0.1177     0.0391
  316.5000     7.4006     7.5509     7.4277    75.2932     2.4880     0.1165     0.0418
  317.0000     7.4147     7.5545     7.4074    74.9463     2.4880     0.1184     0.0444
  317.5000     7.4288     7.5582     7.3885    75.9709     2.4880     0.1165     0.0471
  318.0000     7.4429     7.5621     7.3707    76.8366     2.4880     0.1182     0.0486
  318.5000     7.4571     7.5647     7.3527    75.7946     2.4886     0.1181     0.0468
  319.0000     7.4713     7.5640     7.3347    74.9575     2.4941     0.1122     0.0451
  319.5000     7.4855     7.6311     7.3168    75.6047     2.4999     0.1120     0.0464
  320.0000     7.4997     7.7096     7.2988    76.2489     2.5000     0.1130     0.0480
  320.5000     7.4981     7.8370     7.2808    75.7165     2.4983     0.1116     0.0495
  321.0000     7.5824     7.9641     7.2629    74.7192     2.4999     0.1106     0.0512
  321.5000     7.6785     8.0933     7.2449    74.8848     2.5023     0.1064     0.0570
  322.0000     7.7758     8.2245     7.2269    73.7335     2.5047     0.1014     0.0592
  322.5000     7.8743     8.3579     7.2137    69.3677     2.5029     0.1049     0.0515
  323.0000     7.9741     8.4934     7.2028    65.1107     2.4984     0.1081     0.0429
  323.5000     8.0751     8.6312     7.1919    64.0946     2.4940     0.1114     0.0357
  324.0000     8.1774     8.7711     7.1810    66.4315     2.4910     0.1120     0.0320
  324.5000     8.2810     8.9134     7.1701    69.5660     2.4913     0.1114     0.0282
  325.0000     8.3859     9.0580     7.1592    72.2047     2.4917     0.1110     0.0244
  325.5000     8.4922     9.2049     7.1483    72.3852     2.4912     0.1145     0.0206
  326.0000     8.5998     9.3541     7.1374    72.9424     2.4871     0.1179     0.0170
  326.5000     8.7087     9.5058     7.1265    73.9769     2.4838     0.1198     0.0207
  327.0000     8.8191     9.6600     7.1156    74.5081     2.4923     0.1118     0.0252
  327.5000     8.8518     9.8167     7.1037    74.8576     2.5004     0.1059     0.0299
  328.0000     8.8518     9.9018     7.1260    73.4320     2.4946     0.1113     0.0314
  328.5000     8.8518     9.9441     7.1597    71.3853     2.4905     0.1145     0.0321
  329.0000     8.8518     9.9865     7.1937    69.3129     2.4883     0.1165     0.0327
  329.5000     8.8518    10.0291     7.2279    68.8761     2.4859     0.1181     0.0334
  330.0000     8.8518    10.0719     7.2408    69.0010     2.4847     0.1196     0.0340
  330.5000     8.8519    10.1149     7.2411    69.5909     2.4843     0.1210     0.0347
  331.0000     8.8521    10.1632     7.2409    70.1532     2.4849     0.1193     0.0362
  331.5000     8.8101    10.1257     7.2419    70.7568     2.4870     0.1157     0.0390
  332.0000     8.6756    10.0833     7.2609    69.0870     2.4890     0.1120     0.0417
  332.5000     8.5434    10.0410     7.2796    66.8372     2.4892     0.1117     0.0445
  333.0000     8.4132     9.9990     7.2980    67.0335     2.4860     0.1182     0.0472
  333.5000     8.2966     9.8927     7.3162    68.4744     2.4829     0.1199     0.0492
  334.0000     8.2887     9.7223     7.3604    70.2261     2.4807     0.1186     0.0495
  334.5000     8.2789     9.5548     7.4110    71.9653     2.4801     0.1204     0.0498
  335.0000     8.2695     9.3903     7.4430    73.3083     2.4787     0.1233     0.0502
  335.5000     8.2600     9.2285     7.4487    73.1789     2.4770     0.1243     0.0505
  336.0000     8.2505     9.1840     7.4547    73.2879     2.4822     0.1199     0.0509
  336.5000     8.2410     9.1966     7.4641    74.1221     2.4882     0.1155     0.0528
  337.0000     8.2316     9.2061     7.4989    74.2903     2.4942     0.1111     0.0553
  337.5000     8.2221     9.2155     7.5343    72.7405     2.4966     0.1095     0.0579
  338.0000     8.2127     9.2250     7.5696    71.0557     2.4969     0.1134     0.0604
  338.5000     8.2032     9.2345     7.6051    69.3607     2.4995     0.1119     0.0630
  339.0000     8.1938     9.2439     7.6381    68.4531     2.5021     0.1090     0.0655
  339.5000     8.1844     9.2532     7.6235    68.6236     2.5027     0.1092     0.0681
  340.0000     8.1750     9.2629     7.6072    69.1276     2.5021     0.1093     0.0695
  340.5000     8.1656     9.2689     7.5909    69.5352     2.5046     0.1079     0.0703
  341.0000     8.1562     9.1472     7.5679    69.6318     2.5082     0.1023     0.0702
  341.5000     8.1476     9.0593     7.5202    69.3811     2.5122     0.0974     0.0622
  342.0000     8.1480     8.9723     7.4743    67.4185     2.5035     0.1126     0.0542
  342.5000     8.0747     8.8330     7.4289    63.4906     2.4855     0.1211     0.0490
  343.0000     7.9779     8.6540     7.4000    62.3303     2.4820     0.1194     0.0490
  343.5000     7.8822     8.4786     7.4016    64.3455     2.4809     0.1178     0.0469
  344.0000     7.7877     8.3068     7.4080    66.8379     2.4790     0.1212     0.0409
  344.5000     7.6942     8.1384     7.4144    68.9014     2.4761     0.1274     0.0348
  345.0000     7.6020     7.9735     7.4208    69.3105     2.4665     0.1335     0.0288
  345.5000     7.5549     7.8529     7.4271    68.1445     2.4541     0.1396     0.0227
  346.0000     7.5336     7.7809     7.4335    67.4990     2.4416     0.1457     0.0163
  346.5000     7.5122     7.7828     7.4398    68.5117     2.4306     0.1522     0.0175
  347.0000     7.4909     7.7492     7.4462    70.0449     2.4326     0.1526     0.0209
  347.5000     7.4696     7.7260     7.4525    71.1019     2.4443     0.1422     0.0244
  348.0000     7.4483     7.7028     7.4588    71.3003     2.4507     0.1378     0.0250
  348.5000     7.4272     7.6796     7.4652    71.3001     2.4506     0.1393     0.0250
  349.0000     7.4061     7.6563     7.4715    71.3245     2.4501     0.1418     0.0250
