~VERSION INFORMATION
 VERS.                2.0:   CWLS LOG ASCII STANDARD - VERSION 2.0
 WRAP.                 NO:   ONE LINE PER DEPTH STEP
~WELL INFORMATION
#MNEM.UNIT      DATA TYPE    INFORMATION
#----------   ------------   ------------------------------
 STRT.F           30.0000:   START DEPTH
 STOP.F          440.0000:   STOP DEPTH
 STEP.F            0.5000:   STEP LENGTH
 NULL.          -999.2500:   NO VALUE
 COMP. LAWRENCE/ALLISON INC:   COMPANY
 WELL. NPR #3 #52-31 SX 10:   WELL
 FLD .             TEAPOT:   FIELD
 LOC .      S10 T38N R78W:   LOCATION
 CNTY.            NATRONA:   COUNTY
 STAT.            WYOMING:   STATE
 CTRY. UNITED STATES OF AMERICA:   COUNTRY
 SRVC.           Gearhart:   SERVICE COMPANY
 DATE.        27-SEP-1988:   LOGDATE
 API .       490251124800:   API NUMBER
~CURVE INFORMATION
#MNEM.UNIT       API CODE    CURVE DESCRIPTION
#----------   ------------   ------------------------------
 DEPT.F                  :   
 GRR .GAPI   07 310 01 00:   GAMMA RAY FROM RES. LOG.
 RLL .OHMM   07 220 00 00:   LATEROLOG RESISTIVITY
 ILD .OHMM   07 120 46 00:   INDUCTION LOG DEEP
 ILM .OHMM   07 120 44 00:   INDUCTION LOG MEDIUM
 SPR .MV     07 010 01 00:   SPONTANEOUS POTENTIAL
~PARAMETER INFORMATION
#MNEM.UNIT          VALUE    DESCRIPTION
#----------   ------------   ------------------------------
 PD  .                 GL:   PERMANENT DATUM
 EPD .F              5179:   ELEVATION PERMANENT DATUM
 LMF .                 KB:   LOG MEASURED FROM
 DAPD.F                 8:   FEET ABOVE PERMANENT DATUM
 DMF .                 KB:   DRILLING MEASURED FROM
 EKB .F              5187:   KELLING BUSHING
 EDF .F              5185:   DRILLING FLOOR
 EGL .F              5179:   GROUND LEVEL
 DATE.            9-27-88:   RUN DATE
 RUN .                  1:   RUN NUMBER
 DD  .F               441:   DEPTH DRILLER
 DL  .F               442:   DEPTH LOGGER
 BLI .F               441:   BOTTOM LOG INTERVAL
 TLI .F                40:   TOP LOG INTERVAL
 CS  .IN            9.625:   CASING SIZE
 CBD .F                50:   CASING BOTTOM DRILLER
 CBL .F                50:   CASING BOTTOM LOGGER
 BS  .IN             8.75:   BIT SIZE
 BSD .F               441:   BIT SIZE AT DEPTH
 DFT .                MUD:   DRILLING FLUID TYPE
 MSS .           MUD TANK:   MUD SAMPLE SOURCE
 RMS .OHMM              2:   RESISTIVITY MUD SAMPLE
 MST .F                64:   MUD SAMPLE TEMPERATURE
 RMF .OHMM            2.4:   RESISTIVITY MUD FILTRATE SAMPLE
 MFST.F                66:   MUD FILTRATE SAMPLE TEMPERATURE
 RMC .OHMM              3:   RESISTIVITY MUD CAKE
 MCST.F                67:   MUD CAKE SAMPLE TEMPERATURE
 MFSS.                  M:   MUD FILTRATE SAMPLE SOURCE
 MCSS.                  M:   MUD CAKE SAMPLE SOURCE
 RMB .OHMM            1.3:   RESISTIVITY MUD AT BHT
 BHT .F                70:   BOTTOM HOLE TEMPERATURE
 TCS .HRS            0910:   TIME CURCULATED STOPPED
 TLAB.HRS            1113:   TIME LOGGER AT BOTTOM
 MRT .F                70:   MAXIMUM RECORDED TEMPERATURE
 LUN .               7597:   LOGGING UNIT NUMBER
 LUL .           GILLETTE:   LOGGING UNIT LOCATION
 ENGI.         WEATHERMON:   RECORDING ENGINEER
 WITN.             STRONG:   WITNESSED BY
 CLNT.            A2DTECH:   CLIENT CODE
 ORIG.       2", 5" PRINT:   ORIGIN OF DATA
 UWI .       490251124800:   UNIQUE WELL ID
 DICO. A2D Technologies, Inc.:   DIGITIZING COMPANY
~OTHER INFORMATION
~A   DEPT       GRR       RLL        ILD        ILM        SPR   
   30.0000    62.1730  -999.2500  -999.2500  -999.2500  -999.2500
   30.5000    62.1730  -999.2500  -999.2500  -999.2500  -999.2500
   31.0000    62.1102  -999.2500  -999.2500  -999.2500  -999.2500
   31.5000    62.0110  -999.2500  -999.2500  -999.2500  -999.2500
   32.0000    61.8779  -999.2500  -999.2500  -999.2500  -999.2500
   32.5000    61.9499  -999.2500  -999.2500  -999.2500  -999.2500
   33.0000    63.6666  -999.2500  -999.2500  -999.2500  -999.2500
   33.5000    65.3950  -999.2500  -999.2500  -999.2500  -999.2500
   34.0000    66.4597  -999.2500  -999.2500  -999.2500  -999.2500
   34.5000    64.8632  -999.2500  -999.2500  -999.2500  -999.2500
   35.0000    63.2704  -999.2500  -999.2500  -999.2500  -999.2500
   35.5000    61.7835  -999.2500  -999.2500  -999.2500  -999.2500
   36.0000    63.3235  -999.2500  -999.2500  -999.2500  -999.2500
   36.5000    66.4268  -999.2500  -999.2500  -999.2500  -999.2500
   37.0000    68.6542  -999.2500  -999.2500  -999.2500  -999.2500
   37.5000    68.6207  -999.2500  -999.2500  -999.2500  -999.2500
   38.0000    68.4317  -999.2500  -999.2500  -999.2500  -999.2500
   38.5000    66.6813  -999.2500  -999.2500  -999.2500  -999.2500
   39.0000    65.1507  -999.2500  -999.2500  -999.2500  -999.2500
   39.5000    63.8788  -999.2500  -999.2500  -999.2500  -999.2500
   40.0000    63.2174  -999.2500  -999.2500  -999.2500  -999.2500
   40.5000    64.1390  -999.2500  -999.2500  -999.2500  -999.2500
   41.0000    64.3101  -999.2500  -999.2500  -999.2500  -999.2500
   41.5000    63.7680  -999.2500  -999.2500  -999.2500  -999.2500
   42.0000    63.4943  -999.2500  -999.2500  -999.2500  -999.2500
   42.5000    63.8988  -999.2500  -999.2500  -999.2500  -999.2500
   43.0000    63.6610  -999.2500  -999.2500  -999.2500  -999.2500
   43.5000    61.7993  -999.2500  -999.2500  -999.2500  -999.2500
   44.0000    60.1678  -999.2500  -999.2500  -999.2500  -999.2500
   44.5000    61.1634  -999.2500  -999.2500  -999.2500  -999.2500
   45.0000    63.1878  -999.2500  -999.2500  -999.2500  -999.2500
   45.5000    64.9267  -999.2500  -999.2500  -999.2500  -999.2500
   46.0000    64.4083  -999.2500  -999.2500  -999.2500  -999.2500
   46.5000    63.8550  -999.2500  -999.2500  -999.2500  -999.2500
   47.0000    63.3611  -999.2500  -999.2500  -999.2500  -999.2500
   47.5000    64.7440  -999.2500  -999.2500  -999.2500  -999.2500
   48.0000    68.1306  -999.2500  -999.2500  -999.2500  -999.2500
   48.5000    71.4983  -999.2500  -999.2500  -999.2500  -999.2500
   49.0000    75.6196  -999.2500  -999.2500  -999.2500  -999.2500
   49.5000    81.6642     1.8873  -999.2500  -999.2500  -999.2500
   50.0000    88.4866     2.4667     2.3823    27.4325   -78.9738
   50.5000    95.1378     3.2238     1.8015    10.3073   -79.5775
   51.0000    98.7385     3.9937     2.0027     3.8330   -82.3686
   51.5000   100.2146     4.3769     3.4511     3.8708   -84.7263
   52.0000   101.6345     4.4836     7.4801     3.2353   -87.1194
   52.5000   103.0751     4.5928    17.3974     4.4637   -88.7561
   53.0000   101.9683     4.7047    15.4676     5.5915   -89.4924
   53.5000   100.1944     4.7801    11.1452     7.0107   -90.0194
   54.0000    98.4385     4.7362     8.0450     9.5903   -90.5377
   54.5000    99.1863     4.6924     6.9325     9.0122   -91.0583
   55.0000   100.5097     4.7396     6.8684     8.0768   -91.5817
   55.5000   101.0694     4.8169     7.4106     7.2490   -92.0037
   56.0000   100.6196     4.8949     7.9543     6.5102   -92.3209
   56.5000    99.2268     4.9741     8.5379     6.2009   -92.6380
   57.0000    98.0222     5.0545     9.1617     6.2591   -92.9570
   57.5000    98.3551     5.1363     8.7899     6.3935   -93.2509
   58.0000    99.5442     5.3837     8.4482     6.7338   -93.1836
   58.5000   100.1654     5.7616     8.1198     7.0921   -93.1100
   59.0000    99.2643     5.7719     7.8959     7.3759   -93.1847
   59.5000    98.3899     5.7822     8.0960     7.6352   -93.5805
   60.0000    99.3743     5.7925     8.2508     7.8956   -93.9711
   60.5000   102.3883     5.8028     8.4080     7.9056   -94.3623
   61.0000   105.3867     5.8105     8.5678     7.9133   -94.7582
   61.5000   106.6713     5.8103     8.5987     7.9219   -94.9447
   62.0000   105.8224     5.8103     8.6265     7.9306   -95.0950
   62.5000   101.5997     5.8102     8.6541     7.9393   -95.2465
   63.0000    99.4968     5.8099     8.6819     7.9480   -95.1985
   63.5000    99.1972     5.8349     8.7098     7.9566   -95.0742
   64.0000    99.4755     5.8550     8.7378     7.9690   -95.4769
   64.5000   100.0600     5.8752     8.7660     7.9526   -95.8807
   65.0000   100.6454     5.8954     8.7941     7.9208   -95.6576
   65.5000   101.1702     5.9157     8.8274     7.8892   -95.5330
   66.0000   100.4579     5.9361     8.8129     7.8576   -95.8930
   66.5000    99.7161     5.9565     8.7952     7.8228   -96.1750
   67.0000    99.1902     5.9770     8.7776     7.8790   -96.3841
   67.5000    99.1986     5.9975     8.7603     7.9424   -96.5911
   68.0000    98.9752     6.0183     8.7469     8.0064   -96.8038
   68.5000    97.7100     6.1664     8.8718     8.0709   -96.5548
   69.0000    96.9465     6.5052     8.9792     8.1359   -96.0939
   69.5000    97.8326     6.6177     9.0770     8.1949   -96.2966
   70.0000    98.6746     6.6491     9.2436     8.3758   -96.4526
   70.5000    99.6636     6.8860     9.4310     8.5799   -96.2072
   71.0000    98.4149     7.1950     9.6222     8.7889   -95.9655
   71.5000    96.8844     7.1519     9.8171     8.9471   -95.7238
   72.0000    96.1510     7.0626     9.9611     9.0338   -95.4824
   72.5000    95.7975     7.2247    10.0796     9.1211   -95.2822
   73.0000    95.4518     7.4647    10.1904     9.2077   -95.4358
   73.5000    95.2145     7.7125    10.3031     9.3396   -95.5867
   74.0000    95.5245     7.9686    10.4132     9.5881   -95.7441
   74.5000    95.8205     8.2317    10.7360     9.8433   -96.0814
   75.0000    95.5055     8.4299    11.0616    10.1052   -95.7005
   75.5000    94.0058     8.8101    11.3971    10.3882   -94.7915
   76.0000    92.5577     9.1748    11.7429    10.7764   -95.1383
   76.5000    91.1953     9.4795    12.0990    11.1792   -95.4245
   77.0000    91.8259     9.8474    12.4502    11.5953   -95.4709
   77.5000    93.4910    10.2351    12.5254    12.1079   -95.4797
   78.0000    93.5060    10.5478    12.5980    12.0887   -95.8339
   78.5000    92.8824    10.5987    12.6710    12.0610   -96.9246
   79.0000    92.4162    10.6306    12.7444    12.0334   -96.2621
   79.5000    92.8461    10.4805    12.8022    12.0095   -95.4889
   80.0000    92.7874    10.3552    12.6384    11.8759   -95.6121
   80.5000    90.9852    10.2313    12.5052    11.8854   -95.7888
   81.0000    89.2374    10.1089    12.3735    11.8861   -95.7878
   81.5000    87.5016     9.9611    12.2431    11.7538   -95.5084
   82.0000    87.6664    10.0233    12.1141    11.5162   -95.2319
   82.5000    90.2405    10.1040    11.9865    11.2838   -95.0524
   83.0000    92.8020    10.1480    11.8602    11.0563   -94.9721
   83.5000    93.3496     9.7594    11.7353    10.8334   -94.8906
   84.0000    93.0763     9.6682    11.5581    10.7064   -95.1841
   84.5000    92.7182     9.6325    11.5966    10.6439   -95.5269
   85.0000    90.7105     9.5976    11.6651    10.5798   -95.1774
   85.5000    88.6107     9.4110    11.7341    10.5323   -94.8817
   86.0000    86.7051     9.1617    11.8035    10.5889   -94.5820
   86.5000    88.1932     9.2891    11.8733    10.6742   -94.2779
   87.0000    90.2707     9.4333    11.9435    10.7602   -94.1942
   87.5000    90.7266     9.5797    12.0141    10.8472   -94.1216
   88.0000    89.6151     9.7284    12.0853    10.9307   -94.0473
   88.5000    89.1410     9.8700    12.1566    10.9733   -93.9731
   89.0000    89.1353     9.7999    12.2209    11.0225   -93.8983
   89.5000    89.3696     9.7236    12.1669    11.0723   -93.9284
   90.0000    91.0768     9.5672    12.1182    11.1225   -94.0505
   90.5000    93.8057     9.2475    12.0697    11.1729   -94.1728
