~VERSION INFORMATION
 VERS.                2.0:   CWLS LOG ASCII STANDARD - VERSION 2.0
 WRAP.                 NO:   ONE LINE PER DEPTH STEP
~WELL INFORMATION
#MNEM.UNIT      DATA TYPE    INFORMATION
#----------   ------------   ------------------------------
 STRT.F           30.0000:   START DEPTH
 STOP.F          744.0000:   STOP DEPTH
 STEP.F            0.5000:   STEP LENGTH
 NULL.          -999.2500:   NO VALUE
 COMP. FENIX & SCISSON INC:   COMPANY
 WELL.   NPR 3 #53 S - 34:   WELL
 FLD .             TEAPOT:   FIELD
 LOC .      S34 T39N R78W:   LOCATION
 CNTY.            NATRONA:   COUNTY
 STAT.            WYOMING:   STATE
 CTRY. UNITED STATES OF AMERICA:   COUNTRY
 SRVC.       Schlumberger:   SERVICE COMPANY
 DATE.        28-MAR-1977:   LOGDATE
 API .       490251031700:   API NUMBER
~CURVE INFORMATION
#MNEM.UNIT       API CODE    CURVE DESCRIPTION
#----------   ------------   ------------------------------
 DEPT.F                  :   
 CALD.IN     45 280 60 00:   CALIPER FROM DENSITY LOG
 GRD .GAPI   45 310 01 00:   GAMMA RAY FROM DENSITY LOG
 CORR.G/C3   45 356 01 00:   DENSITY CORRECTION
 DPHI.DEC    45 890 12 00:   DENSITY POROSITY SANDSTONE
 RHOB.G/C3   45 350 01 00:   BULK DENSITY
~PARAMETER INFORMATION
#MNEM.UNIT          VALUE    DESCRIPTION
#----------   ------------   ------------------------------
 PD  .                 GL:   PERMANENT DATUM
 EPD .F              5081:   ELEVATION PERMANENT DATUM
 LMF .                 GL:   LOG MEASURED FROM
 DAPD.F                 5:   FEET ABOVE PERMANENT DATUM
 DMF .                 KB:   DRILLING MEASURED FROM
 EKB .F              5086:   KELLING BUSHING
 EGL .F              5081:   GROUND LEVEL
 DATE.        20-MAR-1977:   RUN DATE
 RUN .                  1:   RUN NUMBER
 DD  .F               751:   DEPTH DRILLER
 DL  .F               745:   DEPTH LOGGER
 BLI .F               744:   BOTTOM LOG INTERVAL
 TLI .F                30:   TOP LOG INTERVAL
 CBL .F                38:   CASING BOTTOM LOGGER
 BS  .IN            7.875:   BIT SIZE
 BSD .F               751:   BIT SIZE AT DEPTH
 DFT .             5% KCL:   DRILLING FLUID TYPE
 MSS .           MUD TANK:   MUD SAMPLE SOURCE
 RMS .OHMM            .23:   RESISTIVITY MUD SAMPLE
 MST .F                68:   MUD SAMPLE TEMPERATURE
 RMF .OHMM            .18:   RESISTIVITY MUD FILTRATE SAMPLE
 MFST.F                68:   MUD FILTRATE SAMPLE TEMPERATURE
 RMC .OHMM            .35:   RESISTIVITY MUD CAKE
 MCST.F                68:   MUD CAKE SAMPLE TEMPERATURE
 MFSS.               MEAS:   MUD FILTRATE SAMPLE SOURCE
 MCSS.               CALC:   MUD CAKE SAMPLE SOURCE
 RMB .OHMM            .24:   RESISTIVITY MUD AT BHT
 BHT .F                60:   BOTTOM HOLE TEMPERATURE
 TCS .HRS            0300:   TIME CURCULATED STOPPED
 MRT .F                60:   MAXIMUM RECORDED TEMPERATURE
 LUN .               7680:   LOGGING UNIT NUMBER
 LUL .               CSPR:   LOGGING UNIT LOCATION
 ENGI.                FIX:   RECORDING ENGINEER
 WITN.              BURKE:   WITNESSED BY
 CLNT.            A2DTECH:   CLIENT CODE
 ORIG.           5" PRINT:   ORIGIN OF DATA
 UWI .       490251031700:   UNIQUE WELL ID
 DICO. A2D Technologies, Inc.:   DIGITIZING COMPANY
~OTHER INFORMATION
~A   DEPT     CALD        GRD       CORR       DPHI       RHOB   
# ...
  152.0000     8.2897    59.8398     0.0065     0.1944     2.3338
  152.5000     8.2910    61.7030     0.0182     0.1825     2.3626
  153.0000     8.2770    64.3361     0.0245     0.1769     2.3657
  153.5000     8.2783    64.3528     0.0277     0.1778     2.3604
  154.0000     8.2639    62.3604     0.0207     0.1806     2.3550
  154.5000     8.1268    66.9363     0.0247     0.1849     2.3504
  155.0000     8.0201    71.1608     0.0162     0.1884     2.3442
  155.5000     8.0832    73.8598     0.0187     0.1813     2.3513
  156.0000     8.2389    75.2076     0.0218     0.1686     2.3614
  156.5000     8.2557    76.1458     0.0297     0.1574     2.3777
  157.0000     8.2571    77.3922     0.0437     0.1490     2.3987
  157.5000     8.2585    78.1763     0.0329     0.1589     2.4011
  158.0000     8.2444    76.1869     0.0221     0.1595     2.3888
  158.5000     8.2461    75.4302     0.0168     0.1524     2.3935
  159.0000     8.2317    75.9062     0.0254     0.1555     2.3990
  159.5000     8.2180    79.3097     0.0502     0.1315     2.4246
  160.0000     8.2193    83.3296     0.0604     0.1153     2.4487
  160.5000     8.2207    85.1923     0.0460     0.1119     2.4683
  161.0000     8.1912    85.8223     0.0443     0.1144     2.4678
  161.5000     8.1768    86.9146     0.0289     0.1199     2.4505
  162.0000     8.1785    88.6232     0.0197     0.1329     2.4140
  162.5000     8.1799    88.4828     0.0321     0.1238     2.4412
  163.0000     8.1813    83.1037     0.0245     0.1211     2.4522
  163.5000     8.1981    81.1143     0.0470     0.1118     2.4708
  164.0000     8.1994    80.3534     0.0571     0.1058     2.4864
  164.5000     8.2008    82.5408     0.0526     0.1086     2.4802
  165.0000     8.2176    85.6753     0.0379     0.1165     2.4586
  165.5000     8.2190    88.8068     0.0396     0.1197     2.4462
  166.0000     8.2358    89.9907     0.0528     0.1099     2.4688
  166.5000     8.2217    90.4449     0.0753     0.1082     2.4828
  167.0000     8.2055    90.6127     0.0700     0.1147     2.4634
  167.5000     8.1936    90.7805     0.0484     0.1221     2.4511
  168.0000     8.1953    91.0990     0.0330     0.1283     2.4442
  168.5000     8.2430    87.2640     0.0253     0.1233     2.4396
  169.0000     8.2598    86.0416     0.0177     0.1295     2.4381
  169.5000     8.2612    85.2884     0.0115     0.1316     2.4381
  170.0000     8.2625    82.6826     0.0217     0.1248     2.4436
  170.5000     8.2639    82.0766     0.0233     0.1189     2.4554
  171.0000     8.2653    83.6346     0.0257     0.1151     2.4648
  171.5000     8.2666    84.5728     0.0259     0.1148     2.4678
  172.0000     8.2680    83.1997     0.0289     0.1182     2.4601
  172.5000     8.2694    78.2828     0.0190     0.1225     2.4532
  173.0000     8.2708    75.2148     0.0167     0.1284     2.4416
  173.5000     8.2721    73.5336     0.0199     0.1327     2.4347
  174.0000     8.2735    72.0065     0.0169     0.1339     2.4309
  174.5000     8.2749    73.4069     0.0193     0.1305     2.4293
  175.0000     8.2762    83.8983     0.0240     0.1236     2.4465
  175.5000     8.2776    87.6102     0.0341     0.1158     2.4651
  176.0000     8.2790    86.8105     0.0195     0.1155     2.4621
  176.5000     8.2804    85.3051     0.0196     0.1187     2.4466
  177.0000     8.2821    84.3585     0.0204     0.1235     2.4412
  177.5000     8.2834    83.9668     0.0275     0.1166     2.4584
  178.0000     8.2848    86.1411     0.0430     0.1101     2.4755
  178.5000     8.2862    86.9253     0.0385     0.1045     2.4872
  179.0000     8.2875    87.5553     0.0478     0.0998     2.4927
  179.5000     8.2889    88.3394     0.0526     0.1125     2.4803
  180.0000     8.2903    87.5827     0.0376     0.1097     2.4672
  180.5000     8.2917    86.6685     0.0241     0.1053     2.4828
  181.0000     8.2930    86.0693     0.0249     0.1103     2.4716
  181.5000     8.2944    85.1585     0.0142     0.1199     2.4518
  182.0000     8.2958    83.9396     0.0251     0.1130     2.4752
  182.5000     8.2973    83.9533     0.0321     0.1027     2.4977
  183.0000     8.2985    84.4292     0.0361     0.0940     2.5017
  183.5000     8.2999    84.9052     0.0392     0.1077     2.4598
  184.0000     8.3012    82.2995     0.0130     0.1188     2.4513
  184.5000     8.3026    71.3733     0.0154     0.1175     2.4545
  185.0000     8.2886    71.0272     0.0248     0.1153     2.4592
  185.5000     8.2900    78.4885     0.0218     0.1128     2.4717
  186.0000     8.2914    82.5085     0.0156     0.1181     2.4508
  186.5000     8.2930    83.4695     0.0149     0.1232     2.4400
  187.0000     8.2786    84.5578     0.0111     0.1268     2.4392
  187.5000     8.2803    85.1952     0.0128     0.1298     2.4502
  188.0000     8.2817    85.6449     0.0206     0.1124     2.4665
  188.5000     8.2985    84.1212     0.0286     0.1186     2.4580
  189.0000     8.2999    82.5941     0.0160     0.1279     2.4395
  189.5000     8.3012    81.5292     0.0146     0.1319     2.4420
  190.0000     8.3026    80.0021     0.0225     0.1263     2.4295
  190.5000     8.3040    78.3208     0.0287     0.1222     2.4452
  191.0000     8.3053    77.7182     0.0311     0.1178     2.4538
  191.5000     8.3067    79.2728     0.0250     0.1166     2.4545
  192.0000     8.3081    83.7549     0.0181     0.1246     2.4460
  192.5000     8.3095    82.8441     0.0236     0.1178     2.4577
  193.0000     8.3108    81.6251     0.0121     0.1277     2.4461
  193.5000     8.3122    81.1732     0.0098     0.1239     2.4376
  194.0000     8.3136    82.7311     0.0076     0.1199     2.4516
  194.5000     8.3150    82.5901     0.0092     0.1205     2.4463
  195.0000     8.3164    81.0636     0.0163     0.1239     2.4339
  195.5000     8.3177    76.7630     0.0194     0.1235     2.4565
  196.0000     8.3194    74.4655     0.0296     0.1182     2.4550
  196.5000     8.3208    76.9497     0.0157     0.1300     2.4325
  197.0000     8.3221    80.9892     0.0050     0.1306     2.4365
  197.5000     8.3235    81.9026     0.0035     0.1240     2.4388
  198.0000     8.3249    79.9132     0.0219     0.1091     2.4629
  198.5000     8.3262    80.0844     0.0416     0.1032     2.4894
  199.0000     8.3276    81.6390     0.0192     0.1150     2.4630
  199.5000     8.3290    84.4262     0.0115     0.1205     2.4476
  200.0000     8.3304    86.9052     0.0008     0.1279     2.4298
  200.5000     8.3317    87.5434     0.0062     0.1211     2.4431
  201.0000     8.3335    88.0298     0.0048     0.1201     2.4509
  201.5000     8.3376    87.6810     0.0079     0.1244     2.4347
  202.0000     8.3417    86.4222     0.0111     0.1285     2.4324
  202.5000     8.3457    87.9154     0.0135     0.1213     2.4480
  203.0000     8.3498    88.2361     0.0182     0.1209     2.4504
  203.5000     8.3539    87.0244     0.0306     0.1138     2.4605
  204.0000     8.3579    86.5747     0.0013     0.1293     2.4319
  204.5000     8.3610    87.8241     0.0060     0.1221     2.4452
  205.0000     8.3627    86.6124     0.0084     0.1224     2.4468
  205.5000     8.3644    83.8557     0.0069     0.1283     2.4290
  206.0000     8.3661    73.5488     0.0077     0.1261     2.4289
  206.5000     8.3678    73.0992     0.0086     0.1304     2.4322
  207.0000     8.3694    74.6609     0.0063     0.1304     2.4207
  207.5000     8.3711    77.9134     0.0063     0.1268     2.4231
  208.0000     8.3728    84.7098     0.0089     0.1216     2.4352
  208.5000     8.3745    86.5756     0.0183     0.1197     2.4465
  209.0000     8.3766    87.3628     0.0117     0.1237     2.4442
  209.5000     8.3782    87.8418     0.0004     0.1277     2.4381
  210.0000     8.3799    87.2422     0.0129     0.1342     2.4126
  210.5000     8.3816    86.3344     0.0253     0.1177     2.4538
  211.0000     8.3833    85.5768     0.0215     0.1205     2.4461
  211.5000     8.3849    85.4435     0.0363     0.1158     2.4570
  212.0000     8.3866    84.7519     0.0479     0.0984     2.4912
  212.5000     8.3883    80.2644     0.0372     0.0853     2.5021
