~VERSION INFORMATION
 VERS.                2.0:   CWLS LOG ASCII STANDARD - VERSION 2.0
 WRAP.                 NO:   ONE LINE PER DEPTH STEP
~WELL INFORMATION
#MNEM.UNIT      DATA TYPE    INFORMATION
#----------   ------------   ------------------------------
 STRT.F           36.0000:   START DEPTH
 STOP.F          503.0000:   STOP DEPTH
 STEP.F            0.5000:   STEP LENGTH
 NULL.          -999.2500:   NO VALUE
 COMP.    FENIX & SCISSON:   COMPANY
 WELL.     NPR ##3 77-S-3:   WELL
 FLD .             TEAPOT:   FIELD
 LOC .       S3 T38N R78W:   LOCATION
 CNTY.            NATRONA:   COUNTY
 STAT.            WYOMING:   STATE
 CTRY. UNITED STATES OF AMERICA:   COUNTRY
 SRVC.       Schlumberger:   SERVICE COMPANY
 DATE.        04-MAR-1977:   LOGDATE
 API .       490251029500:   API NUMBER
~CURVE INFORMATION
#MNEM.UNIT       API CODE    CURVE DESCRIPTION
#----------   ------------   ------------------------------
 DEPT.F                  :   
 SPR .MV     07 010 01 00:   SPONTANEOUS POTENTIAL
 ILD .OHMM   07 120 46 00:   INDUCTION LOG DEEP
 ILM .OHMM   07 120 44 00:   INDUCTION LOG MEDIUM
 LL8 .OHMM   07 220 08 00:   LATEROLOG-8 RES.
 GRD .GAPI   45 310 01 00:   GAMMA RAY FROM DENSITY LOG
 CALD.IN     45 280 60 00:   CALIPER FROM DENSITY LOG
 CORR.G/C3   45 356 01 00:   DENSITY CORRECTION
 RHOB.G/C3   45 350 01 00:   BULK DENSITY
 DPHI.DEC    45 890 12 00:   DENSITY POROSITY SANDSTONE
~PARAMETER INFORMATION
#MNEM.UNIT          VALUE    DESCRIPTION
#----------   ------------   ------------------------------
 PD  .                 GL:   PERMANENT DATUM
 EPD .F              5165:   ELEVATION PERMANENT DATUM
 LMF .                 KB:   LOG MEASURED FROM
 DAPD.F                 4:   FEET ABOVE PERMANENT DATUM
 DMF .                 GL:   DRILLING MEASURED FROM
 EKB .F              5169:   KELLING BUSHING
 EGL .F              5165:   GROUND LEVEL
 DATE.        04-MAR-1977:   RUN DATE
 RUN .                  1:   RUN NUMBER
 DD  .F               500:   DEPTH DRILLER
 DL  .F               504:   DEPTH LOGGER
 BLI .F               503:   BOTTOM LOG INTERVAL
 TLI .F                46:   TOP LOG INTERVAL
 CS  .IN            8.625:   CASING SIZE
 CBD .F                42:   CASING BOTTOM DRILLER
 CBL .F                46:   CASING BOTTOM LOGGER
 BS  .IN            7.875:   BIT SIZE
 BSD .F               500:   BIT SIZE AT DEPTH
 DFT .                KCL:   DRILLING FLUID TYPE
 DFD .                8.6:   DRILLING FLUID DENSITY
 DFV .                 32:   DRILLING FLUID VISCOSITY
 DFPH.                8.0:   DRILLING FLUID PH
 DFL .                7.6:   DRILLING FLUID LOSS
 MSS .            MUD PIT:   MUD SAMPLE SOURCE
 RMS .OHMM            .66:   RESISTIVITY MUD SAMPLE
 MST .F                56:   MUD SAMPLE TEMPERATURE
 RMF .OHMM            .49:   RESISTIVITY MUD FILTRATE SAMPLE
 MFST.F                56:   MUD FILTRATE SAMPLE TEMPERATURE
 RMC .OHMM             .4:   RESISTIVITY MUD CAKE
 MCST.F                56:   MUD CAKE SAMPLE TEMPERATURE
 MFSS.               MEAS:   MUD FILTRATE SAMPLE SOURCE
 MCSS.               CALC:   MUD CAKE SAMPLE SOURCE
 TCS .HRS            0100:   TIME CURCULATED STOPPED
 LUN .               7680:   LOGGING UNIT NUMBER
 LUL .               CSPR:   LOGGING UNIT LOCATION
 ENGI.    LOHBECK/ TAYLOR:   RECORDING ENGINEER
 WITN.              BURKE:   WITNESSED BY
 CLNT.            A2DTECH:   CLIENT CODE
 ORIG.           5" PRINT:   ORIGIN OF DATA
 UWI .       490251029500:   UNIQUE WELL ID
 DICO. A2D Technologies, Inc.:   DIGITIZING COMPANY
~OTHER INFORMATION
~A   DEPT      SPR        ILD        ILM        LL8         GRD      CALD       CORR       RHOB       DPHI   
# ...
  218.5000   -54.7136     2.7220     2.6298     2.7641    65.5689     8.0403     0.0046     2.3172     0.1992
  219.0000   -54.7017     2.6870     2.6493     2.4582    66.4671     8.0399     0.0031     2.2841     0.2134
  219.5000   -54.5403     2.7084     2.7062     2.3752    66.4671     8.0395     0.0158     2.2650     0.2371
  220.0000   -54.5284     2.8057     2.8615     4.9858    60.7037     8.0390     0.0338     2.2428     0.2473
  220.5000   -54.5164     2.9706     3.0678     4.7191    59.0569     8.0386     0.0301     2.2375     0.2519
  221.0000   -54.2055     3.2285     3.3813     3.4570    59.9551     8.0381     0.0239     2.2690     0.2345
  221.5000   -53.8947     3.3914     3.6504     2.9697    63.5479     8.0376     0.0165     2.3283     0.1997
  222.0000   -53.8827     3.7190     3.9701     3.2734    66.4732     8.0372     0.0225     2.3553     0.1773
  222.5000   -53.7213     4.1871     4.3178     7.0634    67.5898     8.0368     0.0158     2.3523     0.1822
  223.0000   -53.5599     4.6773     4.7286     7.2648    66.9162     8.0364     0.0143     2.3642     0.1593
  223.5000   -53.3985     5.0865     5.2108     7.1183    67.1407     8.0358     0.0120     2.3912     0.1425
  224.0000   -53.2371     5.5258     5.6709     7.0714    68.7126     8.0354     0.0218     2.4430     0.1173
  224.5000   -53.2252     5.8448     6.0767     7.0751    70.0599     8.0350     0.0285     2.4670     0.1074
  225.0000   -53.2133     6.0552     6.3392     7.0780    71.1826     8.0495     0.0187     2.4700     0.1068
  225.5000   -53.2013     6.1793     6.5589     7.1301    73.4281     8.0490     0.0157     2.4662     0.1122
  226.0000   -53.0399     6.2616     6.6453     7.1826    72.9790     8.0486     0.0157     2.4451     0.1209
  226.5000   -53.0280     6.1710     6.6946     7.2858    71.4072     8.0482     0.0157     2.4398     0.1227
  227.0000   -53.0161     5.8510     6.6517     7.4936    70.0599     8.0477     0.0142     2.4451     0.1221
  227.5000   -53.1540     5.5393     6.4733     7.7608    69.1617     8.0473     0.0090     2.4488     0.1197
  228.0000   -53.1417     5.1365     6.1279     8.0934    68.1481     8.0468     0.0149     2.4518     0.1206
  228.5000   -53.4287     4.8294     5.7213     7.8212    67.3653     8.0463     0.0097     2.4555     0.1167
  229.0000   -53.7160     4.6359     5.0541     7.2005    68.4880     8.0459     0.0022     2.4412     0.1275
  229.5000   -54.1522     4.5743     4.6862     5.3855    71.4072     8.0455     0.0074     2.4367     0.1306
  230.0000   -54.4395     4.6416     4.4979     3.8109    72.9790     8.0451     0.0104     2.4333     0.1327
  230.5000   -54.8759     4.8414     4.4378     3.9530    73.6527     8.0445     0.0089     2.4028     0.1453
  231.0000   -55.1628     5.0150     4.4712     6.0268    73.4281     8.0441     0.0097     2.3622     0.1748
  231.5000   -55.3004     5.1589     4.5357     6.1106    71.1826     8.0437     0.0186     2.3465     0.1859
  232.0000   -55.2884     5.1980     4.8628     4.5388    69.7839     8.0583     0.0111     2.3419     0.1850
  232.5000   -55.1270     5.2737     5.0712     5.5184    68.7687     8.0577     0.0134     2.3809     0.1600
  233.0000   -54.9656     5.4251     5.2885     6.4667    67.3653     8.0573     0.0254     2.4172     0.1282
  233.5000   -54.8042     5.6195     5.5152     5.7112    67.1407     8.0720     0.0352     2.4372     0.1252
  234.0000   -54.4933     5.8614     5.7516     6.4192    67.3653     8.0715     0.0269     2.4394     0.1309
  234.5000   -54.1824     6.0715     5.9982     7.4164    69.1617     8.0710     0.0156     2.4386     0.1273
  235.0000   -54.0209     6.3768     6.2986     8.1127    70.7485     8.0555     0.0201     2.4476     0.1210
  235.5000   -53.7035     6.7440     6.6142     8.5593    72.3054     8.0550     0.0223     2.4356     0.1252
  236.0000   -53.5406     7.0342     6.9456     8.7322    72.9790     8.0546     0.0185     2.4633     0.1159
  236.5000   -53.2282     7.3879     7.2935     8.7359    72.7545     8.0542     0.0126     2.4745     0.1102
  237.0000   -52.9268     7.6000     7.6589     8.6184    71.6317     8.0538     0.0186     2.4835     0.1000
  237.5000   -52.7653     7.8182     7.8232     8.5034    72.0808     8.0532     0.0245     2.4812     0.1042
  238.0000   -52.6039     7.9321     7.8813     8.3899    71.8563     8.0679     0.0230     2.4782     0.1024
  238.5000   -52.5919     7.9370     7.8308     8.3354    70.5090     8.0674     0.0269     2.4812     0.1102
  239.0000   -52.5800     7.8315     7.6735     8.2813    69.1617     8.0670     0.0290     2.4871     0.0999
  239.5000   -52.5680     7.6237     7.4679     8.1716    68.7126     8.0664     0.0260     2.4895     0.0970
  240.0000   -52.7059     7.5746     7.4715     8.1750    71.6317     8.0660     0.0185     2.4701     0.1130
  240.5000   -52.8435     7.5271     7.4235     8.1211    72.3054     8.0806     0.0125     2.4548     0.1175
  241.0000   -52.8316     7.3781     7.3252     8.1253    72.5299     8.0802     0.0020     2.4510     0.1190
  241.5000   -53.2681     7.2310     7.0797     8.0717    72.0808     8.0797     0.0035     2.4457     0.1199
  242.0000   -53.4310     6.9895     6.8424     8.0759    70.9251     8.0792     0.0020     2.4404     0.1223
  242.5000   -53.6926     6.6631     6.5222     8.0227    69.8353     8.0788     0.0005     2.4444     0.1247
  243.0000   -53.9796     6.3082     6.1739     7.9156    69.1617     8.0783     0.0080     2.4509     0.1190
  243.5000   -54.1172     5.8901     5.9237     7.7569    69.1617     8.0629     0.0087     2.4426     0.1232
  244.0000   -54.4012     5.5763     5.6447     7.4960    69.1617     8.0625     0.0185     2.4396     0.1219
  244.5000   -54.3893     5.3529     5.3789     7.1939    69.8353     8.0469     0.0214     2.4575     0.1157
  245.0000   -54.3774     5.1741     5.1647     6.8090    70.2844     8.0616     0.0244     2.4628     0.1139
  245.5000   -54.3655     5.0701     4.9907     6.3560    70.9581     8.0611     0.0297     2.4717     0.1109
  246.0000   -54.2041     5.0035     4.8948     4.0260    71.1826     8.0607     0.0177     2.4402     0.1241
  246.5000   -54.0426     5.0772     4.9370     4.2866    71.4356     8.0752     0.0154     2.4281     0.1284
  247.0000   -53.8812     5.3325     5.1634     5.6803    72.7545     8.0747     0.0195     2.3996     0.1527
  247.5000   -53.5704     5.6006     5.5522     7.1450    73.8772     8.0743     0.0117     2.3845     0.1662
  248.0000   -53.4090     6.0057     5.9526     7.9292    73.4281     8.0739     0.0012     2.3717     0.1569
  248.5000   -53.0981     6.4400     6.3818     8.3835    72.5284     8.0734     0.0064     2.4141     0.1422
  249.0000   -52.7872     6.8580     6.7948     8.6217    71.4072     8.0729     0.0041     2.4400     0.1251
  249.5000   -52.6258     7.2529     7.2346     8.8056    71.4072     8.0725    -0.0043     2.4325     0.1260
  250.0000   -52.4663     7.5129     7.4504     8.8698    71.6655     8.0721    -0.0024     2.4225     0.1284
  250.5000   -52.4529     7.5960     7.5737     8.9365    71.8563     8.0719     0.0005     2.4174     0.1260
  251.0000   -52.4395     7.7326     7.7103     9.0663    72.0808     8.0718     0.0056     2.4482     0.1203
  251.5000   -52.4260     7.8447     7.8757     9.1979    71.4072     8.0716     0.0086     2.4526     0.1197
  252.0000   -52.4126     7.9584     7.9892     9.3315    72.7545     8.0715     0.0078     2.4510     0.1188
  252.5000   -52.3991     8.1298     8.0485     9.4561    73.8772     8.0713     0.0115     2.4623     0.1128
  253.0000   -52.3856     8.1908     8.1645     9.5918    74.5585     8.0712     0.0175     2.4738     0.1097
  253.5000   -52.3722     8.3095     8.1685     9.6617    74.7755     8.0710     0.0273     2.4893     0.0978
  254.0000   -52.5088     8.3141     8.1724     9.6651    74.5509     8.0709     0.0212     2.4698     0.1128
  254.5000   -52.4921     8.2601     8.1764     9.6684    73.6527     8.0707     0.0128     2.4683     0.1083
