~VERSION INFORMATION
 VERS.                2.0:   CWLS LOG ASCII STANDARD - VERSION 2.0
 WRAP.                 NO:   ONE LINE PER DEPTH STEP
~WELL INFORMATION
#MNEM.UNIT      DATA TYPE    INFORMATION
#----------   ------------   ------------------------------
 STRT.F           17.0000:   START DEPTH
 STOP.F         1345.0000:   STOP DEPTH
 STEP.F            0.5000:   STEP LENGTH
 NULL.          -999.2500:   NO VALUE
 COMP. DEPARTMENT OF ENERGY:   COMPANY
 WELL. RES 3 TEAPOT DOME ##86S-11:   WELL
 FLD .             TEAPOT:   FIELD
 LOC .      S11 T38N R78W:   LOCATION
 CNTY.            NATRONA:   COUNTY
 STAT.            WYOMING:   STATE
 CTRY. UNITED STATES OF AMERICA:   COUNTRY
 SRVC.       Schlumberger:   SERVICE COMPANY
 DATE.        13-AUG-1959:   LOGDATE
 API .       490250633200:   API NUMBER
~CURVE INFORMATION
#MNEM.UNIT       API CODE    CURVE DESCRIPTION
#----------   ------------   ------------------------------
 DEPT.F                  :   
 SPR .MV     05 010 01 00:   SPONTANEOUS POTENTIAL FROM RES.
 CILD.MMHO   05 110 46 00:   CONDUCTIVITY INDUCTION LOG DEEP
 ILD .OHMM   05 120 46 00:   INDUCTION LOG DEEP
 ASN .OHMM   05 041 16 00:   AMPLIFIED SHORT NORMAL 16"
~PARAMETER INFORMATION
#MNEM.UNIT          VALUE    DESCRIPTION
#----------   ------------   ------------------------------
 PD  .                 GL:   PERMANENT DATUM
 EPD .F              5295:   ELEVATION PERMANENT DATUM
 LMF .                 KB:   LOG MEASURED FROM
 DAPD.F                 4:   FEET ABOVE PERMANENT DATUM
 DMF .                 KB:   DRILLING MEASURED FROM
 EKB .F              5299:   KELLING BUSHING
 EGL .F              5295:   GROUND LEVEL
 DATE.            8-13-59:   RUN DATE
 RUN .                  1:   RUN NUMBER
 DD  .F              1350:   DEPTH DRILLER
 DL  .F              1350:   DEPTH LOGGER
 BLI .F              1345:   BOTTOM LOG INTERVAL
 TLI .F                17:   TOP LOG INTERVAL
 CBD .F                17:   CASING BOTTOM DRILLER
 CBL .F                17:   CASING BOTTOM LOGGER
 BS  .IN             6.75:   BIT SIZE
 BSD .F              1350:   BIT SIZE AT DEPTH
 DFT .                GEL:   DRILLING FLUID TYPE
 DFD .                9.8:   DRILLING FLUID DENSITY
 DFV .                 65:   DRILLING FLUID VISCOSITY
 DFPH.                9.5:   DRILLING FLUID PH
 DFL .                5.4:   DRILLING FLUID LOSS
 RMS .OHMM           2.84:   RESISTIVITY MUD SAMPLE
 MST .F                69:   MUD SAMPLE TEMPERATURE
 RMF .OHMM            2.5:   RESISTIVITY MUD FILTRATE SAMPLE
 MFST.F                69:   MUD FILTRATE SAMPLE TEMPERATURE
 RMC .OHMM           2.46:   RESISTIVITY MUD CAKE
 MCST.F                69:   MUD CAKE SAMPLE TEMPERATURE
 MFSS.                  M:   MUD FILTRATE SAMPLE SOURCE
 MCSS.                  M:   MUD CAKE SAMPLE SOURCE
 TCS .HRS               1:   TIME CURCULATED STOPPED
 LUN .               2523:   LOGGING UNIT NUMBER
 LUL .               CSPR:   LOGGING UNIT LOCATION
 ENGI.             KNOBEL:   RECORDING ENGINEER
 WITN.             MARTIN:   WITNESSED BY
 CLNT.            A2DTECH:   CLIENT CODE
 ORIG.         2"5" PRINT:   ORIGIN OF DATA
 UWI .       490250633200:   UNIQUE WELL ID
 DICO. A2D Technologies, Inc.:   DIGITIZING COMPANY
~OTHER INFORMATION
~A   DEPT      SPR        CILD         ILD      ASN   
# ...
  893.0000   -17.6663   101.2982     9.7122    11.4304
  893.5000   -17.6407   103.1116     9.6253    11.2763
  894.0000   -17.8482   104.9250     9.5396    11.1206
  894.5000   -18.2869   106.7384     9.4526    10.9681
  895.0000   -18.5513   108.1909     9.3675    10.8094
  895.5000   -19.3437   108.1909     9.2817    10.6927
  896.0000   -20.4537   108.3364     9.2529    10.7071
  896.5000   -21.4359   108.4573     9.2576    10.7385
  897.0000   -22.4572   108.5782     9.2544    10.7654
  897.5000   -23.4583   108.6991     9.2582    10.7946
  898.0000   -23.9020   108.8200     9.2528    10.8214
  898.5000   -24.1196   108.9409     9.2631    10.8517
  899.0000   -24.2801   109.0618     9.1843    10.8702
  899.5000   -24.1626   109.6444     9.1227    10.8739
  900.0000   -24.1157   110.3881     9.1014    10.8608
  900.5000   -24.0334   111.1319     9.0667    10.7704
  901.0000   -23.9698   111.8756     9.0388    10.6929
  901.5000   -23.8969   112.6193     9.0078    10.6081
  902.0000   -23.8287   113.3631     8.9774    10.5285
  902.5000   -23.7587   114.1068     8.9485    10.4622
  903.0000   -23.6896   114.8505     8.9145    10.4171
  903.5000   -23.6203   115.4084     8.8916    10.4195
  904.0000   -23.5513   114.8445     8.8831    10.4256
  904.5000   -23.4817   114.3934     8.8721    10.3517
  905.0000   -23.4065   113.9423     8.8627    10.2260
  905.5000   -23.3910   113.4912     8.8528    10.1255
  906.0000   -23.4091   113.0401     8.8423    10.0013
  906.5000   -23.5078   112.7018     8.8338     9.9793
  907.0000   -23.5974   112.7018     8.8212     9.9383
  907.5000   -23.6880   113.8859     8.8169     9.8845
  908.0000   -23.7766   115.3439     8.7807     9.8373
  908.5000   -23.8688   116.8990     8.5919     9.7905
  909.0000   -23.9543   118.8611     8.4216     9.7171
  909.5000   -24.0560   121.5812     8.2508     9.4585
  910.0000   -24.1213   125.2260     8.0789     9.2214
  910.5000   -24.1044   128.8885     7.9104     8.9858
  911.0000   -24.0514   132.5558     7.7348     8.7472
  911.5000   -23.9978   136.2151     7.5726     8.5147
  912.0000   -23.9482   139.8574     7.3787     8.2472
  912.5000   -23.8946   143.4753     7.2556     8.1822
  913.0000   -23.8467   146.6172     7.2763     8.1229
  913.5000   -23.7871   147.0323     7.2581     8.2842
  914.0000   -23.7523   146.9951     7.3472     8.5729
  914.5000   -23.7542   143.5840     7.4833     8.8036
  915.0000   -23.7730   140.8666     7.5981     9.0894
  915.5000   -23.8086   138.1549     7.7224     9.1110
  916.0000   -23.8361   135.4387     7.8407     9.0682
  916.5000   -23.8675   132.7165     7.9755     9.0542
  917.0000   -23.8966   129.9991     7.9963     9.0060
  917.5000   -23.9302   127.9702     7.9892     9.1121
  918.0000   -23.9352   127.9838     7.9765     9.2791
  918.5000   -23.9340   127.6340     7.9619     9.4607
  919.0000   -23.9346   127.1570     7.9490     9.4087
  919.5000   -23.9342   126.6743     7.9352     9.2898
  920.0000   -23.9344   126.1936     7.9219     9.2026
  920.5000   -23.9343   125.7015     7.9083     9.1018
  921.0000   -23.9343   125.3324     7.8947     9.0069
  921.5000   -23.9343   126.2346     7.8815     8.9113
  922.0000   -23.9343   129.3358     7.8674     8.8071
  922.5000   -23.9343   131.8168     7.8552     8.7205
  923.0000   -23.9343   134.2978     7.8393     8.7787
  923.5000   -23.9343   136.6097     7.8305     8.8679
  924.0000   -23.9343   135.6108     7.8066     8.9558
  924.5000   -23.9342   133.6776     7.8744     9.0324
  925.0000   -23.9342   131.7443     7.9868     9.1416
  925.5000   -23.9340   129.8111     8.0817     9.2453
  926.0000   -23.9343   127.8778     8.1797     9.3584
  926.5000   -23.9336   125.9446     8.2879     9.4477
  927.0000   -23.9347   123.5280     8.3645     9.4303
  927.5000   -23.9324   123.5280     8.3068     9.3373
  928.0000   -23.9424   124.7151     8.2326     9.2340
  928.5000   -24.0097   125.6648     8.1651     9.1605
  929.0000   -24.0678   126.6144     8.0952     9.1328
  929.5000   -24.1305   127.5641     8.0269     9.1202
  930.0000   -24.1856   128.5138     7.9571     9.1344
  930.5000   -24.2569   129.4634     7.8893     9.1428
  931.0000   -24.2877   130.4131     7.8182     9.1529
  931.5000   -24.2085   131.3628     7.7534     9.1639
  932.0000   -24.1451   132.5499     7.6742     9.1721
  932.5000   -24.0769   132.5499     7.6273     9.1799
  933.0000   -24.0113   132.5499     7.6430     9.1291
  933.5000   -23.9443   132.5499     7.6486     9.0459
  934.0000   -23.8780   132.5499     7.6590     8.9790
  934.5000   -23.8114   132.5499     7.6667     8.8993
  935.0000   -23.7446   132.5499     7.6758     8.8326
  935.5000   -23.6782   132.5511     7.6844     8.8798
  936.0000   -23.6110   132.5491     7.6931     8.9672
  936.5000   -23.5454   132.5482     7.7018     8.9806
  937.0000   -23.4767   132.5479     7.7102     8.9434
  937.5000   -23.4073   132.5486     7.7201     8.8828
  938.0000   -23.3860   132.5511     7.7204     8.8359
  938.5000   -23.4296   132.5548     7.7126     8.7755
  939.0000   -23.6941   132.5586     7.7061     8.7385
  939.5000   -23.9332   132.5607     7.6993     8.7514
  940.0000   -24.1722   133.4635     7.6926     8.7627
  940.5000   -24.4144   134.2570     7.6859     8.7758
  941.0000   -24.6478   134.8906     7.6792     8.7871
  941.5000   -24.8989   135.5250     7.6724     8.8001
  942.0000   -25.1168   136.1602     7.6658     8.7636
  942.5000   -25.4070   136.7970     7.6588     8.7055
  943.0000   -25.5209   137.4323     7.6525     8.6589
  943.5000   -25.3442   138.0691     7.6449     8.6040
  944.0000   -25.3149   138.8651     7.6396     8.5544
  944.5000   -25.2493   139.7673     7.6293     8.5266
  945.0000   -25.2054   138.9062     7.6398     8.5852
  945.5000   -25.1500   137.7579     7.7163     8.6945
  946.0000   -25.1003   136.6097     7.7842     8.7836
  946.5000   -25.0478   135.4615     7.8532     8.8819
  947.0000   -24.9971   134.3132     7.9216     8.9744
  947.5000   -24.9449   133.4520     7.9902     9.0714
  948.0000   -24.8951   131.1966     8.0588     9.1634
  948.5000   -24.8357   129.3922     8.1274     9.2773
  949.0000   -24.8307   127.5878     8.1960     9.3542
  949.5000   -24.8244   125.7835     8.2646     9.4041
  950.0000   -24.8865   123.9791     8.3333     9.4527
  950.5000   -24.9900   122.1747     8.4015     9.4956
  951.0000   -25.0747   121.7236     8.4709     9.5413
  951.5000   -25.1754   122.0620     8.5381     9.5830
  952.0000   -25.2604   122.5131     8.6163     9.4904
  952.5000   -25.5813   122.9641     8.6208     9.3473
  953.0000   -25.9074   123.4152     8.5744     9.2273
  953.5000   -26.2376   123.8663     8.5338     9.0821
  954.0000   -26.4847   124.3174     8.4966     9.0272
  954.5000   -26.2516   124.7901     8.4459     9.1001
  955.0000   -25.9384   125.3703     8.4520     9.2525
  955.5000   -25.6577   126.2854     8.3477     9.3061
  956.0000   -25.3681   129.6819     8.1740     9.1391
  956.5000   -25.0392   132.3971     8.0328     9.0111
  957.0000   -24.8257   135.1131     7.8760     8.8493
  957.5000   -24.9445   137.8322     7.7299     8.7344
  958.0000   -25.1480   140.3266     7.5591     8.6697
  958.5000   -25.3188   141.1206     7.5424     8.6687
  959.0000   -25.5032   141.5717     7.6037     8.8389
  959.5000   -25.6803   140.0251     7.6505     8.9845
  960.0000   -25.8616   137.9630     7.7023     9.1336
  960.5000   -26.0406   135.9008     7.7513     9.2991
  961.0000   -26.2209   133.8387     7.8018     9.3179
  961.5000   -26.3996   131.7766     7.8515     9.2588
  962.0000   -26.5801   129.7144     7.9016     9.2179
  962.5000   -26.7579   127.1737     7.9516     9.1607
  963.0000   -26.9578   127.1664     8.0014     9.1714
  963.5000   -26.9874   127.1529     8.0515     9.3012
  964.0000   -26.9840   126.9334     8.1010     9.4071
  964.5000   -27.0139   126.7611     8.1516     9.5357
  965.0000   -27.0360   126.5979     8.2002     9.6180
  965.5000   -27.0606   126.4420     8.2576     9.5940
