~VERSION INFORMATION
 VERS.                2.0:   CWLS LOG ASCII STANDARD - VERSION 2.0
 WRAP.                 NO:   ONE LINE PER DEPTH STEP
~WELL INFORMATION
#MNEM.UNIT      DATA TYPE    INFORMATION
#----------   ------------   ------------------------------
 STRT.F            0.0000:   START DEPTH
 STOP.F          844.0000:   STOP DEPTH
 STEP.F            0.5000:   STEP LENGTH
 NULL.          -999.2500:   NO VALUE
 COMP. BROWN JOHN E&C INC:   COMPANY
 WELL. NAVAL PETROLEUM RESERVE 3 SX-1 #42-1-14:   WELL
 FLD .             TEAPOT:   FIELD
 LOC .      S14 T38N R78W:   LOCATION
 CNTY.            NATRONA:   COUNTY
 STAT.            WYOMING:   STATE
 CTRY. UNITED STATES OF AMERICA:   COUNTRY
 SRVC.     Atlas Wireline:   SERVICE COMPANY
 DATE.        11-JAN-1992:   LOGDATE
 API .       490252247700:   API NUMBER
~CURVE INFORMATION
#MNEM.UNIT       API CODE    CURVE DESCRIPTION
#----------   ------------   ------------------------------
 DEPT.F                  :   
 GRR .GAPI   07 310 01 00:   GAMMA RAY
 RFOC.OHMM   07 220 04 00:   RESISTIVITY FOCUSED LOG
 RILD.OHMM   07 120 46 00:   INDUCTION LOG DEEP RESISTIVITY
 RILM.OHMM   07 120 44 00:   INDUCTION LOG MEDIUM RESISTIVITY
 SPR .MV     07 010 01 00:   SPONTANEOUS POTENTIAL
~PARAMETER INFORMATION
#MNEM.UNIT          VALUE    DESCRIPTION
#----------   ------------   ------------------------------
 PD  .                 GL:   PERMANENT DATUM
 EPD .F              5201:   ELEVATION PERMANENT DATUM
 LMF .                 KB:   LOG MEASURED FROM
 DAPD.F                10:   FEET ABOVE PERMANENT DATUM
 DMF .                 KB:   DRILLING MEASURED FROM
 EKB .F              5211:   KELLING BUSHING
 EGL .F              5201:   GROUND LEVEL
 DATE.        11-JAN-1992:   RUN DATE
 RUN .                  1:   RUN NUMBER
 DD  .F               848:   DEPTH DRILLER
 DL  .F               847:   DEPTH LOGGER
 BLI .F               845:   BOTTOM LOG INTERVAL
 CS  .IN            10.75:   CASING SIZE
 CBD .F               101:   CASING BOTTOM DRILLER
 CBL .F               101:   CASING BOTTOM LOGGER
 BS  .IN             8.75:   BIT SIZE
 BSD .F               848:   BIT SIZE AT DEPTH
 DFT .               CHEM:   DRILLING FLUID TYPE
 DFD .                9.0:   DRILLING FLUID DENSITY
 DFV .                 40:   DRILLING FLUID VISCOSITY
 DFPH.                9.0:   DRILLING FLUID PH
 DFL .                8.4:   DRILLING FLUID LOSS
 MSS .           FLOWLINE:   MUD SAMPLE SOURCE
 RMS .OHMM           0.22:   RESISTIVITY MUD SAMPLE
 MST .F                78:   MUD SAMPLE TEMPERATURE
 RMF .OHMM           0.17:   RESISTIVITY MUD FILTRATE SAMPLE
 MFST.F                78:   MUD FILTRATE SAMPLE TEMPERATURE
 RMC .OHMM           0.28:   RESISTIVITY MUD CAKE
 MCST.F                78:   MUD CAKE SAMPLE TEMPERATURE
 MFSS.               MEAS:   MUD FILTRATE SAMPLE SOURCE
 MCSS.               CALC:   MUD CAKE SAMPLE SOURCE
 RMB .OHMM           0.14:   RESISTIVITY MUD AT BHT
 BHT .F               126:   BOTTOM HOLE TEMPERATURE
 TCS .HRS               3:   TIME CURCULATED STOPPED
 MRT .F               126:   MAXIMUM RECORDED TEMPERATURE
 LUN .            HL-6274:   LOGGING UNIT NUMBER
 LUL .         CASPER, WY:   LOGGING UNIT LOCATION
 ENGI.             ZIEGER:   RECORDING ENGINEER
 WITN.         MR. STRONG:   WITNESSED BY
 CLNT.            A2DTECH:   CLIENT CODE
 ORIG.           5" PRINT:   ORIGIN OF DATA
 UWI .       490252247700:   UNIQUE WELL ID
 DICO. A2D Technologies, Inc.:   DIGITIZING COMPANY
~OTHER INFORMATION
~A    DEPT      GRR      RFOC       RILD       RILM        SPR   
# ...
  244.0000    87.6877    10.7182    12.4585    12.1319   -18.4461
  244.5000    91.8188    10.6399    12.4535    12.1295   -18.9469
  245.0000    91.1980    10.4882    12.6235    12.2120   -19.6549
  245.5000    86.9736    10.6320    12.7959    12.3810   -20.2608
  246.0000    85.1567    10.8541    13.0602    12.5525   -20.8666
  246.5000    89.0353    11.1576    13.4247    12.8148   -21.4725
  247.0000    89.6216    11.5489    13.7047    13.0832   -20.7250
  247.5000    90.7967    11.8717    14.0858    13.2651   -18.3233
  248.0000    91.6724    12.1188    14.3782    13.5429   -17.0887
  248.5000    92.8534    11.9458    14.5745    13.8260   -16.5286
  249.0000    93.1385    11.7763    14.6707    14.0206   -16.2322
  249.5000    91.6118    11.7723    14.8711    14.4105   -15.6351
  250.0000    90.0901    12.6186    15.1782    14.7123   -15.1883
  250.5000    87.6642    13.5269    15.3855    14.8131   -15.9445
  251.0000    86.4428    14.2996    15.4886    15.1227   -15.7985
  251.5000    86.1224    15.1164    15.5892    15.4394   -15.9769
  252.0000    85.2012    13.6100    15.6921    15.5445   -16.5601
  252.5000    83.9750    13.7026    15.7957    15.6592   -16.8652
  253.0000    81.2521    13.6980    15.9000    15.8668   -17.3207
  253.5000    79.1299    13.8877    16.0033    15.9747   -17.1746
  254.0000    80.6112    13.9802    16.1106    15.9707   -16.8782
  254.5000    80.2908    13.9763    16.1025    15.9674   -17.0536
  255.0000    79.9700    13.9718    16.0941    15.8532   -18.0910
  255.5000    81.7469    13.5836    15.8661    15.8500   -18.3961
  256.0000    85.0351    13.2062    15.6384    15.6271   -18.0986
  256.5000    83.5084    13.2960    15.3080    15.4068   -17.9525
  257.0000    82.8877    13.4783    14.9846    15.0846   -17.9579
  257.5000    84.9696    13.2878    14.7708    14.9767   -17.9449
  258.0000    85.8504    12.8280    14.7649    14.7661   -17.8162
  258.5000    85.2246    12.3849    14.7588    14.7631   -17.9720
  259.0000    85.8051    12.1254    14.6488    14.7601   -18.1267
  259.5000    88.4876    11.7884    14.3394    14.6538   -18.2815
  260.0000    92.0711    11.7845    14.0364    14.5490   -18.1353
  260.5000    94.1532    11.8646    13.3614    14.1457   -17.8246
  261.0000    92.8869    12.0281    12.5425    13.6580   -17.2429
  261.5000    92.0056    12.1939    11.5297    12.5584   -16.9454
  262.0000    91.3848    12.1051    10.2570    10.2558   -16.7994
  262.5000    91.3647    11.4250     8.7120     8.4242   -16.9552
  263.0000    91.9459     9.6096     7.5207     7.4887   -16.5084
  263.5000   100.7092     8.0131     7.0106     6.9340   -16.2119
  264.0000   113.5214     7.5234     6.7674     6.6022   -16.0659
  264.5000   114.1069     7.0635     6.5783     6.5549   -16.2217
  265.0000   111.9796     6.8195     6.4393     6.5081   -16.3764
  265.5000   113.4610     6.9619     6.3468     6.3717   -16.3807
  266.0000   116.7441     6.9112     6.3001     6.2822   -16.3851
  266.5000   119.4267     6.7662     6.1670     6.1080   -16.6987
  267.0000   113.3955     6.7174     6.0790     5.9803   -16.6945
  267.5000   106.7687     6.7156     6.0766     5.9375   -16.2488
  268.0000   104.0459     6.5747     6.0741     5.9363   -15.9513
  268.5000   102.2240     6.2996     6.1142     5.9767   -16.1071
  269.0000   100.1017     6.0853     6.1546     6.1019   -16.2618
  269.5000    98.8803     6.1691     6.1952     6.2294   -16.4165
  270.0000   100.9573     6.3864     6.2792     6.3159   -16.4219
  270.5000   108.7449     6.6114     6.3649     6.3547   -16.4263
  271.0000   111.7328     6.7495     6.4070     6.4127   -16.4306
  271.5000   111.4073     6.6996     6.4502     6.4707   -16.4349
  272.0000   110.7866     6.5141     6.4918     6.5344   -16.1385
  272.5000   107.5227     6.5584     6.4434     6.4876   -16.1428
  273.0000   100.2307     6.6949     6.3514     6.4412   -15.8464
  273.5000    97.8082     6.7404     6.2173     6.2583   -15.8518
  274.0000    99.2895     6.7381     6.1286     5.9626   -15.7047
  274.5000   103.7739     6.6427     6.1261     6.1301   -15.7101
  275.0000   104.3544     6.4583     6.1236     6.3024   -15.7145
  275.5000   101.6265     6.4114     6.1205     6.0851   -15.8692
  276.0000    98.3030     6.5001     6.0332     5.9578   -15.8496
  276.5000    97.0817     6.5439     6.0308     5.8741   -15.5771
  277.0000    97.9624     6.4511     6.0706     5.8728   -15.1314
  277.5000   101.8462     6.3600     6.1535     5.9128   -14.8350
  278.0000   105.7658     6.3647     6.2812     5.9947   -14.6878
  278.5000   108.7128     6.6279     6.4180     6.1628   -14.8436
  279.0000   107.1861     6.8613     6.5440     6.4250   -14.9985
  279.5000   105.6645     7.0051     6.6798     6.5596   -15.3045
  280.0000   106.8455     6.8577     6.7246     6.6970   -15.4592
  280.5000   109.2278     6.6671     6.8164     6.7968   -15.6139
  281.0000   109.5079     6.6189     6.8608     6.8359   -15.9190
  281.5000   109.1824     6.7097     6.8579     6.8342   -16.2241
  282.0000   110.0632     6.8498     6.9025     6.8810   -16.2286
  282.5000   113.6466     7.0911     6.9968     6.8792   -16.2339
  283.0000   114.8327     7.2899     7.0923     6.9745   -16.0536
  283.5000   107.9006     7.2879     7.0895     7.0219   -15.8955
  284.0000   102.7748     7.2805     7.0866     7.0697   -15.6451
  284.5000   104.2517     7.2840     7.0837     7.1672   -15.1986
  285.0000   104.5369     7.3844     7.0808     7.1657   -14.9699
  285.5000   102.4096     7.5909     7.1768     7.1643   -14.7561
  286.0000   102.3894     7.6425     7.1739     7.2134   -14.4608
  286.5000   102.6697     7.5868     7.2220     7.2116   -14.1633
  287.0000   102.6486     7.4231     7.1682     7.0558   -14.0172
  287.5000   102.3290     7.1706     7.0167     6.8649   -13.8722
  288.0000   102.9044     7.0201     6.9160     6.7684   -13.5759
  288.5000   102.5890     6.9695     6.7698     6.6682   -13.5813
  289.0000   104.3656     6.9196     6.7671     6.5334   -13.5856
  289.5000   105.5546     6.9658     6.6705     6.4415   -13.7403
  290.0000   104.0200     6.8196     6.6679     6.3955   -14.0454
  290.5000   100.0959     6.6761     6.6652     6.3942   -14.2001
  291.0000   100.3761     6.6743     6.6161     6.4827   -14.6556
  291.5000   102.4580     7.0556     6.6134     6.6648   -14.8114
  292.0000   101.8373     7.7775     6.6101     6.7571   -14.8157
  292.5000    99.3944     7.7754     6.6074     6.7554   -14.9704
  293.0000    99.0943     7.3956     6.6517     6.6142   -15.1251
  293.5000   101.7718     6.8536     6.6484     6.6128   -15.1295
  294.0000   100.8508     6.6168     6.7392     6.7514   -15.1338
  294.5000   100.2300     6.6613     6.7836     6.8936   -14.9888
  295.0000   101.4114     6.8009     6.8284     6.9477   -14.8417
  295.5000   102.6236     6.9425     6.8250     6.9868   -14.6957
  296.0000   102.2666     6.9892     6.8222     6.9851   -14.4003
  296.5000   101.0453     6.8900     6.8195     6.9351   -14.2541
  297.0000    98.9230     6.7459     6.8167     6.8376   -14.2586
  297.5000    98.0020     6.8058     6.7665     6.7887   -14.4144
  298.0000    98.2822     6.8503     6.7638     6.7401   -14.5691
  298.5000   100.7518     6.8944     6.7604     6.7856   -14.5735
  299.0000   104.8434     6.9426     6.8057     6.8321   -14.4263
  299.5000   107.2257     7.1320     6.8986     7.0237   -14.2812
  300.0000   108.7070     7.2291     7.0418     7.1213   -13.9857
  300.5000   110.4903     7.3283     7.1390     7.1186   -13.3929
  301.0000   109.2717     7.3762     7.1869     7.3171   -13.4015
  301.5000   107.1523     7.4245     7.1351     7.4700   -13.5830
  302.0000   106.8347     7.3170     7.0835     7.3121   -13.8722
  302.5000   110.2603     7.0622     6.9350     7.1085   -14.0312
  303.0000   114.3032     6.8036     6.8851     6.9105   -14.1903
  303.5000   114.5905     6.5324     6.7408     6.7179   -14.3493
  304.0000   114.2685     6.4386     6.6457     6.5699   -14.3580
  304.5000   112.7496     6.3907     6.5519     6.4828   -13.9156
