~VERSION INFORMATION
 VERS.                2.0:   CWLS LOG ASCII STANDARD - VERSION 2.0
 WRAP.                 NO:   ONE LINE PER DEPTH STEP
~WELL INFORMATION
#MNEM.UNIT      DATA TYPE    INFORMATION
#----------   ------------   ------------------------------
 STRT.F           38.0000:   START DEPTH
 STOP.F          637.0000:   STOP DEPTH
 STEP.F            0.5000:   STEP LENGTH
 NULL.          -999.2500:   NO VALUE
 COMP. FENIX & SCISSON INC:   COMPANY
 WELL.    NPR ##3 57-S-34:   WELL
 FLD .             TEAPOT:   FIELD
 LOC .      S34 T39N R78W:   LOCATION
 CNTY.            NATRONA:   COUNTY
 STAT.            WYOMING:   STATE
 CTRY. UNITED STATES OF AMERICA:   COUNTRY
 SRVC.              Welex:   SERVICE COMPANY
 DATE.        12-MAR-1977:   LOGDATE
 API .       490251030600:   API NUMBER
~CURVE INFORMATION
#MNEM.UNIT       API CODE    CURVE DESCRIPTION
#----------   ------------   ------------------------------
 DEPT.F                  :   
 SPR .MV     07 010 01 00:   SPONTANEOUS POTENTIAL
 ILM .OHMM   07 120 44 00:   INDUCTION LOG MEDIUM
 ILD .OHMM   07 120 46 00:   INDUCTION LOG DEEP
 SGRD.OHMM   07 221 05 00:   SHALLOW SHORT GUARD RESISTIVITY
 CALD.IN     45 280 60 00:   CALIPER FROM DENSITY LOG
 GRD .GAPI   45 310 01 00:   GAMMA RAY FROM DENSITY LOG
 CORR.G/C3   45 356 01 00:   DENSITY CORRECTION
 DPHI.DEC    45 890 12 00:   DENSITY POROSITY SANDSTONE
 RHOB.G/C3   45 350 01 00:   BULK DENSITY
~PARAMETER INFORMATION
#MNEM.UNIT          VALUE    DESCRIPTION
#----------   ------------   ------------------------------
 PD  .                 GL:   PERMANENT DATUM
 EPD .F              5107:   ELEVATION PERMANENT DATUM
 LMF .                 GL:   LOG MEASURED FROM
 DMF .                 GL:   DRILLING MEASURED FROM
 EGL .F              5107:   GROUND LEVEL
 DATE.          3-12-1977:   RUN DATE
 RUN .                  1:   RUN NUMBER
 DD  .F               650:   DEPTH DRILLER
 DL  .F               637:   DEPTH LOGGER
 BLI .F               636:   BOTTOM LOG INTERVAL
 TLI .F                46:   TOP LOG INTERVAL
 CS  .IN            8.625:   CASING SIZE
 CBD .F                45:   CASING BOTTOM DRILLER
 CBL .F                46:   CASING BOTTOM LOGGER
 BS  .IN            7.875:   BIT SIZE
 BSD .F               650:   BIT SIZE AT DEPTH
 DFT .            KCL MUD:   DRILLING FLUID TYPE
 DFD .                8.9:   DRILLING FLUID DENSITY
 DFV .                 35:   DRILLING FLUID VISCOSITY
 MSS .            MUD PIT:   MUD SAMPLE SOURCE
 RMS .OHMM            .53:   RESISTIVITY MUD SAMPLE
 MST .F                68:   MUD SAMPLE TEMPERATURE
 RMF .OHMM            .41:   RESISTIVITY MUD FILTRATE SAMPLE
 MFST.F                69:   MUD FILTRATE SAMPLE TEMPERATURE
 RMC .OHMM            .62:   RESISTIVITY MUD CAKE
 MCST.F                65:   MUD CAKE SAMPLE TEMPERATURE
 MFSS.           MEASURED:   MUD FILTRATE SAMPLE SOURCE
 MCSS.           MEASURED:   MUD CAKE SAMPLE SOURCE
 RMB .OHMM            .60:   RESISTIVITY MUD AT BHT
 BHT .F                60:   BOTTOM HOLE TEMPERATURE
 TCS .HRS               1:   TIME CURCULATED STOPPED
 MRT .F                60:   MAXIMUM RECORDED TEMPERATURE
 LUN .               0716:   LOGGING UNIT NUMBER
 LUL .             VERNAL:   LOGGING UNIT LOCATION
 ENGI.        E. CALLAHAN:   RECORDING ENGINEER
 WITN.         STUEBUNGER:   WITNESSED BY
 CLNT.            A2DTECH:   CLIENT CODE
 ORIG.           5" PRINT:   ORIGIN OF DATA
 UWI .       490251030600:   UNIQUE WELL ID
 DICO. A2D Technologies, Inc.:   DIGITIZING COMPANY
~OTHER INFORMATION
~A   DEPT      SPR        ILM        ILD       SGRD       CALD        GRD       CORR       DPHI       RHOB   
# ...
  220.5000   -33.4894     8.0031     7.0074     9.7522     8.0433   126.0335     0.0607     0.1057     2.4811
  221.0000   -33.3470     8.0559     7.0050     9.7476     8.0433   126.3408     0.0623     0.1063     2.4765
  221.5000   -33.0568     8.0533     7.0027     9.8107     8.0433   127.5754     0.0685     0.1029     2.4757
  222.0000   -32.9147     7.9952     7.0004     9.8050     8.0588   128.0375     0.0765     0.0964     2.4725
  222.5000   -32.6229     7.9347     6.9981     9.8005     8.0588   125.0925     0.0822     0.1004     2.4849
  223.0000   -32.3311     7.8795     6.9957     9.7284     8.0588   126.3286     0.0682     0.1029     2.4717
  223.5000   -32.1887     7.8769     6.9928     9.6569     8.0588   125.8603     0.0713     0.1023     2.4747
  224.0000   -32.0464     7.9289     6.9905     9.6515     8.0588   125.5477     0.0868     0.0905     2.4940
  224.5000   -33.4006     7.9819     6.9882     9.5143     8.0588   124.9254     0.0821     0.0806     2.5152
  225.0000   -33.1106     8.0340     6.9858     9.4443     8.0588   123.6840     0.0650     0.0831     2.5159
  225.5000   -31.0251     8.0869     7.0326     9.4399     8.0588   126.3125     0.0541     0.0933     2.4968
  226.0000   -29.3880     8.1484     7.1276     9.5021     8.0588   129.4054     0.0495     0.0992     2.4849
  226.5000   -31.1888     8.2508     7.1747     9.5636     8.0588   129.2475     0.0479     0.0996     2.4756
  227.0000   -34.7834     8.2473     7.2216     9.6243     8.0588   128.7801     0.0479     0.0968     2.4903
  227.5000   -35.7001     8.3025     7.2699     9.6866     8.0588   128.9319     0.0478     0.0931     2.4887
  228.0000   -35.8459     8.2990     7.3179     9.8158     8.0433   129.2384     0.0494     0.0893     2.4972
  228.5000   -35.8530     8.2963     7.3663     9.8112     8.0433   126.1393     0.0509     0.0835     2.5081
  229.0000   -36.0096     8.2363     7.3632     9.8067     8.0433   125.0526     0.0601     0.0801     2.5127
  229.5000   -36.0168     8.2330     7.4119     9.7345     8.0279   126.3085     0.0787     0.0810     2.5096
  230.0000   -36.0239     8.1173     7.4088     9.5964     8.0279   126.9041     0.0833     0.0835     2.5026
  230.5000   -36.0328     8.0587     7.3553     9.5918     8.0279   124.9938     0.0771     0.0878     2.4995
  231.0000   -36.0400     8.0006     7.3528     9.5203     8.0279   124.4211     0.0631     0.0872     2.4972
  231.5000   -36.1966     7.9979     7.3504     9.5159     8.0433   125.8400     0.0600     0.0922     2.4949
  232.0000   -36.2038     7.9952     7.3479     9.5114     8.0433   124.4143     0.0723     0.0909     2.4956
  232.5000   -36.2109     7.9919     7.3455     9.5070     8.0433   124.2564     0.0800     0.0897     2.4964
  233.0000   -36.1908     7.9893     7.3424     9.5026     8.0433   124.4081     0.0769     0.0944     2.4910
  233.5000   -36.1438     7.9866     7.2894     9.5641     8.0433   127.1915     0.0676     0.0947     2.4894
  234.0000   -36.0967     7.9290     7.1868     9.5585     8.0433   126.4144     0.0583     0.0949     2.4879
  234.5000   -36.0496     7.8718     7.1349     9.5541     8.0279   125.0181     0.0551     0.1012     2.4871
  235.0000   -36.0025     7.8150     7.0833     9.5496     8.0279   124.0863     0.0582     0.0972     2.4940
  235.5000   -35.9554     7.9211     6.9836     9.4794     8.0279   126.0956     0.0613     0.0947     2.4933
  236.0000   -35.9083     7.8633     6.9326     9.4750     8.0279   127.9509     0.0675     0.0969     2.4902
  236.5000   -35.8612     7.8606     6.8825     9.4053     8.0279   129.0307     0.0736     0.0984     2.4847
  237.0000   -35.8141     7.8039     6.7856     9.2707     8.0279   128.5632     0.0637     0.1009     2.4824
  237.5000   -35.7991     7.7476     6.7366     9.2026     8.0279   129.1793     0.0531     0.1161     2.4630
  238.0000   -35.8173     7.6387     6.7344     9.0720     8.0433   130.8790     0.0518     0.1121     2.4599
  238.5000   -35.8318     7.5314     6.6857     9.0053     8.0433   130.5664     0.0518     0.1143     2.4715
  239.0000   -35.6969     7.5283     6.6373     8.9390     8.0433   127.4673     0.0518     0.1180     2.4638
  239.5000   -35.7114     7.5786     6.6807     8.8122     8.0433   126.5355     0.0517     0.1211     2.4576
  240.0000   -35.7259     7.7341     6.6785     8.8080     8.0433   126.8420     0.0471     0.1202     2.4475
  240.5000   -35.7405     7.7858     6.6763     8.7423     8.0433   127.9370     0.0532     0.1211     2.4473
  241.0000   -35.6055     7.8908     6.7209     8.7382     8.0433   120.6439     0.0578     0.1217     2.4522
  241.5000   -35.6203     7.8882     6.8591     8.7948     8.0433   118.0093     0.0624     0.1193     2.4475
  242.0000   -35.4851     7.8855     6.9044     8.9131     8.0433   117.5418     0.0671     0.1202     2.4467
  242.5000   -35.5033     7.9376     6.9977     9.0330     8.0433   118.7874     0.0779     0.1196     2.4475
  243.0000   -35.6673     7.9900     7.0445     9.2180     8.0588   119.5645     0.0995     0.1156     2.4522
  243.5000   -35.6818     8.0985     7.0416     9.2777     8.0588   120.0094     0.0933     0.1007     2.4838
  244.0000   -35.6964     8.1519     7.0393     9.4025     8.0588   120.3159     0.0561     0.1143     2.4594
  244.5000   -35.8604     8.2619     7.0858     9.5279     8.0588   119.2285     0.0514     0.1182     2.4505
  245.0000   -35.8749     8.3165     7.0834     9.5906     8.0588   118.9166     0.0638     0.1016     2.4779
  245.5000   -35.8895     8.3713     7.0805     9.6517     8.0433   120.7704     0.0668     0.0979     2.4870
  246.0000   -35.9043     8.3679     7.0781     9.6470     8.0279   121.6961     0.0606     0.0995     2.4817
  246.5000   -36.0716     8.2503     7.1249     9.5750     8.0124   122.3130     0.0559     0.1026     2.4736
  247.0000   -36.0862     8.1907     7.1225     9.5046     8.0124   121.2256     0.0606     0.1006     2.4747
  247.5000   -36.1007     8.1316     7.1202     9.4347     8.0124   122.6157     0.0667     0.0995     2.4807
  248.0000   -36.2611     8.1289     7.1178     9.4304     8.0124   120.2906     0.0760     0.0992     2.4861
  248.5000   -36.1262     8.1256     7.1148     9.4260     8.0124   119.9788     0.0806     0.0881     2.5031
  249.0000   -36.1443     8.1792     7.0634     9.4216     8.0124   123.6901     0.0775     0.0977     2.5062
  249.5000   -36.1589     8.2331     7.0611     9.4814     8.0279   124.3070     0.0697     0.1008     2.4907
  250.0000   -36.1734     8.2308     7.0588     9.4855     8.0743   121.6722     0.0650     0.0998     2.4791
  250.5000   -36.1883     8.2290     7.0554     9.5784     8.0738   122.4404     0.0680     0.0968     2.4861
  251.0000   -36.2025     8.2273     7.0520     9.6698     8.0733   125.0674     0.0648     0.1017     2.4961
  251.5000   -36.0675     8.1645     7.0482     9.8690     8.0728   124.2887     0.0570     0.0998     2.4784
  252.0000   -35.9326     8.1110     7.0449     9.8649     8.0724   126.9157     0.0569     0.1045     2.4722
  252.5000   -35.9508     8.2793     7.0416     9.7262     8.0564   125.3631     0.0630     0.1070     2.4691
  253.0000   -35.9653     8.3928     7.0880     9.6559     8.0560   123.3461     0.0627     0.1070     2.4699
  253.5000   -35.9798     8.5079     7.0838     9.6527     8.0555   123.8058     0.0566     0.1073     2.4699
  254.0000   -35.9944     8.5651     7.1296     9.7164     8.0551   126.1232     0.0519     0.1092     2.4660
  254.5000   -36.0090     8.6224     7.1758     9.9168     8.0546   126.4293     0.0518     0.1095     2.4621
  255.0000   -36.1734     8.6804     7.2724    10.0515     8.0387   123.4824     0.0548     0.1033     2.4691
  255.5000   -36.0380     8.7994     7.3703    10.2655     7.9918   117.9050     0.0624     0.1034     2.4745
  256.0000   -36.0561     9.0438     7.5205    10.6152     7.9758   114.9592     0.0670     0.1009     2.4815
  256.5000   -36.0707     9.1051     7.7279    10.8340     7.9599   113.5613     0.0576     0.0975     2.4877
