~VERSION INFORMATION
 VERS.                2.0:   CWLS LOG ASCII STANDARD - VERSION 2.0
 WRAP.                 NO:   ONE LINE PER DEPTH STEP
~WELL INFORMATION
#MNEM.UNIT      DATA TYPE    INFORMATION
#----------   ------------   ------------------------------
 STRT.F           70.0000:   START DEPTH
 STOP.F         1072.0000:   STOP DEPTH
 STEP.F            0.5000:   STEP LENGTH
 NULL.          -999.2500:   NO VALUE
 COMP. LAWRENCE/ALLISON INC:   COMPANY
 WELL.    67-66 SX #11-11:   WELL
 FLD .             TEAPOT:   FIELD
 LOC .      S11 T38N R78W:   LOCATION
 CNTY.            NATRONA:   COUNTY
 STAT.            WYOMING:   STATE
 CTRY. UNITED STATES OF AMERICA:   COUNTRY
 SRVC.      Dresser Atlas:   SERVICE COMPANY
 DATE.        03-FEB-1986:   LOGDATE
 API .       490251105700:   API NUMBER
~CURVE INFORMATION
#MNEM.UNIT       API CODE    CURVE DESCRIPTION
#----------   ------------   ------------------------------
 DEPT.F                  :   
 RILD.OHMM   07 120 46 00:   RESISTIVITY INDUCTION LOG DEEP
 RILM.OHMM   07 120 44 00:   RESISTIVITY INDUCTION LOG MEDIUM
 GRD .GAPI   45 310 01 00:   GAMMA RAY FROM DENSITY LOG
 CALD.IN     45 280 60 00:   CALIPER FROM DENSITY LOG
 CORR.G/C3   45 356 01 00:   DENSITY CORRECTION
 PORD.DEC    45 890 12 00:   POROSITY DENSITY SANDSTONE
 DEN .G/C3   45 350 01 00:   COMPENSATED BULK DENSTIY
~PARAMETER INFORMATION
#MNEM.UNIT          VALUE    DESCRIPTION
#----------   ------------   ------------------------------
 PD  .                 GL:   PERMANENT DATUM
 EPD .F              5245:   ELEVATION PERMANENT DATUM
 LMF .                 GL:   LOG MEASURED FROM
 DMF .                 GL:   DRILLING MEASURED FROM
 EGL .F              5245:   GROUND LEVEL
 DATE.        03-FEB-1986:   RUN DATE
 RUN .                  1:   RUN NUMBER
 DD  .F              1120:   DEPTH DRILLER
 DL  .F              1074:   DEPTH LOGGER
 BLI .F              1068:   BOTTOM LOG INTERVAL
 TLI .F                86:   TOP LOG INTERVAL
 CS  .IN            8.625:   CASING SIZE
 CBD .F                86:   CASING BOTTOM DRILLER
 CBL .F                86:   CASING BOTTOM LOGGER
 BS  .IN             6.25:   BIT SIZE
 BSD .F              1120:   BIT SIZE AT DEPTH
 DFT .                AIR:   DRILLING FLUID TYPE
 TCS .HRS               2:   TIME CURCULATED STOPPED
 LUN .               6274:   LOGGING UNIT NUMBER
 LUL .           GILLETTE:   LOGGING UNIT LOCATION
 ENGI.             MILLER:   RECORDING ENGINEER
 WITN.           JENNINGS:   WITNESSED BY
 CLNT.            A2DTECH:   CLIENT CODE
 ORIG.           5" PRINT:   ORIGIN OF DATA
 UWI .       490251105700:   UNIQUE WELL ID
 DICO. A2D Technologies, Inc.:   DIGITIZING COMPANY
~OTHER INFORMATION
~A   DEPT     RILD       RILM        GRD       CALD       CORR       PORD        DEN   
   70.0000  -999.2500  -999.2500  -999.2500  -999.2500  -999.2500  -999.2500  -999.2500
   70.5000  -999.2500  -999.2500   152.1312  -999.2500  -999.2500  -999.2500  -999.2500
   71.0000  -999.2500  -999.2500   153.6471  -999.2500  -999.2500  -999.2500  -999.2500
   71.5000  -999.2500  -999.2500   146.1944  -999.2500  -999.2500  -999.2500  -999.2500
   72.0000  -999.2500  -999.2500   133.6594  -999.2500  -999.2500  -999.2500  -999.2500
   72.5000  -999.2500  -999.2500   129.7942  -999.2500  -999.2500  -999.2500  -999.2500
   73.0000  -999.2500  -999.2500   123.8362  -999.2500  -999.2500  -999.2500  -999.2500
   73.5000  -999.2500  -999.2500   115.7856  -999.2500  -999.2500  -999.2500  -999.2500
   74.0000  -999.2500  -999.2500   109.8276  -999.2500  -999.2500  -999.2500  -999.2500
   74.5000  -999.2500  -999.2500   105.3553  -999.2500  -999.2500  -999.2500  -999.2500
   75.0000  -999.2500  -999.2500   103.2876  -999.2500  -999.2500  -999.2500  -999.2500
   75.5000  -999.2500  -999.2500   105.5187  -999.2500  -999.2500  -999.2500  -999.2500
   76.0000  -999.2500  -999.2500   110.9437  -999.2500  -999.2500  -999.2500  -999.2500
   76.5000  -999.2500  -999.2500   114.7623  -999.2500  -999.2500  -999.2500  -999.2500
   77.0000  -999.2500  -999.2500   115.6292  -999.2500  -999.2500  -999.2500  -999.2500
   77.5000  -999.2500  -999.2500   109.6712  -999.2500  -999.2500  -999.2500  -999.2500
   78.0000  -999.2500  -999.2500    97.7342  -999.2500  -999.2500  -999.2500  -999.2500
   78.5000  -999.2500  -999.2500    90.5804  -999.2500  -999.2500  -999.2500  -999.2500
   79.0000  -999.2500  -999.2500    88.2099  -999.2500  -999.2500  -999.2500  -999.2500
   79.5000  -999.2500  -999.2500    87.3333  -999.2500  -999.2500  -999.2500  -999.2500
   80.0000  -999.2500  -999.2500    87.6543  -999.2500  -999.2500  -999.2500  -999.2500
   80.5000  -999.2500  -999.2500    88.2680  -999.2500  -999.2500  -999.2500  -999.2500
   81.0000  -999.2500  -999.2500    86.2017  -999.2500  -999.2500  -999.2500  -999.2500
   81.5000  -999.2500  -999.2500    84.4291  -999.2500  -999.2500  -999.2500  -999.2500
   82.0000  -999.2500  -999.2500    81.1618  -999.2500  -999.2500  -999.2500  -999.2500
   82.5000  -999.2500  -999.2500    78.7913  -999.2500  -999.2500  -999.2500  -999.2500
   83.0000  -999.2500  -999.2500    77.9102  -999.2500  -999.2500  -999.2500  -999.2500
   83.5000  -999.2500  -999.2500    77.3387  -999.2500  -999.2500  -999.2500  -999.2500
   84.0000  -999.2500  -999.2500    77.6588  -999.2500  -999.2500  -999.2500  -999.2500
   84.5000  -999.2500  -999.2500    89.0402  -999.2500  -999.2500  -999.2500  -999.2500
   85.0000  -999.2500  -999.2500   127.0284  -999.2500  -999.2500  -999.2500  -999.2500
   85.5000  -999.2500  -999.2500   195.8089  -999.2500  -999.2500  -999.2500  -999.2500
   86.0000  -999.2500  -999.2500   231.1048  -999.2500  -999.2500  -999.2500  -999.2500
   86.5000     2.5556   450.0190   218.8688     6.1852    -0.4619     0.3935     2.0823
   87.0000     2.0349     3.0149   200.0541     6.3025    -0.0266     0.2738     2.2593
   87.5000     2.4053     2.6455   190.7823     6.5107     0.2609     0.2295     2.2978
   88.0000     5.3416     2.7794   192.6225     6.7318     0.2897     0.2225     2.3069
   88.5000  9992.8271     3.4960   199.2223     6.8463     0.2793     0.2207     2.3108
   89.0000 10001.6338     4.5840   208.8082     6.8323     0.2554     0.2273     2.2913
   89.5000  9939.1240     6.2224   195.6771     6.8332     0.2435     0.2390     2.2778
   90.0000    53.5080     8.2449   188.2174     6.8341     0.2377     0.2459     2.2658
   90.5000     8.4176     9.4423   200.2037     6.8649     0.2183     0.2367     2.3020
   91.0000     8.1379     8.7486   212.4784     6.9405     0.1898     0.2188     2.3315
   91.5000     8.2590     8.1223   210.1078     7.0610     0.1659     0.1974     2.3533
   92.0000     7.6066     8.3577   194.8859     7.1815     0.1495     0.1671     2.3968
   92.5000     7.2011     8.3721   193.4122     7.4216     0.1391     0.1647     2.4040
   93.0000     7.4117     8.2569   183.6770     7.6317     0.1348     0.1683     2.3794
   93.5000     7.3145     7.7652   169.3612     7.8718     0.1304     0.2013     2.3493
   94.0000     6.9758     7.2520   144.6377     8.5772     0.1155     0.2387     2.2647
   94.5000     6.4695     6.9149   129.1749     9.9817     0.0946     0.2546     2.2477
   95.0000     6.0416     6.8243   123.5376     9.8027     0.1234     0.2597     2.2417
   95.5000     5.9624     6.8318   121.4858     9.6541     0.1732     0.2530     2.2508
   96.0000     6.2300     6.9331   119.7132     9.5055     0.2261     0.2431     2.2742
   96.5000     6.5939     7.0849   121.5281     8.2209     0.2700     0.2337     2.2894
   97.0000     6.9661     7.3410   124.8377     7.3399     0.2764     0.2240     2.3143
   97.5000     7.2648     7.3474   128.7452     7.1166     0.2793     0.2119     2.3528
   98.0000     7.3218     7.3031   131.1579     6.9681     0.2639     0.1854     2.3800
   98.5000     7.3283     7.3082   132.9728     6.9089     0.2494     0.1769     2.3868
   99.0000     7.2837     7.2639   135.6845     6.8951     0.2530     0.1865     2.3643
   99.5000     7.2385     7.1703   140.4889     6.8512     0.2817     0.1985     2.3418
  100.0000     7.1949     7.0779   146.4919     6.7557     0.2831     0.1807     2.3691
  100.5000     7.1021     6.9384   148.0140     6.6292     0.2667     0.1732     2.3901
  101.0000     6.9636     6.8488   152.3368     6.6604     0.1750     0.1683     2.4038
  101.5000     6.8264     6.7141   159.0095     6.6618     0.1270     0.1565     2.4257
  102.0000     6.6918     6.5818   162.4391     6.6329     0.1261     0.1221     2.4642
  102.5000     6.5584     6.4507   153.4979     6.6193     0.1454     0.1173     2.4718
  103.0000     6.4291     6.4578   143.6598     6.6210     0.1576     0.1206     2.4749
  103.5000     6.4798     6.5536   140.9966     6.6224     0.1683     0.1229     2.4757
  104.0000     6.5760     6.6971   148.1989     6.6238     0.1565     0.1238     2.4562
  104.5000     6.6766     6.7965   153.0095     6.6102     0.1401     0.1367     2.4322
  105.0000     6.8196     6.8973   151.8411     6.5667     0.1176     0.1542     2.4119
  105.5000     6.9209     6.9513   149.1779     6.5681     0.0907     0.1620     2.4097
  106.0000     6.9752     7.0545   142.3293     6.5844     0.0788     0.1622     2.4113
  106.5000     6.9813     7.0607   139.9582     6.6007     0.0624     0.1649     2.4054
  107.0000     6.9377     7.0080   141.1883     6.6167     0.0475     0.1643     2.4032
  107.5000     6.8024     6.8252   142.4115     6.6330     0.0372     0.1570     2.4156
  108.0000     6.5766     6.5982   140.4484     6.6194     0.0328     0.1551     2.4244
  108.5000     6.3582     6.3410   137.3353     6.6208     0.0571     0.1578     2.4147
  109.0000     6.2677     6.2592   137.4270     6.5923     0.0858     0.1623     2.4050
  109.5000     6.1651     6.1785   138.0299     6.5786     0.1033     0.1662     2.4042
  110.0000     6.0512     6.0990   133.8719     6.6099     0.1072     0.1631     2.4096
  110.5000     6.0655     6.1043   132.4045     6.6113     0.0799     0.1589     2.4150
  111.0000     6.0816     6.0662   131.4718     6.6127     0.0668     0.1597     2.4105
  111.5000     5.9898     6.0729   133.0572     6.5841     0.0641     0.1624     2.4046
  112.0000     6.1247     6.2058   135.4762     6.5702     0.0657     0.1633     2.4069
  112.5000     6.1803     6.2112   136.9984     6.5869     0.0644     0.1600     2.4130
  113.0000     6.2231     6.1312   135.8299     6.6032     0.0585     0.1581     2.4154
  113.5000     6.1430     6.1366   133.4657     6.5896     0.0632     0.1593     2.4185
  114.0000     6.0676     6.1420   130.8025     6.6059     0.1131     0.1555     2.4374
  114.5000     6.0749     6.2331   127.8403     6.6219     0.1192     0.1348     2.4585
  115.0000     6.0821     6.3256   129.0635     6.5904     0.1119     0.1275     2.4651
