~VERSION INFORMATION
 VERS.                2.0:   CWLS LOG ASCII STANDARD - VERSION 2.0
 WRAP.                 NO:   ONE LINE PER DEPTH STEP
~WELL INFORMATION
#MNEM.UNIT      DATA TYPE    INFORMATION
#----------   ------------   ------------------------------
 STRT.F           83.0000:   START DEPTH
 STOP.F         3044.0000:   STOP DEPTH
 STEP.F            0.5000:   STEP LENGTH
 NULL.          -999.2500:   NO VALUE
 COMP.   TESORO PETROLEUM:   COMPANY
 WELL.  NPR # 3  AX #81-4:   WELL
 FLD .        TEAPOT DOME:   FIELD
 LOC .       S4 T38N R78W:   LOCATION
 CNTY.            NATRONA:   COUNTY
 STAT.            WYOMING:   STATE
 CTRY. UNITED STATES OF AMERICA:   COUNTRY
 SRVC.       Schlumberger:   SERVICE COMPANY
 DATE.        31-JUL-1969:   LOGDATE
 API .       490251002700:   API NUMBER
~CURVE INFORMATION
#MNEM.UNIT       API CODE    CURVE DESCRIPTION
#----------   ------------   ------------------------------
 DEPT.F                  :   
 CILD.MMHO   05 110 46 00:   CONDUCTIVITY INDUCTION LOG DEEP
 ILD .OHMM   05 120 46 00:   INDUCTION LOG DEEP
 SN  .OHMM   05 040 16 00:   SHORT NORMAL 16"
 SPR .MV     05 010 01 00:   SPONTANEOUS POTENTIAL FROM RES.
 CALD.IN     45 280 60 00:   CALIPER FROM DENSITY
 DPHI.DEC    45 890 12 00:   DENSITY POROSITY SANDSTONE
 GRD .GAPI   45 310 01 00:   GAMMA RAY FROM DENSITY LOG
 RHOB.G/C3   45 350 01 00:   BULK DENSITY
 DRHO.G/C3   45 356 01 00:   DENSITY CORRECTION
~PARAMETER INFORMATION
#MNEM.UNIT          VALUE    DESCRIPTION
#----------   ------------   ------------------------------
 PD  .                 GL:   PERMANENT DATUM
 EPD .F              5170:   ELEVATION PERMANENT DATUM
 LMF .                 KB:   LOG MEASURED FROM
 DAPD.F                13:   FEET ABOVE PERMANENT DATUM
 DMF .                 KB:   DRILLING MEASURED FROM
 EKB .F              5183:   KELLING BUSHING
 EGL .F              5170:   GROUND LEVEL
 DATE.            7-31-69:   RUN DATE
 RUN .                  2:   RUN NUMBER
 DD  .F              3047:   DEPTH DRILLER
 DL  .F              3044:   DEPTH LOGGER
 BLI .F              3043:   BOTTOM LOG INTERVAL
 TLI .F               626:   TOP LOG INTERVAL
 CS  .IN            10.75:   CASING SIZE
 CBD .F               625:   CASING BOTTOM DRILLER
 CBL .F               626:   CASING BOTTOM LOGGER
 BS  .IN             6.25:   BIT SIZE
 BSD .F              3047:   BIT SIZE AT DEPTH
 DFT .      FRESH GEL MUD:   DRILLING FLUID TYPE
 DFD .                9.7:   DRILLING FLUID DENSITY
 DFV .                 50:   DRILLING FLUID VISCOSITY
 DFPH.                9.5:   DRILLING FLUID PH
 DFL .                  8:   DRILLING FLUID LOSS
 MSS .          FLOW LINE:   MUD SAMPLE SOURCE
 RMS .OHMM           1.35:   RESISTIVITY MUD SAMPLE
 MST .F                74:   MUD SAMPLE TEMPERATURE
 RMF .OHMM            .81:   RESISTIVITY MUD FILTRATE SAMPLE
 MFST.F                74:   MUD FILTRATE SAMPLE TEMPERATURE
 MFSS.                  M:   MUD FILTRATE SAMPLE SOURCE
 RMB .OHMM            .83:   RESISTIVITY MUD AT BHT
 BHT .F               121:   BOTTOM HOLE TEMPERATURE
 TCS .HRS               4:   TIME CURCULATED STOPPED
 MRT .F               121:   MAXIMUM RECORDED TEMPERATURE
 LUN .               4507:   LOGGING UNIT NUMBER
 LUL .               CSPR:   LOGGING UNIT LOCATION
 ENGI.               MIXA:   RECORDING ENGINEER
 WITN.                MAY:   WITNESSED BY
 CLNT.            A2DTECH:   CLIENT CODE
 ORIG.     1", 2.5" PRINT:   ORIGIN OF DATA
 UWI .       490251002700:   UNIQUE WELL ID
 DICO. A2D Technologies, Inc.:   DIGITIZING COMPANY
~OTHER INFORMATION
~A   DEPT      CILD       ILD         SN        SPR       CALD       DPHI        GRD       RHOB       DRHO   
# ...
 2163.5000    98.9088    10.6308    13.6571   -19.7612     9.0625     0.0599   100.7077     2.5428     0.0233
 2164.0000    98.8865    10.6347    13.5051   -20.0000     9.0621     0.0554    96.9400     2.5490     0.0207
 2164.5000    98.8643    10.6392    13.5088   -19.9923     9.0616     0.0708    95.6397     2.5481     0.0169
 2165.0000    98.8420    10.6429    13.6683   -19.9846     9.0744     0.0779    97.6349     2.5334     0.0157
 2165.5000    98.8194    10.6467    13.8279   -19.9769     9.1053     0.0821   100.2094     2.5216     0.0191
 2166.0000    98.8841    10.6504    13.8318   -19.9691     9.1200     0.0819   100.4769     2.5160     0.0241
 2166.5000   100.4670    10.6541    13.8053   -19.9614     9.1196     0.0760    98.4084     2.5075     0.0278
 2167.0000   101.8395    10.6579    13.4632   -19.8086     9.1191     0.0686    96.0254     2.5105     0.0289
 2167.5000   101.8133    10.6508    12.9810   -19.6373     9.1394     0.0626    95.7920     2.5255     0.0229
 2168.0000   102.1297    10.4933    12.5327   -19.6296     9.1481     0.0626    97.3073     2.5390     0.0161
 2168.5000   103.7127    10.3593    12.2124   -19.6219     9.1475     0.0771    94.0030     2.5164     0.0105
 2169.0000   104.8302    10.3331    11.8921   -19.4218     9.1471     0.0831    94.7646     2.5031     0.0068
 2169.5000   104.8071    10.1756    11.5717   -19.2978     9.1467     0.0787    97.7737     2.5062     0.0058
 2170.0000   105.3755    10.0619    11.1916   -19.2901     9.1462     0.0729    99.5781     2.5217     0.0090
 2170.5000   106.3040    10.0153    10.7091   -19.2824     9.1458     0.0678    97.7680     2.5331     0.0215
 2171.0000   106.9984     9.8578    10.2990   -19.2747     9.1752     0.0791    97.8002     2.5335     0.0290
 2171.5000   107.8009     9.7639     9.9786   -19.5742     9.1748     0.0845    99.6493     2.5364     0.0352
 2172.0000   107.7778     9.7678     9.7435   -19.8755     9.1743     0.0821   100.9754     2.5300     0.0363
 2172.5000   107.7546     9.6949     9.5852   -20.7939     9.1739     0.0809   102.9621     2.5076     0.0314
 2173.0000   109.6715     9.5374     9.4271   -21.7124     9.1734     0.0910   105.1070     2.5092     0.0229
 2173.5000   110.7948     9.4698     9.3731   -22.6309     9.1730     0.0982   105.5813     2.5039     0.0156
 2174.0000   111.8671     9.3772     9.4875   -22.3087     9.1619     0.0948   104.6698     2.4887     0.0116
 2174.5000   112.2917     9.2197     9.7704   -21.3533     9.1422     0.0937   100.6729     2.4938     0.0074
 2175.0000   112.2685     9.1718    10.2219   -20.7304     9.1418     0.0976    95.2306     2.4938     0.0052
 2175.5000   113.7849     9.1757    10.6354   -20.4023     9.1413     0.1006    91.5156     2.4860     0.0062
 2176.0000   113.7626     8.8707    10.7949   -20.1235     9.1409     0.0996    91.9813     2.4848     0.0112
 2176.5000   113.7404     8.8744    10.6428   -20.1157     9.1404     0.0990    94.1622     2.4897     0.0222
 2177.0000   113.7181     8.7234    10.4908   -20.1080     9.1400     0.1000    92.9568     2.4837     0.0276
 2177.5000   113.6959     8.5723    10.1830   -20.1003     9.1396     0.0966    90.5613     2.4853     0.0292
 2178.0000   116.8722     8.5760    10.0254   -20.0926     9.1391     0.0910    88.6658     2.4988     0.0292
 2178.5000   120.0625     8.5797     9.8672   -19.9764     9.1386     0.0984    86.7703     2.5033     0.0290
 2179.0000   123.0686     8.5836     9.7090   -19.7685     9.1382     0.1116    85.8057     2.4724     0.0277
 2179.5000   124.6520     8.5875     9.5750   -19.8930     9.1377     0.1205    83.2555     2.4489     0.0254
 2180.0000   125.9304     8.5501     9.6106   -20.0617     9.1373     0.1178    82.6502     2.4448     0.0230
 2180.5000   125.9028     8.2850     9.7391   -19.8981     9.1369     0.1124    81.4425     2.4586     0.0212
 2181.0000   125.8796     8.2218     9.7868   -19.7377     9.1364     0.1052    81.4396     2.4775     0.0203
 2181.5000   126.3544     7.9433     9.9026   -19.7299     9.1360     0.0986    83.8661     2.4947     0.0207
 2182.0000   127.9372     7.6920     9.7934   -19.5308     9.1355     0.0909    86.2532     2.5033     0.0248
 2182.5000   128.8966     7.1582     9.4100   -19.4059     9.1351     0.0918    84.6140     2.5011     0.0270
 2183.0000   136.4296     6.6367     8.9275   -19.3981     9.1427     0.0999    80.5555     2.4999     0.0279
 2183.5000   154.0718     6.1843     8.4450   -19.1636     9.1640     0.0992    79.0151     2.4984     0.0279
 2184.0000   166.0273     5.6161     7.9625   -19.0741     9.1636     0.0932    79.4518     2.4921     0.0269
 2184.5000   169.8030     5.4552     7.6569   -19.0650     9.1631     0.0869    80.2915     2.4991     0.0233
 2185.0000   169.5084     5.6205     7.4987   -19.0575     9.1627     0.0816    78.8027     2.5161     0.0205
 2185.5000   166.8769     5.7857     7.4416   -19.0501     9.1622     0.0784    78.4006     2.5139     0.0174
 2186.0000   163.6419     5.8514     7.4455   -19.0427     9.1618     0.0895    80.2171     2.4976     0.0152
 2186.5000   158.1516     6.0676     7.6770   -18.7266     9.1801     0.0967    85.2072     2.4872     0.0156
 2187.0000   154.0842     6.1687     8.1254   -18.7191     9.1907     0.0889    91.8331     2.4915     0.0206
 2187.5000   151.8091     6.2919     8.3924   -18.7114     9.2121     0.0824    98.0166     2.5170     0.0354
 2188.0000   150.2436     6.4868     8.7077   -18.7037     9.2197     0.0805   101.5661     2.5215     0.0318
 2188.5000   156.3942     5.8713     8.5557   -18.6960     9.2490     0.0841    97.6559     2.5155     0.0212
 2189.0000   173.3473     5.2558     7.9364   -18.6399     9.2486     0.0907    91.8050     2.5049     0.0125
 2189.5000   196.4732     4.9499     7.1613   -18.3719     9.2482     0.0955    92.2590     2.4985     0.0109
 2190.0000   202.7239     4.6440     6.5342   -18.2921     9.2478     0.0996    94.0356     2.4889     0.0193
 2190.5000   208.9505     4.4891     6.0606   -18.0478     9.2473     0.1002    91.0207     2.4795     0.0400
 2191.0000   212.1407     4.3419     5.7707   -18.0401     9.2469     0.0906    91.0178     2.5060     0.0389
 2191.5000   215.3296     4.3460     5.9739   -17.9249     9.2464     0.0882    93.4246     2.5098     0.0303
 2192.0000   217.9670     4.3498     6.2741   -17.7160     9.2460     0.0912    95.2289     2.4926     0.0219
 2192.5000   215.3751     4.3537     6.4401   -17.7083     9.2455     0.0891    97.7415     2.4958     0.0173
 2193.0000   210.1285     4.3576     6.5654   -17.7006     9.2451     0.0842   100.2613     2.5072     0.0162
 2193.5000   203.6806     4.3615     6.5693   -17.6929     9.2446     0.0817   102.7803     2.5166     0.0207
 2194.0000   198.2917     4.3653     6.5732   -17.6852     9.2442     0.0865   104.8559     2.5238     0.0263
 2194.5000   196.8351     4.4258     6.5771   -17.6775     9.2437     0.0936   101.8835     2.5212     0.0308
 2195.0000   199.7300     4.5279     6.5810   -17.8601     9.2433     0.0929   100.1983     2.5091     0.0333
 2195.5000   203.0879     4.6015     6.5849   -17.9707     9.2428     0.0862   100.4330     2.4959     0.0325
 2196.0000   203.1071     4.7668     6.5888   -17.9630     9.2424     0.0844    98.4503     2.4927     0.0265
 2196.5000   197.2554     5.0150     6.6780   -17.9552     9.2419     0.0891    95.5509     2.5021     0.0223
 2197.0000   185.7783     5.3416     7.0273   -17.9475     9.2415     0.0935    94.3538     2.5157     0.0181
 2197.5000   172.9011     5.6682     7.8114   -17.9384     9.2633     0.0951    92.1492     2.5157     0.0148
 2198.0000   164.1653     6.0976     8.3706   -17.9310     9.2704     0.0934    89.6226     2.4992     0.0123
 2198.5000   158.8154     6.5855     8.9202   -17.9235     9.2699     0.0881    88.1964     2.4917     0.0093
 2199.0000   155.1342     6.6101     9.3385   -17.9161     9.2695     0.0803    87.9578     2.4932     0.0044
 2199.5000   152.7963     6.3302     9.2648   -18.5259     9.2691     0.0791    87.9548     2.5039     0.0099
