~VERSION INFORMATION
 VERS.                2.0:   CWLS LOG ASCII STANDARD - VERSION 2.0
 WRAP.                 NO:   ONE LINE PER DEPTH STEP
~WELL INFORMATION
#MNEM.UNIT      DATA TYPE    INFORMATION
#----------   ------------   ------------------------------
 STRT.F           21.0000:   START DEPTH
 STOP.F          495.0000:   STOP DEPTH
 STEP.F            0.5000:   STEP LENGTH
 NULL.          -999.2500:   NO VALUE
 COMP. FENIX & SCISSON U.S. NAVY:   COMPANY
 WELL.        NPR #42-S-3:   WELL
 FLD .             TEAPOT:   FIELD
 LOC .       S3 T38N R78W:   LOCATION
 CNTY.            NATRONA:   COUNTY
 STAT.            WYOMING:   STATE
 CTRY. UNITED STATES OF AMERICA:   COUNTRY
 SRVC.              Welex:   SERVICE COMPANY
 DATE.        05-MAY-1977:   LOGDATE
 API .       490251034800:   API NUMBER
~CURVE INFORMATION
#MNEM.UNIT       API CODE    CURVE DESCRIPTION
#----------   ------------   ------------------------------
 DEPT.F                  :   
 SPR .MV     07 010 01 00:   SPONTANEOUS POTENTIAL
 SGRD.OHMM   07 221 05 00:   SHALLOW SHORT GUARD RESISTIVITY
 ILD .OHMM   07 120 46 00:   INDUCTION LOG DEEP
 ILM .OHMM   07 120 44 00:   INDUCTION LOG MEDIUM
 GRD .GAPI   45 310 01 00:   GAMMA RAY FROM DENSITY LOG
 CALD.IN     45 280 60 00:   CALIPER FROM DENSITY LOG
 CORR.G/C3   45 356 01 00:   DENSITY CORRECTION
 RHOB.G/C3   45 350 01 00:   BULK DENSITY
 DPHI.DEC    45 890 12 00:   DENSITY POROSITY SANDSTONE
~PARAMETER INFORMATION
#MNEM.UNIT          VALUE    DESCRIPTION
#----------   ------------   ------------------------------
 PD  .                 GL:   PERMANENT DATUM
 EPD .F              5120:   ELEVATION PERMANENT DATUM
 LMF .                 GL:   LOG MEASURED FROM
 DMF .                 GL:   DRILLING MEASURED FROM
 EGL .F              5120:   GROUND LEVEL
 DATE.        05-MAY-1977:   RUN DATE
 RUN .                  1:   RUN NUMBER
 DD  .F               490:   DEPTH DRILLER
 DL  .F               495:   DEPTH LOGGER
 BLI .F               493:   BOTTOM LOG INTERVAL
 TLI .F                20:   TOP LOG INTERVAL
 CS  .IN            8.625:   CASING SIZE
 CBD .F                25:   CASING BOTTOM DRILLER
 CBL .F                25:   CASING BOTTOM LOGGER
 BS  .IN            7.875:   BIT SIZE
 BSD .F               490:   BIT SIZE AT DEPTH
 DFT .            KCL MUD:   DRILLING FLUID TYPE
 DFD .                8.8:   DRILLING FLUID DENSITY
 DFV .                 34:   DRILLING FLUID VISCOSITY
 DFPH.                8.0:   DRILLING FLUID PH
 DFL .                8.4:   DRILLING FLUID LOSS
 MSS .           FLOWLINE:   MUD SAMPLE SOURCE
 RMS .OHMM           0.26:   RESISTIVITY MUD SAMPLE
 MST .F                60:   MUD SAMPLE TEMPERATURE
 RMF .OHMM           0.14:   RESISTIVITY MUD FILTRATE SAMPLE
 MFST.F                60:   MUD FILTRATE SAMPLE TEMPERATURE
 RMC .OHMM           0.41:   RESISTIVITY MUD CAKE
 MCST.F                60:   MUD CAKE SAMPLE TEMPERATURE
 MFSS.           FANN KIT:   MUD FILTRATE SAMPLE SOURCE
 MCSS.            FANNKIT:   MUD CAKE SAMPLE SOURCE
 RMB .OHMM           0.21:   RESISTIVITY MUD AT BHT
 BHT .F                71:   BOTTOM HOLE TEMPERATURE
 TCS .HRS            0130:   TIME CURCULATED STOPPED
 MRT .F                71:   MAXIMUM RECORDED TEMPERATURE
 LUN .               8611:   LOGGING UNIT NUMBER
 LUL .             CASPER:   LOGGING UNIT LOCATION
 ENGI.            C. DOAK:   RECORDING ENGINEER
 WITN.            R. LYON:   WITNESSED BY
 CLNT.            A2DTECH:   CLIENT CODE
 ORIG.           5" PRINT:   ORIGIN OF DATA
 UWI .       490251034800:   UNIQUE WELL ID
 DICO. A2D Technologies, Inc.:   DIGITIZING COMPANY
~OTHER INFORMATION
~A   DEPT      SPR       SGRD        ILD        ILM         GRD        CALD       CORR       RHOB       DPHI 
# ...
  459.0000   -43.4255    16.2992    10.9692    14.4200   110.3008     7.9012     0.0071     2.5565     0.0786
  459.5000   -43.2875    16.5213    10.5202    12.1346   111.8045     7.9012     0.0049     2.5506     0.0828
  460.0000   -43.1530    16.6325    11.2653    14.0225   112.1053     7.9012     0.0041     2.5423     0.0877
  460.5000   -43.1709    16.6273    11.4972    14.9183   109.5489     7.8862     0.0050     2.5342     0.0903
  461.0000   -43.1852    16.7382    11.4912    13.0840   105.9046     7.8862     0.0050     2.5252     0.0915
  461.5000   -43.1995    16.8633    11.4864    12.9925   102.9323     7.8862     0.0050     2.5192     0.0933
  462.0000   -43.0650    17.1976    11.4028    14.3061   105.9398     7.8862     0.0028     2.5237     0.0903
  462.5000   -42.9305    17.6741    11.4769    14.2553   107.2932     7.8862     0.0021     2.5206     0.0924
  463.0000   -42.7960    17.7919    11.8029    13.7218   105.0376     7.8862     0.0021     2.4953     0.1069
  463.5000   -42.6615    17.3026    12.0343    15.5315   101.8797     7.8862     0.0043     2.4864     0.1025
  464.0000   -42.5270    17.1794    11.8633    16.0742    99.8848     7.8862     0.0074     2.5014     0.0989
  464.5000   -42.2473    17.2959    11.5359    14.1954   100.3759     7.8862     0.0081     2.4939     0.1058
  465.0000   -42.2619    17.7731    11.6912    15.5238   103.2331     7.8862     0.0082     2.4879     0.1127
  465.5000   -42.2795    18.2643    12.0962    15.2035   105.6391     7.8862     0.0082     2.4880     0.1126
  466.0000   -42.2938    18.6425    12.0911    13.0618   106.9925     7.8862     0.0075     2.4940     0.1073
  466.5000   -42.1557    18.1298    12.0029    15.7308   106.3683     7.8862     0.0074     2.5000     0.1049
  467.0000   -42.1736    17.8771    11.7513    15.5128   103.6842     7.8862     0.0053     2.4955     0.1094
  467.5000   -42.0391    17.5068    11.6669    13.2360   102.0301     7.8862     0.0045     2.4881     0.1118
  468.0000   -42.0535    16.6701    11.8240    13.9841   103.9850     7.9012     0.0038     2.4873     0.1130
  468.5000   -41.7737    16.7880    11.9008    15.3986   104.8872     7.9012     0.0046     2.4881     0.1121
  469.0000   -41.7880    17.3724    11.7317    14.7458   103.9850     7.9012     0.0068     2.4919     0.1058
  469.5000   -41.8024    17.8537    11.4852    13.5036   104.7819     7.9012     0.0084     2.4964     0.1049
  470.0000   -41.6643    17.4839    11.2468    14.9716   107.7444     7.9012     0.0084     2.4987     0.1057
  470.5000   -41.6822    17.2402    11.1651    14.6627   109.3985     7.9012     0.0077     2.4899     0.1122
  471.0000   -41.6965    17.2359    11.3937    13.1292   104.8872     7.9162     0.0062     2.4845     0.1156
  471.5000   -41.7113    17.3508    11.1547    14.0639   105.4887     7.9162     0.0062     2.4837     0.1159
  472.0000   -41.7287    16.9903    10.9218    14.7568   106.7219     7.9162     0.0055     2.4838     0.1153
  472.5000   -41.7430    16.6384    10.7678    12.4972   110.6392     7.9162     0.0070     2.4845     0.1114
  473.0000   -41.9061    16.1818    10.6159    13.1200   113.1880     7.9012     0.0085     2.4946     0.1029
  473.5000   -41.9204    16.0666    10.4651    13.9580   114.8120     7.9162     0.0093     2.5115     0.0961
  474.0000   -41.9348    15.5184    10.3889    11.9913   114.9624     7.9162     0.0093     2.5123     0.0976
  474.5000   -42.0982    14.8859    10.1720    11.2685   114.6617     7.9162     0.0101     2.4974     0.1012
  475.0000   -42.1158    14.7798    10.0979    12.1537   104.5865     7.9162     0.0109     2.4959     0.0997
  475.5000   -42.2789    14.7753     9.8871    11.5792    87.3270     7.9162     0.0109     2.5065     0.0955
  476.0000   -42.4420    14.9767     9.8151    11.8521    52.1053     7.9012     0.0101     2.5191     0.0934
  476.5000   -42.6051    14.8701     9.8831    12.1477    51.6541     7.8713     0.0094     2.5222     0.0928
  477.0000   -42.7683    14.8664     9.8738    11.7336    51.5038     7.8263     0.0087     2.5192     0.0940
  477.5000   -43.0804    15.0691     9.6676    10.9502    51.5038     7.7814     0.0087     2.5117     0.0973
  478.0000   -43.0981    14.8387     9.1451    11.4107    51.5038     7.7515     0.0072     2.5028     0.1018
  478.5000   -43.1124    14.1546     8.9542    11.9100  -999.2500     7.7365     0.0065     2.4916     0.1107
  479.0000   -42.9743    13.9573     8.8279    10.4219  -999.2500     7.7365     0.0065     2.4878     0.1149
  479.5000   -42.6910    13.8579     8.6436    11.5629  -999.2500     7.7365     0.0081     2.4871     0.1137
  480.0000   -42.5595    13.9512     8.1155    11.8847  -999.2500     7.7365     0.0088     2.4894     0.1122
  480.5000   -42.1280    13.9468     7.9499    10.8636  -999.2500     7.7515     0.0080     2.4931     0.1092
  481.0000   -41.8006    13.9434     7.8920    11.7986  -999.2500     7.7665     0.0066     2.4979     0.1032
  481.5000   -40.3745    14.0476     7.8887    12.2109  -999.2500     7.7814     0.0089     2.5082     0.0963
  482.0000   -39.0495    14.4252     7.9957    10.5629  -999.2500     7.7814     0.0097     2.5157     0.0933
  482.5000   -37.4269    14.2232     8.1033    10.4886  -999.2500     7.7964     0.0104     2.5187     0.0924
  483.0000   -34.3162    14.0250     8.3256    10.7801  -999.2500     7.8114     0.0112     2.5172     0.0933
  483.5000   -28.9734    14.0215     8.7589    10.0598  -999.2500     7.8114     0.0112     2.5089     0.0984
  484.0000   -23.2440    13.8260    10.0195    10.2688  -999.2500     7.8114     0.0098     2.4948     0.1050
  484.5000   -17.0997    13.6333    11.4170    10.8488  -999.2500     7.7964     0.0090     2.4828     0.1149
  485.0000   -20.2390    13.5052    11.8954    17.8188  -999.2500     7.7964     0.0061     2.4761     0.1190
  485.5000   -21.3219    13.0735    10.8701    36.2400  -999.2500     7.7964     0.0061     2.4784     0.1184
  486.0000    -5.5159    12.8913    13.7356    70.4468  -999.2500     7.7814     0.0076     2.4844     0.1144
  486.5000    -5.1034    12.7116    25.5346   229.8377  -999.2500     7.7814     0.0091     2.4912     0.1124
  487.0000    -5.1213    12.7084    44.4351   390.7401  -999.2500     7.7665     0.0077     2.4770     0.1211
  487.5000    -5.1356    12.7932    67.4340   887.3671  -999.2500     7.7515     0.0054     2.4628     0.1298
  488.0000    -5.1499    12.7899    88.5526  1435.5510  -999.2500     7.7365     0.0032     2.4590     0.1295
  488.5000    -5.1642    12.5243  -999.2500  -999.2500  -999.2500     7.7365     0.0032     2.4636     0.1256
  489.0000    -5.1786    12.2649  -999.2500  -999.2500  -999.2500     7.7365     0.0074     2.4753     0.1106
  489.5000    -5.1964    12.1776  -999.2500  -999.2500  -999.2500     7.7365     0.0130     2.4958     0.1034
  490.0000    -5.2122    12.0909  -999.2500  -999.2500  -999.2500     7.7365     0.0183     2.5145     0.0932
  490.5000    -5.2756    12.1723  -999.2500  -999.2500  -999.2500     7.7365     0.0213     2.5310     0.0842
  491.0000    -5.3390    12.1685  -999.2500  -999.2500  -999.2500     7.7216     0.0260     2.5415     0.0800
  491.5000    -5.4024    12.0818  -999.2500  -999.2500  -999.2500     7.7216     0.0311     2.5469     0.0797
  492.0000    -5.4658     9.0417  -999.2500  -999.2500  -999.2500     7.7216     0.0348     2.5431     0.0836
  492.5000    -5.5291     8.5163  -999.2500  -999.2500  -999.2500     7.7216     0.0393     2.5378     0.0863
  493.0000    -5.5925     8.1403  -999.2500  -999.2500  -999.2500     7.7216     0.0453     2.5386     0.0854
  493.5000  -999.2500  -999.2500  -999.2500  -999.2500  -999.2500     7.7216     0.0522     2.5356     0.0868
  494.0000  -999.2500  -999.2500  -999.2500  -999.2500  -999.2500     7.7216     0.0604     2.5227     0.0939
  494.5000  -999.2500  -999.2500  -999.2500  -999.2500  -999.2500     7.7216     0.0629     2.5152     0.0952
  495.0000  -999.2500  -999.2500  -999.2500  -999.2500  -999.2500     7.7216     0.0634     2.5132     0.0965
