~VERSION INFORMATION
 VERS.                2.0:   CWLS LOG ASCII STANDARD - VERSION 2.0
 WRAP.                 NO:   ONE LINE PER DEPTH STEP
~WELL INFORMATION
#MNEM.UNIT      DATA TYPE    INFORMATION
#----------   ------------   ------------------------------
 STRT.F           30.0000:   START DEPTH
 STOP.F          562.0000:   STOP DEPTH
 STEP.F            0.5000:   STEP LENGTH
 NULL.          -999.2500:   NO VALUE
 COMP. LAWRENCE/ALLISON INC:   COMPANY
 WELL. 81-16 SHX-SX-10 #10-10:   WELL
 FLD .             TEAPOT:   FIELD
 LOC .      S10 T38N R78W:   LOCATION
 CNTY.            NATRONA:   COUNTY
 STAT.            WYOMING:   STATE
 CTRY. UNITED STATES OF AMERICA:   COUNTRY
 SRVC.           Gearhart:   SERVICE COMPANY
 DATE.        03-JUN-1987:   LOGDATE
 API .       490251113300:   API NUMBER
~CURVE INFORMATION
#MNEM.UNIT       API CODE    CURVE DESCRIPTION
#----------   ------------   ------------------------------
 DEPT.F                  :   
 GRR .GAPI   07 310 01 00:   GAMMA RAY FROM RES. LOG.
 RILD.OHMM   07 120 46 00:   INDUCTION LOG DEEP RESISTIVITY
 RILM.OHMM   07 120 44 00:   INDUCTION LOG MEDIUM RESISTIVITY
~PARAMETER INFORMATION
#MNEM.UNIT          VALUE    DESCRIPTION
#----------   ------------   ------------------------------
 PD  .                 GL:   PERMANENT DATUM
 EPD .F              5169:   ELEVATION PERMANENT DATUM
 LMF .                 KB:   LOG MEASURED FROM
 DAPD.F                 8:   FEET ABOVE PERMANENT DATUM
 DMF .                 KB:   DRILLING MEASURED FROM
 EKB .F              5177:   KELLING BUSHING
 EDF .F              5175:   DRILLING FLOOR
 EGL .F              5169:   GROUND LEVEL
 DATE.             6-3-87:   RUN DATE
 RUN .                  1:   RUN NUMBER
 DD  .F               570:   DEPTH DRILLER
 DL  .F               570:   DEPTH LOGGER
 BLI .F               562:   BOTTOM LOG INTERVAL
 TLI .F                30:   TOP LOG INTERVAL
 CS  .IN            8.625:   CASING SIZE
 CBD .F                50:   CASING BOTTOM DRILLER
 CBL .F                49:   CASING BOTTOM LOGGER
 BS  .IN            7.875:   BIT SIZE
 BSD .F               570:   BIT SIZE AT DEPTH
 DFT .               FOAM:   DRILLING FLUID TYPE
 TCS .HRS            0930:   TIME CURCULATED STOPPED
 TLAB.HRS            1101:   TIME LOGGER AT BOTTOM
 MRT .F                80:   MAXIMUM RECORDED TEMPERATURE
 LUN .               7597:   LOGGING UNIT NUMBER
 LUL .           GILLETTE:   LOGGING UNIT LOCATION
 ENGI. WEATHERMON/JOHNSTON:   RECORDING ENGINEER
 WITN.             STRONG:   WITNESSED BY
 CLNT.            A2DTECH:   CLIENT CODE
 ORIG.       2", 5" PRINT:   ORIGIN OF DATA
 UWI .       490251113300:   UNIQUE WELL ID
 DICO. A2D Technologies, Inc.:   DIGITIZING COMPANY
~OTHER INFORMATION
~A   DEPT       GRR      RILD       RILM   
   30.0000    94.8980  -999.2500  -999.2500
   30.5000    95.3061  -999.2500  -999.2500
   31.0000    97.3469  -999.2500  -999.2500
   31.5000    96.5782  -999.2500  -999.2500
   32.0000    94.4495  -999.2500  -999.2500
   32.5000    92.3216  -999.2500  -999.2500
   33.0000    91.5920  -999.2500  -999.2500
   33.5000    93.1931  -999.2500  -999.2500
   34.0000    94.9652  -999.2500  -999.2500
   34.5000    96.4024  -999.2500  -999.2500
   35.0000    97.1383  -999.2500  -999.2500
   35.5000    97.9170  -999.2500  -999.2500
   36.0000    96.7837  -999.2500  -999.2500
   36.5000    94.7259  -999.2500  -999.2500
   37.0000    94.8061  -999.2500  -999.2500
   37.5000    96.3211  -999.2500  -999.2500
   38.0000    97.8785  -999.2500  -999.2500
   38.5000    99.3112  -999.2500  -999.2500
   39.0000    98.0967  -999.2500  -999.2500
   39.5000    96.7751  -999.2500  -999.2500
   40.0000    95.6818  -999.2500  -999.2500
   40.5000    96.1854  -999.2500  -999.2500
   41.0000    99.1370  -999.2500  -999.2500
   41.5000   102.3519  -999.2500  -999.2500
   42.0000   103.8653  -999.2500  -999.2500
   42.5000   101.4932  -999.2500  -999.2500
   43.0000    99.4094  -999.2500  -999.2500
   43.5000    99.3704  -999.2500  -999.2500
   44.0000    99.4126  -999.2500  -999.2500
   44.5000   100.7798  -999.2500  -999.2500
   45.0000   101.6497  -999.2500  -999.2500
   45.5000   100.4819  -999.2500  -999.2500
   46.0000    99.3311  -999.2500  -999.2500
   46.5000    99.4554  -999.2500  -999.2500
   47.0000   102.5957  -999.2500  -999.2500
   47.5000   108.1764  -999.2500  -999.2500
   48.0000   113.7377  -999.2500  -999.2500
   48.5000   118.5341  -999.2500  -999.2500
   49.0000   119.8647    14.2541     3.1937
   49.5000   121.2783    14.2541     3.8386
   50.0000   120.7828    17.9705     6.5903
   50.5000   120.0213    23.0312     7.4751
   51.0000   118.7549    16.4429     8.9522
   51.5000   114.9566    12.2446    10.6985
   52.0000   111.1589     8.8220    11.9630
   52.5000   107.3080     8.9805    12.6132
   53.0000   107.0328     9.3017    10.6973
   53.5000   110.4339     9.6922     9.6015
   54.0000   114.7477     9.1371     9.6015
   54.5000   116.0996     8.5765    10.8506
   55.0000   114.0383     8.6673    10.7490
   55.5000   111.6569     8.8396    10.1761
   56.0000   111.6993     9.0745     9.5116
   56.5000   114.1874     9.0532     9.3785
   57.0000   114.4961     9.0215     9.2469
   57.5000   114.4795     8.9895     9.2469
   58.0000   114.5324     9.0238     9.2469
   58.5000   116.3249     9.0668     9.2784
   59.0000   119.2545     9.1101     9.3471
   59.5000   122.1763     9.1538     9.4163
   60.0000   119.9520     9.1973     9.4861
   60.5000   116.8039     9.2469     9.5116
   61.0000   115.7784     9.1174     9.3871
   61.5000   116.9459     8.9304     9.3020
   62.0000   118.1237     8.7473     9.2173
   62.5000   118.1750     8.5765     9.1343
   63.0000   117.7281     8.5758     9.0751
   63.5000   115.5313     8.7017     9.2352
   64.0000   113.3341     8.9503     9.3622
   64.5000   112.8128     9.2057     9.4909
   65.0000   116.2190     9.3017     9.6046
   65.5000   122.6626     9.3673     9.7165
   66.0000   129.3345     9.4334     9.8763
   66.5000   131.8659     9.5116     9.8503
   67.0000   131.9093     9.4748     9.8063
   67.5000   130.5883     9.4307     9.7625
   68.0000   129.4201     9.3864     9.7190
   68.5000   128.7553     9.3436     9.6229
   69.0000   128.0792     9.1908     9.4450
   69.5000   128.2182     9.0173     9.2704
   70.0000   128.5400     8.8469     9.0990
   70.5000   128.5146     8.6797     8.9307
   71.0000   127.3981     8.5157     8.7656
   71.5000   126.3220     8.3547     8.6316
   72.0000   125.8495     8.1968     8.4680
   72.5000   127.2476     8.0420     8.3076
   73.0000   131.1867     7.8900     8.1824
   73.5000   131.8221     7.8064     8.2249
   74.0000   130.3283     7.8806     8.2927
   74.5000   128.4772     7.9405     8.3701
   75.0000   125.2007     8.2120     8.5926
   75.5000   122.0025     8.5611     8.8211
   76.0000   118.9661     8.8767     9.0556
   76.5000   117.0642     9.0754     9.2964
   77.0000   115.8587     9.2790     9.5436
   77.5000   114.6386     9.4873     9.7185
   78.0000   114.2881     9.6014     9.8387
   78.5000   114.6265     9.5616     9.9697
   79.0000   114.6555     9.5336    10.0057
   79.5000   113.4273     9.5059    10.0551
   80.0000   112.8663     9.4784    10.1051
   80.5000   113.0543     9.4511    10.1598
   81.0000   114.2430     9.4237    10.0817
   81.5000   114.4028     9.3965     9.9740
   82.0000   112.1311     9.3693     9.8678
   82.5000   112.4644     9.3355     9.7628
   83.0000   113.0657     9.3457     9.6922
   83.5000   113.7942     9.3623     9.7390
   84.0000   117.2274     9.3787     9.7746
   84.5000   120.6560     9.3952     9.8103
   85.0000   123.5593     9.4117     9.8461
   85.5000   122.1852     9.4283     9.8820
   86.0000   120.0631     9.4449     9.9181
   86.5000   118.5631     9.4615     9.9543
   87.0000   120.6849     9.4782     9.9907
   87.5000   123.0074     9.4950    10.0272
   88.0000   122.9337     9.5107    10.0638
   88.5000   118.4025     9.4840    10.0343
   89.0000   115.3496     9.4567    10.0042
   89.5000   117.3669     9.4294     9.9744
   90.0000   120.3423     9.4022     9.9447
   90.5000   123.3418     9.3750     9.9151
   91.0000   125.4192     9.3481     9.8757
   91.5000   127.0746     9.3350     9.8954
   92.0000   128.7301     9.3613     9.9325
   92.5000   129.9160     9.3793     9.9700
   93.0000   129.0202     9.3974    10.0078
   93.5000   125.2185     9.4156    10.0458
   94.0000   121.4972     9.4338    10.0839
   94.5000   118.0958     9.4520    10.1221
   95.0000   115.9863     9.4703    10.1590
   95.5000   115.7050     9.4886    10.0781
   96.0000   115.7094     9.5110     9.9998
   96.5000   115.7092     9.4691     9.9225
   97.0000   116.4889     9.4126     9.8459
   97.5000   118.7806     9.3563     9.7698
   98.0000   121.5427     9.3003     9.6944
   98.5000   123.9592     9.2447     9.6195
   99.0000   121.8850     9.1894     9.5452
   99.5000   118.5175     9.1345     9.4715
  100.0000   115.7567     9.0766     9.3983
  100.5000   116.9760     9.0932     9.3343
  101.0000   121.6948     9.1140     9.3970
  101.5000   127.1279     9.1349     9.4536
  102.0000   132.6654     9.1601     9.5116
  102.5000   134.4731     9.1189     9.4601
  103.0000   133.0582     9.0667     9.4078
  103.5000   131.5385     9.0146     9.3559
  104.0000   128.6391     8.9628     9.3042
  104.5000   125.8008     8.9053     9.2469
  105.0000   127.2175     9.0001     9.3500
  105.5000   130.6104     9.1087     9.4682
  106.0000   133.9716     9.2186     9.5879
  106.5000   132.4209     9.3299     9.7092
  107.0000   129.4938     9.4425     9.8320
  107.5000   126.5728     9.5564     9.9564
  108.0000   123.6085     9.6717    10.0824
  108.5000   122.3535     9.7076    10.2096
  109.0000   122.2495     9.7262    10.2558
  109.5000   121.1809     9.7449    10.2369
  110.0000   119.6787     9.7636    10.2225
  110.5000   118.1600     9.7844    10.2081
  111.0000   116.8974     9.7388    10.1937
  111.5000   117.6461     9.6542    10.1793
  112.0000   121.6756     9.5703    10.1649
  112.5000   125.2143     9.4872    10.0774
  113.0000   128.2343     9.4048     9.8763
  113.5000   129.6300     9.3235     9.7346
  114.0000   128.9783     9.2469     9.5976
  114.5000   128.0827     9.1302     9.4625
  115.0000   126.0035     9.0213     9.3293
  115.5000   123.9140     8.8743     9.1980
  116.0000   121.8044     8.7135     9.0685
  116.5000   121.1006     8.5557     8.9408
  117.0000   123.1404     8.4008     8.8150
  117.5000   125.2418     8.3320     8.7394
  118.0000   127.3314     8.3172     8.9067
  118.5000   129.4194     8.3024     8.9783
  119.0000   131.5865     8.2877     9.0503
  119.5000   131.5342     8.2731     9.0745
  120.0000   129.6871     8.2612     9.0745
  120.5000   126.9583     8.3850     9.0745
