~VERSION INFORMATION
 VERS.                2.0:   CWLS LOG ASCII STANDARD - VERSION 2.0
 WRAP.                 NO:   ONE LINE PER DEPTH STEP
~WELL INFORMATION
#MNEM.UNIT      DATA TYPE    INFORMATION
#----------   ------------   ------------------------------
 STRT.F            0.0000:   START DEPTH
 STOP.F          678.0000:   STOP DEPTH
 STEP.F            0.5000:   STEP LENGTH
 NULL.          -999.2500:   NO VALUE
 COMP. FENIX & SCISSON INC:   COMPANY
 WELL. 37-21 SX 11 WO #37-11:   WELL
 FLD .             TEAPOT:   FIELD
 LOC .      S11 T38N R78W:   LOCATION
 CNTY.            NATRONA:   COUNTY
 STAT.            WYOMING:   STATE
 CTRY. UNITED STATES OF AMERICA:   COUNTRY
 SRVC.      Dresser Atlas:   SERVICE COMPANY
 DATE.        14-OCT-1983:   LOGDATE
 API .       490251084300:   API NUMBER
~CURVE INFORMATION
#MNEM.UNIT       API CODE    CURVE DESCRIPTION
#----------   ------------   ------------------------------
 DEPT.F                  :   
 SPR .MV     07 010 01 00:   SPONTANEOUS POTENTIAL
 SFLU.OHMM   07 220 01 00:   SPHERICALLY FOCUSED LOG UNAVERAGED RESISTIVITY
 ILM .OHMM   07 120 44 00:   INDUCTION LOG MEDIUM
 ILD .OHMM   07 120 46 00:   INDUCTION LOG DEEP
 NPHI.DEC    42 890 03 00:   NEUTRON POROSITY SANDSTONE
 DPHI.DEC    45 890 12 00:   DENSITY POROSITY SANDSTONE
 RHOB.G/C3   45 350 01 00:   BULK DENSITY
 CORR.G/C3   45 356 01 00:   DENSITY CORRECTION
 GRD .GAPI   45 310 01 00:   GAMMA RAY FROM DENSITY LOG
 CALD.IN     45 280 60 00:   CALIPER
~PARAMETER INFORMATION
#MNEM.UNIT          VALUE    DESCRIPTION
#----------   ------------   ------------------------------
 PD  .                 GL:   PERMANENT DATUM
 EPD .F              5188:   ELEVATION PERMANENT DATUM
 LMF .                 KB:   LOG MEASURED FROM
 DAPD.F                 5:   FEET ABOVE PERMANENT DATUM
 DMF .                 KB:   DRILLING MEASURED FROM
 EKB .F              5193:   KELLING BUSHING
 EGL .F              5188:   GROUND LEVEL
 DATE.           10-14-83:   RUN DATE
 RUN .                  4:   RUN NUMBER
 DD  .F               629:   DEPTH DRILLER
 DL  .F               630:   DEPTH LOGGER
 BLI .F               624:   BOTTOM LOG INTERVAL
 TLI .F               335:   TOP LOG INTERVAL
 BS  .IN             8.75:   BIT SIZE
 BSD .F               629:   BIT SIZE AT DEPTH
 DFT .          KCL WATER:   DRILLING FLUID TYPE
 LUN .               6307:   LOGGING UNIT NUMBER
 LUL .               GLTE:   LOGGING UNIT LOCATION
 ENGI.            DEYOUNG:   RECORDING ENGINEER
 WITN.            SCHULTE:   WITNESSED BY
 CLNT.            A2DTECH:   CLIENT CODE
 ORIG.       2", 5" PRINT:   ORIGIN OF DATA
 UWI .       490251084300:   UNIQUE WELL ID
 DICO. A2D Technologies, Inc.:   DIGITIZING COMPANY
~OTHER INFORMATION
~A    DEPT     SPR       SFLU        ILM        ILD       NPHI       DPHI       RHOB       CORR        GRD       CALD   
# ...
   67.0000   -39.0866     8.0427     6.7590     7.2269     0.2717     0.2456     2.3294     0.0556    89.2458  -999.2500
   67.5000   -38.9571     7.9176     6.7063     7.1957     0.2680     0.2369     2.3366     0.0544    89.1829  -999.2500
   68.0000   -38.8260     7.8274     6.6527     7.1646     0.2646     0.2284     2.3462     0.0533    88.6836  -999.2500
   68.5000   -38.6913     7.7379     6.5995     7.1337     0.2667     0.2198     2.3588     0.0485    89.1209  -999.2500
   69.0000   -38.8968     7.6506     6.5467     7.1029     0.2689     0.2117     2.3565     0.0432    89.5770  -999.2500
   69.5000   -39.1454     7.5838     6.4944     7.0722     0.2697     0.2040     2.3539     0.0379    90.0379  -999.2500
   70.0000   -39.3969     7.5100     6.4425     7.0416     0.2667     0.1966     2.3706     0.0387    90.4296     9.5602
   70.5000   -39.6541     7.4071     6.3910     7.0107     0.2633     0.1938     2.3801     0.0459    89.0725     9.5602
   71.0000   -39.5883     7.4907     6.3390     7.0528     0.2592     0.1916     2.3999     0.0533    87.6969     9.5602
   71.5000   -39.4768     7.6407     6.4155     7.1069     0.2555     0.1892     2.4076     0.0566    86.7759     9.5624
   72.0000   -39.3658     7.7924     6.5144     7.1614     0.2520     0.1827     2.4145     0.0588    86.6243     9.5704
   72.5000   -39.2552     7.9471     6.6147     7.2164     0.2523     0.1755     2.4246     0.0624    83.7076     9.5783
   73.0000   -39.1448     8.1059     6.7167     7.2718     0.2539     0.1683     2.4371     0.0669    81.0486     9.5862
   73.5000   -39.0343     8.2661     6.8201     7.3276     0.2555     0.1633     2.4456     0.0660    82.7971     9.5940
   74.0000   -38.9239     8.1825     6.9252     7.3838     0.2567     0.1618     2.4314     0.0567    84.3796     9.6019
   74.5000   -38.8134     8.0969     7.0319     7.4411     0.2563     0.1507     2.4245     0.0536    83.2043     9.6098
   75.0000   -38.7030     8.0129     7.1403     7.4744     0.2558     0.1421     2.4213     0.0517    81.6020     9.6176
   75.5000   -38.5925     7.9294     7.0840     7.4067     0.2554     0.1487     2.4139     0.0499    79.3621     9.6255
   76.0000   -38.4821     7.8028     7.0282     7.3589     0.2549     0.1552     2.4069     0.0481    80.4797     9.6333
   76.5000   -38.3716     7.6492     6.9728     7.3005     0.2544     0.1600     2.4100     0.0469    82.2554     9.6376
   77.0000   -38.2612     7.4987     6.9179     7.2080     0.2514     0.1637     2.4141     0.0545    82.3615     9.6305
   77.5000   -38.1506     7.3512     6.8634     7.1158     0.2484     0.1672     2.4242     0.0635    79.8106     9.6238
   78.0000   -38.0404     7.2067     6.7586     7.0250     0.2486     0.1678     2.4313     0.0725    80.1456     9.6171
   78.5000   -37.9275     7.0643     6.7113     6.9354     0.2494     0.1638     2.4371     0.0806    80.7521     9.6104
   79.0000   -37.9478     6.8801     6.6348     6.7344     0.2500     0.1568     2.4306     0.0787    78.9476     9.6038
   79.5000   -38.0248     6.6729     6.5156     6.3926     0.2503     0.1481     2.4094     0.0769    79.6467     9.5977
   80.0000   -38.1034     6.4341     5.8217     6.0669     0.2472     0.1494     2.3887     0.0784    81.9880     9.5927
   80.5000   -38.1820     6.0755     5.2120     5.7552     0.2492     0.1522     2.3671     0.0800    85.0008     9.5877
   81.0000   -38.2607     5.7370     4.6662     5.1834     0.2579     0.1602     2.3260     0.0815    87.4455     9.5823
   81.5000   -38.3407     5.4254     3.9292     3.8941     0.2743     0.1737     2.2664     0.0816    89.5360     9.5598
   82.0000   -38.4188     4.3597     3.1891     2.9255     0.3078     0.1871     2.2025     0.0724    92.2639     9.5143
   82.5000   -38.3856     3.5228     2.5884     2.1978     0.3412     0.2005     2.1371     0.0631    93.3315     9.4695
   83.0000   -37.6598     2.8465     2.1008     1.9358     0.3664     0.2328     2.0967     0.0562    91.9314     9.4240
   83.5000   -37.0879     2.6322     1.8869     1.7613     0.3846     0.2754     2.0631     0.0512    89.5724     9.4261
   84.0000   -36.5404     2.7023     1.8336     1.6026     0.3999     0.3183     2.0597     0.0470    88.3706     9.4709
   84.5000   -36.3224     2.7304     1.7818     1.4921     0.3966     0.3618     2.0685     0.0471    88.0986     9.5158
   85.0000   -36.3185     2.6418     1.7434     1.4921     0.3915     0.3762     2.0921     0.0423    87.5454     9.5617
   85.5000   -36.3185     2.6322     1.9533     1.7027     0.3749     0.3774     2.1168     0.0344    85.4476     9.5343
   86.0000   -36.3197     3.4965     2.3252     1.8587     0.3380     0.3717     2.2016     0.0421    79.7229     9.4659
   86.5000   -36.3699     4.7167     2.8979     2.2332     0.3009     0.3613     2.3228     0.0689    74.1346     9.5311
   87.0000   -36.4919     6.3628     3.6116     2.7747     0.2639     0.3428     2.4155     0.0691    72.0358     9.6008
   87.5000   -36.6129     8.9767     4.5011     3.4486     0.2474     0.3132     2.4027     0.0650    70.5735     9.6263
   88.0000   -36.7342     8.8279     5.6096     4.2913     0.2430     0.2469     2.3989     0.0676    70.8371     9.5972
   88.5000   -36.8554     8.7335     6.9912     5.4135     0.2433     0.1607     2.4171     0.0716    73.4428     9.5687
   89.0000   -36.9768     8.7335     8.1452     7.1650     0.2410     0.1659     2.4296     0.0754    72.8991     9.5399
   89.5000   -37.0981    10.1694     9.1581     8.6659     0.2387     0.1732     2.4404     0.0777    72.7111     9.5111
   90.0000   -37.2176    11.7463    10.1312     9.4171     0.2378     0.1664     2.4473     0.0724    74.3315     9.4825
   90.5000   -37.3047    13.0659    11.1775    10.2335     0.2271     0.1602     2.4541     0.0691    75.9740     9.4768
   91.0000   -37.3029    12.7854    12.2548    10.8797     0.2240     0.1541     2.4528     0.0717    76.2713     9.4715
   91.5000   -37.3032    12.6017    12.2548    10.8933     0.2226     0.1479     2.4339     0.0742    76.6312     9.4659
   92.0000   -37.3032    11.9500    10.4539     9.5686     0.2347     0.1417     2.4111     0.0766    78.7519     9.4592
   92.5000   -37.3033    10.1564     8.7016     8.0525     0.2524     0.1372     2.3872     0.0706    81.1036     9.4472
   93.0000   -37.3030     8.7192     7.2426     6.8402     0.2700     0.1435     2.3463     0.0639    83.4743     9.4355
   93.5000   -37.3044     6.8031     6.0288     5.8136     0.2877     0.1611     2.3050     0.0571    85.0997     9.4247
   94.0000   -37.1662     5.3828     5.0843     4.9363     0.3074     0.1754     2.2745     0.0513    86.5258     9.3815
   94.5000   -36.9305     4.8082     4.6965     4.2372     0.3247     0.1965     2.2585     0.0452    84.9981     9.3360
   95.0000   -36.6939     5.1083     4.5176     4.2372     0.3268     0.2205     2.2583     0.0346    82.7402     9.3151
   95.5000   -36.4584     5.7388     5.2329     4.6035     0.3027     0.2447     2.3148     0.0524    83.2278     9.3548
   96.0000   -36.3175     7.4273     5.7797     4.8700     0.2785     0.2530     2.3757     0.0546    80.7427     9.3945
   96.5000   -36.3191     9.4101     6.3836     5.1423     0.2592     0.2573     2.3954     0.0582    77.6856     9.3857
   97.0000   -36.3183    11.1826     7.1405     5.8707     0.2478     0.2254     2.4056     0.0660    74.6501     9.3569
   97.5000   -36.3167    10.7420     8.0001     6.7472     0.2372     0.1943     2.4030     0.0737    73.8549     9.3278
   98.0000   -36.3354    10.1293     8.9632     7.7608     0.2383     0.1750     2.4003     0.0773    77.2883     9.2987
   98.5000   -36.6709     9.8398    10.0423     8.9262     0.2352     0.1699     2.3943     0.0802    76.5972     9.2697
   99.0000   -36.6165    10.4448    11.0405     9.4714     0.2314     0.1692     2.3841     0.0832    77.2024     9.2406
   99.5000   -36.5058    10.8768    11.6029     9.9544     0.2276     0.1732     2.3799     0.0861    75.7952     9.2116
  100.0000   -36.3939    11.3240    12.1938    10.4622     0.2258     0.1696     2.3686     0.0887    73.3703     9.1851
