~VERSION INFORMATION
 VERS.                2.0:   CWLS LOG ASCII STANDARD - VERSION 2.0
 WRAP.                 NO:   ONE LINE PER DEPTH STEP
~WELL INFORMATION
#MNEM.UNIT      DATA TYPE    INFORMATION
#----------   ------------   ------------------------------
 STRT.F            6.0000:   START DEPTH
 STOP.F         4020.0000:   STOP DEPTH
 STEP.F            0.5000:   STEP LENGTH
 NULL.          -999.2500:   NO VALUE
 COMP. LAWRENCE/ALLISON INC:   COMPANY
 WELL.       66 JX #33-33:   WELL
 FLD .              NPR-3:   FIELD
 LOC .      S33 T39N R78W:   LOCATION
 CNTY.            NATRONA:   COUNTY
 STAT.            WYOMING:   STATE
 CTRY. UNITED STATES OF AMERICA:   COUNTRY
 SRVC.      Dresser Atlas:   SERVICE COMPANY
 DATE.        02-DEC-1983:   LOGDATE
 API .       490251095100:   API NUMBER
~CURVE INFORMATION
#MNEM.UNIT       API CODE    CURVE DESCRIPTION
#----------   ------------   ------------------------------
 DEPT.F                  :   
 CALD.IN     45 280 60 00:   CALIPER
 CNC .DEC    42 890 03 00:   NEUTRON POROSITY SANDSTONE
 PORD.DEC    45 890 12 00:   POROSITY DENSITY SANDSTONE
 DEN .G/C3   45 350 01 00:   COMPENSATED BULK DENSTIY
 CORR.G/C3   45 356 01 00:   DENSITY CORRECTION
 RFOC.OHMM   07 220 04 00:   RESISTIVITY FOCUSED LOG
 RILD.OHMM   07 120 46 00:   INDUCTION LOG DEEP RESISTIVITY
 RILM.OHMM   07 120 44 00:   INDUCTION LOG MEDIUM RESISTIVITY
 GRR .GAPI   07 310 01 00:   GAMMA RAY FROM RES. LOG.
 DT  .US/F   60 520 00 00:   INTERVAL TRANSIT TIME
 SPR .MV     07 010 01 00:   SPONTANEOUS POTENTIAL
~PARAMETER INFORMATION
#MNEM.UNIT          VALUE    DESCRIPTION
#----------   ------------   ------------------------------
 PD  .                 GL:   PERMANENT DATUM
 EPD .F              5141:   ELEVATION PERMANENT DATUM
 LMF .                 KB:   LOG MEASURED FROM
 DAPD.F                10:   FEET ABOVE PERMANENT DATUM
 DMF .                 KB:   DRILLING MEASURED FROM
 EKB .F              5151:   KELLING BUSHING
 EGL .F              5141:   GROUND LEVEL
 DATE.            12-2-83:   RUN DATE
 RUN .                  1:   RUN NUMBER
 DD  .F              4025:   DEPTH DRILLER
 DL  .F              4020:   DEPTH LOGGER
 BLI .F              4018:   BOTTOM LOG INTERVAL
 TLI .F                10:   TOP LOG INTERVAL
 CS  .IN            8.625:   CASING SIZE
 CBD .F               718:   CASING BOTTOM DRILLER
 CBL .F               722:   CASING BOTTOM LOGGER
 BS  .IN            7.875:   BIT SIZE
 BSD .F              4025:   BIT SIZE AT DEPTH
 DFT .            GEL/KCL:   DRILLING FLUID TYPE
 DFD .                  9:   DRILLING FLUID DENSITY
 DFV .                 45:   DRILLING FLUID VISCOSITY
 DFPH.                8.5:   DRILLING FLUID PH
 DFL .                 12:   DRILLING FLUID LOSS
 MSS .           FLOWLINE:   MUD SAMPLE SOURCE
 RMS .OHMM            .37:   RESISTIVITY MUD SAMPLE
 MST .F                88:   MUD SAMPLE TEMPERATURE
 RMF .OHMM            .29:   RESISTIVITY MUD FILTRATE SAMPLE
 MFST.F                88:   MUD FILTRATE SAMPLE TEMPERATURE
 RMC .OHMM            .46:   RESISTIVITY MUD CAKE
 MCST.F                88:   MUD CAKE SAMPLE TEMPERATURE
 MFSS.               MEAS:   MUD FILTRATE SAMPLE SOURCE
 MCSS.               CALC:   MUD CAKE SAMPLE SOURCE
 RMB .OHMM            .26:   RESISTIVITY MUD AT BHT
 BHT .F               127:   BOTTOM HOLE TEMPERATURE
 TCS .HRS               4:   TIME CURCULATED STOPPED
 MRT .F               127:   MAXIMUM RECORDED TEMPERATURE
 LUN .               6264:   LOGGING UNIT NUMBER
 LUL .              WLSTN:   LOGGING UNIT LOCATION
 ENGI.            PANASUK:   RECORDING ENGINEER
 WITN.              SCOTT:   WITNESSED BY
 CLNT.            A2DTECH:   CLIENT CODE
 ORIG.       2", 5" PRINT:   ORIGIN OF DATA
 UWI .       490251095100:   UNIQUE WELL ID
 DICO. A2D Technologies, Inc.:   DIGITIZING COMPANY
~OTHER INFORMATION
~A    DEPT    CALD        CNC       PORD        DEN       CORR       RFOC       RILD       RILM          GRR       DT        SPR   
# ...
 2873.0000     7.7979     0.1481     0.1506     2.4006     0.0771    17.9383    19.4555    17.7452    68.2037    75.6687   -32.4892
 2873.5000     7.7988     0.1512     0.1480     2.4023     0.0867    18.1891    19.6353    18.2268    65.4822    74.7127   -32.0642
 2874.0000     7.7997     0.1534     0.1451     2.4052     0.0962    18.0748    19.8168    19.0902    62.2058    73.4887   -31.6635
 2874.5000     7.8005     0.1514     0.1425     2.4116     0.0986    17.4940    20.2667    19.9945    59.3954    72.2647   -31.2416
 2875.0000     7.8014     0.1470     0.1407     2.4152     0.0883    17.2621    20.9639    20.5598    59.2846    71.5631   -30.8670
 2875.5000     7.8023     0.1416     0.1354     2.4222     0.0635    17.2621    21.6850    22.3350    59.7790    71.5145   -30.8473
 2876.0000     7.8032     0.1364     0.1256     2.4355     0.0542    17.7638    22.4310    24.2636    59.8983    71.7134   -31.0433
 2876.5000     7.8042     0.1279     0.1045     2.4633     0.0565    18.2480    23.2026    26.4242    57.8574    71.3126   -31.2509
 2877.0000     7.8049     0.1181     0.0793     2.5009     0.0586    18.9204    23.8207    28.1874    55.4692    70.6112   -31.4576
 2877.5000     7.8052     0.1082     0.0541     2.5434     0.0784    20.1165    26.2146    31.3825    53.8070    67.4639   -31.6659
 2878.0000     7.7832     0.0998     0.0323     2.5875     0.0793    22.7468    28.3503    34.2427    52.4384    64.7423   -31.8710
 2878.5000     7.7748     0.1012     0.0330     2.5975     0.0689    27.3284    31.0054    37.3476    51.8307    60.9532   -32.0830
 2879.0000     7.7661     0.1079     0.0508     2.5648     0.0759    34.9553    34.1250    39.8563    51.4132    58.5844   -32.2427
 2879.5000     7.7568     0.1138     0.0825     2.5197     0.0835    44.2628    38.0847    41.6852    49.5800    56.7387   -32.3164
 2880.0000     7.7475     0.1358     0.1141     2.4748     0.0854    58.1522    36.3723    34.8261    48.0798    56.0822   -32.3929
 2880.5000     7.7557     0.1546     0.1432     2.4297     0.0736    57.0919    33.2059    29.4683    48.7753    57.1503   -32.4466
 2881.0000     7.7665     0.1562     0.1617     2.3909     0.0720    40.8683    30.4710    24.8688    50.1810    58.8204   -32.5748
 2881.5000     7.7773     0.1564     0.1648     2.3815     0.0715    27.7899    27.9614    22.1346    51.5446    62.4459   -32.7497
 2882.0000     7.7881     0.1551     0.1514     2.3867     0.0616    18.0748    25.4054    19.8168    54.5899    67.3294   -32.9132
 2882.5000     7.7989     0.1476     0.1240     2.4153     0.0584    15.8858    24.5532    20.6190    57.3784    71.5637   -33.0829
 2883.0000     7.8058     0.1157     0.0966     2.4536     0.0687    15.1757    24.2631    21.7267    58.0064    73.7505   -33.2493
 2883.5000     7.7904     0.0854     0.0692     2.5092     0.0787    16.1504    25.3231    25.7939    55.3753    73.9976   -33.4180
 2884.0000     7.7756     0.0744     0.0430     2.5647     0.0887    18.1873    26.6345    30.1680    52.8266    72.3146   -33.5846
 2884.5000     7.7609     0.0664     0.0178     2.6123     0.0988    25.7614    28.0137    33.4931    50.0479    68.2697   -33.7540
 2885.0000     7.7462     0.0671     0.0182     2.6132     0.1088    44.0084    29.4644    36.7085    51.3146    63.8176   -33.9188
 2885.5000     7.7315     0.0868     0.0708     2.5511     0.1179    91.5550    31.1056    36.3723    56.5878    59.4095   -34.0931
 2886.0000     7.7167     0.1046     0.1152     2.4733     0.1207   134.8491    31.6833    33.7973    62.3251    56.7836   -34.2131
 2886.5000     7.7016     0.1311     0.1542     2.4022     0.1111    88.3286    30.2534    29.4159    67.1953    57.6854   -34.0498
 2887.0000     7.6920     0.1559     0.1659     2.3732     0.1009    49.6842    29.1292    26.1164    67.2585    61.6477   -33.8436
 2887.5000     7.7134     0.1635     0.1727     2.3614     0.0916    29.2248    27.3706    24.0142    66.7329    66.5955   -33.6442
 2888.0000     7.7242     0.1638     0.1774     2.3575     0.1022    16.6383    25.2031    22.2955    68.1608    71.5809   -33.4426
 2888.5000     7.7342     0.1663     0.1754     2.3583     0.1087    15.6005    23.2073    20.7114    69.8108    75.6429   -33.2404
 2889.0000     7.7442     0.1705     0.1732     2.3612     0.1048    15.7370    21.3695    19.2408    70.1797    77.2634   -33.0469
 2889.5000     7.7542     0.1746     0.1733     2.3601     0.0586    15.9816    19.6353    17.8772    70.5153    78.0424   -32.9808
 2890.0000     7.7643     0.1790     0.1746     2.3566     0.0621    16.1853    18.9258    17.0839    69.2530    78.9190   -32.9282
 2890.5000     7.7743     0.1794     0.1759     2.3546     0.0496    15.9828    19.0173    17.6460    66.7978    79.9567   -32.8792
 2891.0000     7.7844     0.1759     0.1732     2.3636     0.0525    15.7447    19.1350    18.1736    64.0478    80.9943   -32.8114
 2891.5000     7.7944     0.1694     0.1645     2.3763     0.0647    16.0135    19.2773    18.9258    62.9098    82.0341   -32.6162
 2892.0000     7.8049     0.1650     0.1570     2.3883     0.0772    16.4762    19.2773    18.7289    65.0503    82.0341   -32.4428
 2892.5000     7.7967     0.1646     0.1582     2.3889     0.0885    16.9473    18.9409    18.2363    67.8139    81.1759   -32.4918
 2893.0000     7.7847     0.1674     0.1642     2.3766     0.0816    16.4860    18.1401    17.7537    68.1500    79.8297   -32.6168
 2893.5000     7.7726     0.1747     0.1703     2.3623     0.0744    15.8741    17.3732    17.3853    68.1848    79.0170   -32.7245
 2894.0000     7.7609     0.1820     0.1765     2.3481     0.0691    15.1562    16.6388    15.9955    69.3541    78.6202   -32.8265
 2894.5000     7.7496     0.1894     0.1826     2.3365     0.0752    14.4707    15.9353    15.3427    70.4050    78.6273   -32.8350
 2895.0000     7.7362     0.1968     0.1878     2.3393     0.0671    13.8163    15.2616    15.0021    69.9514    79.1397   -32.8334
 2895.5000     7.7496     0.2014     0.1845     2.3434     0.0525    13.2193    14.6339    14.3018    69.8894    79.6564   -32.8366
 2896.0000     7.7634     0.1943     0.1833     2.3454     0.0376    13.1833    14.0365    13.7804    72.3401    79.6447   -32.8415
 2896.5000     7.7775     0.1785     0.1866     2.3404     0.0234    13.1280    13.4778    13.2537    74.3380    79.0370   -33.0389
 2897.0000     7.7915     0.1762     0.1890     2.3369     0.0395    12.9746    13.0608    12.8594    74.5396    78.8413   -33.2625
 2897.5000     7.8055     0.1860     0.1885     2.3366     0.0838    12.7104    12.9824    12.7069    72.3730    79.0456   -33.5374
 2898.0000     7.8196     0.1969     0.1886     2.3321     0.0979    12.4516    12.9053    12.5651    70.4033    79.4500   -33.4759
 2898.5000     7.8337     0.1981     0.1931     2.3270     0.0759    12.1687    12.8281    12.4249    71.2262    79.9288   -33.0450
 2899.0000     7.8455     0.1853     0.1962     2.3273     0.0543    12.1687    12.7409    12.2862    73.2773    80.4076   -32.6728
 2899.5000     7.8323     0.1830     0.1934     2.3340     0.0386    11.9748    12.6150    12.1484    75.3391    80.8864   -32.2700
 2900.0000     7.8190     0.1874     0.1865     2.3400     0.0463    11.2951    12.4741    12.0136    74.3323    81.1636   -32.2750
 2900.5000     7.8060     0.1899     0.1837     2.3426     0.0614    11.3124    12.3346    11.8847    71.6829    81.3167   -32.3930
 2901.0000     7.7928     0.1798     0.1858     2.3446     0.0706    11.8686    12.1965    11.7616    69.2271    81.1655   -32.4272
 2901.5000     7.7974     0.1725     0.1819     2.3668     0.0409    12.7336    12.0596    11.6398    66.7309    81.0419   -32.5217
 2902.0000     7.8185     0.1726     0.1641     2.3913     0.0269    12.6203    11.9236    11.5192    65.8113    81.1323   -32.6874
 2902.5000     7.8397     0.1726     0.1458     2.4118     0.0596    11.9447    11.7875    11.3996    67.9399    80.6313   -32.8176
 2903.0000     7.8610     0.1777     0.1497     2.4013     0.0826    11.9527    11.7232    11.2811    70.4063    79.6934   -32.8352
