~VERSION INFORMATION
 VERS.                2.0:   CWLS LOG ASCII STANDARD - VERSION 2.0
 WRAP.                 NO:   ONE LINE PER DEPTH STEP
~WELL INFORMATION
#MNEM.UNIT      DATA TYPE    INFORMATION
#----------   ------------   ------------------------------
 STRT.F           25.0000:   START DEPTH
 STOP.F          867.0000:   STOP DEPTH
 STEP.F            0.5000:   STEP LENGTH
 NULL.          -999.2500:   NO VALUE
 COMP. LAWRENCE/ALLISON INC:   COMPANY
 WELL.    38-11 SX #35-35:   WELL
 FLD .             TEAPOT:   FIELD
 LOC .      S35 T39N R78W:   LOCATION
 CNTY.            NATRONA:   COUNTY
 STAT.            WYOMING:   STATE
 CTRY. UNITED STATES OF AMERICA:   COUNTRY
 SRVC.      Dresser Atlas:   SERVICE COMPANY
 DATE.        07-AUG-1985:   LOGDATE
 API .       490251104100:   API NUMBER
~CURVE INFORMATION
#MNEM.UNIT       API CODE    CURVE DESCRIPTION
#----------   ------------   ------------------------------
 DEPT.F                  :   
 SPR .MV     07 010 01 00:   SPONTANEOUS POTENTIAL
 RILD.OHMM   07 120 46 00:   INDUCTION LOG DEEP RESISTIVITY
 RILM.OHMM   07 120 44 00:   INDUCTION LOG MEDIUM RESISTIVITY
 RFOC.OHMM   07 220 04 00:   RESISTIVITY FOCUSED LOG
 PORD.DEC    45 890 12 00:   POROSITY DENSITY SANDSTONE
 CNC .DEC    42 890 03 00:   NEUTRON POROSITY SANDSTONE
 GRD .GAPI   45 310 01 00:   GAMMA RAY FROM DENSITY LOG
 CALD.IN     45 280 60 00:   CALIPER FROM DENSITY LOG
 CORR.G/C3   45 356 01 00:   DENSITY CORRECTION
 DEN .G/C3   45 350 01 00:   COMPENSATED BULK DENSTIY
~PARAMETER INFORMATION
#MNEM.UNIT          VALUE    DESCRIPTION
#----------   ------------   ------------------------------
 PD  .                 GL:   PERMANENT DATUM
 EPD .F              5110:   ELEVATION PERMANENT DATUM
 LMF .                 GL:   LOG MEASURED FROM
 DMF .                 GL:   DRILLING MEASURED FROM
 EGL .F              5110:   GROUND LEVEL
 DATE.             8-7-85:   RUN DATE
 RUN .                  1:   RUN NUMBER
 DD  .F               900:   DEPTH DRILLER
 DL  .F               869:   DEPTH LOGGER
 BLI .F               867:   BOTTOM LOG INTERVAL
 TLI .F                40:   TOP LOG INTERVAL
 CS  .IN            8.625:   CASING SIZE
 CBD .F                40:   CASING BOTTOM DRILLER
 CBL .F                40:   CASING BOTTOM LOGGER
 BS  .IN            7.875:   BIT SIZE
 BSD .F               900:   BIT SIZE AT DEPTH
 DFT .             4% KCL:   DRILLING FLUID TYPE
 MSS .           FLOWLINE:   MUD SAMPLE SOURCE
 RMS .OHMM           .222:   RESISTIVITY MUD SAMPLE
 MST .F                71:   MUD SAMPLE TEMPERATURE
 TCS .HRS               2:   TIME CURCULATED STOPPED
 MRT .F               100:   MAXIMUM RECORDED TEMPERATURE
 LUN .               6264:   LOGGING UNIT NUMBER
 LUL .               GLTE:   LOGGING UNIT LOCATION
 ENGI.           FAHLSING:   RECORDING ENGINEER
 WITN.              FIVAS:   WITNESSED BY
 CLNT.            A2DTECH:   CLIENT CODE
 ORIG.       2", 5" PRINT:   ORIGIN OF DATA
 UWI .       490251104100:   UNIQUE WELL ID
 DICO. A2D Technologies, Inc.:   DIGITIZING COMPANY
~OTHER INFORMATION
~A   DEPT      SPR       RILD       RILM       RFOC       PORD          CNC      GRD       CALD       CORR        DEN   
# ...
  561.0000   -61.7206     6.8304     6.7008     7.7372     0.1332     0.3182    93.3727     8.1885     0.0773     2.4580
  561.5000   -61.7235     6.6901     6.5184     7.1872     0.1359     0.3239    90.4009     8.1891     0.0639     2.4543
  562.0000   -61.8768     6.5526     6.4290     6.6152     0.1416     0.3281    88.9195     8.2048     0.0368     2.4481
  562.5000   -61.8798     6.4624     6.4290     6.5241     0.1399     0.2994    89.8385     8.1903     0.0251     2.4432
  563.0000   -62.0331     6.3734     6.4735     6.8941     0.1345     0.2961    89.8563     8.1909     0.0377     2.4537
  563.5000   -62.0216     6.3291     6.5635     7.4891     0.1337     0.3069    88.3793     8.1917     0.0491     2.4560
  564.0000   -61.5886     6.5962     6.6547     7.4371     0.1421     0.3389    87.4957     8.1922     0.0537     2.4478
  564.5000   -61.2900     6.7356     6.8409     7.2841     0.1515     0.3356    91.4043     8.1928     0.0477     2.4299
  565.0000   -60.9922     6.8268     7.0810     7.3341     0.1555     0.3189    95.3085     8.1934     0.0373     2.4165
  565.5000   -60.6951     6.8262     7.2291     7.4871     0.1513     0.3174    97.7135     8.1940     0.0194     2.4240
  566.0000   -60.3966     6.7322     7.3295     7.6433     0.1474     0.3222    94.1482     8.1946     0.0254     2.4330
  566.5000   -60.0995     6.7317     7.3803     7.5902     0.1444     0.3311    93.2647     8.1952     0.0299     2.4383
  567.0000   -59.9513     6.7313     7.3803     7.5287     0.1438     0.3278    92.9835     8.1958     0.0270     2.4361
  567.5000   -59.8039     6.7775     7.3803     7.3315     0.1471     0.3183    94.2015     8.1964     0.0195     2.4331
  568.0000   -59.5068     6.8712     7.3295     7.3818     0.1459     0.3129    95.1117     8.1970     0.0166     2.4354
  568.5000   -59.2090     6.9182     7.2791     7.4840     0.1417     0.3117    93.3393     8.2127     0.0256     2.4452
  569.0000   -59.0486     6.9657     7.1280     7.4834     0.1327     0.3095    92.1614     8.2133     0.0421     2.4557
  569.5000   -58.7638     7.0134     7.0810     7.6924     0.1260     0.2883    92.1798     8.2139     0.0616     2.4670
  570.0000   -58.6163     7.0615     7.0810     7.8529     0.1213     0.2805    92.4966     8.2125     0.0856     2.4752
  570.5000   -58.3193     7.1178     7.1794     8.0167     0.1233     0.2811    94.0091     8.2000     0.0917     2.4715
  571.0000   -58.1711     7.2082     7.1794     8.0162     0.1209     0.2850    95.8283     8.1855     0.0886     2.4797
  571.5000   -58.0237     7.2576     7.2291     8.0156     0.1134     0.2862    97.6482     8.1862     0.0843     2.4956
  572.0000   -58.0273     7.2570     7.2791     7.9052     0.1041     0.2859    98.5471     8.1868     0.0893     2.5098
  572.5000   -58.0303     7.2066     7.3295     7.8503     0.0978     0.2874    99.4619     8.1874     0.1053     2.5144
  573.0000   -58.1836     7.1074     7.3295     7.7957     0.1029     0.2952   100.0778     8.1880     0.1039     2.5107
  573.5000   -58.1865     7.0580     7.3803     7.7414     0.1125     0.3007    98.6044     8.1886     0.0919     2.4995
  574.0000   -58.1895     7.0090     7.3803     7.6876     0.1223     0.3051    94.7358     8.1892     0.0291     2.4838
  574.5000   -58.1809     6.9604     7.4828     7.6871     0.1301     0.3126    94.4501     8.1898     0.0456     2.4599
  575.0000   -58.0201     6.9599     7.5346     7.6866     0.1271     0.3177    96.2660     8.1904     0.0561     2.4652
  575.5000   -57.5975     6.9594     7.5868     7.7929     0.1202     0.3151    98.3765     8.1910     0.0487     2.4780
  576.0000   -57.2997     6.9110     7.6393     7.9555     0.1133     0.2856    98.9921     8.1915     0.0428     2.4885
  576.5000   -56.8515     6.9105     7.5868     8.0102     0.1145     0.2844    99.9068     8.1921     0.0413     2.4870
  577.0000   -56.7034     6.9580     7.5868     8.0650     0.1231     0.2904    99.3266     8.1776     0.0384     2.4721
  577.5000   -56.5559     7.0056     7.5868     8.0090     0.1318     0.2952    96.3548     8.1782     0.0249     2.4572
  578.0000   -56.4085     7.0051     7.4828     8.0085     0.1321     0.2958    91.2904     8.1790     0.0519     2.4580
  578.5000   -56.4122     6.9565     7.4828     7.8936     0.1294     0.2991    92.8029     8.1643     0.0744     2.4618
  579.0000   -56.4151     6.9560     7.5346     7.7268     0.1291     0.3032    94.0165     8.1650     0.0909     2.4618
  579.5000   -56.4181     6.9077     7.4828     7.5764     0.1291     0.3057    94.6277     8.1656     0.0925     2.4604
  580.0000   -56.4210     6.9073     7.4313     7.5238     0.1314     0.3026    92.5572     8.1813     0.0770     2.4582
  580.5000   -56.4240     6.9068     7.3803     7.6807     0.1317     0.3011    91.6737     8.1819     0.0413     2.4590
  581.0000   -56.4276     6.9063     7.2791     7.8953     0.1275     0.2996    94.3865     8.1825     0.0327     2.4673
  581.5000   -56.5809     6.9058     7.2791     7.7865     0.1218     0.2936    97.6927     8.1831     0.0612     2.4815
  582.0000   -56.5839     6.9053     7.2791     7.4700     0.1149     0.2868   100.9990     8.1837     0.0807     2.4920
  582.5000   -56.5868     6.8574     7.2291     7.2660     0.1095     0.2910   103.1094     8.1843     0.0853     2.4981
  583.0000   -56.4387     6.8569     7.1794     7.2156     0.1110     0.2985    99.8387     8.1849     0.0584     2.4914
  583.5000   -56.4423     6.8564     7.0810     7.3661     0.1188     0.3014    93.8660     8.1855     0.0434     2.4765
  584.0000   -56.4453     6.8560     6.9840     7.4166     0.1298     0.3094    91.5035     8.1861     0.0555     2.4625
  584.5000   -56.4482     6.8084     6.9359     7.3651     0.1277     0.3234    93.3709     8.2018     0.0884     2.4638
  585.0000   -56.4512     6.7611     6.9359     7.3561     0.1238     0.3260    95.5454     8.2176     0.1049     2.4743
  585.5000   -56.4541     6.6680     6.9359     7.2630     0.1244     0.3189    96.9387     8.2182     0.0840     2.4721
  586.0000   -56.4571     6.5286     6.8882     7.1629     0.1298     0.3069    96.6612     8.2036     0.0511     2.4565
  586.5000   -56.4607     6.2964     6.6547     7.0642     0.1375     0.3054    96.0766     8.2043     0.0257     2.4468
  587.0000   -56.4637     5.9698     6.3848     7.0637     0.1372     0.3075    96.3978     8.1745     0.0318     2.4514
  587.5000   -56.4666     5.7274     6.0420     7.0146     0.1348     0.3156    97.6113     8.1602     0.0363     2.4536
  588.0000   -56.4695     5.4947     5.6330     6.9659     0.1345     0.3219    99.7218     8.1759     0.0393     2.4492
  588.5000   -56.4725     5.4191     5.2997     6.8226     0.1401     0.3311   101.5332     8.1765     0.0379     2.4350
  589.0000   -56.4754     5.3445     5.2271     6.5003     0.1512     0.3389   104.2416     8.1771     0.0334     2.4134
  589.5000   -56.4784     5.3441     5.1911     5.8201     0.1599     0.3401   106.6510     8.1777     0.0288     2.4089
  590.0000   -56.4813     5.3070     5.1911     5.2835     0.1563     0.3410   103.6792     8.1632     0.0275     2.4195
  590.5000   -56.4842     5.2702     5.2271     5.2923     0.1467     0.3407    98.0168     8.1637     0.0366     2.4412
  591.0000   -56.3368     5.2698     5.4480     5.9754     0.1365     0.3314    96.8344     8.1643     0.0501     2.4510
  591.5000   -56.1689     5.3088     5.6782     6.7728     0.1332     0.3204   100.1450     8.1649     0.0681     2.4555
  592.0000   -55.7419     5.5431     5.9182     6.8194     0.1362     0.3093   100.7563     8.1657     0.0786     2.4473
  592.5000   -55.4434     5.9653     6.2973     6.7719     0.1347     0.3029    97.7845     8.1814     0.0877     2.4563
  593.0000   -54.9959     6.3034     6.5184     6.8184     0.1310     0.2997    97.8067     8.1820     0.0892     2.4594
  593.5000   -54.5477     6.4347     6.6547     6.9606     0.1298     0.3005    98.4223     8.1977     0.0818     2.4609
  594.0000   -54.2499     6.4343     6.7939     7.0085     0.1298     0.3033    98.1405     8.1983     0.0578     2.4609
