~VERSION INFORMATION
 VERS.                2.0:   CWLS LOG ASCII STANDARD - VERSION 2.0
 WRAP.                 NO:   ONE LINE PER DEPTH STEP
~WELL INFORMATION
#MNEM.UNIT      DATA TYPE    INFORMATION
#----------   ------------   ------------------------------
 STRT.F            1.0000:   START DEPTH
 STOP.F          886.0000:   STOP DEPTH
 STEP.F            0.5000:   STEP LENGTH
 NULL.          -999.2500:   NO VALUE
 COMP. BROWN JOHN E&C INC:   COMPANY
 WELL. NAVAL PETROLEUM RESERVE 3 SHX-1 #33-2:   WELL
 FLD .             NPR #3:   FIELD
 LOC .       S2 T38N R78W:   LOCATION
 CNTY.            NATRONA:   COUNTY
 STAT.            WYOMING:   STATE
 CTRY. UNITED STATES OF AMERICA:   COUNTRY
 SRVC.      Western Atlas:   SERVICE COMPANY
 DATE.        26-NOV-1991:   LOGDATE
 API .       490252248300:   API NUMBER
~CURVE INFORMATION
#MNEM.UNIT       API CODE    CURVE DESCRIPTION
#----------   ------------   ------------------------------
 DEPT.F                  :   
 RILD.OHMM   07 120 46 00:   INDUCTION LOG DEEP RESISTIVITY
 RILM.OHMM   07 120 44 00:   INDUCTION LOG MEDIUM RESISTIVITY
 RFOC.OHMM   07 220 04 00:   RESISTIVITY FOCUSED LOG
 SPR .MV     07 010 01 00:   SPONTANEOUS POTENTIAL
 GRR .GAPI   07 310 01 00:   GAMMA RAY
~PARAMETER INFORMATION
#MNEM.UNIT          VALUE    DESCRIPTION
#----------   ------------   ------------------------------
 PD  .                 GL:   PERMANENT DATUM
 EPD .F              5133:   ELEVATION PERMANENT DATUM
 LMF .                 KB:   LOG MEASURED FROM
 DAPD.F                10:   FEET ABOVE PERMANENT DATUM
 DMF .                 KB:   DRILLING MEASURED FROM
 EKB .F              5143:   KELLING BUSHING
 EGL .F              5133:   GROUND LEVEL
 DATE.        26-NOV-1991:   RUN DATE
 RUN .                  1:   RUN NUMBER
 DD  .F               892:   DEPTH DRILLER
 DL  .F               889:   DEPTH LOGGER
 BLI .F               837:   BOTTOM LOG INTERVAL
 CS  .IN            8.625:   CASING SIZE
 CBD .F                40:   CASING BOTTOM DRILLER
 CBL .F                55:   CASING BOTTOM LOGGER
 BS  .IN            7.875:   BIT SIZE
 BSD .F               892:   BIT SIZE AT DEPTH
 DFT .            POLYMER:   DRILLING FLUID TYPE
 DFD .                9.8:   DRILLING FLUID DENSITY
 DFV .                 38:   DRILLING FLUID VISCOSITY
 DFPH.                9.5:   DRILLING FLUID PH
 DFL .               10.6:   DRILLING FLUID LOSS
 MSS .           FLOWLINE:   MUD SAMPLE SOURCE
 RMS .OHMM           2.08:   RESISTIVITY MUD SAMPLE
 MST .F                78:   MUD SAMPLE TEMPERATURE
 RMF .OHMM           1.66:   RESISTIVITY MUD FILTRATE SAMPLE
 MFST.F                78:   MUD FILTRATE SAMPLE TEMPERATURE
 RMC .OHMM           2.60:   RESISTIVITY MUD CAKE
 MCST.F                78:   MUD CAKE SAMPLE TEMPERATURE
 MFSS.               MEAS:   MUD FILTRATE SAMPLE SOURCE
 MCSS.               CALC:   MUD CAKE SAMPLE SOURCE
 RMB .OHMM           1.08:   RESISTIVITY MUD AT BHT
 BHT .F               150:   BOTTOM HOLE TEMPERATURE
 TCS .HRS               2:   TIME CURCULATED STOPPED
 MRT .F               150:   MAXIMUM RECORDED TEMPERATURE
 LUN .            HL-6307:   LOGGING UNIT NUMBER
 LUL .         CASPER, WY:   LOGGING UNIT LOCATION
 ENGI.             ZIEGER:   RECORDING ENGINEER
 WITN.             STRONG:   WITNESSED BY
 CLNT.            A2DTECH:   CLIENT CODE
 ORIG.           5" PRINT:   ORIGIN OF DATA
 UWI .       490252248300:   UNIQUE WELL ID
 DICO. A2D Technologies, Inc.:   DIGITIZING COMPANY
~OTHER INFORMATION
~A    DEPT    RILD       RILM       RFOC        SPR         GRR  
# ...
  733.0000    11.8080    12.5975    13.7303   -96.2035    86.0987
  733.5000    11.8878    12.5941    13.9155   -96.2080    84.8005
  734.0000    11.9681    12.5907    13.9716   -96.2124    83.9742
  734.5000    12.0490    12.5004    13.6797   -95.9133    85.1045
  735.0000    12.0460    12.3248    13.2366   -95.6143    87.8841
  735.5000    11.8776    12.2364    12.8189   -95.4681    90.2922
  736.0000    11.7932    12.1485    12.5772   -95.3196    91.7940
  736.5000    11.6283    11.8951    12.5732   -94.9400    90.8788
  737.0000    11.7070    11.8090    12.4834   -94.6677    88.4531
  737.5000    11.4630    11.6432    12.4562   -94.4236    87.5126
  738.0000    11.3028    11.5596    12.3464   -94.1244    87.2248
  738.5000    11.1449    11.4766    12.2375   -93.8255    87.5203
  739.0000    11.1426    11.4735    12.0445   -93.8300    87.8136
  739.5000    11.2960    11.5510    11.9395   -93.8354    88.4091
  740.0000    11.4515    11.5471    11.9100   -94.1433    89.0045
  740.5000    11.4491    11.5440    11.9513   -94.4512    90.2019
  741.0000    11.4463    11.6212    11.9478   -94.4556    92.0058
  741.5000    11.2863    11.5370    11.8621   -94.4598    93.2055
  742.0000    11.1286    11.3750    11.7592   -94.4643    88.2821
  742.5000    10.8973    11.2153    11.5597   -94.3172    87.7498
  743.0000    10.8198    11.0578    11.4480   -94.1578    88.6473
  743.5000    10.5948    10.9026    11.2002   -93.8708    87.7300
  744.0000    10.5195    10.6752    11.0743   -93.5717    87.1169
  744.5000    10.2291    10.5253    11.0178   -93.5773    87.4102
  745.0000    10.0862    10.3679    11.0458   -93.7334    88.0057
  745.5000     9.9452    10.3023    11.0377   -93.5861    88.6011
  746.0000     9.9432    10.2996    10.9634   -93.4377    89.4986
  746.5000     9.9412    10.2256    10.9604   -92.9880    89.7919
  747.0000     9.9392    10.2229    10.8811   -92.6889    89.4788
  747.5000    10.0064    10.2919    10.8786   -92.3899    88.8658
  748.0000    10.0043    10.2885    10.8946   -92.2426    89.4634
  748.5000    10.0018    10.2857    10.9482   -92.5516    90.3587
  749.0000     9.9307    10.2829    10.9452   -93.0112    91.2563
  749.5000     9.9287    10.2084    11.0182   -93.3192    92.1538
  750.0000     9.7901    10.0658    11.1229   -93.6260    93.6556
  750.5000     9.7115     9.8561    10.8611   -93.8204    92.3676
  751.0000     9.6494     9.8541    10.6831   -93.3734    89.7083
  751.5000     9.4482     9.8521    10.5597   -93.0750    89.0975
  752.0000     9.3804     9.7816    10.5575   -93.0805    94.5245
  752.5000     9.3778     9.7120    10.5551   -93.3866    95.7264
  753.0000     9.3105     9.7101    10.5531   -93.6926    95.4132
  753.5000     9.2437     9.6410    10.5509   -94.1495    95.4044
  754.0000     9.1773     9.6391    10.5041   -94.1539    96.0000
  754.5000     9.1748     9.6371    10.5462   -93.9955    95.3715
  755.0000     9.2362     9.7023    10.4714   -93.5594    93.5145
  755.5000     9.2331     9.7003    10.4692   -93.2632    92.3481
  756.0000     9.2306     9.6979    10.4671   -92.9648    96.8688
  756.5000     9.1644     9.6959    10.3922   -92.9703   100.1832
  757.0000     9.1619     9.6269    10.3905   -92.9747   101.9893
  757.5000     9.1594     9.6250    10.4399   -92.9791    98.6550
  758.0000     9.2207     9.6231    10.3861   -92.9835    95.3179
  758.5000     9.2244     9.6881    10.3835   -92.9879    94.7149
  759.0000     9.2799     9.7535    10.3818   -93.1433    95.2967
  759.5000     9.3413     9.8878    10.4694   -93.2994    94.6758
  760.0000     9.3388     9.9546    10.5575   -93.4547    94.0550
  760.5000     9.3363    10.0219    10.6998   -93.6099    94.3435
  761.0000     9.3994     9.9501    10.8138   -93.6143    94.6276
  761.5000     9.4617     9.8793    10.9018   -93.7695    93.3990
  762.0000     9.5249     9.8091    10.9936   -93.7739    90.9682
  762.5000     9.5223     9.7393    11.0344   -93.7783    89.7184
  763.0000     9.5191     9.6669    10.8799   -93.7828    88.8214
  763.5000     9.3855     9.4031    10.5983   -93.6362    92.1177
  764.0000     9.3181     9.2076    10.1782   -93.1881    96.3234
  764.5000     9.3156     9.1421     9.9614   -93.0417    99.0208
  765.0000     9.2487     9.0771     9.9336   -92.5947    97.1933
  765.5000     9.2462     9.1385     9.9317   -92.4472    94.4608
  766.0000     9.2437     9.1366     9.9296   -92.0002    94.4432
  766.5000     9.2412     9.1983     9.9276   -91.7029    95.3306
  767.0000     9.1743     9.1965     9.9252   -91.2428    95.6147
  767.5000     9.1718     9.1942     9.9234   -90.6570    95.8988
  768.0000     9.2338     9.2568     9.9214   -90.5095    96.7819
  768.5000     9.2307     9.3193     9.9193   -90.5149    96.7643
  769.0000     9.2931     9.3170     9.9859   -90.5193    96.4495
  769.5000     9.3546     9.3804    10.1266   -90.6746    97.0352
  770.0000     9.4172     9.3780    10.3002   -90.8298    97.0133
  770.5000     9.4839     9.4414    10.4402   -91.1358    96.6767
  771.0000     9.6093     9.6379    10.5281   -91.2911    97.2754
  771.5000     9.7416     9.8381    10.6923   -91.7722    98.1628
  772.0000    10.0122    10.1128    10.7062   -92.5076    97.8436
  772.5000    10.6543    10.6876    10.7623   -93.5678    96.6194
  773.0000    11.5758    11.3737    10.9170   -94.7788    95.3952
  773.5000    12.5770    12.0202    11.2928   -96.2915    96.5843
  774.0000    13.5704    12.7034    12.2537   -98.2567    97.4721
  774.5000    13.6653    13.4357    14.1196   -99.9202    93.1655
  775.0000    14.0742    14.6214    16.7576  -101.1312    85.2692
  775.5000    14.9411    15.5241    19.3811  -102.0407    75.9969
  776.0000    15.6802    15.8465    20.6259  -102.0461    73.2644
  776.5000    16.5703    16.4023    19.8895  -101.7488    75.9618
  777.0000    17.3899    17.2148    18.6831  -101.6013    80.1674
  777.5000    17.9999    17.9427    17.6952  -101.7576    83.1665
  778.0000    18.3723    18.7013    17.8352  -101.7620    83.1489
  778.5000    18.3672    19.3676    20.6034  -101.4646    80.3890
  779.0000    18.3621    19.7603    22.7257  -100.7150    77.3353
  779.5000    18.2292    19.6198    25.1829  -100.2670    74.9471
  780.0000    18.0984    19.7523    26.6709   -98.4617    73.4212
  780.5000    17.9684    18.6815    27.3901   -97.8627    74.9119
  781.0000    17.8394    17.7927    25.3424   -98.0181    78.2126
  781.5000    17.4674    17.0640    20.5775   -98.4760    79.7034
  782.0000    16.8675    16.3652    18.0339   -98.6312    80.5913
  782.5000    16.2845    15.8041    17.6589   -99.0881    82.6898
  783.0000    15.7134    15.3679    17.6552   -99.2433    84.8629
  783.5000    15.1876    14.9445    17.5646   -99.2477    87.7735
  784.0000    14.8709    14.7356    17.1649   -98.9504    89.8676
  784.5000    14.3602    14.4293    16.6919   -98.6531    87.7384
  785.0000    13.8670    14.1293    16.5896   -98.4968    86.2126
  785.5000    13.5778    13.8356    16.3035   -98.0597    86.4967
  786.0000    13.2947    13.6422    15.8907   -97.9133    87.3841
  786.5000    13.1992    13.4515    15.3908   -97.6160    88.2726
  787.0000    13.2875    13.6368    14.9471   -97.4685    89.7999
  787.5000    13.1912    13.7289    14.8814   -97.1723    93.6619
  788.0000    12.9161    13.7254    14.7111   -96.8750    96.9626
  788.5000    12.6468    13.1633    14.2757   -96.7285    96.0400
  789.0000    12.3830    12.0260    13.9099   -96.4313    92.4025
  789.5000    12.1248    11.2960    13.6621   -96.5867    88.4634
  790.0000    12.1215    11.6443    13.8094   -97.0445    87.5409
  790.5000    12.2026    13.7109    14.4235   -97.5014    88.1266
  791.0000    12.5623    14.0945    15.0232   -98.1091    87.5053
  791.5000    13.1629    13.7054    15.2574   -98.2644    86.8805
  792.0000    13.3431    13.3277    14.8916   -98.5704    87.1646
  792.5000    13.1549    13.2329    14.6840   -98.2731    87.4531
  793.0000    13.0605    12.9578    14.6296   -97.6742    87.4312
  793.5000    12.7881    12.8657    14.3287   -96.9085    87.7153
