~VERSION INFORMATION
 VERS.                2.0:   CWLS LOG ASCII STANDARD - VERSION 2.0
 WRAP.                 NO:   ONE LINE PER DEPTH STEP
~WELL INFORMATION
#MNEM.UNIT      DATA TYPE    INFORMATION
#----------   ------------   ------------------------------
 STRT.F           33.0000:   START DEPTH
 STOP.F          560.0000:   STOP DEPTH
 STEP.F            0.5000:   STEP LENGTH
 NULL.          -999.2500:   NO VALUE
 COMP. BROWN JOHN E&C INC:   COMPANY
 WELL.        SX 85 #25-3:   WELL
 FLD .             TEAPOT:   FIELD
 LOC .       S3 T38N R78W:   LOCATION
 CNTY.            NATRONA:   COUNTY
 STAT.            WYOMING:   STATE
 CTRY. UNITED STATES OF AMERICA:   COUNTRY
 SRVC.       Schlumberger:   SERVICE COMPANY
 DATE.        23-SEP-1980:   LOGDATE
 API .       490251130600:   API NUMBER
~CURVE INFORMATION
#MNEM.UNIT       API CODE    CURVE DESCRIPTION
#----------   ------------   ------------------------------
 DEPT.F                  :   
 ILD .OHMM   07 120 46 00:   INDUCTION LOG DEEP
 ILM .OHMM   07 120 44 00:   INDUCTION LOG MEDIUM
 DPHI.DEC    45 890 12 00:   DENSITY POROSITY SANDSTONE
 RHOB.G/C3   45 350 01 00:   BULK DENSITY
 DRHO.G/C3   45 356 01 00:   DENSITY CORRECTION
 CALD.IN     45 280 60 00:   CALIPER
 GRD .GAPI   45 310 01 00:   GAMMA RAY FROM DENSITY LOG
~PARAMETER INFORMATION
#MNEM.UNIT          VALUE    DESCRIPTION
#----------   ------------   ------------------------------
 PD  .                 GL:   PERMANENT DATUM
 EPD .F              5144:   ELEVATION PERMANENT DATUM
 LMF .                 KB:   LOG MEASURED FROM
 DAPD.F                10:   FEET ABOVE PERMANENT DATUM
 DMF .                 KB:   DRILLING MEASURED FROM
 EKB .F              5154:   KELLING BUSHING
 EDF .F              5153:   DRILLING FLOOR
 EGL .F              5144:   GROUND LEVEL
 DATE.            9-23-90:   RUN DATE
 RUN .                  1:   RUN NUMBER
 DD  .F               564:   DEPTH DRILLER
 DL  .F               565:   DEPTH LOGGER
 BLI .F               559:   BOTTOM LOG INTERVAL
 TLI .F                40:   TOP LOG INTERVAL
 CS  .IN            8.625:   CASING SIZE
 CBD .F                50:   CASING BOTTOM DRILLER
 CBL .F                50:   CASING BOTTOM LOGGER
 BS  .IN            7.875:   BIT SIZE
 BSD .F               564:   BIT SIZE AT DEPTH
 DFT .                AIR:   DRILLING FLUID TYPE
 TCS .HRS            1900:   TIME CURCULATED STOPPED
 TLAB.HRS            2000:   TIME LOGGER AT BOTTOM
 LUN .               5882:   LOGGING UNIT NUMBER
 LUL .               CODY:   LOGGING UNIT LOCATION
 ENGI.          M. FISHER:   RECORDING ENGINEER
 WITN.          G. STRONG:   WITNESSED BY
 CLNT.            A2DTECH:   CLIENT CODE
 ORIG.        2" 5" PRINT:   ORIGIN OF DATA
 UWI .       490251130600:   UNIQUE WELL ID
 DICO. A2D Technologies, Inc.:   DIGITIZING COMPANY
~OTHER INFORMATION
~A   DEPT      ILD        ILM       DPHI       RHOB       DRHO       CALD         GRD  
# ...
  169.5000     8.3855     8.4062     0.0980     2.4899    -0.0069     7.8680   135.0124
  170.0000     8.5268     8.8028     0.1003     2.4848    -0.0073     7.8698   133.5486
  170.5000     8.6705     8.7331     0.1027     2.4808    -0.0077     7.8716   133.7400
  171.0000     8.7801     8.8139     0.1050     2.4775    -0.0072     7.8734   133.9191
  171.5000     8.8669     8.8767     0.1073     2.4741    -0.0065     7.8752   133.2263
  172.0000     8.9548     8.9400     0.1044     2.4793    -0.0057     7.8770   132.2815
  172.5000     9.0435     9.0037     0.1011     2.4855    -0.0050     7.8788   131.5847
  173.0000     9.1409     9.0679     0.0976     2.4909    -0.0043     7.8807   132.1403
  173.5000     9.2010     9.1325     0.0985     2.4892    -0.0035     7.8779   131.4850
  174.0000     9.2673     9.1976     0.0994     2.4876    -0.0028     7.8725   130.2106
  174.5000     9.3340     9.2631     0.1004     2.4883    -0.0030     7.8671   130.4614
  175.0000     9.4012     9.3292     0.0975     2.4905    -0.0033     7.8615   132.5341
  175.5000     9.4689     9.3957     0.0944     2.4947    -0.0037     7.8611   134.5618
  176.0000     9.5385     9.4626     0.0914     2.4994    -0.0029     7.8612   135.8578
  176.5000     9.5736     9.4861     0.0921     2.4989    -0.0016     7.8612   135.4445
  177.0000     9.3574     9.3867     0.0948     2.4943    -0.0002     7.8612   135.0613
  177.5000     9.2097     9.3086     0.0972     2.4901     0.0011     7.8612   134.4729
  178.0000     9.0552     9.2260     0.0961     2.4910     0.0025     7.8612   132.9466
  178.5000     9.0573     9.2107     0.0952     2.4923     0.0038     7.8612   131.5223
  179.0000     9.0320     9.1826     0.0959     2.4909     0.0051     7.8612   132.2352
  179.5000     9.0163     9.1546     0.0967     2.4895     0.0064     7.8612   133.1090
  180.0000     9.0005     9.1267     0.0975     2.4890     0.0072     7.8612   133.9787
  180.5000     8.9848     9.0988     0.0983     2.4887     0.0068     7.8612   134.9917
  181.0000     8.9723     9.0701     0.0990     2.4874     0.0064     7.8612   136.8564
  181.5000     9.0321     9.0571     0.0997     2.4862     0.0049     7.8612   138.7987
  182.0000     9.0881     9.2281     0.1020     2.4822     0.0027     7.8612   139.3536
  182.5000     9.1444     9.3904     0.1050     2.4777     0.0004     7.8612   139.5905
  183.0000     9.2011     9.3196     0.1072     2.4731    -0.0018     7.8612   139.0174
  183.5000     9.3314     9.5798     0.1060     2.4740    -0.0038     7.8611   135.4027
  184.0000     9.5229     9.7578     0.1043     2.4769    -0.0038     7.8630   131.4721
  184.5000     9.7182     9.9359     0.1024     2.4799    -0.0038     7.8651   127.9175
  185.0000     9.9175     9.9924     0.1031     2.4812    -0.0036     7.8672   127.2686
  185.5000    10.1208    10.0482     0.1038     2.4790    -0.0028     7.8694   127.7026
  186.0000    10.3283    10.1043     0.1044     2.4771    -0.0019     7.8715   128.1307
  186.5000    10.5398    10.3253     0.1023     2.4816    -0.0011     7.8737   128.5598
  187.0000    10.7568    10.6272     0.0986     2.4864    -0.0002     7.8758   128.9958
  187.5000    10.9993    10.9379     0.0949     2.4912     0.0006     7.8779   129.4329
  188.0000    11.2973    11.2578     0.0916     2.4959     0.0015     7.8801   128.4428
  188.5000    11.6023    11.5237     0.0901     2.5007     0.0023     7.8822   125.9059
  189.0000    11.9155    11.8445     0.0887     2.5045     0.0032     7.8843   123.8836
  189.5000    12.2371    12.1763     0.0871     2.5060     0.0037     7.8865   123.0617
  190.0000    12.5674    12.4616     0.0864     2.5076     0.0039     7.8886   123.2821
  190.5000    12.8790    12.7224     0.0855     2.5091     0.0008     7.8908   122.9370
  191.0000    13.0146    13.1199     0.0847     2.5088    -0.0023     7.8929   121.2833
  191.5000    13.1696    13.1060     0.0873     2.5049    -0.0054     7.8950   120.1900
  192.0000    13.3653    13.0791     0.0923     2.4976    -0.0084     7.8972   120.2191
  192.5000    13.2949    13.0522     0.0974     2.4901    -0.0109     7.8993   120.1345
  193.0000    13.2020    13.0253     0.1025     2.4828    -0.0081     7.9014   117.9588
  193.5000    13.1097    12.9989     0.1046     2.4769    -0.0048     7.9001   115.7046
  194.0000    13.0180    12.9065     0.1060     2.4738    -0.0018     7.8984   116.5024
  194.5000    12.9270    12.7944     0.1060     2.4772    -0.0012     7.8967   119.0915
  195.0000    12.8367    12.6833     0.1031     2.4810    -0.0007     7.8951   121.6418
  195.5000    12.7469    12.5732     0.0996     2.4847    -0.0002     7.8934   124.0889
  196.0000    12.6578    12.4640     0.1003     2.4831     0.0003     7.8918   126.2247
  196.5000    12.5694    12.3557     0.1010     2.4809     0.0003     7.8901   126.1433
  197.0000    12.4815    12.2484     0.1037     2.4780     0.0003     7.8885   122.6425
  197.5000    12.3942    12.1459     0.1068     2.4750     0.0003     7.8868   119.5820
  198.0000    12.3076    12.0505     0.1093     2.4719     0.0003     7.8851   116.6761
  198.5000    12.2216    11.9557     0.1094     2.4707     0.0003     7.8835   117.7502
  199.0000    12.1361    11.8486     0.1095     2.4703     0.0003     7.8818   118.1740
  199.5000    12.0513    11.8888     0.1096     2.4700     0.0003     7.8804   118.1933
  200.0000    11.9589    11.9358     0.1084     2.4699     0.0002     7.8764   118.1743
  200.5000    12.0049    11.9588     0.1081     2.4698    -0.0002     7.8726   116.3281
  201.0000    12.0573    11.9587     0.1110     2.4661    -0.0005     7.8688   114.2577
  201.5000    12.1097    11.9588     0.1138     2.4619    -0.0009     7.8650   112.1808
  202.0000    12.1826    11.9589     0.1152     2.4581    -0.0013     7.8613   109.7568
  202.5000    12.1522    11.9594     0.1155     2.4584    -0.0018     7.8611   108.6679
  203.0000    12.1021    11.9576     0.1106     2.4720     0.0010     7.8612   108.0578
  203.5000    12.0523    11.9631     0.0974     2.4886     0.0045     7.8612   108.0296
  204.0000    12.0027    11.7519     0.0847     2.5055     0.0081     7.8612   110.3301
  204.5000    11.9292    11.5904     0.0843     2.5103     0.0085     7.8612   114.7826
  205.0000    11.6714    11.4311     0.0958     2.4945     0.0073     7.8612   118.9252
  205.5000    11.4183    11.2740     0.1049     2.4786     0.0060     7.8612   120.5652
  206.0000    11.1706    11.1191     0.1086     2.4698     0.0048     7.8612   121.4805
  206.5000    10.9281    10.9663     0.1100     2.4674     0.0036     7.8612   122.3617
  207.0000    10.7004    10.8156     0.1113     2.4645     0.0030     7.8612   122.9855
  207.5000    10.7004    10.6670     0.1128     2.4614     0.0026     7.8612   120.9591
  208.0000    10.7004    10.5204     0.1151     2.4583     0.0022     7.8612   118.8909
  208.5000    10.7005    10.5039     0.1173     2.4557     0.0018     7.8612   117.4835
  209.0000    10.7008    10.5039     0.1172     2.4562     0.0014     7.8612   118.1209
  209.5000    10.6669    10.5039     0.1170     2.4585     0.0016     7.8612   117.4047
  210.0000    10.5709    10.4536     0.1161     2.4607     0.0022     7.8612   115.7785
  210.5000    10.4758    10.3192     0.1130     2.4630     0.0028     7.8606   113.4696
  211.0000    10.3815    10.1866     0.1100     2.4683     0.0031     7.8589   112.1433
  211.5000    10.3035    10.0556     0.1069     2.4735     0.0022     7.8573   111.7522
  212.0000    10.2730     9.9359     0.1055     2.4767     0.0014     7.8556   113.0377
  212.5000    10.2426     9.9359     0.1115     2.4660     0.0006     7.8540   115.2925
  213.0000    10.1867     9.9357     0.1166     2.4555     0.0001     7.8523   117.5215
  213.5000     9.9359     9.9359     0.1203     2.4447    -0.0002     7.8506   116.9011
  214.0000     9.9868     9.9483     0.1217     2.4415    -0.0004     7.8490   114.9124
  214.5000    10.0545     9.9709     0.1214     2.4399    -0.0007     7.8473   112.9879
