~VERSION INFORMATION
 VERS.                2.0:   CWLS LOG ASCII STANDARD - VERSION 2.0
 WRAP.                 NO:   ONE LINE PER DEPTH STEP
~WELL INFORMATION
#MNEM.UNIT      DATA TYPE    INFORMATION
#----------   ------------   ------------------------------
 STRT.F           88.0000:   START DEPTH
 STOP.F          893.0000:   STOP DEPTH
 STEP.F            0.5000:   STEP LENGTH
 NULL.          -999.2500:   NO VALUE
 COMP.          U.S. NAVY:   COMPANY
 WELL. RES 3 TEAPOT DOM #24S-35:   WELL
 FLD .        TEAPOT DOME:   FIELD
 LOC .      S35 T39N R78W:   LOCATION
 CNTY.            NATRONA:   COUNTY
 STAT.            WYOMING:   STATE
 CTRY. UNITED STATES OF AMERICA:   COUNTRY
 SRVC.       Schlumberger:   SERVICE COMPANY
 DATE.        26-JUL-1963:   LOGDATE
 API .       490250654800:   API NUMBER
~CURVE INFORMATION
#MNEM.UNIT       API CODE    CURVE DESCRIPTION
#----------   ------------   ------------------------------
 DEPT.F                  :   
 CALS.IN     60 280 50 00:   CALIPER FROM SONIC LOG
 DT  .US/F   60 520 00 00:   INTERVAL TRANSIT TIME
 GR  .GAPI   30 310 01 00:   GAMMA RAY
 ASN .OHMM   05 041 16 00:   AMPLIFIED SHORT NORMAL 16"
 CILD.MMHO   05 110 46 00:   CONDUCTIVITY INDUCTION LOG DEEP
 ILD .OHMM   05 120 46 00:   INDUCTION LOG DEEP
 SPR .MV     05 010 01 00:   SPONTANEOUS POTENTIAL FROM RES.
~PARAMETER INFORMATION
#MNEM.UNIT          VALUE    DESCRIPTION
#----------   ------------   ------------------------------
 PD  .                 GL:   PERMANENT DATUM
 EPD .F              5116:   ELEVATION PERMANENT DATUM
 LMF .                 KB:   LOG MEASURED FROM
 DAPD.F                 5:   FEET ABOVE PERMANENT DATUM
 DMF .                 KB:   DRILLING MEASURED FROM
 EKB .F              5121:   KELLING BUSHING
 EGL .F              5116:   GROUND LEVEL
 DATE.        26-JUL-1963:   RUN DATE
 RUN .                  1:   RUN NUMBER
 DD  .F               900:   DEPTH DRILLER
 DL  .F               894:   DEPTH LOGGER
 BLI .F               893:   BOTTOM LOG INTERVAL
 TLI .F                88:   TOP LOG INTERVAL
 CBD .F                10:   CASING BOTTOM DRILLER
 BS  .IN             6.75:   BIT SIZE
 BSD .F               900:   BIT SIZE AT DEPTH
 DFT .            GEL-OIL:   DRILLING FLUID TYPE
 DFD .                9.5:   DRILLING FLUID DENSITY
 DFV .                 92:   DRILLING FLUID VISCOSITY
 DFPH.                9.5:   DRILLING FLUID PH
 DFL .                5.8:   DRILLING FLUID LOSS
 MSS .           FLOWLINE:   MUD SAMPLE SOURCE
 RMS .OHMM           4.05:   RESISTIVITY MUD SAMPLE
 MST .F                75:   MUD SAMPLE TEMPERATURE
 RMF .OHMM           3.91:   RESISTIVITY MUD FILTRATE SAMPLE
 MFST.F                75:   MUD FILTRATE SAMPLE TEMPERATURE
 RMC .OHMM           3.54:   RESISTIVITY MUD CAKE
 MCST.F                75:   MUD CAKE SAMPLE TEMPERATURE
 MFSS.               MEAS:   MUD FILTRATE SAMPLE SOURCE
 MCSS.               MEAS:   MUD CAKE SAMPLE SOURCE
 TCS .HRS             0.5:   TIME CURCULATED STOPPED
 LUN .               4507:   LOGGING UNIT NUMBER
 LUL .               CSPR:   LOGGING UNIT LOCATION
 ENGI.             KNOBEL:   RECORDING ENGINEER
 WITN.          JORGENSON:   WITNESSED BY
 CLNT.            A2DTECH:   CLIENT CODE
 ORIG.           5" PRINT:   ORIGIN OF DATA
 UWI .       490250654800:   UNIQUE WELL ID
 DICO. A2D Technologies, Inc.:   DIGITIZING COMPANY
~OTHER INFORMATION
~A   DEPT     CALS         DT         GR          ASN      CILD         ILD      SPR   
# ...
  816.0000     6.6942    94.4528    31.1985    18.8864    60.9419    16.1874   -27.1374
  816.5000     6.7396    95.2076    29.1610    18.2806    62.4666    15.5838   -25.7926
  817.0000     6.7851    97.5472    29.0538    18.1286    64.7500    15.0347   -25.0341
  817.5000     6.7241    98.0755    31.6588    18.2035    67.0462    14.3770   -24.5774
  818.0000     6.6176    97.1698    32.4382    17.4461    69.3185    13.9246   -24.4222
  818.5000     6.5415    96.8679    34.8475    16.6890    70.8432    13.4721   -24.5688
  819.0000     6.5413    96.6415    35.7184    15.8562    73.1266    13.1707   -25.6192
  819.5000     6.5412    96.4810    35.2451    15.5529    75.4100    12.9450   -26.9724
  820.0000     6.5410    96.1032    35.3993    15.4766    76.9347    12.9457   -26.3648
  820.5000     6.5561    96.6415    34.1435    15.3244    76.9436    12.8707   -25.7572
  821.0000     6.5559    97.2453    30.2281    15.4749    76.9508    12.8716   -25.6010
  821.5000     6.5558    97.6981    28.6601    15.5500    76.9581    12.8724   -25.7486
  822.0000     6.5714    97.2453    29.1265    15.5491    76.9653    12.9488   -25.7432
  822.5000     6.6011    97.0189    31.0014    15.5484    76.9727    13.0250   -25.8898
  823.0000     6.6465    97.9245    32.5633    15.4719    77.7402    13.1013   -26.1872
  823.5000     6.6616    98.2264    28.3348    15.4711    78.5061    13.1775   -27.0868
  824.0000     6.6918    97.5472    23.1674    15.3722    78.5134    13.1782   -27.9875
  824.5000     6.7372    98.1509    25.2248    15.3184    77.7618    13.1791   -26.3240
  825.0000     6.7219    98.5283    27.8824    15.1664    77.7709    13.0288   -25.7164
  825.5000     6.6761    98.7547    30.9822    15.0142    78.5357    12.9538   -26.3155
  826.0000     6.6608    98.3774    33.3266    14.9379    78.5440    12.8036   -26.7637
  826.5000     6.6606    96.7924    36.9229    14.7859    79.3099    12.7190   -24.9484
  827.0000     6.7213    97.5472    37.7023    14.6793    79.3171    12.6540   -23.5866
  827.5000     6.7819    97.1698    39.4207    14.6331    80.0849    12.6548   -23.1297
  828.0000     6.7818    97.4717    40.3568    14.6322    80.0910    12.6556   -22.6720
  828.5000     6.7816    97.2453    38.8931    14.6315    80.0993    12.6563   -22.6677
  829.0000     6.7815    97.4717    36.3339    14.6195    80.1065    12.6572   -22.5126
  829.5000     6.7965    97.7736    32.8351    14.5546    78.5964    12.6580   -22.5083
  830.0000     6.7963    97.7736    25.6333    14.6293    78.6053    12.7342   -22.3521
  830.5000     6.8266    97.7736    27.3517    14.6286    77.0932    12.7349   -22.3478
  831.0000     6.8417    97.6981    25.7837    14.6277    77.1022    12.8867   -22.4954
  831.5000     6.8567    97.4717    24.3721    14.7028    77.1094    13.0387   -22.3392
  832.0000     6.7805    97.3208    27.0295    14.8079    77.1168    13.2660   -22.3348
  832.5000     6.7804    97.0189    29.0608    14.8525    77.1244    13.3422   -22.3296
  833.0000     6.7802    96.2642    29.2144    14.8516    76.3741    13.4940   -22.0236
  833.5000     6.7801    93.3680    30.7761    14.8509    76.3814    13.4947   -21.7177
  834.0000     6.8255    90.5001    36.4069    14.8502    76.3886    13.4956   -20.5067
  834.5000     6.8558    89.5103    39.0642    15.0007    76.3961    13.3453   -19.2947
  835.0000     6.8860    89.3962    35.2007    14.8487    76.4048    13.1947   -18.9888
  835.5000     6.8690    89.6226    34.2068    14.5302    77.9294    12.9690   -18.9845
  836.0000     6.8401    90.5283    36.3939    14.2975    80.2128    12.7432   -19.2830
  836.5000     6.8095    94.5283    39.9902    14.0143    81.7375    12.4420   -19.5793
  837.0000     6.7942    95.3585    41.3963    13.8623    84.0227    12.2914   -19.8766
  837.5000     6.7789    95.4340    35.7587    13.6851    84.7886    12.0658   -20.1729
  838.0000     6.7787    95.4340    31.6868    13.4750    84.7958    12.0665   -20.4714
  838.5000     6.7786    95.6604    30.5882    13.3305    84.8030    12.1429   -20.6169
  839.0000     6.7784    95.6604    32.6196    13.1784    84.8103    12.2191   -20.6115
  839.5000     6.7783    96.1887    33.0860    13.0718    84.8192    12.2954   -20.4563
  840.0000     6.7933    96.8679    34.1784    13.0257    84.8265    12.2961   -20.4521
  840.5000     6.7932    97.0943    31.6192    13.0250    84.0731    12.2968   -20.4478
  841.0000     6.7930    97.0943    29.9469    13.0241    84.8409    12.1467   -20.7512
  841.5000     6.7929    96.8463    31.8210    13.0234    84.8483    11.9208   -21.3442
  842.0000     6.8079    96.4906    33.3829    13.0227    84.8571    11.6949   -21.7924
  842.5000     6.8230    96.8679    35.4143    13.0219    85.6230    11.5446   -21.9389
  843.0000     6.8228    96.1887    36.5074    13.0212    86.3890    11.4652   -21.9335
  843.5000     6.8226    95.1321    33.3737    12.9447    87.9136    11.3950   -21.6064
  844.0000     6.8225    94.4528    31.3362    12.8683    88.7910    11.2446   -21.0189
  844.5000     6.8223    94.0755    29.4552    12.8676    89.4473    11.2455   -20.7130
  845.0000     6.8374    93.5472    28.9044    12.9425    89.4545    11.3218   -20.5579
  845.5000     6.8372    90.3019    32.2791    13.1687    88.7012    11.5574   -20.3967
  846.0000     6.8371    86.1509    29.9155    13.4704    86.4340    12.0031   -19.9449
  846.5000     6.8522    81.9245    30.2644    13.8479    83.4081    12.3060   -19.4881
  847.0000     6.8824    75.4340    31.9438    14.5280    81.8979    12.6088   -19.0313
  847.5000     6.9430    72.7863    28.1841    15.2080    80.3858    12.9116   -18.1221
  848.0000     6.9581    75.4661    27.3986    17.4008    78.8774    13.0636   -17.0437
  848.5000     6.8059    78.6017    28.1787    18.7616    78.8847    13.2154   -16.9058
  849.0000     6.8058    84.6415    26.9229    19.5930    78.1331    13.2916   -17.0534
  849.5000     6.7448    87.8113    24.2595    19.4410    78.1421    12.9902   -17.8022
  850.0000     6.6839    92.9430    25.1954    17.7005    79.6668    12.6133   -18.7029
  850.5000     6.6391    93.6204    27.3832    15.7330    81.9258    12.1594   -20.3607
  851.0000     6.6550    93.2400    28.7886    14.5218    85.7052    11.7053   -19.4540
  851.5000     6.7318    92.5583    30.3505    13.9160    89.4811    11.3270   -18.8275
  852.0000     6.7781    92.3294    33.3208    13.4614    90.9879    10.8731   -18.0933
  852.5000     6.7030    92.3269    36.4606    13.0068    91.7288    10.5702   -17.6394
  853.0000     6.6732    92.3244    36.2358    12.7034    91.7146    10.4938   -17.3363
  853.5000     6.7197    92.3220    34.5628    12.5514    92.4591    10.5687   -17.0164
  854.0000     6.7509    92.3195    33.4643    12.3483    92.4431    10.6435   -16.7298
  854.5000     6.7212    92.3170    32.5222    12.1717    92.4272    10.7938   -16.4268
  855.0000     6.6763    92.3901    32.3627    12.0952    92.4127    10.8687   -16.7371
  855.5000     6.6619    92.4631    33.1421    11.9432    92.9058    10.9433   -17.7810
  856.0000     6.6930    92.4600    33.6085    11.9040    93.8998    10.9426   -17.6288
  856.5000     6.7242    92.4575    33.4489    11.7905    93.8847    10.9417   -17.4766
  857.0000     6.7249    92.4551    30.6290    11.7140    93.8665    10.9410   -17.3243
  857.5000     6.7258    92.4526    29.3740    11.6377    93.8523    10.9403   -17.4737
  858.0000     6.7114    92.3747    32.0313    11.6233    93.0794    10.9394   -17.6232
  858.5000     6.6665    92.2968    36.7360    11.6107    92.3065    10.9387   -17.6214
  859.0000     6.6673    92.1434  -999.2500    11.6354    93.0510    10.9380   -17.6196
  859.5000     6.6680    91.9899  -999.2500    11.6437    93.0332    10.9373   -17.6182
  860.0000     6.6687    91.6855  -999.2500    11.7095    93.7813    10.9364   -17.7680
  860.5000     6.6695    91.3806  -999.2500    11.6331    94.5223    10.9357   -18.0679
  861.0000     6.6702    91.2272  -999.2500    11.6324    95.2632    11.0861   -18.6694
