~VERSION INFORMATION
 VERS.                2.0:   CWLS LOG ASCII STANDARD - VERSION 2.0
 WRAP.                 NO:   ONE LINE PER DEPTH STEP
~WELL INFORMATION
#MNEM.UNIT      DATA TYPE    INFORMATION
#----------   ------------   ------------------------------
 STRT.F            1.0000:   START DEPTH
 STOP.F          478.0000:   STOP DEPTH
 STEP.F            0.1000:   STEP LENGTH
 NULL.          -999.2500:   NO VALUE
 COMP. LAWRENCE/ALLISON INC:   COMPANY
 WELL.     58-61 SX #58-3:   WELL
 FLD .             TEAPOT:   FIELD
 LOC .       S3 T38N R78W:   LOCATION
 CNTY.            NATRONA:   COUNTY
 STAT.            WYOMING:   STATE
 CTRY. UNITED STATES OF AMERICA:   COUNTRY
 SRVC.           Gearhart:   SERVICE COMPANY
 DATE.        08-JUL-1988:   LOGDATE
 API .       490251123400:   API NUMBER
~CURVE INFORMATION
#MNEM.UNIT       API CODE    CURVE DESCRIPTION
#----------   ------------   ------------------------------
 DEPT.F                  :   
 GRR .GAPI   07 310 01 00:   GAMMA RAY
 RILD.OHMM   07 120 46 00:   INDUCTION LOG DEEP RESISTIVITY
 RILM.OHMM   07 120 44 00:   INDUCTION LOG MEDIUM RESISTIVITY
~PARAMETER INFORMATION
#MNEM.UNIT          VALUE    DESCRIPTION
#----------   ------------   ------------------------------
 PD  .                 GL:   PERMANENT DATUM
 EPD .F              5184:   ELEVATION PERMANENT DATUM
 LMF .                 KB:   LOG MEASURED FROM
 DAPD.F                 5:   FEET ABOVE PERMANENT DATUM
 DMF .                 KB:   DRILLING MEASURED FROM
 EKB .F              5189:   KELLING BUSHING
 EGL .F              5184:   GROUND LEVEL
 DATE.        08-JUL-1988:   RUN DATE
 RUN .                  1:   RUN NUMBER
 DD  .F               485:   DEPTH DRILLER
 DL  .F               486:   DEPTH LOGGER
 BLI .F               478:   BOTTOM LOG INTERVAL
 CS  .IN            9.625:   CASING SIZE
 CBD .F                45:   CASING BOTTOM DRILLER
 CBL .F                44:   CASING BOTTOM LOGGER
 BS  .IN             8.75:   BIT SIZE
 BSD .F               485:   BIT SIZE AT DEPTH
 DFT .                AIR:   DRILLING FLUID TYPE
 TCS .HRS            2200:   TIME CURCULATED STOPPED
 TLAB.HRS            2315:   TIME LOGGER AT BOTTOM
 LUN .               7597:   LOGGING UNIT NUMBER
 LUL .           GILLETTE:   LOGGING UNIT LOCATION
 ENGI.           JOHNSTON:   RECORDING ENGINEER
 WITN.              FIVAS:   WITNESSED BY
 CLNT.            A2DTECH:   CLIENT CODE
 ORIG.           5" PRINT:   ORIGIN OF DATA
 UWI .       490251123400:   UNIQUE WELL ID
 DICO. A2D Technologies, Inc.:   DIGITIZING COMPANY
~OTHER INFORMATION
~A    DEPT     GRR       RILD       RILM   
# ...
  456.0000   129.7218    11.3139    11.3775
  456.1000   129.9865    11.3134    11.3767
  456.2000   129.9879    11.3129    11.3512
  456.3000   130.1482    11.3123    11.2852
  456.4000   130.3915    11.2946    11.2161
  456.5000   130.7057    11.2324    11.2154
  456.6000   131.5115    11.2318    11.2146
  456.7000   132.1594    11.2314    11.1808
  456.8000   132.7325    11.2308    11.1348
  456.9000   133.2176    11.2050    11.1289
  457.0000   133.7027    11.1402    11.0555
  457.1000   134.2506    11.0732    11.0000
  457.2000   134.8834    11.0119    10.9770
  457.3000   135.3126    10.9483    10.9490
  457.4000   135.6428    10.8851    10.8989
  457.5000   136.1280    10.8411    10.8981
  457.6000   136.6861    10.8299    10.8349
  457.7000   136.8928    10.6893    10.7720
  457.8000   137.2798    10.6357    10.7094
  457.9000   137.6009    10.6138    10.6687
  458.0000   137.6227    10.5870    10.6597
  458.1000   137.9077    10.5388    10.5928
  458.2000   137.9089    10.5384    10.5921
  458.3000   138.0490    10.4777    10.5487
  458.4000   138.2155    10.4639    10.4874
  458.5000   138.2170    10.4297    10.4427
  458.6000   138.2188    10.3695    10.4387
  458.7000   138.2200    10.3170    10.3683
  458.8000   138.2215    10.3165    10.3178
  458.9000   138.1512    10.3160    10.2946
  459.0000   137.9210    10.3155    10.2700
  459.1000   138.1744    10.2872    10.2214
  459.2000   138.4177    10.2426    10.2207
  459.3000   138.6610    10.2400    10.1629
  459.4000   138.9044    10.1702    10.1480
  459.5000   139.1527    10.1221    10.1158
  459.6000   139.6378    10.0984    10.0571
  459.7000   139.9378    10.0758    10.0048
  459.8000   140.1811    10.0270    10.0040
  459.9000   140.4244    10.0265    10.0034
  460.0000   140.6677    10.0261     9.9640
  460.1000   141.1527    10.0256     9.9323
  460.2000   141.4577     9.9958     9.9316
  460.3000   141.5827     9.9548     9.9293
  460.4000   141.6408     9.9500     9.8608
  460.5000   141.8893     9.8843     9.8144
  460.6000   142.1274     9.8840     9.7574
  460.7000   142.1958     9.8473     9.7007
  460.8000   142.3106     9.7904     9.6444
  460.9000   142.5023     9.7338     9.5853
  461.0000   142.5038     9.6768     9.4811
  461.1000   142.2737     9.5135     9.4112
  461.2000   142.0334     9.3917     9.3566
  461.3000   141.7932     9.2549     9.3022
  461.4000   141.5529     9.1134     9.2482
  461.5000   141.2975     9.0146     9.1872
  461.6000   141.0724     8.9572     9.1411
  461.7000   140.6672     8.9568     9.0880
  461.8000   140.2883     8.9915     9.0352
  461.9000   140.0066     9.0189     8.9939
  462.0000   139.5246     9.0311     8.9933
  462.1000  -999.2500     9.0814     9.0446
  462.2000  -999.2500     9.0809     9.0552
  462.3000  -999.2500     9.1228     9.0545
  462.4000  -999.2500     9.1439     9.0723
  462.5000  -999.2500     9.1435     9.1169
  462.6000  -999.2500     9.1430     9.1162
  462.7000  -999.2500     9.1426     9.1156
  462.8000  -999.2500     9.1422     9.1149
  462.9000  -999.2500     9.1418     9.1143
  463.0000  -999.2500     9.1413     9.1137
  463.1000  -999.2500     9.1409     9.1130
  463.2000  -999.2500     9.1405     9.1123
  463.3000  -999.2500     9.1400     9.1117
  463.4000  -999.2500     9.1396     9.0786
  463.5000  -999.2500     9.1063     9.0259
  463.6000  -999.2500     9.0537     8.9735
  463.7000  -999.2500     9.0013     8.9199
  463.8000  -999.2500     8.9481     8.8695
  463.9000  -999.2500     8.8480     8.8180
  464.0000  -999.2500     8.7465     8.7129
  464.1000  -999.2500     8.6462     8.5631
  464.2000  -999.2500     8.5470     8.4157
  464.3000  -999.2500     8.4488     8.2555
  464.4000  -999.2500     8.3408     8.1708
  464.5000  -999.2500     8.2561     8.0457
  464.6000  -999.2500     8.1927     7.9281
  464.7000  -999.2500     8.1454     7.8368
  464.8000  -999.2500     8.0876     7.7465
  464.9000  -999.2500     7.9960     7.6405
  465.0000  -999.2500     7.9956     7.5693
  465.1000  -999.2500     7.9588     7.4568
  465.2000  -999.2500     7.9128     7.3444
  465.3000  -999.2500     7.8671     7.2598
  465.4000  -999.2500     7.8281     7.1716
  465.5000  -999.2500     7.8277     7.1323
  465.6000  -999.2500     7.7858     7.0909
  465.7000  -999.2500     7.7724     7.0290
  465.8000  -999.2500     7.7720     6.9598
  465.9000  -999.2500     7.7717     6.9226
  466.0000  -999.2500     7.7737     6.9221
  466.1000  -999.2500     7.8254     6.9216
  466.2000  -999.2500     7.8629     6.9212
  466.3000  -999.2500     7.9078     6.9207
  466.4000  -999.2500     7.9530     6.9375
  466.5000  -999.2500     7.9985     7.0172
  466.6000  -999.2500     8.0458     7.0981
  466.7000  -999.2500     8.0902     7.2124
  466.8000  -999.2500     8.1716     7.3376
  466.9000  -999.2500     8.2404     7.4801
  467.0000  -999.2500     8.3025     7.6535
  467.1000  -999.2500     8.3934     7.8454
  467.2000  -999.2500     8.4474     7.9707
  467.3000  -999.2500     8.5759     8.0760
  467.4000  -999.2500     8.6586     8.1921
  467.5000  -999.2500     8.7526     8.3209
  467.6000  -999.2500     8.8813     8.4219
  467.7000  -999.2500     8.9324     8.6493
  467.8000  -999.2500     9.0876     8.7328
  467.9000  -999.2500     9.1618     8.8333
  468.0000  -999.2500     9.2750     8.9349
  468.1000  -999.2500     9.3975     9.0376
  468.2000  -999.2500     9.4584     9.1443
  468.3000  -999.2500     9.5766     9.2989
  468.4000  -999.2500     9.6775     9.4189
  468.5000  -999.2500     9.7890     9.5273
  468.6000  -999.2500     9.9017     9.6369
  468.7000  -999.2500    10.0005     9.7538
  468.8000  -999.2500    10.0602     9.9412
  468.9000  -999.2500    10.1963    10.0434
  469.0000  -999.2500    10.2444    10.1590
  469.1000  -999.2500    10.3393    10.2758
  469.2000  -999.2500    10.4582    10.3940
  469.3000  -999.2500    10.5680    10.5118
  469.4000  -999.2500    10.6312    10.5831
  469.5000  -999.2500    10.7481    10.6819
  469.6000  -999.2500    10.8258    10.7677
  469.7000  -999.2500    10.9204    10.8529
  469.8000  -999.2500    11.0460    10.9673
  469.9000  -999.2500    11.1624    11.0332
  470.0000  -999.2500    11.1618    11.0927
  470.1000  -999.2500    11.2170    11.1091
  470.2000  -999.2500    11.2811    11.1413
  470.3000  -999.2500    11.3456    11.2048
  470.4000  -999.2500    11.4104    11.2686
  470.5000  -999.2500    11.4761    11.3416
  470.6000  -999.2500    11.4756    11.3409
  470.7000  -999.2500    11.5263    11.3719
  470.8000  -999.2500    11.5922    11.4190
  470.9000  -999.2500    11.6585    11.4180
  471.0000  -999.2500    11.7169    11.4173
  471.1000  -999.2500    11.7163    11.4557
  471.2000  -999.2500    11.7768    11.4959
  471.3000  -999.2500    11.7975    11.5059
  471.4000  -999.2500    11.7969    11.5750
  471.5000  -999.2500    11.7964    11.6374
  471.6000  -999.2500    11.7937    11.6547
  471.7000  -999.2500    11.7129    11.6539
  471.8000  -999.2500    11.7125    11.6531
  471.9000  -999.2500    11.7119    11.6523
  472.0000  -999.2500    11.7114    11.6513
  472.1000  -999.2500    11.7108    11.7088
  472.2000  -999.2500    11.7103    11.7316
  472.3000  -999.2500    11.7098    11.7308
  472.4000  -999.2500    11.7092    11.7300
  472.5000  -999.2500    11.7087    11.7292
  472.6000  -999.2500    11.7081    11.7283
  472.7000  -999.2500    11.7076    11.7275
  472.8000  -999.2500    11.7069    11.7267
  472.9000  -999.2500    11.7065    11.7259
  473.0000  -999.2500    11.7059    11.7251
  473.1000  -999.2500    11.7054    11.7242
  473.2000  -999.2500    11.7048    11.7234
  473.3000  -999.2500    11.7043    11.7226
  473.4000  -999.2500    11.7037    11.7218
  473.5000  -999.2500    11.7032    11.7210
  473.6000  -999.2500    11.7027    11.7201
  473.7000  -999.2500    11.7021    11.7192
  473.8000  -999.2500    11.7016    11.7185
  473.9000  -999.2500    11.7010    11.7177
  474.0000  -999.2500    11.7005    11.7169
  474.1000  -999.2500  -999.2500    11.7160
