~VERSION INFORMATION
 VERS.                2.0:   CWLS LOG ASCII STANDARD - VERSION 2.0
 WRAP.                 NO:   ONE LINE PER DEPTH STEP
~WELL INFORMATION
#MNEM.UNIT      DATA TYPE    INFORMATION
#----------   ------------   ------------------------------
 STRT.F           36.0000:   START DEPTH
 STOP.F          557.0000:   STOP DEPTH
 STEP.F            0.5000:   STEP LENGTH
 NULL.          -999.2500:   NO VALUE
 COMP. FENIX & SCISSON U.S. NAVY:   COMPANY
 WELL.        NPR #62-S-3:   WELL
 FLD .             TEAPOT:   FIELD
 LOC .       S3 T38N R78W:   LOCATION
 CNTY.            NATRONA:   COUNTY
 STAT.            WYOMING:   STATE
 CTRY. UNITED STATES OF AMERICA:   COUNTRY
 SRVC.              Welex:   SERVICE COMPANY
 DATE.        07-MAY-1977:   LOGDATE
 API .       490251035000:   API NUMBER
~CURVE INFORMATION
#MNEM.UNIT       API CODE    CURVE DESCRIPTION
#----------   ------------   ------------------------------
 DEPT.F                  :   
 SPR .MV     07 010 01 00:   SPONTANEOUS POTENTIAL
 ILD .OHMM   07 120 46 00:   INDUCTION LOG DEEP
 ILM .OHMM   07 120 44 00:   INDUCTION LOG MEDIUM
 SGRD.OHMM   07 221 05 00:   SHALLOW SHORT GUARD RESISTIVITY
 GRD .GAPI   45 310 01 00:   GAMMA RAY FROM DENSITY LOG
 CALD.IN     45 280 60 00:   CALIPER FROM DENSITY LOG
 CORR.G/C3   45 356 01 00:   DENSITY CORRECTION
 RHOB.G/C3   45 350 01 00:   BULK DENSITY
 DPHI.DEC    45 890 12 00:   DENSITY POROSITY SANDSTONE
 NEUT.NAPI   35 330 01 00:   NEUTRON
~PARAMETER INFORMATION
#MNEM.UNIT          VALUE    DESCRIPTION
#----------   ------------   ------------------------------
 PD  .                 GL:   PERMANENT DATUM
 EPD .F              5136:   ELEVATION PERMANENT DATUM
 LMF .                 GL:   LOG MEASURED FROM
 DMF .                 GL:   DRILLING MEASURED FROM
 EGL .F              5136:   GROUND LEVEL
 DATE.        07-MAY-1977:   RUN DATE
 RUN .                  1:   RUN NUMBER
 DD  .F               560:   DEPTH DRILLER
 DL  .F               560:   DEPTH LOGGER
 BLI .F               558:   BOTTOM LOG INTERVAL
 TLI .F                35:   TOP LOG INTERVAL
 CS  .IN            8.625:   CASING SIZE
 CBD .F                40:   CASING BOTTOM DRILLER
 CBL .F                42:   CASING BOTTOM LOGGER
 BS  .IN            7.875:   BIT SIZE
 BSD .F               560:   BIT SIZE AT DEPTH
 DFT .             KCLMUD:   DRILLING FLUID TYPE
 DFD .                8.8:   DRILLING FLUID DENSITY
 MSS .           FLOWLINE:   MUD SAMPLE SOURCE
 RMS .OHMM           0.24:   RESISTIVITY MUD SAMPLE
 MST .F                60:   MUD SAMPLE TEMPERATURE
 RMF .OHMM           0.20:   RESISTIVITY MUD FILTRATE SAMPLE
 MFST.F                60:   MUD FILTRATE SAMPLE TEMPERATURE
 RMC .OHMM           0.29:   RESISTIVITY MUD CAKE
 MCST.F                60:   MUD CAKE SAMPLE TEMPERATURE
 MFSS.               MEAS:   MUD FILTRATE SAMPLE SOURCE
 MCSS.               MEAS:   MUD CAKE SAMPLE SOURCE
 RMB .OHMM             17:   RESISTIVITY MUD AT BHT
 BHT .F                71:   BOTTOM HOLE TEMPERATURE
 TCS .HRS            0230:   TIME CURCULATED STOPPED
 MRT .F                71:   MAXIMUM RECORDED TEMPERATURE
 LUN .               8611:   LOGGING UNIT NUMBER
 LUL .           GILLETTE:   LOGGING UNIT LOCATION
 ENGI.            C. DOCK:   RECORDING ENGINEER
 WITN.           ROB LYON:   WITNESSED BY
 CLNT.            A2DTECH:   CLIENT CODE
 ORIG.           5" PRINT:   ORIGIN OF DATA
 UWI .       490251035000:   UNIQUE WELL ID
 DICO. A2D Technologies, Inc.:   DIGITIZING COMPANY
~OTHER INFORMATION
~A   DEPT      SPR        ILD        ILM       SGRD        GRD       CALD       CORR       RHOB       DPHI       NEUT   
# ...
  471.5000   -27.5061    16.9209    17.0104    26.0308    87.1060     7.7658    -0.0027     2.3928     0.1666   421.8366
  472.0000   -27.7892    16.8120    16.8985    27.7074    83.2447     7.7673    -0.0027     2.3854     0.1738   418.2766
  472.5000   -27.9292    16.4766    17.2617    25.8509    81.1745     7.7535    -0.0034     2.3795     0.1753   423.7431
  473.0000   -27.9142    16.0350    17.7532    25.1436    82.9848     7.7553    -0.0040     2.3780     0.1743   427.8463
  473.5000   -28.2003    15.6052    18.2587    22.0393    84.4967     7.7568    -0.0040     2.3886     0.1689   430.5991
  474.0000   -28.4894    14.8756    18.5207    20.4205    85.5608     7.7583    -0.0047     2.4137     0.1569   423.8995
  474.5000   -28.5042    13.9857    18.2739    19.0522    86.9234     7.7448    -0.0046     2.4250     0.1481   409.0355
  475.0000   -28.9126    13.5172    17.7829    17.7756    88.5845     7.7463    -0.0053     2.4277     0.1478   393.8486
  475.5000   -29.0496    13.0644    17.3032    16.9333    89.6486     7.7627    -0.0061     2.4188     0.1529   390.2975
  476.0000   -29.1867    12.6267    17.1911    17.6528    90.2601     7.7642    -0.0081     2.4241     0.1495   391.7131
  476.5000   -29.3408    12.2883    18.3045    18.4029    86.4037     7.7657    -0.0096     2.4189     0.1496   395.8162
  477.0000   -29.6098    12.0404    18.1859    18.1494    85.5275     7.7672    -0.0095     2.4160     0.1526   399.9194
  477.5000   -29.8959    11.9630    17.4542    17.2893    84.5020     7.7687    -0.0087     2.4220     0.1522   408.0735
  478.0000   -30.1820    11.8860    17.3393    17.1698    83.1781     7.7701    -0.0079     2.4161     0.1467   413.5991
  478.5000   -30.3264    11.8927    17.9586    18.0239    83.3466     7.7716    -0.0063     2.4139     0.1533   420.7920
  479.0000   -30.6100    11.9804    18.8571    18.6599    86.0525     7.7731    -0.0047     2.4230     0.1476   425.7974
  479.5000   -30.7446    11.9858    18.8650    19.0522    88.6092     7.7746    -0.0024     2.4275     0.1436   429.9005
  480.0000   -31.0283    12.0743    18.6137    18.1494    90.7180     7.7910    -0.0016     2.4373     0.1394   432.6534
  480.5000   -31.1654    12.0797    17.8647    17.1698    89.0956     7.7925     0.0000     2.4344     0.1415   434.0559
  481.0000   -31.3025    12.1688    17.3828    17.0511    86.7268     7.7940    -0.0007     2.4277     0.1447   432.7577
  481.5000   -31.4395    12.2587    17.2702    17.6528    87.4924     7.7958    -0.0021     2.4285     0.1408   430.0692
  482.0000   -31.4275    12.3491    18.8178    18.6599    89.3028     7.7820    -0.0036     2.4465     0.1357   420.7220
  482.5000   -31.5648    12.4403    19.4410    19.4528    91.1132     7.7838    -0.0005     2.4533     0.1317   409.9714
  483.0000   -31.7019    12.5321    19.7199    19.7245    92.3265     7.7700     0.0011     2.4594     0.1287   397.8705
  483.5000   -31.8390    12.5377    19.7280    19.3183    92.4902     7.7566     0.0027     2.4624     0.1263   383.0689
  484.0000   -31.8267    12.5433    19.4650    18.7898    89.5293     7.7584     0.0042     2.4656     0.1230   366.9170
  484.5000   -31.8148    12.4612    18.9419    18.1494    87.1606     7.7599     0.0051     2.4701     0.1205   350.7651
  485.0000   -31.9523    12.2959    18.2975    17.5308    86.4080     7.7614     0.0044     2.4655     0.1253   338.5305
  485.5000   -31.9398    12.1327    17.4482    17.0511    88.5425     7.7629     0.0044     2.4626     0.1274   319.8247
  486.0000   -31.9279    12.0546    17.2157    16.8162    91.0992     7.7793     0.0038     2.4620     0.1252   305.0231
  486.5000   -32.2140    11.9770    17.4628    17.1698    92.6110     7.7655     0.0031     2.4652     0.1258  -999.2500
  487.0000   -32.3540    12.0668    17.7133    17.5535    93.6751     7.7520     0.0024     2.4629     0.1273  -999.2500
  487.5000   -32.4881    12.1559    18.3441    18.1916    94.1422     7.7390     0.0017     2.4592     0.1297  -999.2500
  488.0000   -32.6251    12.1613    18.9973    19.0716    95.0570     7.7404     0.0003     2.4615     0.1312  -999.2500
  488.5000   -32.9112    12.2511    19.2699    19.4528    95.9719     7.7568    -0.0004     2.4563     0.1299  -999.2500
  489.0000   -33.0483    12.3415    19.0132    19.0382    97.3345     7.7583    -0.0011     2.4579     0.1263  -999.2500
  489.5000   -33.4834    12.3470    18.3747    18.5309    98.8463     7.7747    -0.0018     2.4624     0.1239  -999.2500
  490.0000   -33.7695    12.1818    17.0361    18.5309    99.7612     7.7609    -0.0025     2.4662     0.1295  -999.2500
  490.5000   -34.0586    12.0215    16.4623    19.1848    98.5642     7.7628    -0.0032     2.4565     0.1313  -999.2500
  491.0000   -34.1956    11.8606    17.4077    19.4528    93.6804     7.7490    -0.0039     2.4551     0.1307  -999.2500
  491.5000   -34.3327    11.7843    18.4054    19.3175    94.9090     7.7508    -0.0038     2.4604     0.1250  -999.2500
  492.0000   -34.6158    11.7085    18.9275    18.9205    96.8935     7.7523    -0.0030     2.4725     0.1150  -999.2500
  492.5000   -34.6038    11.6331    16.9540    18.5309    98.3781     7.7538    -0.0006     2.4845     0.1093  -999.2500
  493.0000   -34.7439    11.6397    16.1580    18.3961    98.0597     7.7553     0.0009     2.4898     0.1068  -999.2500
  493.5000   -34.8809    11.6449    17.5651    18.7898    97.0000     7.7567     0.0025     2.4959     0.1041  -999.2500
  494.0000   -35.0180    11.6501    18.9611    19.5882    96.4829     7.7582     0.0041     2.5019     0.1020  -999.2500
  494.5000   -35.1550    11.6554    19.3667    20.2794    97.2716     7.7597     0.0064     2.5057     0.1010  -999.2500
  495.0000   -35.2891    11.6606    19.3747    20.8498    96.6219     7.7612     0.0065     2.5080     0.1007  -999.2500
  495.5000   -35.2771    11.6658    19.2473    20.5626    96.3917     7.7627     0.0066     2.5081     0.0991  -999.2500
  496.0000   -35.2652    11.6711    19.1226    20.0000    98.8039     7.7642     0.0059     2.5089     0.0961  -999.2500
  496.5000   -35.4052    11.6763    18.6106    19.1848    99.7187     7.7657     0.0059     2.5112     0.0933  -999.2500
  497.0000   -35.5423    11.6816    18.1105    18.6599    98.8425     7.7695     0.0060     2.5150     0.0919  -999.2500
  497.5000   -35.6793    11.6064    17.7461    18.9205    93.9365     7.7836     0.0061     2.5211     0.1003  -999.2500
  498.0000   -35.6644    11.6116    17.6293    19.5882    92.1599     7.8003     0.0062     2.5091     0.1039  -999.2500
  498.5000   -35.8044    11.6168    18.0082    19.7245    95.3184     7.8018     0.0054     2.4971     0.1050  -999.2500
  499.0000   -35.7895    11.6220    18.5210    19.7245    98.9198     7.8182     0.0048     2.4995     0.1074  -999.2500
  499.5000   -35.9295    11.5460    18.6573    19.1848   102.2132     7.8197     0.0048     2.4973     0.1122  -999.2500
  500.0000   -36.1002    11.4717    18.0003    18.4885   102.5234     7.8211     0.0050     2.4861     0.1131  -999.2500
  500.5000   -36.5024    11.3207    17.6588    18.1521   101.4982     7.8226     0.0057     2.4862     0.1085  -999.2500
  501.0000   -36.8018    11.2479    16.9539    17.5358    99.4345     7.8241     0.0065     2.4945     0.1028  -999.2500
  501.5000   -36.7973    11.0210    16.6102    17.2961    95.2937     7.8256     0.0074     2.5065     0.0992  -999.2500
  502.0000   -36.9459    10.7256    16.9656    17.6628    91.0044     7.8118     0.0083     2.5120     0.0976  -999.2500
  502.5000   -37.2404    10.5833    17.2063    17.9120    93.3918     7.8136     0.0099     2.5044     0.0964  -999.2500
  503.0000   -37.3801    10.4428    16.2874    17.5456    96.3726     7.8151     0.0114     2.5075     0.0967  -999.2500
  503.5000   -37.5315    10.3042    14.8923    16.8328    99.2050     7.8013     0.0130     2.5165     0.0988  -999.2500
  504.0000   -37.9673    10.2379    13.9022    15.8164   100.1087     7.7878     0.0146     2.4986     0.1023  -999.2500
  504.5000   -38.1118    10.0337    13.4344    14.7586   100.4188     7.7598     0.0163     2.4987     0.1059  -999.2500
