~VERSION INFORMATION
 VERS.                2.0:   CWLS LOG ASCII STANDARD - VERSION 2.0
 WRAP.                 NO:   ONE LINE PER DEPTH STEP
~WELL INFORMATION
#MNEM.UNIT      DATA TYPE    INFORMATION
#----------   ------------   ------------------------------
 STRT.F           50.0000:   START DEPTH
 STOP.F          854.0000:   STOP DEPTH
 STEP.F            0.5000:   STEP LENGTH
 NULL.          -999.2500:   NO VALUE
 COMP. FENIX & SCISSON INC:   COMPANY
 WELL.    45 SX 11 #45-11:   WELL
 FLD .             TEAPOT:   FIELD
 LOC .      S11 T38N R78W:   LOCATION
 CNTY.            NATRONA:   COUNTY
 STAT.            WYOMING:   STATE
 CTRY. UNITED STATES OF AMERICA:   COUNTRY
 SRVC.           BIRDWELL:   SERVICE COMPANY
 DATE.        01-MAR-1978:   LOGDATE
 API .       490251058600:   API NUMBER
~CURVE INFORMATION
#MNEM.UNIT       API CODE    CURVE DESCRIPTION
#----------   ------------   ------------------------------
 DEPT.F                  :   
 CALD.IN     45 280 60 00:   CALIPER
 CORR.G/C3   45 356 01 00:   DENSITY CORRECTION
 RHOB.G/C3   45 350 01 00:   BULK DENSITY
 DPOR.DEC    45 890 12 00:   DENSITY POROSITY SANDSTONE
 GRD .GAPI   45 310 01 00:   GAMMA RAY FROM DENSITY LOG
 SPR .MV     05 010 01 00:   SPONTANEOUS POTENTIAL FROM RES.
 SN  .OHMM   05 040 16 00:   SHORT NORMAL 16"
 ILD .OHMM   05 120 46 00:   INDUCTION LOG DEEP
~PARAMETER INFORMATION
#MNEM.UNIT          VALUE    DESCRIPTION
#----------   ------------   ------------------------------
 PD  .                 GL:   PERMANENT DATUM
 EPD .F              5186:   ELEVATION PERMANENT DATUM
 LMF .                 KB:   LOG MEASURED FROM
 DAPD.F                 4:   FEET ABOVE PERMANENT DATUM
 DMF .                 KB:   DRILLING MEASURED FROM
 EKB .F              5190:   KELLING BUSHING
 EGL .F              5186:   GROUND LEVEL
 DATE.           3-1-1978:   RUN DATE
 RUN .                  1:   RUN NUMBER
 DD  .F               848:   DEPTH DRILLER
 DL  .F               856:   DEPTH LOGGER
 BLI .F               851:   BOTTOM LOG INTERVAL
 TLI .F                50:   TOP LOG INTERVAL
 CS  .IN            8.625:   CASING SIZE
 CBD .F                40:   CASING BOTTOM DRILLER
 CBL .F                40:   CASING BOTTOM LOGGER
 BS  .IN            7.875:   BIT SIZE
 BSD .F               848:   BIT SIZE AT DEPTH
 DFT .          LIGNOSULF:   DRILLING FLUID TYPE
 DFD .                8.5:   DRILLING FLUID DENSITY
 DFV .                 30:   DRILLING FLUID VISCOSITY
 DFPH.               11.5:   DRILLING FLUID PH
 MSS .                PIT:   MUD SAMPLE SOURCE
 RMS .OHMM              2:   RESISTIVITY MUD SAMPLE
 MST .F                59:   MUD SAMPLE TEMPERATURE
 RMF .OHMM            1.8:   RESISTIVITY MUD FILTRATE SAMPLE
 MFST.F                60:   MUD FILTRATE SAMPLE TEMPERATURE
 RMC .OHMM            2.2:   RESISTIVITY MUD CAKE
 MCST.F                60:   MUD CAKE SAMPLE TEMPERATURE
 MFSS.               MEAS:   MUD FILTRATE SAMPLE SOURCE
 MCSS.               MEAS:   MUD CAKE SAMPLE SOURCE
 RMB .OHMM           1.69:   RESISTIVITY MUD AT BHT
 BHT .F                70:   BOTTOM HOLE TEMPERATURE
 TCS .HRS               3:   TIME CURCULATED STOPPED
 MRT .F                70:   MAXIMUM RECORDED TEMPERATURE
 LUN .               2959:   LOGGING UNIT NUMBER
 LUL .               CASP:   LOGGING UNIT LOCATION
 ENGI.            POINTER:   RECORDING ENGINEER
 WITN.         HARRINGTON:   WITNESSED BY
 CLNT.            A2DTECH:   CLIENT CODE
 ORIG.       2", 5" PRINT:   ORIGIN OF DATA
 UWI .       490251058600:   UNIQUE WELL ID
 DICO. A2D Technologies, Inc.:   DIGITIZING COMPANY
~OTHER INFORMATION
~A   DEPT       CALD      CORR      RHOB       DPOR        GRD        SPR         SN        ILD   
# ...
  171.5000     7.8584     0.0644     2.2602     0.2502   108.8466   -34.9358     2.1793     2.2895
  172.0000     7.8566     0.0800     2.2338     0.2660   107.3427   -34.6082     2.2824     2.3867
  172.5000     7.8547     0.0742     2.1976     0.2789   108.2471   -34.8736     2.3424     2.4584
  173.0000     7.8529     0.0497     2.2205     0.2233   106.2578   -35.1340     2.3867     2.5237
  173.5000     7.8511     0.0363     2.2706     0.2045    99.3936   -35.3879     3.1487     2.8961
  174.0000     7.8492     0.0363     2.3199     0.1869    92.4546   -35.4867     3.8003     3.3414
  174.5000     7.8474     0.0366     2.3459     0.1739    91.5540   -34.8173     4.0168     3.9143
  175.0000     7.8456     0.0419     2.3618     0.1796    94.1978   -34.9998     4.2492     4.0577
  175.5000     7.8441     0.0470     2.3558     0.1822    96.6421   -35.2226     4.3793     4.1452
  176.0000     7.8441     0.0521     2.3514     0.1757    95.0916   -35.3602     4.4668     4.2344
  176.5000     7.8441     0.0540     2.3551     0.1710    93.3875   -35.1467     4.4931     4.3257
  177.0000     7.8441     0.0525     2.3650     0.1703    93.0934   -34.9414     4.6530     4.4188
  177.5000     7.8441     0.0510     2.3692     0.1667    92.2947   -34.7719     4.8323     4.5140
  178.0000     7.8441     0.0494     2.3738     0.1620    91.5003   -34.7195     5.0185     4.6403
  178.5000     7.8441     0.0488     2.3823     0.1577    91.5680   -34.6658     5.2119     4.8272
  179.0000     7.8441     0.0497     2.3908     0.1621    94.6818   -34.6111     5.4126     5.0216
  179.5000     7.8441     0.0506     2.3893     0.1597    97.7113   -34.5419     5.6715     5.2239
  180.0000     7.8441     0.0514     2.3853     0.1581    97.9933   -34.4559     5.6689     5.3409
  180.5000     7.8441     0.0523     2.3969     0.1492    97.2826   -34.4132     5.6696     5.3912
  181.0000     7.8441     0.0532     2.4011     0.1471    96.5535   -34.7205     5.6696     5.4153
  181.5000     7.8441     0.0541     2.4029     0.1469    95.9410   -35.0301     5.6696     5.4211
  182.0000     7.8441     0.0543     2.4083     0.1488    96.0671   -35.3379     5.6589     5.4269
  182.5000     7.8441     0.0533     2.4035     0.1506    96.2084   -35.6061     5.6457     5.4327
  183.0000     7.8441     0.0523     2.4022     0.1527    96.3485   -35.5664     5.6325     5.4385
  183.5000     7.8441     0.0514     2.4021     0.1549    96.4883   -35.3412     5.6169     5.4443
  184.0000     7.8441     0.0508     2.3975     0.1570    96.6279   -35.1177     5.6323     5.4500
  184.5000     7.8441     0.0534     2.3931     0.1591    96.7678   -34.8952     5.6567     5.4559
  185.0000     7.8441     0.0560     2.3990     0.1610    96.9106   -34.6707     5.6692     5.4621
  185.5000     7.8441     0.0549     2.3884     0.1583    97.0500   -34.5855     5.6392     5.4411
  186.0000     7.8441     0.0437     2.3798     0.1554    97.0240   -34.5840     5.6183     5.4166
  186.5000     7.8441     0.0341     2.4057     0.1525    95.6217   -34.5840     5.5976     5.3921
  187.0000     7.8441     0.0353     2.4077     0.1584    95.5667   -34.5842     5.5769     5.3677
  187.5000     7.8441     0.0347     2.3933     0.1666    97.0285   -34.5842     5.5563     5.3433
  188.0000     7.8441     0.0385     2.3803     0.1644    98.5945   -34.5842     5.5357     5.3192
  188.5000     7.8441     0.0325     2.3783     0.1607    99.3157   -34.5843     5.5136     5.3120
  189.0000     7.8441     0.0304     2.3843     0.1604    97.4937   -34.5841     5.5048     5.3249
  189.5000     7.8441     0.0289     2.3901     0.1686    95.9184   -34.5779     5.4953     5.3428
  190.0000     7.8441     0.0322     2.3824     0.1747    95.9104   -34.5512     5.4858     5.3608
  190.5000     7.8441     0.0410     2.3656     0.1701    96.4852   -34.5256     5.4764     5.3787
  191.0000     7.8441     0.0495     2.3704     0.1665    98.9896   -34.5000     5.4625     5.3968
  191.5000     7.8441     0.0507     2.3781     0.1629   101.5712   -34.4744     5.5492     5.4206
  192.0000     7.8441     0.0479     2.3857     0.1594   104.1109   -34.4487     5.7075     5.4750
  192.5000     7.8441     0.0465     2.3911     0.1561   104.8953   -34.4230     5.9390     5.5300
  193.0000     7.8441     0.0488     2.3918     0.1553   103.0932   -34.3981     5.9199     5.5854
  193.5000     7.8441     0.0520     2.3971     0.1581   101.1715   -34.4073     5.8829     5.6414
  194.0000     7.8441     0.0551     2.3906     0.1626    99.2191   -34.4812     5.8471     5.6980
  194.5000     7.8441     0.0588     2.3859     0.1551    97.2339   -34.5558     5.8116     5.7551
  195.0000     7.8441     0.0549     2.3949     0.1486    96.3534   -34.5000     5.7764     5.8128
  195.5000     7.8442     0.0503     2.3943     0.1404    97.2421   -34.3617     5.7414     5.8711
  196.0000     7.8341     0.0462     2.4002     0.1455    98.1863   -34.2219     5.7066     5.9396
  196.5000     7.8171     0.0491     2.4114     0.1542    98.7989   -34.0822     5.6720     5.8995
  197.0000     7.8000     0.0496     2.3966     0.1628    98.6687   -33.9579     5.6378     5.8520
  197.5000     7.7829     0.0484     2.3850     0.1699    95.2056   -33.8850     5.6035     5.8049
  198.0000     7.7659     0.0533     2.3740     0.1751    91.6268   -33.8128     5.5696     5.7582
  198.5000     7.7485     0.0609     2.3687     0.1803    91.1201   -33.7783     5.4697     5.7118
  199.0000     7.7421     0.0751     2.3557     0.1875    91.9400   -33.5512     5.3305     5.6697
  199.5000     7.6913     0.0977     2.3412     0.1968    93.7349   -33.3880     5.1956     5.6678
  200.0000     7.5826     0.1200     2.3270     0.2061    94.0643   -33.4923     5.0615     5.6755
  200.5000     7.4750     0.1426     2.3128     0.2135    94.2038   -33.5903     4.8679     5.5176
  201.0000     7.3756     0.1553     2.2991     0.2164    94.3251   -33.6884     4.5729     5.1019
  201.5000     7.3780     0.1218     2.2935     0.2195    94.1010   -33.7739     4.2397     4.4679
  202.0000     7.3784     0.1000     2.2883     0.2183    90.5021   -33.6476     3.5803     3.8810
  202.5000     7.3772     0.0999     2.2983     0.2319    87.0124   -33.5097     3.0211     3.3001
  203.0000     7.4468     0.0910     2.2705     0.2771    87.5490   -33.3729     2.5512     2.8061
  203.5000     7.5425     0.0758     2.2213     0.2990    92.1003   -33.3660     2.2562     2.3860
  204.0000     7.6385     0.0600     2.1720     0.2987    98.4031   -33.3671     2.1724     2.0288
  204.5000     7.7253     0.0551     2.1229     0.2987   102.6992   -33.3655     2.1155     1.8565
  205.0000     7.7162     0.0543     2.0740     0.2988   106.5058   -33.5416     2.1749     1.8394
  205.5000     7.6604     0.0707     2.0219     0.2988   110.4505   -33.8422     2.2782     1.9686
  206.0000     7.6239     0.1383     2.0284     0.2989   109.8465   -34.1454     2.6278     2.3357
  206.5000     7.6500     0.1026     2.0511     0.2989   106.2914   -34.3678     3.3937     2.8421
  207.0000     7.6755     0.0453     2.0700     0.2990   101.2695   -33.7649     4.3694     3.4590
  207.5000     7.7013     0.0496     2.0977     0.2619    96.2474   -33.1893     5.9437     4.2151
  208.0000     7.7027     0.0524     2.2813     0.1924    90.5139   -33.4374     6.6569     5.4018
  208.5000     7.6998     0.0531     2.3489     0.1817    81.7268   -33.7168     7.4294     6.6506
  209.0000     7.6961     0.0542     2.3610     0.1779    80.1333   -33.9625     7.7827     7.4300
  209.5000     7.6924     0.0574     2.3554     0.1779    80.6613   -33.7654     7.7035     8.0740
  210.0000     7.6887     0.0615     2.3591     0.1822    83.3343   -33.5583     7.5814     8.0079
  210.5000     7.6851     0.0658     2.3558     0.1867    86.0610   -33.3533     7.5650     7.5800
  211.0000     7.6814     0.0685     2.3426     0.1904    87.4759   -33.1489     7.4255     7.1206
  211.5000     7.6778     0.0637     2.3337     0.1884    86.8540   -32.9444     7.3568     6.6891
