~VERSION INFORMATION
 VERS.                2.0:   CWLS LOG ASCII STANDARD - VERSION 2.0
 WRAP.                 NO:   ONE LINE PER DEPTH STEP
~WELL INFORMATION
#MNEM.UNIT      DATA TYPE    INFORMATION
#----------   ------------   ------------------------------
 STRT.F            0.0000:   START DEPTH
 STOP.F         1002.0000:   STOP DEPTH
 STEP.F            0.5000:   STEP LENGTH
 NULL.          -999.2500:   NO VALUE
 COMP. U S NAVY-INTEX OIL:   COMPANY
 WELL.     NPR ##3 28-S-2:   WELL
 FLD .             TEAPOT:   FIELD
 LOC .       S2 T38N R78W:   LOCATION
 CNTY.            NATRONA:   COUNTY
 STAT.            WYOMING:   STATE
 CTRY. UNITED STATES OF AMERICA:   COUNTRY
 SRVC.      NL McCullough:   SERVICE COMPANY
 DATE.        13-JUN-1963:   LOGDATE
 API .       490250639400:   API NUMBER
~CURVE INFORMATION
#MNEM.UNIT       API CODE    CURVE DESCRIPTION
#----------   ------------   ------------------------------
 DEPT.F                  :   
 ASN .OHMM   05 041 16 00:   AMPLIFIED SHORT NORMAL 16"
 ILD .OHMM   05 120 46 00:   INDUCTION LOG DEEP
 CILD.MMHO   05 110 46 00:   CONDUCTIVITY INDUCTION LOG DEEP
 SPR .MV     05 010 01 00:   SPONTANEOUS POTENTIAL FROM RES.
 GR  .GAPI   30 310 01 00:   GAMMA RAY
~PARAMETER INFORMATION
#MNEM.UNIT          VALUE    DESCRIPTION
#----------   ------------   ------------------------------
 PD  .                 GL:   PERMANENT DATUM
 EPD .F              5147:   ELEVATION PERMANENT DATUM
 LMF .                 KB:   LOG MEASURED FROM
 DAPD.F                 5:   FEET ABOVE PERMANENT DATUM
 DMF .                 KB:   DRILLING MEASURED FROM
 EKB .F              5152:   KELLING BUSHING
 EGL .F              5147:   GROUND LEVEL
 DATE.        13-SEP-1963:   RUN DATE
 RUN .                  1:   RUN NUMBER
 BLI .F               600:   BOTTOM LOG INTERVAL
 CS  .IN                7:   CASING SIZE
 DFT .                OIL:   DRILLING FLUID TYPE
 ENGI.            JACKSON:   RECORDING ENGINEER
 WITN.             HUDSON:   WITNESSED BY
 CLNT.            A2DTECH:   CLIENT CODE
 ORIG.           5" PRINT:   ORIGIN OF DATA
 UWI .       490250639400:   UNIQUE WELL ID
 DICO. A2D Technologies, Inc.:   DIGITIZING COMPANY
~OTHER INFORMATION
~A    DEPT     ASN        ILD       CILD        SPR          GR  
# ...
  244.0000     9.8193     8.6255   115.2161   -35.8390   106.0896
  244.5000     9.9050     8.3995   118.9606   -35.9915    99.7039
  245.0000     9.7579     8.0986   123.4570   -35.9944   102.6936
  245.5000     9.4293     7.8726   126.4534   -35.9974   102.2571
  246.0000     9.1307     7.6465   129.4460   -36.0003    91.6377
  246.5000     9.0263     7.4954   131.6831   -36.0033    88.2989
  247.0000     8.9817     7.4939   131.6682   -35.8567    85.6003
  247.5000     8.9821     7.4924   129.3977   -35.8597    88.2664
  248.0000     9.1319     7.5662   126.3753   -35.8626    89.8173
  248.5000     9.5656     7.7889   123.3529   -36.0151    94.7541
  249.0000     9.8200     8.0119   120.3305   -36.1675    95.9578
  249.5000     9.9997     8.2350   117.3081   -36.4694    95.5247
  250.0000    10.0598     8.4581   114.2857   -36.7713    91.7358
  250.5000    10.0737     8.5905   112.0150   -36.9887    88.5537
  251.0000     9.9530     8.7228   111.9349   -37.2197    88.2638
  251.5000     9.9710     8.7508   111.9854   -37.2197    87.2351
  252.0000    10.0460     8.7485   112.7224   -37.6682    80.8466
  252.5000    10.1211     8.7458   113.4595   -37.8176    83.8331
  253.0000    10.0018     8.7436   114.1965   -37.6682    92.4744
  253.5000     9.9424     8.6665   115.6853   -37.5187    97.5442
  254.0000     9.9128     8.6643   117.1705   -37.3692   101.8700
  254.5000     9.8681     8.5873   117.1556   -37.3692   103.5147
  255.0000     9.7788     8.5102   117.8963   -37.3692    94.5990
  255.5000     9.7641     8.4331   117.1259   -37.3851    90.8891
  256.0000     9.8093     8.4309   117.1110   -37.5187    96.1077
  256.5000     9.8694     8.4287   117.0961   -37.5187   105.4930
  257.0000     9.9444     8.5019   115.5775   -37.6682   112.0510
  257.5000    10.0493     8.6493   114.8107   -37.6682   112.6565
  258.0000    10.1094     8.7220   114.0440   -37.6682   110.7323
  258.5000    10.0710     8.7946   112.5253   -37.6682   104.3439
  259.0000     9.9935     8.9416   111.0067   -37.6682   100.1875
  259.5000     9.9011     9.0890   110.9918   -37.6682   104.3823
  260.0000     9.9761     9.1616   110.9770   -37.6682   106.6869
  260.5000    10.0512     9.1594   110.9621   -37.6682   108.9982
  261.0000     9.9020     9.0804   111.6993   -37.6682   100.8240
  261.5000     9.9023     8.9304   112.4361   -37.6682   104.7747
  262.0000     9.9026     8.7784   112.4212   -37.6682   112.1568
  262.5000     9.9664     8.7013   113.1582   -37.6682   107.5540
  263.0000     9.9363     8.5490   113.1428   -37.6682   107.2641
  263.5000     9.9511     8.4719   113.8803   -37.6682   110.6997
  264.0000     9.9659     8.3948   113.8617   -37.5187   111.6028
  264.5000     9.9807     8.3926   113.8469   -37.2197   108.6370
  265.0000     9.9806     8.3904   113.8320   -37.0703   103.8854
  265.5000     9.9954     8.3882   113.8171   -37.2197   104.4910
  266.0000     9.9952     8.3859   113.8022   -37.2197   102.1203
  266.5000     9.9801     8.3837   114.5430   -37.2197    99.6009
  267.0000     9.9501     8.4569   115.2762   -37.3692    99.1622
  267.5000     9.9200     8.5295   115.2614   -37.5187    99.4727
  268.0000     9.8900     8.5268   115.2465   -37.6682    97.9949
  268.5000     9.8599     8.5245   115.2316   -37.6682    98.7493
  269.0000     9.8598     8.4475   116.7205   -37.6403   101.5870
  269.5000     9.8596     8.3704   117.4612   -37.5187   102.6390
  270.0000     9.8296     8.2933   118.1982   -37.3692   103.3934
  270.5000     9.7820     8.2911   118.9352   -37.3692   106.6775
  271.0000     9.7246     8.2889   119.6685   -37.2197   116.8069
  271.5000     9.6796     8.2118   119.6536   -37.0703   118.9005
  272.0000     9.6795     8.1348   119.6387   -37.0703   121.8870
  272.5000     9.6793     8.1324   119.6239   -37.0703   120.4093
  273.0000     9.7091     8.1302   119.6090   -37.0703   115.9313
  273.5000     9.7239     8.0527   119.5940   -37.0703   110.1538
  274.0000     9.7088     8.0505   119.5789   -37.0703   111.3117
  274.5000     9.7086     8.0483   120.3163   -37.0703   111.6708
  275.0000     9.6936     7.9712   121.1779   -37.0703   111.3835
  275.5000     9.6785     7.9690   121.7903   -37.2197   118.2416
  276.0000     9.6185     7.9667   122.5273   -37.2197   113.0436
  276.5000     9.5586     7.8897   122.5087   -37.2197   113.2028
  277.0000     9.4538     7.8875   122.4938   -37.3692   113.5107
  277.5000     9.4835     7.8852   122.4789   -37.5187   112.3305
  278.0000     9.5133     7.8830   122.4640   -37.5187   109.0671
  278.5000     9.5580     8.0305   120.9466   -37.6682   110.5655
  279.0000     9.6027     8.0283   119.4280   -37.6682   113.5520
  279.5000     9.6474     8.1015   118.6612   -37.5187   119.6635
  280.0000     9.7369     8.2484   117.1426   -37.5187   120.7155
  280.5000     9.9460     8.3959   115.6240   -37.3692   122.5115
  281.0000    10.0344     8.5435   114.0900   -37.2197   121.9240
  281.5000    10.0803     8.6908   113.2908   -37.0703   123.1274
  282.0000    10.0054     8.6886   111.8195   -37.0703   125.0697
  282.5000    10.0052     8.6864   111.0526   -37.0703   120.9159
  283.0000    10.0798     8.6842   110.2827   -37.2197   117.0572
  283.5000    10.0797     8.6070   110.2678   -37.2197   115.1304
  284.0000    10.0795     8.6048   111.0048   -37.2197   119.1612
  284.5000    10.0794     8.5273   110.9900   -37.0703   120.5511
  285.0000    10.0792     8.5250   112.4789   -37.2197   115.6104
  285.5000    10.0791     8.5228   112.4640   -37.3692   112.1981
  286.0000    10.0789     8.4458   113.2047   -37.6682   112.2084
  286.5000    10.0108     8.2938   113.9417   -37.6682   112.6652
  287.0000     9.8394     8.2916   116.1787   -37.6682   111.5991
  287.5000     9.7646     8.1397   118.4195   -37.6682   107.8869
  288.0000     9.6897     7.9878   119.9084   -37.5187   108.9168
  288.5000     9.5998     7.8359   121.3973   -37.5187   114.6647
  289.0000     9.4801     7.6839   122.1380   -37.2197   111.0824
  289.5000     9.3604     7.6069   124.3750   -37.0703   111.5392
  290.0000     9.2257     7.5298   126.6158   -37.0703   110.5079
  290.5000     9.0761     7.4527   128.8566   -37.0703   106.0539
  291.0000     8.9713     7.4505   131.0973   -37.0703   101.7487
  291.5000     8.9562     7.4483   131.0824   -37.0703    99.0805
  292.0000     8.9859     7.4461   131.0676   -37.0663   101.0253
  292.5000     9.0755     7.5187   129.5488   -36.9208   103.4166
  293.0000     9.1800     7.5165   127.9852   -36.9208   111.6114
  293.5000     9.3143     7.5935   125.6817   -36.9208   113.5537
  294.0000     9.4487     7.7445   123.4887   -37.0703   111.7783
  294.5000     9.5532     7.9703   121.9699   -37.0703   112.8329
  295.0000     9.6278     8.1812   119.6976   -37.0703   110.9087
  295.5000     9.7323     8.4030   118.1790   -37.2197   114.1928
  296.0000     9.7776     8.4762   117.4122   -37.5187   111.9710
  296.5000     9.8228     8.5488   115.8936   -37.6682   107.8147
  297.0000     9.8980     8.6215   113.6231   -37.6682   102.3190
  297.5000     9.9709     8.6187   112.8563   -37.3692   108.5793
  298.0000    10.0006     8.6165   112.8415   -37.0703   108.1428
  298.5000    10.0004     8.6143   112.8266   -36.9208   113.0643
  299.0000    10.0003     8.6120   113.5639   -36.9208   120.2174
  299.5000     9.9852     8.6098   114.3008   -36.9208   118.2932
  300.0000     9.9701     8.5994   115.0376   -36.9439   113.5417
  300.5000     9.8952     8.5458   116.1066   -37.0703   109.9807
  301.0000     9.8203     8.4922   117.1755   -36.7713   113.7099
  301.5000     9.7903     8.4417   118.0226   -36.6218   112.2307
  302.0000     9.7901     8.3021   118.7669   -36.4723   112.3885
  302.5000     9.7900     8.3006   119.5113   -36.4723   107.9332
  303.0000     9.7749     8.2243   119.5038   -36.4723   104.2219
  303.5000     9.7747     8.2228   119.4963   -36.4723    99.0225
  304.0000     9.7746     8.2213   119.4887   -36.4723    98.4340
  304.5000     9.7744     8.2947   118.7293   -36.4723   100.8262
