~VERSION INFORMATION
 VERS.                2.0:   CWLS LOG ASCII STANDARD - VERSION 2.0
 WRAP.                 NO:   ONE LINE PER DEPTH STEP
~WELL INFORMATION
#MNEM.UNIT      DATA TYPE    INFORMATION
#----------   ------------   ------------------------------
 STRT.F            0.0000:   START DEPTH
 STOP.F          539.0000:   STOP DEPTH
 STEP.F            0.5000:   STEP LENGTH
 NULL.          -999.2500:   NO VALUE
 COMP. FENIX & SCISSON INC:   COMPANY
 WELL.     NPR 3 SX #23-3:   WELL
 FLD .             TEAPOT:   FIELD
 LOC .       S3 T38N R78W:   LOCATION
 CNTY.            NATRONA:   COUNTY
 STAT.            WYOMING:   STATE
 CTRY. UNITED STATES OF AMERICA:   COUNTRY
 SRVC.           BIRDWELL:   SERVICE COMPANY
 DATE.        27-JUL-1978:   LOGDATE
 API .       490251067500:   API NUMBER
~CURVE INFORMATION
#MNEM.UNIT       API CODE    CURVE DESCRIPTION
#----------   ------------   ------------------------------
 DEPT.F                  :   
 ILD .OHMM   05 120 40 00:   INDUCTION LOG DEEP
 SPR .MV     05 010 01 00:   SPONTANEOUS POTENTIAL
 SN  .OHMM   05 040 16 00:   SHORT NORMAL 16"
 CALD.IN     45 280 60 00:   CALIPER FROM DENSITY LOG
 CORR.G/C3   45 356 01 00:   DENSITY CORRECTION
 DPHI.DEC    45 890 12 00:   DENSITY POROSITY SANDSTONE
 GRD .GAPI   45 310 01 00:   GAMMA RAY FROM DENSITY LOG
 RHOB.G/C3   45 350 01 00:   BULK DENSITY
~PARAMETER INFORMATION
#MNEM.UNIT          VALUE    DESCRIPTION
#----------   ------------   ------------------------------
 PD  .                 GL:   PERMANENT DATUM
 EPD .F              5787:   ELEVATION PERMANENT DATUM
 LMF .                 KB:   LOG MEASURED FROM
 DAPD.F                 4:   FEET ABOVE PERMANENT DATUM
 DMF .                 KB:   DRILLING MEASURED FROM
 EKB .F              5191:   KELLING BUSHING
 EGL .F              5187:   GROUND LEVEL
 DATE.         7-JUL-1978:   RUN DATE
 RUN .                  1:   RUN NUMBER
 DD  .F               540:   DEPTH DRILLER
 DL  .F               540:   DEPTH LOGGER
 BLI .F               539:   BOTTOM LOG INTERVAL
 CS  .IN            8.625:   CASING SIZE
 CBD .F                40:   CASING BOTTOM DRILLER
 BS  .IN            7.875:   BIT SIZE
 BSD .F               540:   BIT SIZE AT DEPTH
 DFT .                KCL:   DRILLING FLUID TYPE
 DFD .                8.6:   DRILLING FLUID DENSITY
 DFV .                 30:   DRILLING FLUID VISCOSITY
 DFPH.                  9:   DRILLING FLUID PH
 MSS .           FLOWLINE:   MUD SAMPLE SOURCE
 MRT .F                74:   MAXIMUM RECORDED TEMPERATURE
 LUN .               2958:   LOGGING UNIT NUMBER
 LUL .               CASP:   LOGGING UNIT LOCATION
 ENGI.            POINTER:   RECORDING ENGINEER
 WITN.              AMEND:   WITNESSED BY
 CLNT.            A2DTECH:   CLIENT CODE
 ORIG.           5" PRINT:   ORIGIN OF DATA
 UWI .       490251067500:   UNIQUE WELL ID
 DICO. A2D Technologies, Inc.:   DIGITIZING COMPANY
~OTHER INFORMATION
~A    DEPT     ILD        SPR         SN         CALD     CORR       DPHI         GRD      RHOB   
# ...
  445.5000    16.1897   -22.1458    14.5386     7.5143     0.1584     0.1682    64.9576     2.3453
  446.0000    14.9185   -22.2818    14.3204     7.4985     0.1598     0.1526    64.9432     2.3737
  446.5000    14.5209   -22.4152    13.9651     7.4523     0.1231     0.1437    65.5378     2.4456
  447.0000    14.1380   -22.4018    13.6863     7.4516     0.0517     0.1419    65.9808     2.5093
  447.5000    13.9534   -22.3872    13.4117     7.4508     0.0560     0.1419    64.6057     2.5175
  448.0000    13.9637   -22.0768    13.3206     7.4954     0.0574     0.1422    63.6849     2.4410
  448.5000    13.9718   -22.3725    13.0604     7.5408     0.0438     0.1444    64.2769     2.4020
  449.0000    13.9800   -22.6466    13.0668     7.6300     0.0332     0.1482    64.2654     2.4042
  449.5000    14.0848   -22.1843    12.8939     7.7197     0.0236     0.1528    63.3448     2.4049
  450.0000    14.0948   -22.1716    12.7233     7.6283     0.0209     0.1546    63.0303     2.4010
  450.5000    14.0066   -22.6057    12.7295     7.5672     0.0328     0.1522    63.0160     2.3927
  451.0000    13.8218   -22.7413    12.7345     7.5060     0.0416     0.1516    63.6134     2.3927
  451.5000    13.8319   -22.5766    12.6512     7.5052     0.0505     0.1540    64.2051     2.3926
  452.0000    13.6533   -22.2663    12.5708     7.5044     0.0557     0.1552    65.2542     2.3879
  452.5000    13.4731   -21.9559    12.5770     7.5037     0.0607     0.1552    66.0177     2.3820
  453.0000    13.4830   -21.7944    12.5819     7.5030     0.0665     0.1496    67.1981     2.3865
  453.5000    13.3983   -21.9411    12.5868     7.5625     0.0739     0.1436    67.7956     2.3977
  454.0000    13.2196   -21.9270    12.7662     7.5769     0.0798     0.1386    69.0420     2.4104
  454.5000    13.1409   -21.9157    12.7711     7.6217     0.0916     0.1341    69.3393     2.4210
  455.0000    13.1505   -21.9044    12.7761     7.6663     0.0974     0.1362    69.9798     2.4298
  455.5000    12.9770   -21.8929    12.7810     7.6499     0.1093     0.1398    70.8415     2.4222
  456.0000    12.8094   -21.8790    12.7863     7.5286     0.1211     0.1411    71.4418     2.4192
  456.5000    12.8188   -21.8677    12.7915     7.4825     0.1270     0.1375    71.4360     2.4206
  457.0000    12.8263   -21.8564    12.7974     7.4516     0.1179     0.1252    71.4303     2.4266
  457.5000    12.8064   -21.8451    12.8024     7.5264     0.1043     0.1237    71.8776     2.4376
  458.0000    12.8137   -22.1287    12.8074     7.6792     0.0667     0.1280    71.4173     2.4548
  458.5000    12.8196   -22.4178    12.8126     7.3157     0.0546     0.1307    70.1995     2.4742
  459.0000    12.8254   -22.4037    12.8187     7.2384     0.0575     0.1337    69.5876     2.4757
  459.5000    12.8314   -22.6905    12.8237     7.2369     0.0588     0.1328    70.1880     2.4546
  460.0000    12.8386   -22.9764    12.4806     7.2355     0.0602     0.1293    70.6353     2.4452
  460.5000    12.8445   -23.2599    12.3168     7.1132     0.0645     0.1278    70.7825     2.4418
  461.0000    12.7624   -23.2486    12.1539     6.9909     0.0674     0.1290    69.8662     2.4395
  461.5000    12.5080   -23.0913    11.8310     7.2308     0.0718     0.1341    69.2544     2.4334
  462.0000    12.5139   -23.5237    11.8356     7.2902     0.0716     0.1372    68.8606     2.4303
  462.5000    12.5209   -23.6584    11.8403     7.2280     0.0715     0.1330    68.3324     2.4457
  463.0000    12.5266   -24.0963    11.8449     7.1661     0.0683     0.1210    68.3273     2.4602
  463.5000    12.5320   -24.3798    11.8497     7.0863     0.0652     0.1183    68.3209     2.4601
  464.0000    12.5380   -24.6690    11.8553     7.0269     0.0591     0.1235    68.3151     2.4496
  464.5000    12.4580   -24.9525    11.9415     7.0410     0.0530     0.1322    68.3079     2.4420
  465.0000    12.3784   -25.2388    11.9459     7.1000     0.0483     0.1396    68.3022     2.4388
  465.5000    12.3855   -25.2247    11.9509     7.2492     0.0467     0.1715    68.2964     2.3924
  466.0000    12.2222   -25.3651    11.8741     7.3985     0.0660     0.1835    68.2907     2.3399
  466.5000    12.2278   -25.5000    11.8790     7.4578     0.1063     0.1704    68.2848     2.3368
  467.0000    12.2347   -25.1905    11.8844     7.5168     0.1107     0.1548    68.4307     2.3428
  467.5000    12.2403   -24.5815    11.8894     7.5305     0.1123     0.1259    68.7279     2.4357
  468.0000    12.2170   -23.9750    11.8937     7.5589     0.1328     0.1237    68.8737     2.4386
  468.5000    12.0845   -23.9637    11.8995     7.5726     0.1477     0.1249    69.4726     2.4386
  469.0000    11.9252   -23.9524    11.9042     7.5708     0.1446     0.1300    69.6344     2.4385
  469.5000    11.9310   -23.9384    11.9088     7.5694     0.1370     0.1546    72.4899     2.4287
  470.0000    11.9374   -24.0013    11.9132     7.5247     0.1593     0.1561    75.3630     2.3751
  470.5000    11.9429   -24.5110    11.9181     7.4897     0.1951     0.1466    74.9027     2.3997
  471.0000    11.8665   -24.4997    11.9230     7.4439     0.2009     0.1388    73.0787     2.4113
  471.5000    11.7115   -24.9534    11.9279     7.4122     0.2008     0.1304    69.1336     2.4232
  472.0000    11.6359   -25.0724    11.9329     7.3806     0.1962     0.0939    70.6415     2.4741
  472.5000    11.6415   -25.3559    11.9380     7.3791     0.1047     0.0686    71.6964     2.5850
  473.0000    11.6473   -25.6451    11.6981     7.3732     0.0357     0.0663    74.2664     2.5879
  473.5000    11.5719   -25.6310    11.6243     7.3155     0.0326     0.1137    74.8667     2.4747
  474.0000    11.3422   -26.2121    11.6300     7.2989     0.0385     0.1239    72.4353     2.4446
  474.5000    11.3487   -26.2008    11.4510     7.2673     0.0383     0.1204    71.5204     2.4468
  475.0000    11.3539   -26.3412    11.3232     7.2659     0.0322     0.1168    71.3646     2.4528
  475.5000    11.1705   -26.7738    11.3288     7.2795     0.0261     0.1183    71.8121     2.4587
  476.0000    11.0566   -26.7622    11.1278     7.2777     0.0259     0.1207    71.1859     2.4556
  476.5000    10.9120   -27.3433    11.0311     7.2763     0.0318     0.1214    70.5869     2.4346
  477.0000    10.7669   -27.0344    10.7381     7.2749     0.0376     0.1199    71.0357     2.4435
  477.5000    10.6994   -26.7255    10.7423     7.2734     0.0375     0.1181    71.1829     2.4510
  478.0000    10.4861   -26.7142    10.4559     7.3019     0.0314     0.1150    71.7818     2.4569
  478.5000    10.4909   -26.7001    10.4610     7.3004     0.0253     0.1134    72.3820     2.4636
  479.0000    10.2830   -27.1353    10.2521     7.3594     0.0251     0.1122    72.6779     2.4665
  479.5000    10.2161   -27.2756    10.1851     7.3731     0.0295     0.1119    72.9758     2.4680
  480.0000    10.2220   -27.2615    10.1901     7.4170     0.0309     0.1113    73.2724     2.4702
  480.5000    10.0178   -27.2500    10.0506     7.4152     0.0337     0.1111    73.2647     2.4731
  481.0000     9.9542   -26.6409     9.9223     7.3533     0.0366     0.1114    72.6534     2.4730
  481.5000     9.8241   -25.8856     9.8584     7.2915     0.0364     0.1123    71.7386     2.4745
  482.0000     9.6935   -25.4279     9.6622     7.2900     0.0393     0.1129    71.1268     2.4744
  482.5000     9.5668   -25.8581     9.4049     7.3789     0.0361     0.1139    71.7273     2.4729
  483.0000     9.3020   -26.5929     9.2697     7.4379     0.0360     0.1160    72.3515     2.4706
  483.5000     8.8196   -26.7927     8.9111     7.4670     0.0344     0.1199    74.1384     2.4667
  484.0000     8.2383   -27.1684     8.5554     7.4350     0.0298     0.1247    75.3462     2.4637
  484.5000     7.1850   -27.7496     7.9919     7.4033     0.0266     0.1244    75.9451     2.4606
  485.0000     6.0966   -27.8968     7.3639     7.3713     0.0201     0.1245    75.9393     2.4538
  485.5000     5.8533   -28.4682     6.5879     7.3397     0.0144     0.1292    75.4788     2.4448
