~VERSION INFORMATION
 VERS.                2.0:   CWLS LOG ASCII STANDARD - VERSION 2.0
 WRAP.                 NO:   ONE LINE PER DEPTH STEP
~WELL INFORMATION
#MNEM.UNIT      DATA TYPE    INFORMATION
#----------   ------------   ------------------------------
 STRT.F           32.0000:   START DEPTH
 STOP.F          502.0000:   STOP DEPTH
 STEP.F            0.5000:   STEP LENGTH
 NULL.          -999.2500:   NO VALUE
 COMP.    FENIX & SCISSON:   COMPANY
 WELL. NPR # #3 65-36-SX-3-FP:   WELL
 FLD .             TEAPOT:   FIELD
 LOC .       S3 T38N R78W:   LOCATION
 CNTY.            NATRONA:   COUNTY
 STAT.            WYOMING:   STATE
 CTRY. UNITED STATES OF AMERICA:   COUNTRY
 SRVC.              Welex:   SERVICE COMPANY
 DATE.        15-JUN-1980:   LOGDATE
 API .       490251082600:   API NUMBER
~CURVE INFORMATION
#MNEM.UNIT       API CODE    CURVE DESCRIPTION
#----------   ------------   ------------------------------
 DEPT.F                  :   
 CALD.IN     45 280 60 00:   CALIPER FROM DENSITY LOG
 CORR.G/C3   45 356 01 00:   DENSITY CORRECTION
 DPHI.DEC    45 890 12 00:   DENSITY POROSITY SANDSTONE
 GRD .GAPI   45 310 01 00:   GAMMA RAY FROM DENSITY LOG
 RHOB.G/C3   45 350 01 00:   BULK DENSITY
 NPHI.DEC    42 890 03 00:   NEUTRON POROSITY SANDSTONE
 ILD .OHMM   07 120 46 00:   INDUCTION LOG DEEP
 ILM .OHMM   07 120 44 00:   INDUCTION LOG MEDIUM
 SGRD.OHMM   07 220 05 00:   SHALLOW GUARD RESISTIVITY
 SPR .MV     07 010 01 00:   SPONTANEOUS POTENTIAL FROM RES.
~PARAMETER INFORMATION
#MNEM.UNIT          VALUE    DESCRIPTION
#----------   ------------   ------------------------------
 PD  .                 GL:   PERMANENT DATUM
 EPD .F              5159:   ELEVATION PERMANENT DATUM
 LMF .                 KB:   LOG MEASURED FROM
 DAPD.F                 5:   FEET ABOVE PERMANENT DATUM
 DMF .                 KB:   DRILLING MEASURED FROM
 EKB .F              5164:   KELLING BUSHING
 EGL .F              5159:   GROUND LEVEL
 DATE.            6-15-80:   RUN DATE
 RUN .                  1:   RUN NUMBER
 DD  .F               505:   DEPTH DRILLER
 DL  .F               504:   DEPTH LOGGER
 BLI .F               502:   BOTTOM LOG INTERVAL
 TLI .F                30:   TOP LOG INTERVAL
 BS  .IN            9.875:   BIT SIZE
 BSD .F               505:   BIT SIZE AT DEPTH
 DFT .             2% KCL:   DRILLING FLUID TYPE
 DFD .                9.4:   DRILLING FLUID DENSITY
 DFV .                 51:   DRILLING FLUID VISCOSITY
 DFPH.                 12:   DRILLING FLUID PH
 DFL .                5.6:   DRILLING FLUID LOSS
 MSS .           FLOWLINE:   MUD SAMPLE SOURCE
 RMS .OHMM            .36:   RESISTIVITY MUD SAMPLE
 MST .F                65:   MUD SAMPLE TEMPERATURE
 RMF .OHMM            .29:   RESISTIVITY MUD FILTRATE SAMPLE
 MFST.F                65:   MUD FILTRATE SAMPLE TEMPERATURE
 RMC .OHMM            .42:   RESISTIVITY MUD CAKE
 MCST.F                65:   MUD CAKE SAMPLE TEMPERATURE
 MFSS.           MEASURED:   MUD FILTRATE SAMPLE SOURCE
 MCSS.           MEASURED:   MUD CAKE SAMPLE SOURCE
 RMB .OHMM            .32:   RESISTIVITY MUD AT BHT
 BHT .F                74:   BOTTOM HOLE TEMPERATURE
 TCS .HRS               2:   TIME CURCULATED STOPPED
 MRT .F                74:   MAXIMUM RECORDED TEMPERATURE
 LUN .               1892:   LOGGING UNIT NUMBER
 LUL .             CASPER:   LOGGING UNIT LOCATION
 ENGI.               REIN:   RECORDING ENGINEER
 WITN.              AMEND:   WITNESSED BY
 CLNT.            A2DTECH:   CLIENT CODE
 ORIG.       2", 5" PRINT:   ORIGIN OF DATA
 UWI .       490251082600:   UNIQUE WELL ID
 DICO. A2D Technologies, Inc.:   DIGITIZING COMPANY
~OTHER INFORMATION
~A   DEPT     CALD       CORR       DPHI        GRD       RHOB       NPHI         ILD         ILM       SGRD      SPR   
# ...
  367.0000     9.9290     0.1048     0.1886    78.8988     2.3157     0.2856    22.8489    24.7071    33.9221   -43.2177
  367.5000     9.9300     0.0990     0.1973    80.2382     2.2948     0.2871    22.3783    24.0335    30.3715   -43.0731
  368.0000     9.9160     0.0766     0.1982    81.7250     2.2926     0.2865    21.7668    23.5401    28.5351   -42.9281
  368.5000     9.8878     0.0949     0.1815    82.7945     2.3211     0.2861    21.3184    22.7211    28.3317   -42.9268
  369.0000     9.8739     0.1057     0.1735    82.2930     2.3294     0.2864    21.1686    21.8178    28.5221   -42.9255
  369.5000     9.8602     0.1164     0.1676    80.6628     2.3369     0.2867    21.0204    21.5176    28.7102   -42.9241
  370.0000     9.8320     0.1363     0.1477    78.5054     2.3609     0.2855    20.8733    21.2216    29.5052   -42.2060
  370.5000     9.8292     0.1742     0.1491    77.5005     2.3939     0.2864    20.8705    21.5317    28.4962   -41.7271
  371.0000     9.8043     0.1819     0.1548    77.2212     2.3828     0.2894    20.8672    22.1149    28.2931   -41.2942
  371.5000     9.7906     0.1610     0.1625    77.2332     2.3634     0.2914    20.8645    22.4205    27.5164   -40.9169
  372.0000     9.7624     0.1582     0.1673    77.3926     2.3537     0.2890    20.8618    21.8089    26.7593   -40.7676
  372.5000     9.7484     0.1553     0.1633    77.9945     2.3530     0.2936    21.1487    20.6231    26.7523   -40.7663
  373.0000     9.7202     0.1586     0.1588    79.1864     2.3620     0.2941    21.1452    19.7995    26.7454   -40.7649
  373.5000     9.6770     0.1678     0.1623    80.3782     2.3651     0.2950    21.4360    19.1274    26.9235   -40.7636
  374.0000     9.6631     0.1560     0.1602    81.4226     2.3607     0.2961    21.5822    18.6059    27.2883   -40.7622
  374.5000     9.6494     0.1543     0.1599    82.1720     2.3622     0.2943    21.7280    18.8630    27.2812   -40.7605
  375.0000     9.6357     0.1468     0.1544    82.3314     2.3683     0.2943    21.7244    18.7319    27.0868   -40.9028
  375.5000     9.6367     0.1444     0.1481    82.1928     2.3848     0.2922    21.7216    18.2212    27.2672   -40.9011
  376.0000     9.6230     0.1448     0.1408    81.4703     2.4013     0.2883    20.9829    17.9706    27.2597   -41.1860
  376.5000     9.6396     0.1633     0.1387    80.3022     2.3999     0.2912    20.5507    18.3635    27.2511   -41.2520
  377.0000     9.6693     0.1571     0.1386    80.1637     2.3977     0.2849    20.5474    18.7271    27.2441   -41.5635
  377.5000     9.6851     0.1573     0.1368    79.8806     2.4112     0.2786    20.5447    18.4691    27.4254   -42.0415
  378.0000     9.7156     0.1605     0.1386    79.1581     2.4128     0.2774    20.6842    18.1137    27.4180   -42.4088
  378.5000     9.7314     0.1577     0.1442    78.1345     2.3997     0.2789    20.8288    17.7184    27.2211   -42.5107
  379.0000     9.7408     0.1458     0.1511    77.1170     2.3903     0.2810    21.1557    17.3543    26.8413   -42.6105
  379.5000     9.7335     0.1279     0.1423    76.6834     2.3853     0.2822    21.6261    17.1156    26.6500   -42.6088
  380.0000     9.7404     0.1296     0.1312    77.8783     2.4183     0.2815    21.9968    17.1145    26.6429   -42.4642
  380.5000     9.7651     0.1510     0.1353    79.3651     2.4229     0.2779    21.8351    17.1189    26.6344   -42.1760
  381.0000     9.7810     0.1436     0.1437    79.3746     2.3959     0.2728    21.6885    17.3498    26.6275   -41.6016
  381.5000     9.7966     0.1287     0.1445    79.2173     2.3955     0.2689    21.6857    17.8335    27.3649   -41.0272
  382.0000     9.7978     0.1319     0.1472    78.6450     2.3946     0.2668    21.5339    18.4577    27.7376   -40.5788
  382.5000     9.8134     0.1185     0.1585    78.2299     2.3752     0.2676    21.3832    18.7128    25.8814   -40.3078
  383.0000     9.8292     0.1051     0.1612    78.2419     2.3625     0.2730    21.3797    18.7112    24.8263   -40.3505
  383.5000     9.8304     0.1068     0.1549    78.5487     2.3633     0.2766    21.2301    18.7100    24.3118   -40.5917
  384.0000     9.8314     0.1100     0.1551    79.1506     2.3716     0.2787    21.0815    18.4526    23.9725   -40.5979
  384.5000     9.8323     0.1042     0.1539    80.6374     2.3784     0.2799    21.0787    18.1988    23.8002   -40.8755
  385.0000     9.8335     0.1013     0.1523    82.4193     2.3829     0.2811    20.9305    18.3235    23.7940   -41.1607
  385.5000     9.8345     0.1046     0.1574    84.2011     2.3695     0.2816    20.7840    18.4490    23.7878   -41.5888
  386.0000     9.8354     0.1003     0.1591    86.4254     2.3666     0.2816    20.6386    18.3208    23.7815   -41.7307
  386.5000     9.8512     0.0883     0.1468    86.7293     2.3674     0.2813    20.4941    17.3358    23.2873   -41.7290
  387.0000     9.8524     0.1007     0.1338    83.2044     2.3944     0.2810    19.7965    16.9804    22.3379   -41.7006
  387.5000     9.8682     0.1371     0.1329    82.3314     2.4267     0.2801    19.1233    16.5174    21.2800   -41.2965
  388.0000     9.9135     0.1267     0.1338    82.0453     2.4132     0.2782    18.7294    16.0671    20.9830   -40.8653
  388.5000     9.9291     0.1239     0.1328    83.6826     2.4118     0.2797    18.3436    15.6291    20.9763   -40.7204
  389.0000     9.9301     0.1288     0.1283    86.0545     2.4246     0.2794    18.3406    15.6278    21.1160   -41.7219
  389.5000     9.9459     0.1380     0.1300    87.2463     2.4314     0.2809    18.3383    15.8438    21.2579   -43.0100
  390.0000     9.9469     0.1379     0.1399    86.9632     2.4097     0.2860    18.0848    17.2091    21.2509   -43.2952
  390.5000     9.9479     0.1322     0.1407    85.6477     2.4076     0.2841    18.0216    17.4469    20.8092   -43.0069
  391.0000     9.9342     0.1324     0.1377    85.3647     2.4001     0.2775    17.7094    17.4455    20.5190   -42.5758
  391.5000     9.9205     0.1387     0.1367    85.3766     2.4054     0.2751    17.5855    17.4444    19.9557   -41.8581
  392.0000     9.9068     0.1404     0.1367    85.5360     2.4145     0.2739    17.3426    17.0862    19.6700   -41.2760
  392.5000     9.9078     0.1390     0.1322    85.6954     2.4160     0.2739    17.2210    16.5062    19.5358   -41.1387
  393.0000     9.9151     0.1347     0.1195    86.8873     2.4384     0.2736    16.6348    15.7273    19.8019   -40.8249
  393.5000     9.9247     0.1319     0.1168    87.1912     2.4552     0.2717    16.1803    15.4043    20.6327   -40.7062
  394.0000     9.9405     0.1306     0.1164    86.7394     2.4619     0.2669    15.6300    15.1924    21.9478   -40.5616
  394.5000     9.9414     0.1247     0.1104    86.4622     2.4597     0.2651    15.5206    14.9834    18.2142   -40.2734
  395.0000     9.9425     0.1280     0.1133    86.0374     2.4695     0.2672    15.5181    14.6755    16.8797   -40.2720
  395.5000     9.9436     0.1297     0.1172    85.3098     2.4658     0.2666    15.5161    14.0799    16.7594   -40.2707
  396.0000     9.9446     0.1163     0.1297    83.7110     2.4209     0.2666    15.4075    13.5085    16.6399   -40.7068
  396.5000     9.9456     0.0847     0.1513    82.6904     2.4165     0.2705    15.2997    13.3227    16.6345   -41.7007
  397.0000     9.9615     0.0744     0.1620    82.1124     2.3679     0.2679    15.0877    13.2301    16.6302   -41.9855
  397.5000     9.9717     0.0323     0.1707    81.9764     2.3537     0.2615    14.4745    13.1384    16.5116   -42.2707
  398.0000     9.9931     0.0128     0.1697    82.1362     2.3418     0.2587    13.5085    12.9576    16.2798   -42.5559
  398.5000    10.0031     0.0085     0.1646    82.4431     2.3501     0.2653    12.9594    12.7793    16.1642   -42.8407
  399.0000    10.0097     0.0268     0.1613    83.3400     2.3554     0.2691    12.3469    12.5167    16.0490   -42.8394
  399.5000    10.0109     0.0270     0.1600    85.4168     2.3600     0.2751    11.9270    12.4299    16.0448   -42.8380
  400.0000    10.0120     0.0242     0.1615    86.0157     2.3662     0.2754    11.8592    11.9622    15.9304   -42.6934
