~VERSION INFORMATION
 VERS.                2.0:   CWLS LOG ASCII STANDARD - VERSION 2.0
 WRAP.                 NO:   ONE LINE PER DEPTH STEP
~WELL INFORMATION
#MNEM.UNIT      DATA TYPE    INFORMATION
#----------   ------------   ------------------------------
 STRT.F            2.0000:   START DEPTH
 STOP.F          689.0000:   STOP DEPTH
 STEP.F            0.5000:   STEP LENGTH
 NULL.          -999.2500:   NO VALUE
 COMP. U S NAVY-INTEX OIL:   COMPANY
 WELL. RES 3 TEAPOT DOM #74S-34:   WELL
 FLD .             TEAPOT:   FIELD
 LOC .      S34 T39N R78W:   LOCATION
 CNTY.            NATRONA:   COUNTY
 STAT.            WYOMING:   STATE
 CTRY. UNITED STATES OF AMERICA:   COUNTRY
 SRVC.      NL McCullough:   SERVICE COMPANY
 DATE.        10-AUG-1961:   LOGDATE
 API .       490250653900:   API NUMBER
~CURVE INFORMATION
#MNEM.UNIT       API CODE    CURVE DESCRIPTION
#----------   ------------   ------------------------------
 DEPT.F                  :   
 GR  .GAPI   35 310 01 00:   GAMMA RAY
 NPHI.DEC    35 890 00 00:   NEUTRON POROSITY
~PARAMETER INFORMATION
#MNEM.UNIT          VALUE    DESCRIPTION
#----------   ------------   ------------------------------
 PD  .                 GL:   PERMANENT DATUM
 EPD .F              5044:   ELEVATION PERMANENT DATUM
 LMF .                 KB:   LOG MEASURED FROM
 DAPD.F                 5:   FEET ABOVE PERMANENT DATUM
 DMF .                 KB:   DRILLING MEASURED FROM
 EKB .F              5049:   KELLING BUSHING
 EGL .F              5044:   GROUND LEVEL
 DATE.        10-AUG-1961:   RUN DATE
 RUN .                  1:   RUN NUMBER
 DD  .F               690:   DEPTH DRILLER
 DL  .F             690.5:   DEPTH LOGGER
 BLI .F               689:   BOTTOM LOG INTERVAL
 BS  .IN            7.875:   BIT SIZE
 BSD .F               690:   BIT SIZE AT DEPTH
 DFT .       OIL EMULSION:   DRILLING FLUID TYPE
 DFD .                9.9:   DRILLING FLUID DENSITY
 TCS .HRS               1:   TIME CURCULATED STOPPED
 ENGI.            JACKSON:   RECORDING ENGINEER
 WITN.          JORGENSON:   WITNESSED BY
 CLNT.            A2DTECH:   CLIENT CODE
 ORIG.           2" PRINT:   ORIGIN OF DATA
 UWI .       490250653900:   UNIQUE WELL ID
 DICO. A2D Technologies, Inc.:   DIGITIZING COMPANY
~OTHER INFORMATION
~A    DEPT        GR     NPHI   
# ...
  245.0000     7.5573     0.2274
  245.5000     7.5498     0.2248
  246.0000     7.3618     0.2195
  246.5000     7.3514     0.2183
  247.0000     7.2858     0.2181
  247.5000     7.0381     0.2180
  248.0000     6.9845     0.2174
  248.5000     6.9163     0.2160
  249.0000     6.6934     0.2145
  249.5000     6.5971     0.2095
  250.0000     6.5845     0.1992
  250.5000     6.5995     0.2024
  251.0000     6.7941     0.2180
  251.5000     6.9467     0.2184
  252.0000     6.9842     0.2174
  252.5000     7.0151     0.2141
  253.0000     7.2409     0.2100
  253.5000     7.2179     0.2124
  254.0000     7.1495     0.2174
  254.5000     7.0793     0.2209
  255.0000     6.9766     0.2237
  255.5000     6.9615     0.2255
  256.0000     6.9618     0.2271
  256.5000     7.0143     0.2292
  257.0000     7.1410     0.2292
  257.5000     7.2881     0.2295
  258.0000     7.5196     0.2298
  258.5000     7.2317     0.2283
  259.0000     7.2255     0.2222
  259.5000     7.5045     0.2216
  260.0000     7.5211     0.2228
  260.5000     7.4728     0.2292
  261.0000     7.4442     0.2317
  261.5000     7.3982     0.2319
  262.0000     7.1000     0.2316
  262.5000     6.9615     0.2312
  263.0000     6.9579     0.2280
  263.5000     7.1274     0.2229
  264.0000     7.2557     0.2209
  264.5000     7.3365     0.2201
  265.0000     7.3462     0.2182
  265.5000     7.2179     0.2121
  266.0000     7.2062     0.2087
  266.5000     7.2004     0.2088
  267.0000     7.1048     0.2137
  267.5000     6.9578     0.2232
  268.0000     6.8626     0.2249
  268.5000     6.8484     0.2270
  269.0000     6.8594     0.2292
  269.5000     7.0073     0.2293
  270.0000     7.5271     0.2264
  270.5000     7.6735     0.2196
  271.0000     7.7103     0.2178
  271.5000     7.7459     0.2152
  272.0000     7.9012     0.2096
  272.5000     7.9721     0.2087
  273.0000     7.8967     0.2082
  273.5000     7.9004     0.2069
  274.0000     7.9130     0.2011
  274.5000     7.8967     0.2060
  275.0000     7.8477     0.2117
  275.5000     7.7770     0.2128
  276.0000     7.5573     0.2139
  276.5000     7.3800     0.2141
  277.0000     7.4760     0.2140
  277.5000     7.6855     0.2128
  278.0000     7.7121     0.2090
  278.5000     7.7157     0.2021
  279.0000     7.6704     0.1949
  279.5000     7.5492     0.1912
  280.0000     7.1636     0.1887
  280.5000     7.0747     0.1872
  281.0000     7.0294     0.1864
  281.5000     7.0155     0.1816
  282.0000     6.8861     0.1800
  282.5000     6.7673     0.1824
  283.0000     6.7278     0.1824
  283.5000     6.8786     0.1818
  284.0000     6.9793     0.1749
  284.5000     7.0485     0.1732
  285.0000     7.2029     0.1828
  285.5000     7.2761     0.1873
  286.0000     7.3305     0.1881
  286.5000     7.4970     0.2046
  287.0000     7.7312     0.2051
  287.5000     7.7213     0.2068
  288.0000     7.3763     0.2096
  288.5000     7.4996     0.2111
  289.0000     7.6593     0.2116
  289.5000     7.6704     0.2121
  290.0000     7.5106     0.2121
  290.5000     7.4799     0.2119
  291.0000     7.4819     0.2100
  291.5000     7.4957     0.2027
  292.0000     7.6170     0.1977
  292.5000     7.6931     0.1944
  293.0000     7.4074     0.1906
  293.5000     7.1353     0.1889
  294.0000     6.9012     0.1896
  294.5000     6.8909     0.1985
  295.0000     6.9819     0.2035
  295.5000     7.2707     0.2065
  296.0000     7.7045     0.2081
  296.5000     7.7911     0.2086
  297.0000     7.6780     0.2088
  297.5000     7.5479     0.2079
  298.0000     7.5097     0.2077
  298.5000     7.5045     0.2067
  299.0000     7.5195     0.2057
  299.5000     7.5996     0.2051
  300.0000     7.6609     0.2129
  300.5000     7.7222     0.2207
  301.0000     7.7232     0.2209
  301.5000     7.7006     0.2211
  302.0000     7.6991     0.2184
  302.5000     7.7490     0.2142
  303.0000     7.8288     0.2139
  303.5000     7.9178     0.2143
  304.0000     7.9067     0.2152
  304.5000     7.8363     0.2166
  305.0000     7.7836     0.2174
  305.5000     7.7383     0.2195
  306.0000     7.7609     0.2266
  306.5000     7.8548     0.2268
  307.0000     7.7117     0.2187
  307.5000     7.4668     0.2217
  308.0000     7.4517     0.2241
  308.5000     7.4668     0.2252
  309.0000     7.4668     0.2254
  309.5000     7.3899     0.2247
  310.0000     7.2179     0.2140
  310.5000     7.1643     0.1999
  311.0000     7.0822     0.1991
  311.5000     7.0509     0.1988
  312.0000     7.0370     0.1981
  312.5000     7.0671     0.1963
  313.0000     7.3054     0.1924
  313.5000     7.3839     0.2024
  314.0000     7.3009     0.2042
  314.5000     7.2858     0.2045
  315.0000     7.2808     0.2069
  315.5000     7.1501     0.2081
  316.0000     7.0088     0.2079
  316.5000     6.8586     0.2050
  317.0000     6.8333     0.2012
  317.5000     6.9144     0.2006
  318.0000     6.9691     0.1997
  318.5000     6.9238     0.1905
  319.0000     6.7725     0.1848
  319.5000     6.7353     0.1881
  320.0000     6.9012     0.2057
  320.5000     7.2632     0.2063
  321.0000     7.1385     0.2080
  321.5000     7.0219     0.2124
  322.0000     7.0294     0.2128
  322.5000     7.0866     0.2005
  323.0000     7.3122     0.1990
  323.5000     7.3612     0.2023
  324.0000     7.3215     0.2025
  324.5000     7.1640     0.2058
  325.0000     6.7956     0.2165
  325.5000     6.7730     0.2165
  326.0000     6.7730     0.2151
  326.5000     6.7730     0.2132
  327.0000     6.8384     0.2135
  327.5000     6.9672     0.2143
  328.0000     7.0445     0.2148
  328.5000     7.0445     0.2165
  329.0000     7.0490     0.2181
  329.5000     7.2104     0.2119
  330.0000     7.3311     0.2111
  330.5000     7.3020     0.2108
  331.0000     7.1498     0.2116
  331.5000     7.1727     0.2138
  332.0000     7.3009     0.2144
  332.5000     7.3537     0.2141
  333.0000     7.3160     0.2114
  333.5000     7.2907     0.2156
  334.0000     7.2039     0.2275
  334.5000     7.1616     0.2269
  335.0000     7.2783     0.2189
  335.5000     7.3249     0.2126
  336.0000     7.3386     0.2081
  336.5000     7.3620     0.2147
  337.0000     7.3979     0.2162
  337.5000     7.5045     0.2165
  338.0000     7.5226     0.2162
  338.5000     7.3218     0.2159
  339.0000     7.1350     0.2156
  339.5000     7.1889     0.2156
  340.0000     7.4165     0.2152
  340.5000     7.3909     0.2144
  341.0000     7.3665     0.2159
  341.5000     7.4238     0.2206
  342.0000     7.5070     0.2245
  342.5000     7.5573     0.2250
  343.0000     7.5822     0.2246
  343.5000     7.6220     0.2243
  344.0000     7.7157     0.2247
  344.5000     7.7930     0.2268
  345.0000     7.9583     0.2279
  345.5000     7.8137     0.2283
  346.0000     7.5905     0.2271
  346.5000     7.3253     0.2257
  347.0000     7.1953     0.2243
  347.5000     7.2073     0.2135
  348.0000     7.2436     0.2127
  348.5000     7.4668     0.2137
  349.0000     7.7976     0.2150
  349.5000     7.8928     0.2169
  350.0000     8.0098     0.2189
  350.5000     8.0197     0.2203
  351.0000     7.9967     0.2213
  351.5000     7.9781     0.2217
  352.0000     7.9118     0.2222
  352.5000     7.6271     0.2225
  353.0000     7.4050     0.2228
  353.5000     7.4032     0.2228
  354.0000     7.5367     0.2216
  354.5000     7.5573     0.2195
  355.0000     7.2707     0.2181
  355.5000     7.1733     0.2171
  356.0000     7.1199     0.2166
  356.5000     7.0615     0.2151
  357.0000     7.0277     0.2131
  357.5000     7.0219     0.2168
  358.0000     7.0219     0.2203
  358.5000     7.0219     0.2222
  359.0000     7.0219     0.2258
  359.5000     7.0170     0.2284
  360.0000     6.9741     0.2350
  360.5000     6.7575     0.2382
  361.0000     6.7202     0.2379
  361.5000     6.7144     0.2348
  362.0000     6.6735     0.2312
  362.5000     6.6222     0.2299
  363.0000     6.5865     0.2293
  363.5000     6.5543     0.2279
  364.0000     6.6297     0.2247
  364.5000     6.7601     0.2173
  365.0000     6.9553     0.2107
  365.5000     6.8786     0.2082
  366.0000     6.7464     0.2084
