~VERSION INFORMATION
 VERS.                2.0:   CWLS LOG ASCII STANDARD - VERSION 2.0
 WRAP.                 NO:   ONE LINE PER DEPTH STEP
~WELL INFORMATION
#MNEM.UNIT      DATA TYPE    INFORMATION
#----------   ------------   ------------------------------
 STRT.F           30.0000:   START DEPTH
 STOP.F          580.0000:   STOP DEPTH
 STEP.F            0.5000:   STEP LENGTH
 NULL.          -999.2500:   NO VALUE
 COMP. FENIX & SCISSON INC:   COMPANY
 WELL.      87 SX 3 #87-3:   WELL
 FLD .             TEAPOT:   FIELD
 LOC .       S3 T38N R78W:   LOCATION
 CNTY.            NATRONA:   COUNTY
 STAT.            WYOMING:   STATE
 CTRY. UNITED STATES OF AMERICA:   COUNTRY
 SRVC.            Unknown:   SERVICE COMPANY
 DATE.        16-NOV-1978:   LOGDATE
 API .       490251074200:   API NUMBER
~CURVE INFORMATION
#MNEM.UNIT       API CODE    CURVE DESCRIPTION
#----------   ------------   ------------------------------
 DEPT.F                  :   
 CALD.IN     45 280 60 00:   CALIPER
 GRD .GAPI   45 310 01 00:   GAMMA RAY FROM DENSITY LOG
 RHOB.G/C3   45 350 01 00:   BULK DENSITY
 DPHI.DEC    45 890 12 00:   DENSITY POROSITY SANDSTONE
 CORR.G/C3   45 356 01 00:   DENSITY CORRECTION
 SFL .OHMM   05 221 01 00:   AMP. SHALLOW FOCUSED LOG RESISTIVITY
 ILD .OHMM   05 120 46 00:   INDUCTION LOG DEEP
 SPR .MV     05 010 01 00:   SPONTANEOUS POTENTIAL FROM RES.
~PARAMETER INFORMATION
#MNEM.UNIT          VALUE    DESCRIPTION
#----------   ------------   ------------------------------
 PD  .                 GL:   PERMANENT DATUM
 EPD .F              5120:   ELEVATION PERMANENT DATUM
 LMF .                 KB:   LOG MEASURED FROM
 DAPD.F                 4:   FEET ABOVE PERMANENT DATUM
 DMF .                 KB:   DRILLING MEASURED FROM
 EKB .F              5124:   KELLING BUSHING
 EGL .F              5120:   GROUND LEVEL
 DATE.           11-16-78:   RUN DATE
 RUN .                  1:   RUN NUMBER
 DD  .F               580:   DEPTH DRILLER
 DL  .F               574:   DEPTH LOGGER
 BLI .F               574:   BOTTOM LOG INTERVAL
 TLI .F                50:   TOP LOG INTERVAL
 CS  .IN            8.625:   CASING SIZE
 CBD .F                50:   CASING BOTTOM DRILLER
 CBL .F                50:   CASING BOTTOM LOGGER
 BS  .IN            7.875:   BIT SIZE
 BSD .F               580:   BIT SIZE AT DEPTH
 DFT .            SEA MUD:   DRILLING FLUID TYPE
 DFD .                8.7:   DRILLING FLUID DENSITY
 DFV .                 54:   DRILLING FLUID VISCOSITY
 DFPH.                9.8:   DRILLING FLUID PH
 MSS .           FLOWLINE:   MUD SAMPLE SOURCE
 RMS .OHMM            1.1:   RESISTIVITY MUD SAMPLE
 MST .F                56:   MUD SAMPLE TEMPERATURE
 RMF .OHMM             .9:   RESISTIVITY MUD FILTRATE SAMPLE
 MFST.F                60:   MUD FILTRATE SAMPLE TEMPERATURE
 RMC .OHMM            .95:   RESISTIVITY MUD CAKE
 MCST.F                60:   MUD CAKE SAMPLE TEMPERATURE
 MFSS.           MEASURED:   MUD FILTRATE SAMPLE SOURCE
 MCSS.           MEASURED:   MUD CAKE SAMPLE SOURCE
 RMB .OHMM            .93:   RESISTIVITY MUD AT BHT
 BHT .F                66:   BOTTOM HOLE TEMPERATURE
 TCS .HRS               1:   TIME CURCULATED STOPPED
 MRT .F                66:   MAXIMUM RECORDED TEMPERATURE
 LUN .               2958:   LOGGING UNIT NUMBER
 LUL .                CPR:   LOGGING UNIT LOCATION
 ENGI.             MILLER:   RECORDING ENGINEER
 WITN.           DINSMORE:   WITNESSED BY
 CLNT.            A2DTECH:   CLIENT CODE
 ORIG.       2", 5" PRINT:   ORIGIN OF DATA
 UWI .       490251074200:   UNIQUE WELL ID
 DICO. A2D Technologies, Inc.:   DIGITIZING COMPANY
~OTHER INFORMATION
~A   DEPT     CALD         GRD      RHOB       DPHI       CORR        SFL        ILD        SPR   
# ...
  435.0000     7.8849    83.6133     2.4672     0.1369     0.0135    13.7731    12.5636    -9.8216
  435.5000     7.8872    84.6092     2.4557     0.1425     0.0135    13.7732    12.5046    -9.8595
  436.0000     7.8896    85.6011     2.4501     0.1461     0.0135    13.7723    12.4325   -10.0455
  436.5000     7.8976    86.5973     2.4513     0.1439     0.0135    13.7446    12.3609   -10.2267
  437.0000     7.9166    87.5830     2.4527     0.1435     0.0133    13.7157    12.2897   -10.4081
  437.5000     7.9355    87.5006     2.4487     0.1469     0.0127    13.6872    12.2188   -10.5909
  438.0000     7.9543    86.0549     2.4426     0.1513     0.0121    13.6578    12.1484   -10.5661
  438.5000     7.9714    84.2388     2.4365     0.1556     0.0115    13.5524    12.0784   -10.5076
  439.0000     7.9755    82.4429     2.4304     0.1599     0.0117    13.3958    12.0088   -10.4455
  439.5000     7.9799    81.8806     2.4259     0.1605     0.0120    13.2419    11.9396   -10.2357
  440.0000     7.9844    82.2001     2.4298     0.1576     0.0122    13.0897    11.8479    -9.8364
  440.5000     7.9891    84.7914     2.4351     0.1545     0.0124    12.9124    11.6761    -9.4409
  441.0000     7.9895    88.1931     2.4405     0.1515     0.0127    12.9131    11.5069    -9.2426
  441.5000     7.9887    91.6965     2.4437     0.1501     0.0129    12.9144    11.3401    -9.2823
  442.0000     7.9878    91.9505     2.4460     0.1489     0.0131    12.7698    11.1757    -9.3201
  442.5000     7.9870    87.5182     2.4488     0.1460     0.0134    12.6008    11.0138    -9.3586
  443.0000     7.9861    85.3099     2.4557     0.1414     0.0127    12.4336    10.8541    -9.3968
  443.5000     7.9853    86.3534     2.4626     0.1367     0.0112    12.2687    10.6968    -9.4351
  444.0000     7.9844    87.5659     2.4696     0.1320     0.0096    12.1059    10.5647    -9.4733
  444.5000     7.9836    87.7242     2.4720     0.1323     0.0081    11.9452    10.4466    -9.5115
  445.0000     7.9828    86.9003     2.4620     0.1391     0.0066    11.7868    10.3297    -9.5498
  445.5000     7.9819    84.1774     2.4530     0.1431     0.0055    11.6304    10.2142    -9.5880
  446.0000     7.9811    85.2421     2.4571     0.1401     0.0055    11.4761    10.1000    -9.6262
  446.5000     7.9802    87.8490     2.4629     0.1371     0.0055    11.1763     9.9870    -9.6644
  447.0000     7.9794    90.4349     2.4672     0.1352     0.0055    10.8628     9.8753    -9.7027
  447.5000     7.9786    93.1082     2.4629     0.1392     0.0055    10.5581     9.6148    -9.7410
  448.0000     7.9777    93.7690     2.4567     0.1436     0.0055    10.2619     8.9937    -9.7797
  448.5000     7.9769    93.1046     2.4504     0.1474     0.0055     9.9740     8.3675    -9.8199
  449.0000     7.9760    92.6659     2.4451     0.1494     0.0055     9.5527     7.7407    -9.7359
  449.5000     7.9752    92.4158     2.4419     0.1514     0.0067     9.0887     7.1609    -9.6396
  450.0000     7.9744    92.3920     2.4416     0.1519     0.0083     8.6384     6.6245    -9.5430
  450.5000     7.9735    95.6128     2.4465     0.1467     0.0100     8.1354     6.4125    -9.4468
  451.0000     7.9727    99.3697     2.4597     0.1404     0.0117     7.7096     6.4481    -9.3505
  451.5000     7.9718   100.3725     2.4762     0.1296     0.0134     7.7533     6.5193    -9.2502
  452.0000     7.9710    98.2428     2.4932     0.1200     0.0102     7.8601     6.5913    -9.2264
  452.5000     7.9702    92.8748     2.4937     0.1208     0.0084     8.1476     6.6641    -9.2259
  453.0000     7.9693    87.4737     2.4898     0.1235     0.0119     9.9617     6.9295    -9.2261
  453.5000     7.9685    83.7486     2.4859     0.1249     0.0153    10.4548     7.6665    -9.2262
  454.0000     7.9677    86.8050     2.4846     0.1249     0.0159    10.9766     8.4819    -9.2262
  454.5000     7.9668    91.2943     2.4873     0.1221     0.0163    11.3624     9.3799    -9.2261
  455.0000     7.9660    93.2792     2.4919     0.1192     0.0168    11.5619    10.2794    -9.2153
  455.5000     7.9651    94.9861     2.4934     0.1195     0.0172    11.5619    10.3583    -9.1794
  456.0000     7.9643    97.5892     2.4939     0.1199     0.0169    11.5950    10.4525    -9.1439
  456.5000     7.9635   100.2823     2.4930     0.1204     0.0148    11.8656    10.5451    -9.1083
  457.0000     7.9626   100.8210     2.4880     0.1251     0.0113    12.1426    10.6393    -9.0726
  457.5000     7.9618   100.3321     2.4826     0.1296     0.0053    12.3553    10.7399    -9.0332
  458.0000     7.9609   100.2879     2.4807     0.1279     0.0050    12.4268    10.9032    -9.1578
  458.5000     7.9601    99.7299     2.4818     0.1262     0.0045    12.7117    11.0807    -9.3345
  459.0000     7.9593    97.9589     2.4830     0.1244     0.0041    13.0598    11.2611    -9.5124
  459.5000     7.9584    96.1479     2.4842     0.1236     0.0036    13.2749    11.4445    -9.6906
  460.0000     7.9576    95.8231     2.4863     0.1232     0.0032    13.5271    11.6308    -9.8680
  460.5000     7.9567    99.2075     2.4903     0.1217     0.0027    13.8012    11.8202   -10.0205
  461.0000     7.9559    99.3002     2.4942     0.1202     0.0022    14.0809    12.0126    -9.9899
  461.5000     7.9551    97.9792     2.4966     0.1186     0.0018    14.3662    12.2082    -9.9623
  462.0000     7.9542    96.5546     2.4978     0.1176     0.0013    14.5649    12.4070    -9.9354
  462.5000     7.9534    95.0527     2.4974     0.1200     0.0009    14.5927    12.6090    -9.9086
  463.0000     7.9525    93.2387     2.4901     0.1233     0.0004    14.6189    12.8143    -9.8817
  463.5000     7.9517    91.4067     2.4861     0.1265     0.0000    14.6456    13.0326    -9.8548
  464.0000     7.9509    89.5666     2.4818     0.1283    -0.0005    14.6729    13.0565    -9.8280
  464.5000     7.9490    87.2983     2.4775     0.1289     0.0002    14.8119    13.0882    -9.8011
  465.0000     7.9464    82.8080     2.4732     0.1317     0.0009    15.1075    13.1200    -9.7742
  465.5000     7.9438    79.9732     2.4689     0.1364     0.0020    15.1433    13.1519    -9.7474
  466.0000     7.9412    84.7650     2.4675     0.1359     0.0050    15.1792    13.1839    -9.7205
  466.5000     7.9386    89.1874     2.4683     0.1347     0.0080    15.2152    13.2160    -9.6935
  467.0000     7.9360    89.5011     2.4689     0.1335     0.0110    15.2512    13.2480    -9.6666
  467.5000     7.9334    90.1142     2.4654     0.1358     0.0150    15.2872    13.2747    -9.6407
  468.0000     7.9308    91.5429     2.4616     0.1387     0.0246    15.3230    13.2004    -9.6660
  468.5000     7.9282    92.9218     2.4604     0.1353     0.0342    15.3599    13.1371    -9.7867
  469.0000     7.9255    92.6981     2.4708     0.1303     0.0437    15.3826    13.0742    -9.9058
  469.5000     7.9229    90.9239     2.4803     0.1268     0.0512    15.0606    13.0114   -10.0251
  470.0000     7.9203    90.4741     2.4764     0.1324     0.0446    14.8308    12.9491   -10.1444
  470.5000     7.9177    89.9356     2.4694     0.1384     0.0314    14.6825    12.8870   -10.2778
  471.0000     7.9151    89.4274     2.4654     0.1364     0.0180    14.6619    12.8252   -10.4353
  471.5000     7.9125    89.8221     2.4707     0.1314     0.0152    14.6413    12.7637   -10.5915
  472.0000     7.9088    91.2668     2.4786     0.1264     0.0147    14.6210    12.7025   -10.7520
  472.5000     7.8968    92.7559     2.4850     0.1244     0.0144    14.6007    12.6220   -10.6227
  473.0000     7.8849    93.7325     2.4833     0.1262     0.0140    14.5801    12.5284   -10.3062
  473.5000     7.8729    93.7883     2.4788     0.1284     0.0136    14.5613    12.4355    -9.9867
  474.0000     7.8610    94.3665     2.4771     0.1307     0.0132    14.3698    12.3433    -9.6664
  474.5000     7.8512    94.3255     2.4778     0.1289     0.0128    14.1402    12.2517    -9.3454
  475.0000     7.8512    93.1187     2.4818     0.1251     0.0124    13.9133    12.1609    -9.0365
