~VERSION INFORMATION
 VERS.                2.0:   CWLS LOG ASCII STANDARD - VERSION 2.0
 WRAP.                 NO:   ONE LINE PER DEPTH STEP
~WELL INFORMATION
#MNEM.UNIT      DATA TYPE    INFORMATION
#----------   ------------   ------------------------------
 STRT.F           16.0000:   START DEPTH
 STOP.F          634.0000:   STOP DEPTH
 STEP.F            0.5000:   STEP LENGTH
 NULL.          -999.2500:   NO VALUE
 COMP. LAWRENCE/ALLISON INC:   COMPANY
 WELL.    14-15 SX #11-11:   WELL
 FLD .             TEAPOT:   FIELD
 LOC .      S11 T38N R78W:   LOCATION
 CNTY.            NATRONA:   COUNTY
 STAT.            WYOMING:   STATE
 CTRY. UNITED STATES OF AMERICA:   COUNTRY
 SRVC.      Dresser Atlas:   SERVICE COMPANY
 DATE.        06-JAN-1985:   LOGDATE
 API .       490251101700:   API NUMBER
~CURVE INFORMATION
#MNEM.UNIT       API CODE    CURVE DESCRIPTION
#----------   ------------   ------------------------------
 DEPT.F                  :   
 SPR .MV     11 010 01 00:   SPONTANEOUS POTENTIAL FROM RES.
 RD  .OHMM   11 220 10 00:   RESISTIVITY DEEP
 RS  .OHMM   11 220 09 00:   RESISTIVITY SHALLOW
 RMLL.OHMM   20 270 04 00:   RESISTIVITY MICROLATEROLOG
 AC  .US/F   60 520 00 00:   ACCOUSTIC SONIC
 CNC .DEC    42 890 03 00:   COMPENSATED NEUTRON POROSITY SANDSTONE
 PORD.DEC    45 890 12 00:   POROSITY DENSITY SANDSTONE
 GRD .GAPI   45 310 01 00:   GAMMA RAY FROM DENSITY LOG
 CALD.IN     45 280 60 00:   CALIPER FROM DENSITY
 CORR.G/C3   45 356 01 00:   DENSITY CORRECTION
 DEN .G/C3   45 350 01 00:   COMPENSATED BULK DENSTIY
~PARAMETER INFORMATION
#MNEM.UNIT          VALUE    DESCRIPTION
#----------   ------------   ------------------------------
 PD  .                 GL:   PERMANENT DATUM
 EPD .F            5196.8:   ELEVATION PERMANENT DATUM
 LMF .                 KB:   LOG MEASURED FROM
 DMF .                 KB:   DRILLING MEASURED FROM
 EKB .F            5196.8:   KELLING BUSHING
 EGL .F            5196.8:   GROUND LEVEL
 DATE.        06-JAN-1985:   RUN DATE
 RUN .                  1:   RUN NUMBER
 DD  .F               650:   DEPTH DRILLER
 DL  .F               636:   DEPTH LOGGER
 BLI .F               634:   BOTTOM LOG INTERVAL
 CS  .IN            8.625:   CASING SIZE
 CBD .F                20:   CASING BOTTOM DRILLER
 CBL .F                22:   CASING BOTTOM LOGGER
 BS  .IN             6.25:   BIT SIZE
 BSD .F               650:   BIT SIZE AT DEPTH
 DFT .        KCL POLYMER:   DRILLING FLUID TYPE
 RMS .OHMM           .105:   RESISTIVITY MUD SAMPLE
 MST .F                72:   MUD SAMPLE TEMPERATURE
 RMF .OHMM            .08:   RESISTIVITY MUD FILTRATE SAMPLE
 MFST.F                72:   MUD FILTRATE SAMPLE TEMPERATURE
 RMC .OHMM            .13:   RESISTIVITY MUD CAKE
 MCST.F                72:   MUD CAKE SAMPLE TEMPERATURE
 MFSS.               CALC:   MUD FILTRATE SAMPLE SOURCE
 MCSS.               CALC:   MUD CAKE SAMPLE SOURCE
 TCS .HRS               3:   TIME CURCULATED STOPPED
 LUN .               6307:   LOGGING UNIT NUMBER
 LUL .               GLTE:   LOGGING UNIT LOCATION
 ENGI.               MACK:   RECORDING ENGINEER
 WITN.               PAGE:   WITNESSED BY
 CLNT.            A2DTECH:   CLIENT CODE
 ORIG.           5" PRINT:   ORIGIN OF DATA
 UWI .       490251101700:   UNIQUE WELL ID
 DICO. A2D Technologies, Inc.:   DIGITIZING COMPANY
 R1  . POROSITY WITH SANDSTONE:   REMARKS 1
~OTHER INFORMATION
~A   DEPT      SPR         RD         RS       RMLL         AC        CNC       PORD        GRD       CALD       CORR        DEN   
# ...
  412.5000   -59.3656    28.2408    28.0456     7.0957   117.4373     0.2752     0.2106    73.9493     6.3951     0.1706     2.3282
  413.0000   -59.2145    28.2389    28.8331     7.3429   119.1093     0.2828     0.2164    73.8048     6.3939     0.1480     2.3146
  413.5000   -58.7613    28.8311    30.0556     6.4595   117.9561     0.2897     0.2227    72.4546     6.3927     0.1406     2.3033
  414.0000   -58.6103    29.8458    31.1140     4.6734   110.8155     0.2846     0.2315    71.5536     6.3915     0.1618     2.2799
  414.5000   -58.1571    30.6833    31.7660     4.3337   107.0583     0.2737     0.2496    72.9265     6.3751     0.1650     2.2587
  415.0000   -58.0060    30.9235    32.2076     4.4309   105.7072     0.2756     0.2454    75.2048     6.4040     0.1575     2.2625
  415.5000   -58.4607    29.8397    31.3241     5.0968   105.1831     0.2783     0.2394    75.0603     6.4332     0.1244     2.2891
  416.0000   -58.6103    28.8207    30.2544     5.8354   104.7342     0.2816     0.2035    76.1307     6.5232     0.0747     2.3414
  416.5000   -58.7613    28.0302    29.4246     5.5339   104.3605     0.2840     0.1616    78.7116     6.5676     0.0492     2.4088
  417.0000   -58.6103    26.8760    28.6123     4.9197   103.2350     0.2864     0.1499    80.5360     6.5819     0.0432     2.4293
  417.5000   -58.4592    25.7763    27.8198     4.5369   101.6582     0.2877     0.1638    80.0912     6.5959     0.0584     2.4225
  418.0000   -58.1571    24.8710    27.0294     4.3205   100.3071     0.2831     0.1750    76.9233     6.5944     0.1551     2.3824
  418.5000   -58.0060    23.8665    26.0919     4.1716    99.5575     0.2872     0.2019    77.0836     6.5932     0.2277     2.3340
  419.0000   -57.8550    23.0748    25.0774     4.0608    98.2815     0.2937     0.2220    78.1516     6.5920     0.2293     2.3098
  419.5000   -57.8550    22.5978    24.2207     3.9934    97.1560     0.2940     0.2063    78.9171     6.5908     0.1706     2.3243
  420.0000   -58.1571    22.2850    23.5564     3.9473    96.3311     0.2919     0.1897    78.7749     6.6200     0.0681     2.3682
  420.5000   -58.7613    22.1294    22.9103     4.2873    95.8071     0.2805     0.1783    78.1788     6.6340     0.0590     2.3834
  421.0000   -59.3656    21.8231    22.4370     4.5929    95.3582     0.2748     0.1663    78.1878     6.6328     0.0682     2.4024
  421.5000   -59.8187    21.6708    21.9735     4.9207    95.2847     0.2747     0.1627    78.9533     6.6316     0.0819     2.4077
  422.0000   -60.4230    21.3708    21.8201     4.6860    95.5130     0.2727     0.1600    82.5932     6.6456     0.0911     2.4138
  422.5000   -60.4230    21.2216    21.5181     4.4938    95.3649     0.2688     0.1582    84.4177     6.6444     0.1018     2.4169
  423.0000   -60.2719    21.0735    21.2202     4.3096    94.4649     0.2673     0.1619    83.6703     6.6432     0.1079     2.4162
  423.5000   -59.9698    21.0721    20.9264     4.3380    92.5874     0.2754     0.1718    80.9562     6.6419     0.0899     2.4049
  424.0000   -59.8187    20.7804    20.6368     4.4582    90.7100     0.2736     0.1758    81.8730     6.6405     0.0839     2.3837
  424.5000   -59.5166    20.6353    20.2104     4.6456    90.2605     0.2607     0.1743    86.4206     6.6393     0.0961     2.3868
  425.0000   -59.3656    20.6339    20.0694     4.7748    90.5641     0.2513     0.1656    91.5734     6.6381     0.1189     2.4020
  425.5000   -59.3656    20.6325    20.0680     4.5471    92.2957     0.2486     0.1544    93.2466     6.6369     0.1386     2.4156
  426.0000   -59.9698    20.7747    20.2066     4.2123    93.8769     0.2507     0.1379    92.3278     6.6357     0.1432     2.4528
  426.5000   -60.4230    21.2104    20.6297     3.9841    94.4049     0.2589     0.1313    88.4055     6.6345     0.1026     2.4604
  427.0000   -61.0272    21.9569    20.9164     4.0104    89.5204     0.2625     0.1346    83.0892     6.6488     0.0861     2.4589
  427.5000   -61.1782    22.5730    21.2071     4.1501    85.4625     0.2646     0.1440    81.7850     6.6628     0.0786     2.4491
  428.0000   -61.3434    23.0460    21.5018     4.2948    76.1340     0.2649     0.1590    83.3313     6.6768     0.0742     2.4212
  428.5000   -61.6314    22.4139    21.2042     4.4753    69.3770     0.2607     0.1714    83.2879     6.6753     0.0864     2.3970
  429.0000   -61.6314    22.1036    21.0562     4.5361    71.9356     0.2577     0.1769    81.9635     6.6741     0.1212     2.3871
  429.5000   -61.6314    21.9493    20.7609     4.7268    81.2612     0.2635     0.1847    81.9909     6.6729     0.1515     2.3710
  430.0000   -61.6314    21.9478    20.4772     5.2783    94.4213     0.2810     0.1908    84.5032     6.6717     0.1516     2.3592
  430.5000   -61.6314    21.9626    20.3343     5.8948    97.5815     0.2906     0.1911    86.4448     6.6705     0.1457     2.3625
  431.0000   -61.6314    22.1201    20.3122     5.1663    98.8619     0.2879     0.1815    87.4463     6.6541     0.1337     2.3755
  431.5000   -61.6314    22.2498    20.1909     4.6233    98.7889     0.2771     0.1776    88.4156     6.6529     0.1218     2.3814
  432.0000   -61.6314    21.9414    20.0497     4.5267    98.6403     0.2731     0.1754    90.6314     6.6517     0.1173     2.3871
  432.5000   -61.6314    21.4882    20.0484     4.6205    99.3949     0.2810     0.1682    91.7091     6.6505     0.1098     2.3972
  433.0000   -61.6314    21.0442    19.7708     4.6185    99.9235     0.2867     0.1636    89.7537     6.6492     0.1037     2.4103
  433.5000   -61.7825    20.4670    19.3624     4.4291   100.2265     0.2876     0.1610    84.4677     6.6478     0.0963     2.4133
  434.0000   -61.9335    20.0442    18.9624     4.2475    99.3265     0.2783     0.1614    82.6591     6.6621     0.0934     2.4119
  434.5000   -62.0846    19.6301    18.5706     4.5503    98.1257     0.2693     0.1659    83.4268     6.6606     0.0922     2.4104
  435.0000   -62.0846    19.4931    18.4410     4.8746    97.8267     0.2675     0.1686    86.9154     6.6594     0.0923     2.4006
  435.5000   -62.0846    19.4918    18.3123     5.1503    97.6785     0.2654     0.1747    93.2785     6.6582     0.0970     2.3908
  436.0000   -61.9335    19.3557    18.3111     5.2207    97.8317     0.2651     0.1819    95.5568     6.6570     0.1242     2.3803
  436.5000   -61.9335    19.4894    18.1833     5.0063    97.4580     0.2657     0.1874    94.9607     6.6558     0.1258     2.3652
  437.0000   -61.7825    19.4878    18.0563     4.9705    97.0843     0.2663     0.1877    92.2466     6.6546     0.1109     2.3667
  437.5000   -61.7825    19.4864    18.0551     5.0725    96.9361     0.2657     0.1844    91.3457     6.6534     0.0898     2.3759
  438.0000   -61.7825    19.3504    17.9291     5.2858    97.2392     0.2603     0.1757    91.6596     6.6522     0.0673     2.3850
  438.5000   -61.9335    19.2154    17.9278     5.3952    97.6926     0.2600     0.1742    90.6096     6.6510     0.0493     2.3858
  439.0000   -62.0846    19.0812    17.8027     4.8612    98.1459     0.2639     0.1742    85.9288     6.6498     0.0403     2.3881
  439.5000   -62.2356    18.9481    17.6785     4.3804    98.6745     0.2670     0.1736    85.0279     6.6486     0.0510     2.3927
  440.0000   -62.2356    19.0787    17.5551     4.2008    98.7519     0.2808     0.1649    86.4008     6.6474     0.0798     2.4041
  440.5000   -62.2356    19.0773    17.4325     4.2285    98.0023     0.2845     0.1676    86.1072     6.6462     0.0920     2.4049
  441.0000   -62.3867    19.2088    17.4313     4.4677    97.4782     0.2839     0.1740    83.9983     6.6450     0.0890     2.3951
  441.5000   -62.3867    19.2074    17.4301     4.7203    97.4053     0.2781     0.1770    80.5277     6.6438     0.0876     2.3830
  442.0000   -62.3867    19.2061    17.4289     4.8516    97.3313     0.2703     0.1752    79.1730     6.6426     0.0968     2.3838
  442.5000   -62.3867    19.3385    17.4277     4.6850    97.1065     0.2649     0.1713    86.4460     6.6411     0.1045     2.3930
