~VERSION INFORMATION
 VERS.                2.0:   CWLS LOG ASCII STANDARD - VERSION 2.0
 WRAP.                 NO:   ONE LINE PER DEPTH STEP
~WELL INFORMATION
#MNEM.UNIT      DATA TYPE    INFORMATION
#----------   ------------   ------------------------------
 STRT.F            0.0000:   START DEPTH
 STOP.F          416.0000:   STOP DEPTH
 STEP.F            0.5000:   STEP LENGTH
 NULL.          -999.2500:   NO VALUE
 COMP. DEPARTMENT OF ENERGY:   COMPANY
 WELL. NPR 3 #55-61 SX 3 C1:   WELL
 FLD . TEAPOT NAVAL RESERVE:   FIELD
 LOC .       S3 T38N R78W:   LOCATION
 CNTY.            NATRONA:   COUNTY
 STAT.            WYOMING:   STATE
 CTRY. UNITED STATES OF AMERICA:   COUNTRY
 SRVC.      Dresser Atlas:   SERVICE COMPANY
 DATE.        26-JUN-1985:   LOGDATE
 API .       490251134400:   API NUMBER
~CURVE INFORMATION
#MNEM.UNIT       API CODE    CURVE DESCRIPTION
#----------   ------------   ------------------------------
 DEPT.F                  :   
 RILD.OHMM   07 120 46 00:   INDUCTION LOG DEEP RESISTIVITY
 RILM.OHMM   07 120 44 00:   INDUCTION LOG MEDIUM RESISTIVITY
 GRD .GAPI   45 310 01 00:   GAMMA RAY FROM DENSITY LOG
 NPHI.DEC    42 890 03 00:   NEUTRON POROSITY SANDSTONE
~PARAMETER INFORMATION
#MNEM.UNIT          VALUE    DESCRIPTION
#----------   ------------   ------------------------------
 PD  .                 GL:   PERMANENT DATUM
 EPD .F            5160.8:   ELEVATION PERMANENT DATUM
 LMF .                 GL:   LOG MEASURED FROM
 DMF .                 GL:   DRILLING MEASURED FROM
 EGL .F            5160.8:   GROUND LEVEL
 DATE.        26-JUN-1985:   RUN DATE
 RUN .                  1:   RUN NUMBER
 DD  .F               420:   DEPTH DRILLER
 DL  .F               420:   DEPTH LOGGER
 BLI .F               416:   BOTTOM LOG INTERVAL
 CS  .IN            8.625:   CASING SIZE
 CBD .F                79:   CASING BOTTOM DRILLER
 CBL .F                79:   CASING BOTTOM LOGGER
 BS  .IN            4.875:   BIT SIZE
 BSD .F               420:   BIT SIZE AT DEPTH
 DFT .           FOAM AIR:   DRILLING FLUID TYPE
 TCS .HRS               2:   TIME CURCULATED STOPPED
 MRT .F                60:   MAXIMUM RECORDED TEMPERATURE
 LUN .            HL 6274:   LOGGING UNIT NUMBER
 LUL .           GILLETTE:   LOGGING UNIT LOCATION
 ENGI.             RAUTIO:   RECORDING ENGINEER
 WITN.             TAYLOR:   WITNESSED BY
 CLNT.            A2DTECH:   CLIENT CODE
 ORIG.           5" PRINT:   ORIGIN OF DATA
 UWI .       490251134400:   UNIQUE WELL ID
 DICO. A2D Technologies, Inc.:   DIGITIZING COMPANY
~OTHER INFORMATION
~A    DEPT    RILD       RILM         GRD      NPHI   
# ...
   73.0000  -999.2500  -999.2500    92.3991     0.2440
   73.5000  -999.2500  -999.2500    96.3505     0.2440
   74.0000  -999.2500  -999.2500    98.4649     0.2428
   74.5000  -999.2500  -999.2500    96.9661     0.2416
   75.0000  -999.2500  -999.2500    97.2829     0.2416
   75.5000  -999.2500  -999.2500    98.5032     0.2409
   76.0000  -999.2500  -999.2500    94.5874     0.2379
   76.5000  -999.2500  -999.2500    90.0675     0.2376
   77.0000  -999.2500  -999.2500    86.4539     0.2391
   77.5000  -999.2500  -999.2500    84.9547     0.2409
   78.0000  -999.2500  -999.2500    85.8732     0.2409
   78.5000  -999.2500  -999.2500    87.6979     0.2397
   79.0000     1.3514  9813.6230    91.6399     0.2355
   79.5000     1.3410  9813.6230   102.2256     0.2282
   80.0000     2.1365  9813.6230   121.8749     0.1921
   80.5000     3.2649    63.7971   129.1374     0.1519
   81.0000     3.2887    56.6916   132.1703     0.1222
   81.5000     3.4298     3.3018   134.2969     0.1143
   82.0000   233.7284     3.5318   136.1214     0.1082
   82.5000  9881.8193     4.4594   134.9247     0.1025
   83.0000  9952.6211     4.9527   128.5559     0.0998
   83.5000  9954.2832     5.6561   124.5881     0.1037
   84.0000    23.2674     9.1537   131.0354     0.1046
   84.5000    11.3484    12.7231   138.2980     0.1033
   85.0000     9.5343    12.8016   142.8414     0.1003
   85.5000    10.2965    12.2812   144.0587     0.0973
   86.0000    10.8890    12.1142   138.6354     0.0931
   86.5000    10.4450    12.7254   130.4901     0.0873
   87.0000     9.5415    13.7443   121.7405     0.0718
   87.5000     8.6556    11.4703   116.6163     0.0628
   88.0000     9.8833     9.5052   114.8154     0.0531
   88.5000     9.2192     9.0555   121.4766     0.0664
   89.0000     8.2219     9.1219   125.1138     0.0762
   89.5000     7.6401     9.2530   128.7509     0.0866
   90.0000     7.4832     8.8159   132.0860     0.1003
   90.5000     7.6427     8.5763   135.1189     0.1051
   91.0000     7.9705     8.4016   138.7560     0.1057
   91.5000     8.1973     8.3453   135.1424     0.1009
   92.0000     8.1990     8.3488   131.5288     0.0978
   92.5000     8.2004     8.3589   128.5194     0.0966
   93.0000     8.2018     8.4724   133.2850     0.0966
   93.5000     8.1458     8.4752   140.9326     0.0969
   94.0000     8.2045     8.4780   141.2465     0.0966
   94.5000     8.2102     8.4808   137.6329     0.0923
   95.0000     8.3228     8.4837   137.3396     0.0935
   95.5000     8.4411     8.4872   138.5628     0.0954
   96.0000     8.5611     8.6694   139.7801     0.0984
   96.5000     8.6827     8.8758   132.8462     0.0957
   97.0000     8.8061     9.1091   130.1228     0.0950
   97.5000     8.8693     9.3048   128.6401     0.0950
   98.0000     8.9957     9.3737   128.6548     0.0935
   98.5000     9.1235     9.5085   128.3645     0.0905
   99.0000     9.1889     9.5782   127.4699     0.0877
   99.5000     9.3195     9.7840   126.2703     0.0859
  100.0000     9.4519     9.9246   129.3061     0.0844
  100.5000     9.7212    10.1386   133.5475     0.0820
  101.0000     9.8594    10.4288   129.9339     0.0802
  101.5000    10.2109    10.7274   125.4139     0.0789
  102.0000    10.5749    10.9577   121.4421     0.0765
  102.5000    10.8758    11.2714   119.6973     0.0711
  103.0000    11.1852    11.5257   120.9205     0.0644
  103.5000    11.3447    11.7617   120.9322     0.0595
  104.0000    11.5059    11.9309   120.9440     0.0558
  104.5000    11.6694    12.1024   121.5600     0.0567
  105.0000    11.7530    12.1911   124.2908     0.0588
  105.5000    11.8372    12.1105   127.6258     0.0606
  106.0000    11.8392    12.0303   126.4673     0.0617
  106.5000    11.8417    11.9507   121.6481     0.0623
  107.0000    11.8436    11.8716   117.7353     0.0617
  107.5000    11.7628    11.7939   117.1421     0.0611
  108.0000    11.6830    11.7980   116.2541     0.0611
  108.5000    11.6043    11.6385   114.7341     0.0604
  109.0000    11.5256    11.5624   114.8701     0.0601
  109.5000    11.5280    11.4849   119.0208     0.0598
  110.0000    11.4498    11.4897   120.8481     0.0646
  110.5000    11.3717    11.4936   122.0712     0.0682
  111.0000    11.2166    11.4983   123.5965     0.0713
  111.5000    11.2184    11.5021   124.2117     0.0724
  112.0000    11.2993    11.5060   120.3026     0.0700
  112.5000    11.3802    11.6714   117.9003     0.0672
  113.0000    11.4847    11.6456   118.2538     0.0633
  113.5000    11.5329    11.6080   119.7460     0.0596
  114.0000    11.5345    11.5925   119.7607     0.0569
  114.5000    11.5361    11.5935   118.2647     0.0541
  115.0000    11.3779    11.4337   114.3519     0.0501
  115.5000    11.0668    11.2762   111.9497     0.0523
  116.0000    10.8392    11.0980   112.5686     0.0553
  116.5000    10.6747    10.9673   119.5319     0.0586
  117.0000    10.4708    10.7413   125.2870     0.0619
  117.5000    10.3272    10.6672   124.0929     0.0646
  118.0000    10.2568    10.5204   123.8055     0.0679
  118.5000    10.1866    10.3754   124.7301     0.0727
  119.0000    10.1884    10.2324   124.1406     0.0752
  119.5000    10.1898    10.2331   121.4362     0.0739
  120.0000    10.1912    10.1627   117.5234     0.0690
  120.5000    10.1926    10.1634   114.5169     0.0681
  121.0000    10.1940    10.0935   114.5438     0.0711
  121.5000    10.1206    10.0944   115.1994     0.0732
  122.0000    10.0556    10.0247   115.1651     0.0750
  122.5000     9.9871     9.9558   113.9750     0.0753
  123.0000     9.9888     9.9566   113.3818     0.0727
  123.5000     9.9204     9.9573   113.4001     0.0661
  124.0000     9.9915     9.9580   116.4359     0.0646
  124.5000     9.8545     9.8895   120.6802     0.0652
  125.0000     9.6518     9.6854   123.4139     0.0673
  125.5000     9.5192     9.5518   124.0695     0.0700
  126.0000     9.3886     9.4202   125.5617     0.0736
  126.5000     9.2599     9.4210   123.7637     0.0763
  127.0000     9.2615     9.4216   118.3403     0.0772
  127.5000     9.2628     9.4223   116.5386     0.0766
  128.0000     9.2640     9.4229   122.5992     0.0763
  128.5000     9.3954     9.4236   122.3118     0.0771
  129.0000     9.4629     9.4339   119.6074     0.0759
  129.5000     9.5967     9.5574   116.6009     0.0744
  130.0000     9.5313     9.4916   118.1298     0.0750
  130.5000     9.4006     9.1671   118.4466     0.0718
  131.0000     9.0801     8.7310   116.3465     0.0628
  131.5000     8.7702     8.4325   112.7358     0.0570
  132.0000     8.4120     8.2011   110.3335     0.0552
  132.5000     8.0685     7.9761   115.4841     0.0739
  133.0000     7.8474     7.8115   119.4263     0.0860
  133.5000     7.6328     7.6504   121.2659     0.0909
  134.0000     7.5806     7.5976   122.5740     0.0945
  134.5000     7.5290     7.4929   127.6310     0.0975
  135.0000     7.5303     7.4935   130.3647     0.0968
  135.5000     7.5840     7.5465   128.8688     0.0929
  136.0000     7.6381     7.6530   125.8624     0.0883
  136.5000     7.6926     7.8178   122.8559     0.0868
  137.0000     7.8563     7.9810   124.0790     0.0877
  137.5000     7.9677     8.0937   126.5106     0.0895
  138.0000     8.0890     8.0943   129.6193     0.0882
  138.5000     8.2529     8.0949   131.6759     0.0857
  139.0000     8.3118     8.1521   128.9752     0.0815
  139.5000     8.3711     8.2097   128.0798     0.0788
  140.0000     8.4308     8.3256   131.7235     0.0815
  140.5000     8.5504     8.3261   135.6657     0.0833
  141.0000     8.6114     8.4436   135.7281     0.0821
  141.5000     8.7335     8.5628   133.2781     0.0814
  142.0000     8.8573     8.6233   128.9668     0.0820
  142.5000     8.9829     8.7450   123.3413     0.0813
  143.0000     9.0470     8.9304   122.1438     0.0774
  143.5000     9.0483     9.0565   128.5066     0.0765
  144.0000     9.0495     9.1843   131.5424     0.0762
  144.5000     8.9879     9.1849   133.6719     0.0777
  145.0000     8.9267     9.1175   132.1759     0.0795
  145.5000     8.8659     8.9335   129.1695     0.0791
