~VERSION INFORMATION
 VERS.                2.0:   CWLS LOG ASCII STANDARD - VERSION 2.0
 WRAP.                 NO:   ONE LINE PER DEPTH STEP
~WELL INFORMATION
#MNEM.UNIT      DATA TYPE    INFORMATION
#----------   ------------   ------------------------------
 STRT.F           60.0000:   START DEPTH
 STOP.F          945.0000:   STOP DEPTH
 STEP.F            0.5000:   STEP LENGTH
 NULL.          -999.2500:   NO VALUE
 COMP.          U.S. NAVY:   COMPANY
 WELL. RES 3 TEAPOT DOM #48S-35:   WELL
 FLD .           TEAPOT E:   FIELD
 LOC .      S35 T39N R78W:   LOCATION
 CNTY.            NATRONA:   COUNTY
 STAT.            WYOMING:   STATE
 CTRY. UNITED STATES OF AMERICA:   COUNTRY
 SRVC.       Schlumberger:   SERVICE COMPANY
 DATE.        15-JUL-1964:   LOGDATE
 API .       490250649200:   API NUMBER
~CURVE INFORMATION
#MNEM.UNIT       API CODE    CURVE DESCRIPTION
#----------   ------------   ------------------------------
 DEPT.F                  :   
 SPR .MV     05 010 01 00:   SPONTANEOUS POTENTIAL FROM RES.
 ILD .OHMM   05 120 46 00:   INDUCTION LOG DEEP
 ASN .OHMM   05 041 18 00:   AMPLIFIED SHORT NORMAL 18"
 CILD.MMHO   05 110 46 00:   CONDUCTIVITY INDUCTION LOG DEEP
 CALS.IN     60 280 50 00:   CALIPER FROM SONIC LOG
 DT  .US/F   60 520 00 00:   INTERVAL TRANSIT TIME
 GR  .GAPI   30 310 01 00:   GAMMA RAY
~PARAMETER INFORMATION
#MNEM.UNIT          VALUE    DESCRIPTION
#----------   ------------   ------------------------------
 PD  .                 GL:   PERMANENT DATUM
 EPD .F              5123:   ELEVATION PERMANENT DATUM
 LMF .                 KB:   LOG MEASURED FROM
 DAPD.F                 5:   FEET ABOVE PERMANENT DATUM
 DMF .                 KB:   DRILLING MEASURED FROM
 EKB .F              5128:   KELLING BUSHING
 EGL .F              5123:   GROUND LEVEL
 DATE.        15-JUL-1964:   RUN DATE
 RUN .                  1:   RUN NUMBER
 DD  .F               945:   DEPTH DRILLER
 DL  .F               946:   DEPTH LOGGER
 BLI .F               945:   BOTTOM LOG INTERVAL
 TLI .F                94:   TOP LOG INTERVAL
 CS  .IN            8.625:   CASING SIZE
 CBD .F                10:   CASING BOTTOM DRILLER
 BS  .IN             6.75:   BIT SIZE
 BSD .F               945:   BIT SIZE AT DEPTH
 DFT .                GEL:   DRILLING FLUID TYPE
 DFD .                9.5:   DRILLING FLUID DENSITY
 DFV .                 44:   DRILLING FLUID VISCOSITY
 DFPH.                8.0:   DRILLING FLUID PH
 DFL .               10.5:   DRILLING FLUID LOSS
 MSS .           FLOWLINE:   MUD SAMPLE SOURCE
 RMS .OHMM           3.37:   RESISTIVITY MUD SAMPLE
 MST .F                74:   MUD SAMPLE TEMPERATURE
 RMF .OHMM           2.97:   RESISTIVITY MUD FILTRATE SAMPLE
 MFST.F                78:   MUD FILTRATE SAMPLE TEMPERATURE
 MFSS.                 FP:   MUD FILTRATE SAMPLE SOURCE
 TCS .HRS             1.5:   TIME CURCULATED STOPPED
 MRT .F       T. L. T. M.:   MAXIMUM RECORDED TEMPERATURE
 LUN .               3527:   LOGGING UNIT NUMBER
 LUL .               CSPR:   LOGGING UNIT LOCATION
 ENGI.            WINKLER:   RECORDING ENGINEER
 WITN.          JORGENSEN:   WITNESSED BY
 CLNT.            A2DTECH:   CLIENT CODE
 ORIG.           2" PRINT:   ORIGIN OF DATA
 UWI .       490250649200:   UNIQUE WELL ID
 DICO. A2D Technologies, Inc.:   DIGITIZING COMPANY
~OTHER INFORMATION
~A   DEPT      SPR        ILD        ASN       CILD         CALS       DT         GR   
# ...
  651.5000   -45.5877     9.7497    11.0515    96.1894     6.6163    98.3067    68.8475
  652.0000   -45.3413     9.8261    11.1848    94.6661     6.6301    97.6996    68.6899
  652.5000   -44.7487     9.9925    11.3559    92.3607     6.6448    97.3034    66.5774
  653.0000   -44.1994    10.1291    11.5522    90.1068     6.6434    96.5759    66.8709
  653.5000   -43.6979    10.2024    11.6753    90.8561     6.6425    96.1245    67.7660
  654.0000   -43.5472    10.2818    11.8030    91.9294     6.6417    95.6730    64.9016
  654.5000   -43.5465    10.2836    11.8783    93.1615     6.5803    95.1463    63.9921
  655.0000   -43.3957    10.2849    11.8947    95.3774     6.5186    94.6949    67.4417
  655.5000   -43.3950    10.2863    11.9536    96.8937     6.4724    94.3942    68.3368
  656.0000   -43.3703    10.2881    11.8786    99.1514     6.4715    94.3949    68.1792
  656.5000   -43.2435    10.2654    11.8590   101.5834     6.4857    94.5463    71.1795
  657.0000   -43.0930    10.2159    11.7289   103.8686     6.5302    94.6224    76.1347
  657.5000   -43.0922    10.1724    11.5926   105.1889     6.5747    94.4474    77.4790
  658.0000   -43.2412    10.1437    11.3502   105.1818     6.6043    93.7198    81.2312
  658.5000   -43.2934    10.1455    11.1287   105.1743     6.5881    93.1930    81.6787
  659.0000   -43.3898    10.1470    11.0294   105.1657     6.5872    92.8923    79.1115
  659.5000   -43.5390    10.1364    10.9038   104.4015     6.5710    92.8175    78.5027
  660.0000   -43.5783    10.0749    10.8289   103.5858     6.5701    92.7429    77.8940
  660.5000   -43.8373    10.0765    10.8290   102.1123     6.5692    92.9699    75.7797
  661.0000   -44.0680    10.0780    10.9042   102.1060     6.5683    94.1764    71.2612
  661.5000   -44.1629    10.0797    11.0181   102.0984     6.5675    95.6843    70.0528
  662.0000   -44.2849    10.0809    11.1412   102.0909     6.5819    95.9914    73.3539
  662.5000   -44.5840    10.0825    11.2800   102.0834     6.5808    95.8993    73.3448
  663.0000   -44.7332    10.0840    11.3552   102.8328     6.5953    95.4606    74.0895
  663.5000   -44.7323    10.0645    11.3554   104.7374     6.5942    94.7077    72.1273
  664.0000   -44.7316     9.9371    11.2805   105.2121     6.6087    93.7288    65.5018
  664.5000   -44.7309     9.7466    11.1046   107.3551     6.6073    92.1470    64.8949
  665.0000   -44.8276     9.5502    10.7553   108.8626     6.6065    90.9420    70.2994
  665.5000   -44.8794     9.3420    10.5119   109.9192     6.6056    90.2645    72.8503
  666.0000   -44.8785     9.1574    10.3607   111.1515     6.6047    90.1146    70.1346
  666.5000   -44.8778     8.9610    10.2302   113.3849     6.6038    90.1153    68.0221
  667.0000   -44.8771     8.8218    10.1149   114.8484     6.6029    90.8094    65.0055
  667.5000   -45.0262     8.7182    10.0701   117.1589     6.5869    91.9254    62.1412
  668.0000   -45.1754     8.6746    10.0561   119.5555     6.5860    92.9813    63.1865
  668.5000   -45.1924     8.6015    10.0420   121.2700     6.5547    94.1124    62.5778
  669.0000   -45.3238     8.6027    10.0280   123.1963     6.5538    94.7914    59.7135
  669.5000   -45.3231     8.6042    10.0139   123.5657     6.5529    95.3196    61.3604
  670.0000   -45.3224     8.6057     9.9910   124.0405     6.5369    95.8478    67.2160
  670.5000   -45.2209     8.4963     9.9861   124.6894     6.5209    96.3007    71.2689
  671.0000   -45.0780     8.3838     9.9613   125.4394     6.4897    96.7536    73.8181
  671.5000   -44.7204     8.3104     9.9430   125.4645     6.4283    96.6036    75.1642
  672.0000   -44.6317     8.2367     9.9127   126.1818     6.3669    95.9965    75.6082
  672.5000   -44.5352     8.2386     9.8716   126.1742     6.3810    95.7762    74.9994
  673.0000   -44.4182     8.2399     9.8409   126.1665     6.4255    96.4553    73.3363
  673.5000   -44.4175     8.2414     9.7867   125.7121     6.4700    97.0589    71.9756
  674.0000   -44.4378     8.2431     9.6318   125.3940     6.5296    97.5871    71.3669
  674.5000   -44.5660     8.3193     9.5502   125.3857     6.5594    98.1154    72.5627
  675.0000   -44.5652     8.3208     9.5420   125.0001     6.5734    98.4929    72.7077
  675.5000   -44.5645     8.3973     9.6173   123.7527     6.5723    97.8908    71.9467
  676.0000   -44.5636     8.5697     9.7249   123.0899     6.5566    97.4394    71.6388
  676.5000   -44.4130     8.6253     9.8578   121.7043     6.5708    97.2894    72.5320
  677.0000   -44.2624     8.6687     9.9221   120.7676     6.5543    97.3655    73.2767
  677.5000   -44.1117     8.7032     9.9632   120.0364     6.5383    97.4416    73.8709
  678.0000   -43.9610     8.6298     9.9634   120.0303     6.5223    96.9903    74.4670
  678.5000   -43.6604     8.4093     9.9636   120.0225     6.5063    96.2375    76.1122
  679.0000   -43.3598     8.1469     9.9636   122.1214     6.4903    95.8614    77.0054
  679.5000   -43.3590     7.5849     9.9638   126.0080     6.4743    95.6361    77.2989
  680.0000   -43.3582     7.3763     9.9569   132.8782     6.4734    95.5613    79.2466
  680.5000   -43.3576     7.2099     9.8719   140.4670     6.5030    95.4867    81.7957
  681.0000   -43.3569     7.1394     9.0784   146.6061     6.5324    95.4876    82.3918
  681.5000   -43.2060     7.1169     8.7638   148.0065     6.5764    95.4883    81.6309
  682.0000   -43.1525     7.0675     8.5529   148.3131     6.5756    95.6448    76.8098
  682.5000   -42.9048     7.0689     8.5086   148.7879     6.5747    96.1178    79.8102
  683.0000   -42.6596     7.1454     8.4740   149.5000     6.5738    97.1486    80.4080
  683.5000   -42.4133     7.1470     8.4335   148.4898     6.5729    97.9783    82.0513
  684.0000   -42.3028     7.1485     8.4187   147.2119     6.5720    97.3761    84.6005
  684.5000   -42.2204     7.2249     8.5501   142.6717     6.5711    97.0001    85.7981
  685.0000   -42.1514     7.3015     8.7793   140.2020     6.5703    97.2269    83.5316
  685.5000   -42.0007     7.3778     8.8318   139.6130     6.5694    98.2073    83.5244
  686.0000   -41.9310     7.4603     8.8565   139.6061     6.5683    99.0369    83.8215
  686.5000   -41.8493     7.5310     8.8849   139.4899     6.5674    98.2087    78.2468
  687.0000   -41.8485     7.7091     8.9000   138.8323     6.5665    97.6820    77.9406
  687.5000   -41.8478     7.7586     8.9152   137.7525     6.5656    97.5949    82.1421
  688.0000   -41.8471     7.8831     8.9153   135.7474     6.5647    97.4574    87.5484
  688.5000   -41.8463     8.0075     8.9154   135.0213     6.5639    97.3828    88.4453
  689.0000   -41.8456     8.0630     8.9156   134.0101     6.5630    97.3081    85.8780
  689.5000   -41.8448     8.1064     8.9726   131.9771     6.5621    97.3091    85.1207
  690.0000   -41.8441     8.2309     9.1357   130.3030     6.5612    97.3851    88.1192
  690.5000   -41.8741     8.2925     9.3365   128.5732     6.5601    97.5366    89.3168
  691.0000   -41.9925     8.3688     9.5107   125.8934     6.5592    97.6880    88.5559
  691.5000   -42.1417     8.3793     9.6910   125.8864     6.5583    97.9148    84.4867
  692.0000   -42.1409     8.4470     9.7874   125.8788     6.5575    97.2926    82.6750
  692.5000   -42.1401     8.4483     9.8303   125.8702     6.5414    96.4720    81.6151
  693.0000   -42.1394     8.4497     9.8647   125.8637     6.5406    96.3345    82.2094
  693.5000   -42.1387     8.4516     9.9230   125.8560     6.5246    96.6369    83.7059
  694.0000   -41.9879     8.5277     9.9432   125.8471     6.5237    96.1855    86.2551
  694.5000   -41.9405     8.6042     9.9683   125.8409     6.5228    95.4326    89.1032
  695.0000   -41.8366     8.6057     9.9685   125.8332     6.5066    95.1318    90.1486
  695.5000   -41.6859     8.6072     9.9498   125.3687     6.5057    95.2080    89.9910
  696.0000   -41.6852     8.6088     9.9087   124.8788     6.5048    95.4348    84.4199
  696.5000   -41.6843     8.6492     9.8629   123.5373     6.5039    95.7370    85.1646
