~VERSION INFORMATION
 VERS.                2.0:   CWLS LOG ASCII STANDARD - VERSION 2.0
 WRAP.                 NO:   ONE LINE PER DEPTH STEP
~WELL INFORMATION
#MNEM.UNIT      DATA TYPE    INFORMATION
#----------   ------------   ------------------------------
 STRT.F           30.0000:   START DEPTH
 STOP.F          500.0000:   STOP DEPTH
 STEP.F            0.5000:   STEP LENGTH
 NULL.          -999.2500:   NO VALUE
 COMP. FENIX & SCISSON INC:   COMPANY
 WELL.     3-FI #55-45 SX:   WELL
 FLD .             TEAPOT:   FIELD
 LOC .       S3 T38N R78W:   LOCATION
 CNTY.            NATRONA:   COUNTY
 STAT.            WYOMING:   STATE
 CTRY. UNITED STATES OF AMERICA:   COUNTRY
 SRVC.              Welex:   SERVICE COMPANY
 DATE.        16-MAY-1980:   LOGDATE
 API .       490251082700:   API NUMBER
~CURVE INFORMATION
#MNEM.UNIT       API CODE    CURVE DESCRIPTION
#----------   ------------   ------------------------------
 DEPT.F                  :   
 SPR .MV     07 010 01 00:   SPONTANEOUS POTENTIAL
 GURD.OHMM   07 220 05 00:   GUARD RESISTIVITY
 CALD.IN     45 280 60 00:   CALIPER
 GRD .GAPI   45 310 01 00:   GAMMA RAY FROM DENSITY LOG
 RHOB.G/C3   45 350 01 00:   BULK DENSITY
 CORR.G/C3   45 356 01 00:   DENSITY CORRECTION
 NPHI.DEC    42 890 03 00:   NEUTRON POROSITY SANDSTONE
 DPHI.DEC    45 890 12 00:   DENSITY POROSITY SANDSTONE
 ILD .OHMM   07 120 46 00:   INDUCTION LOG DEEP
 ILM .OHMM   07 120 44 00:   INDUCTION LOG MEDIUM
~PARAMETER INFORMATION
#MNEM.UNIT          VALUE    DESCRIPTION
#----------   ------------   ------------------------------
 PD  .                 GL:   PERMANENT DATUM
 EPD .F              5167:   ELEVATION PERMANENT DATUM
 LMF .                 KB:   LOG MEASURED FROM
 DAPD.F                 5:   FEET ABOVE PERMANENT DATUM
 DMF .                 KB:   DRILLING MEASURED FROM
 EKB .F              5172:   KELLING BUSHING
 EGL .F              5167:   GROUND LEVEL
 DATE.            5-16-80:   RUN DATE
 RUN .                  1:   RUN NUMBER
 DD  .F               483:   DEPTH DRILLER
 DL  .F               496:   DEPTH LOGGER
 BLI .F               494:   BOTTOM LOG INTERVAL
 TLI .F                35:   TOP LOG INTERVAL
 BS  .IN             9.75:   BIT SIZE
 BSD .F               483:   BIT SIZE AT DEPTH
 DFT .            KCL MUD:   DRILLING FLUID TYPE
 DFD .                9.5:   DRILLING FLUID DENSITY
 DFV .                 45:   DRILLING FLUID VISCOSITY
 DFL .                7.5:   DRILLING FLUID LOSS
 MSS .            MUD PIT:   MUD SAMPLE SOURCE
 RMS .OHMM            .29:   RESISTIVITY MUD SAMPLE
 MST .F                75:   MUD SAMPLE TEMPERATURE
 RMF .OHMM            .23:   RESISTIVITY MUD FILTRATE SAMPLE
 MFST.F                75:   MUD FILTRATE SAMPLE TEMPERATURE
 RMC .OHMM            .35:   RESISTIVITY MUD CAKE
 MCST.F                75:   MUD CAKE SAMPLE TEMPERATURE
 MFSS.           MEASURED:   MUD FILTRATE SAMPLE SOURCE
 MCSS.           MEASURED:   MUD CAKE SAMPLE SOURCE
 TCS .HRS               2:   TIME CURCULATED STOPPED
 LUN .               9685:   LOGGING UNIT NUMBER
 LUL .             CASPER:   LOGGING UNIT LOCATION
 ENGI.            TOTHILL:   RECORDING ENGINEER
 WITN.              AMEND:   WITNESSED BY
 CLNT.            A2DTECH:   CLIENT CODE
 ORIG.           5" PRINT:   ORIGIN OF DATA
 UWI .       490251082700:   UNIQUE WELL ID
 DICO. A2D Technologies, Inc.:   DIGITIZING COMPANY
~OTHER INFORMATION
~A   DEPT      SPR         GURD     CALD        GRD       RHOB       CORR         NPHI       DPHI        ILD        ILM 
# ...
  365.0000   -37.7310    20.5672     9.9780    75.2249     2.3513    -0.0052     0.2578     0.1966     9.9503    14.6205
  365.5000   -37.6845    18.4368     9.9778    75.5415     2.3446    -0.0166     0.2727     0.1993    10.2617    14.3307
  366.0000   -37.6374    14.9804     9.9776    75.8582     2.3489     0.0093     0.2780     0.2050    10.4588    14.0466
  366.5000   -37.5901    15.0747     9.9830    76.1778     2.3397     0.0304     0.2799     0.2093    10.2208    13.7682
  367.0000   -37.5435    15.3079     9.9913    76.4871     2.3304     0.0288     0.2767     0.2089     9.9883    13.4952
  367.5000   -37.4955    15.5496     9.9814    76.9641     2.3250     0.0257     0.2738     0.2053     9.9400    13.2277
  368.0000   -37.4498    15.4497     9.9706    77.7700     2.3308     0.0288     0.2698     0.2077     9.9746    12.9655
  368.5000   -37.4029    15.3483     9.9599    78.5801     2.3370     0.0300     0.2678     0.2041    10.0099    12.8709
  369.0000   -37.4004    15.2623     9.9492    79.3915     2.3277     0.0279     0.2711     0.2139    10.0455    12.7776
  369.5000   -37.3993    15.3633     9.9391    80.2024     2.3355     0.0262     0.2743     0.2184    10.0811    12.6851
  370.0000   -37.4003    15.4520     9.9020    81.0133     2.3079     0.0190     0.2800     0.2117    10.1169    12.5932
  370.5000   -37.4001    15.5496     9.8542    81.8240     2.3170     0.0138     0.2856     0.2070    10.1271    12.5019
  371.0000   -37.3997    15.5496     9.8061    82.6359     2.3286     0.0248     0.2890     0.2008    10.1282    12.4109
  371.5000   -37.4005    15.2043     9.7579    83.4547     2.3370     0.0356     0.2902     0.1869    10.1673    12.3209
  372.0000   -37.4001    14.8962     9.7105    84.2815     2.3637     0.0489     0.2902     0.1931    10.2027    12.2316
  372.5000   -37.3979    14.4321     9.6762    84.2125     2.3538     0.0605     0.2902     0.1957    10.2379    12.2021
  373.0000   -37.4062    14.5076     9.7032    83.2754     2.3500     0.0474     0.2858     0.1894    10.2733    12.2022
  373.5000   -37.3420    14.7037     9.7389    82.3345     2.3628     0.0575     0.2814     0.2015    10.3154    12.2023
  374.0000   -37.2360    14.6264     9.7757    81.3976     2.3527     0.0495     0.2770     0.2165    10.2851    12.2024
  374.5000   -37.1424    14.4479     9.7773    80.4753     2.3278     0.0293     0.2734     0.2124    10.2494    12.2025
  375.0000   -37.0271    14.2716     9.7771    79.7967     2.3174     0.0100     0.2731     0.2065    10.2146    12.2027
  375.5000   -37.1102    14.0974     9.8110    79.8099     2.3257     0.0091     0.2692     0.2005    10.1785    12.2030
  376.0000   -37.3410    13.9253     9.8743    79.8588     2.3409     0.0217     0.2668     0.1928    10.1425    12.2023
  376.5000   -37.5481    13.6470     9.9540    79.9145     2.3604     0.0370     0.2614     0.1825    10.0307    12.2038
  377.0000   -37.7646    13.6919     9.9774    79.9694     2.3765     0.0527     0.2559     0.1758     9.8641    12.2029
  377.5000   -37.9684    13.8186     9.9644    80.0265     2.3763     0.0489     0.2532     0.1689     9.7003    12.2005
  378.0000   -38.1783    14.3356     9.9357    80.0916     2.3882     0.0493     0.2515     0.1621     9.5392    12.2135
  378.5000   -38.0361    15.5496     9.9072    80.5735     2.4040     0.0608     0.2452     0.1590     9.3993    12.0808
  379.0000   -37.8683    14.9804     9.8780    81.1897     2.4085     0.0674     0.2474     0.1712     9.9400    11.8441
  379.5000   -37.6866    18.7366     9.8423    81.7930     2.3939     0.0662     0.2564     0.1800     9.9400    11.6121
  380.0000   -37.5185    15.3658     9.8491    82.4014     2.3783     0.0660     0.2665     0.1888     9.8478    11.3849
  380.5000   -37.3364    13.4604     9.9039    83.0099     2.3627     0.0883     0.2743     0.1943     9.5291    11.1629
  381.0000   -37.1696    12.2027     9.9568    83.6198     2.3509     0.1119     0.2779     0.1989     9.0553    10.9460
  381.5000   -37.0233    12.2027    10.0094    84.2299     2.3467     0.1354     0.2760     0.1831     9.1901    10.7340
  382.0000   -37.2644    12.4294    10.0621    84.2580     2.3707     0.1648     0.2706     0.1730     9.4974    10.5264
  382.5000   -37.4969    12.7856    10.1152    84.1183     2.3891     0.1817     0.2615     0.1843     9.9400    10.3176
  383.0000   -37.7573    13.3982    10.1691    83.9783     2.3691     0.1326     0.2571     0.1925     9.8001    10.0659
  383.5000   -38.0005    13.3910    10.2098    83.8388     2.3531     0.0927     0.2640     0.1795     9.5771     9.7803
  384.0000   -38.1741    12.3308    10.0138    83.6995     2.3628     0.0781     0.2712     0.1565     9.3591     9.5028
  384.5000   -37.9576    11.3268     9.8121    83.5603     2.4172     0.1029     0.2743     0.1431     9.1821     9.2257
  385.0000   -37.8221    11.6843     9.6212    83.4215     2.4380     0.1232     0.2720     0.1576     9.0675     9.6119
  385.5000   -37.9678    12.6716     9.6869    83.2788     2.4149     0.0960     0.2651     0.1734     8.9544     9.9990
  386.0000   -38.1012    12.6618     9.7999    83.1308     2.3759     0.0358     0.2593     0.1953     8.8426    10.4015
  386.5000   -38.2483    12.2010     9.9143    82.7960     2.3509     0.0056     0.2546     0.1883     8.7238    10.3176
  387.0000   -38.3868    11.8062     9.9582    82.8260     2.3684     0.0232     0.2531     0.1812     8.6056     9.8882
  387.5000   -38.5282    11.5389     9.9177    82.8729     2.3758     0.0303     0.2605     0.1743     8.3821     9.4432
  388.0000   -38.6698    11.4713     9.8687    82.9129     2.3755     0.0375     0.2671     0.1675     8.1644     9.0553
  388.5000   -38.8107    11.3358     9.8317    82.9534     2.3990     0.0584     0.2738     0.1642     8.0969     9.0553
  389.0000   -38.9520    11.2019     9.8197    82.9939     2.4039     0.0712     0.2786     0.1628     8.1514     9.0553
  389.5000   -39.0931    11.0696     9.7910    83.0344     2.4072     0.0810     0.2827     0.1654     8.2493     9.0553
  390.0000   -39.2343    10.9388     9.7787    83.0751     2.4030     0.0742     0.2865     0.1560     8.1587     8.8604
  390.5000   -39.3754    10.8096     9.7666    83.1144     2.4105     0.0881     0.2886     0.1468     7.9610     8.6366
  391.0000   -39.5165    10.6819     9.7545    83.1134     2.4281     0.1038     0.2857     0.1470     7.7660     8.4184
  391.5000   -39.6578    10.5557     9.7429    83.1147     2.4304     0.1178     0.2815     0.1431     7.5758     8.2493
  392.0000   -39.7991    10.4310     9.7171    83.3356     2.4317     0.1209     0.2822     0.1433     7.3904     8.4340
  392.5000   -39.9396    10.3077     9.6761    84.7793     2.4372     0.1224     0.2862     0.1451     7.2421     8.6703
  393.0000   -40.0823    10.1860     9.6227    86.2160     2.4331     0.1149     0.2851     0.1330     7.3785     8.9132
  393.5000   -40.2218    10.0656     9.5756    87.6451     2.4401     0.1157     0.2838     0.1241     7.3148     9.1721
  394.0000   -40.3621     9.9400     9.5778    89.0860     2.4731     0.1303     0.2794     0.1323     7.2013     9.0671
  394.5000   -40.5159     9.9977     9.6296    89.7142     2.4587     0.1000     0.2736     0.1266     7.1062     8.8880
  395.0000   -40.6013    10.0593     9.6953    89.4852     2.4534     0.0829     0.2685     0.1176     7.1062     8.9880
  395.5000   -40.5671    10.1213     9.7989    89.2247     2.4804     0.0804     0.2607     0.1297     7.1062     9.2257
  396.0000   -40.5472    10.1836     9.9073    88.9625     2.4671     0.0692     0.2571     0.1426     7.1062     8.7238
  396.5000   -40.5245    10.2463     9.9554    88.7049     2.4414     0.0352     0.2538     0.1403     7.1062     8.7802
  397.0000   -40.5004    10.3176     9.9436    88.5257     2.4354     0.0302     0.2568     0.1338     7.1062     8.8965
  397.5000   -40.4782    10.3176     9.9390    88.6762     2.4446     0.0376     0.2610     0.1385     7.1062     9.0553
  398.0000   -40.4550    10.1347     9.9215    89.1628     2.4526     0.0444     0.2647     0.1357     7.1062     8.9871
