~VERSION INFORMATION
 VERS.                2.0:   CWLS LOG ASCII STANDARD - VERSION 2.0
 WRAP.                 NO:   ONE LINE PER DEPTH STEP
~WELL INFORMATION
#MNEM.UNIT      DATA TYPE    INFORMATION
#----------   ------------   ------------------------------
 STRT.F           11.0000:   START DEPTH
 STOP.F          807.0000:   STOP DEPTH
 STEP.F            0.5000:   STEP LENGTH
 NULL.          -999.2500:   NO VALUE
 COMP. BROWN JOHN E&C INC:   COMPANY
 WELL. NPR 3 SHX-34 #77-1-34:   WELL
 FLD .             TEAPOT:   FIELD
 LOC .      S34 T39N R79W:   LOCATION
 CNTY.            NATRONA:   COUNTY
 STAT.            WYOMING:   STATE
 CTRY. UNITED STATES OF AMERICA:   COUNTRY
 SRVC.     Atlas Wireline:   SERVICE COMPANY
 DATE.        07-DEC-1991:   LOGDATE
 API .       490252248000:   API NUMBER
~CURVE INFORMATION
#MNEM.UNIT       API CODE    CURVE DESCRIPTION
#----------   ------------   ------------------------------
 DEPT.F                  :   
 CALD.IN     45 280 60 00:   CALIPER FROM DENSITY LOG
 CORR.G/C3   45 356 01 00:   DENSITY CORRECTION
 DEN .G/C3   45 350 01 00:   COMPENSATED BULK DENSTIY
 GRD .GAPI   45 310 01 00:   GAMMA RAY FROM DENSITY LOG
 PORD.DEC    45 890 12 00:   POROSITY DENSITY SANDSTONE
 GRR .GAPI   07 310 01 00:   GAMMA RAY FROM RESISTIVITY
 RILD.OHMM   07 120 46 00:   RESISTIVITY INDUCTION LOG DEEP
 RILM.OHMM   07 120 44 00:   RESITIVITY INDUCTION LOG MEDIUM
~PARAMETER INFORMATION
#MNEM.UNIT          VALUE    DESCRIPTION
#----------   ------------   ------------------------------
 PD  .                 GL:   PERMANENT DATUM
 EPD .F              5098:   ELEVATION PERMANENT DATUM
 LMF .                 KB:   LOG MEASURED FROM
 DAPD.F                10:   FEET ABOVE PERMANENT DATUM
 DMF .                 KB:   DRILLING MEASURED FROM
 EKB .F              5108:   KELLING BUSHING
 EDF .F              5107:   DRILLING FLOOR
 EGL .F              5098:   GROUND LEVEL
 DATE.        07-DEC-1991:   RUN DATE
 RUN .                  1:   RUN NUMBER
 DD  .F               810:   DEPTH DRILLER
 DL  .F               810:   DEPTH LOGGER
 BLI .F               808:   BOTTOM LOG INTERVAL
 CS  .IN            9.625:   CASING SIZE
 CBD .F                85:   CASING BOTTOM DRILLER
 CBL .F                97:   CASING BOTTOM LOGGER
 BS  .IN             8.75:   BIT SIZE
 BSD .F               810:   BIT SIZE AT DEPTH
 DFT .                AIR:   DRILLING FLUID TYPE
 BHT .F                90:   BOTTOM HOLE TEMPERATURE
 MRT .F                90:   MAXIMUM RECORDED TEMPERATURE
 LUN .            HL 6274:   LOGGING UNIT NUMBER
 LUL .             CASPER:   LOGGING UNIT LOCATION
 ENGI.       P. RASMUSSEN:   RECORDING ENGINEER
 WITN.        GARY STRONG:   WITNESSED BY
 CLNT.            A2DTECH:   CLIENT CODE
 ORIG.           5" PRINT:   ORIGIN OF DATA
 UWI .       490252248000:   UNIQUE WELL ID
 DICO. A2D Technologies, Inc.:   DIGITIZING COMPANY
~OTHER INFORMATION
~A   DEPT     CALD       CORR        DEN        GRD       PORD         GRR      RILD       RILM   
# ...
  740.0000     9.0045     0.0025     2.4456   125.2258     0.1206   105.1652    10.6700    10.9288
  740.5000     9.0041     0.0025     2.4478   120.7284     0.1200   105.4625    10.7631    10.9380
  741.0000     9.0039     0.0008     2.4486   118.3331     0.1197   104.8583    10.8419    11.0765
  741.5000     9.0036    -0.0006     2.4463   120.1437     0.1206   105.4560    10.9688    11.0737
  742.0000     9.0033    -0.0037     2.4403   123.1538     0.1258   106.0544    10.9688    11.0715
  742.5000     9.0030    -0.0037     2.4365   123.7614     0.1291   106.6521    11.1213    11.1466
  743.0000     9.0176    -0.0007     2.4343   121.3239     0.1309   106.9495    11.1213    11.1562
  743.5000     9.0219     0.0009     2.4320   120.7726     0.1321   100.0389    11.1213    11.1415
  744.0000     9.0321     0.0052     2.4312   123.4841     0.1324    94.3303    11.1213    11.1392
  744.5000     9.0318     0.0037     2.4312   127.3951     0.1327    93.4264    11.1213    11.0602
  745.0000     9.0315     0.0007     2.4320   128.0030     0.1324    93.4234    11.1213    11.0575
  745.5000     9.0311    -0.0024     2.4335   126.2098     0.1315    94.0205    11.1213    10.9791
  746.0000     9.0159    -0.0039     2.4350   121.1118     0.1297    95.8194    11.1213    10.9012
  746.5000     9.0156    -0.0039     2.4372   120.2177     0.1285    98.5192    11.1213    10.8239
  747.0000     9.0093    -0.0040     2.4395   123.4234     0.1282   100.0178    11.1213    10.7472
  747.5000     9.0000    -0.0040     2.4425   128.9426     0.1267   100.0148    10.9688    10.7450
  748.0000     8.9996    -0.0040     2.4455   129.2482     0.1243    98.8107    10.8184    10.5953
  748.5000     8.9994    -0.0024     2.4492   125.0528     0.1224    99.4084    10.6700    10.5922
  749.0000     8.9841     0.0019     2.4522   126.0436     0.1206   100.0360    10.5237    10.5179
  749.5000     8.9838     0.0049     2.4537   131.0748     0.1200   101.5039    10.3794    10.4429
  750.0000     8.9835     0.0079     2.4545   133.4825     0.1203   102.7022    10.3080    10.4408
  750.5000     8.9832     0.0128     2.4530   129.2871     0.1200   104.2008    10.1666    10.4387
  751.0000     8.9829     0.0098     2.4506   128.0930     0.1203   105.9997    10.0272    10.2932
  751.5000     8.9976     0.0069     2.4477   133.2069     0.1221   108.6995     9.9582    10.1498
  752.0000     8.9973     0.0024     2.4462   137.1179     0.1224   112.6004     9.8216    10.0084
  752.5000     9.0195     0.0009     2.4454   139.5274     0.1218   115.6005     9.6870     9.7334
  753.0000     9.0267     0.0024     2.4462   140.7356     0.1212   116.1982     9.5541     9.4660
  753.5000     9.0263     0.0025     2.4485   133.5373     0.1200   114.2129     9.4231     9.3289
  754.0000     9.0411     0.0070     2.4514   129.6404     0.1199   108.3839     9.2939     9.0771
  754.5000     9.0408     0.0085     2.4529   126.9448     0.1211   107.4808     9.1664     8.9507
  755.0000     9.0405     0.0026     2.4491   125.1501     0.1217   115.2849     8.9785     8.8872
  755.5000     9.0401     0.0026     2.4484   132.9667     0.1208   121.2880     8.7944     8.7634
  756.0000     9.0248     0.0026     2.4514   137.1780     0.1199   119.7836     8.6126     8.6413
  756.5000     9.0246     0.0027     2.4506   139.2872     0.1208   118.2792     8.4878     8.4621
  757.0000     9.0243     0.0027     2.4461   140.1952     0.1241   118.5766     8.4376     8.4021
  757.5000     9.0240     0.0042     2.4325   139.0028     0.1331   119.7748     8.3795     8.3426
  758.0000     9.0222     0.0088     2.4310   137.2081     0.1331   119.4709     8.3795     8.2263
  758.5000     8.9934     0.0118     2.4325   135.1130     0.1322   115.5641     8.3219     8.2246
  759.0000     8.9931     0.0163     2.4325   130.0001     0.1319   114.2298     8.3143     8.1096
  759.5000     8.9928     0.0179     2.4295   117.4112     0.1334   110.9189     8.2944     8.1080
  760.0000     8.9775     0.0149     2.4205   105.4063     0.1391   112.7111     8.4084     7.9950
  760.5000     8.9772     0.0149     2.4001    97.9059     0.1529   114.2030     8.3492     7.9934
  761.0000     8.9769     0.0180     2.3633    91.3063     0.1520   114.4961     8.2903     7.9697
  761.5000     8.9766     0.0270     2.3663    88.6731     0.1484   114.7868     8.1750     7.9433
  762.0000     8.9763     0.0240     2.3933    88.0678     0.1415   113.8739     8.1174     7.9168
  762.5000     8.9910     0.0165     2.4280    88.0631     0.1279   115.3634     8.0603     7.8909
  763.0000     8.9907     0.0061     2.4386    88.0573     0.1246   116.5550     7.9484     7.7813
  763.5000     8.9904     0.0031     2.4422    88.0527     0.1246   116.8481     7.8378     7.6734
  764.0000     8.9901     0.0016     2.4407    88.0681     0.1261   116.8360     7.7291     7.6195
  764.5000     8.9898     0.0018     2.4377    88.0421     0.1309   116.8264     7.6747     7.5660
  765.0000     8.9895     0.0032     2.4347    88.0375     0.1312   118.0180     7.6206     7.5648
  765.5000     8.9742    -0.0013     2.4339    88.0328     0.1315   119.8078     7.5146     7.4600
  766.0000     8.9739    -0.0043     2.4339    86.7869     0.1318   118.8973     7.5133     7.4076
  766.5000     8.9736    -0.0058     2.4309    85.0193     0.1336   113.7826     7.5121     7.3556
  767.0000     8.9733    -0.0042     2.4286    86.2158     0.1363   111.9736     7.4079     7.3037
  767.5000     8.9888    -0.0012     2.4256    86.5365     0.1375   115.5652     7.4064     7.3534
  768.0000     8.9739     0.0094     2.4234    83.5026     0.1356   120.3604     7.4052     7.3525
  768.5000     8.9741     0.0154     2.4264    81.0955     0.1335   116.7447     7.5069     7.5575
  769.0000     8.9892     0.0154     2.4324    77.1869     0.1292   117.6360     7.6101     7.7684
  769.5000     8.9894     0.0079     2.4406    72.3472     0.1251   119.4282     7.7199     7.9855
  770.0000     8.9895     0.0035     2.4468    69.9692     0.1215   120.0216     7.9290     8.2081
  770.5000     8.9897     0.0125     2.4572    67.8624     0.1169   120.3103     8.1497     8.7337
  771.0000     8.9898     0.0218     2.4692    64.5544     0.1100   120.3003     8.4930     9.2292
  771.5000     8.9900     0.0306     2.4843    60.3444     0.1031   119.9880     8.7919     9.6857
  772.0000     8.9901     0.0231     2.5413    59.4388     0.0823   114.8733     9.2233     9.8193
  772.5000     8.9903    -0.0024     2.5504    59.7356     0.0594   108.2571     9.4800     9.8177
  773.0000     8.9904     0.0036     2.5383    61.5414     0.0618   105.5447     9.6106     9.7488
  773.5000     9.0056     0.0082     2.5068    63.3275     0.0756   106.7363     9.6087     9.7475
  774.0000     9.0057     0.0112     2.4804    62.7223     0.0935   112.7327     9.6737     9.7463
  774.5000     9.0208     0.0113     2.4797    60.2453     0.1021   117.8258     9.7391     9.7447
  775.0000     9.0210     0.0083     2.4797    63.3123     0.1027   119.6204     9.7371     9.5434
  775.5000     9.0212     0.0068     2.4767    64.5100     0.1048   119.0078     9.7355     9.4111
  776.0000     9.0213     0.0008     2.4736    64.8057     0.1063   112.6919     9.7429     9.5409
  776.5000     9.0214     0.0129     2.4752    63.5936     0.1054   109.3790     9.8677     9.8069
  777.0000     9.0216     0.0099     2.4842    62.6919     0.1030   110.2703     9.8657     9.8056
  777.5000     9.0217     0.0130     2.4888    61.4860     0.0960   109.9580     9.7288     9.5369
  778.0000     9.0069     0.0250     2.4895    60.2801     0.0954   106.6450     9.5234     8.8912
  778.5000     9.0070     0.0250     2.4880    59.6737     0.0972   102.7315     9.3952     8.3027
  779.0000     9.0072     0.0205     2.4843    60.2696     0.1009    93.7129     9.3290     8.2444
  779.5000     9.0074     0.0055     2.4782    62.3670     0.1065    85.2949     9.1996     8.1301
  780.0000     8.9925     0.0041     2.4745    63.8639     0.1071    81.6817     9.1981     7.9621
