~VERSION INFORMATION
 VERS.                2.0:   CWLS LOG ASCII STANDARD - VERSION 2.0
 WRAP.                 NO:   ONE LINE PER DEPTH STEP
~WELL INFORMATION
#MNEM.UNIT      DATA TYPE    INFORMATION
#----------   ------------   ------------------------------
 STRT.F            0.0000:   START DEPTH
 STOP.F          618.0000:   STOP DEPTH
 STEP.F            0.5000:   STEP LENGTH
 NULL.          -999.2500:   NO VALUE
 COMP.   FLUOR DANIEL INC:   COMPANY
 WELL. NAVAL PETROLEUM RESERVE 3 SX-3 #2-33:   WELL
 FLD .             TEAPOT:   FIELD
 LOC .      S33 T39N R78W:   LOCATION
 CNTY.            NATRONA:   COUNTY
 STAT.            WYOMING:   STATE
 CTRY. UNITED STATES OF AMERICA:   COUNTRY
 SRVC.      Western Atlas:   SERVICE COMPANY
 DATE.        07-JAN-1995:   LOGDATE
 API .       490252267200:   API NUMBER
~CURVE INFORMATION
#MNEM.UNIT       API CODE    CURVE DESCRIPTION
#----------   ------------   ------------------------------
 DEPT.F                  :   
 GRR .GAPI   07 310 01 00:   GAMMA RAY FROM RES. LOG.
 RILD.OHMM   07 120 46 00:   INDUCTION LOG DEEP RESISTIVITY
 RILM.OHMM   07 120 44 00:   INDUCTION LOG MEDIUM RESISTIVITY
~PARAMETER INFORMATION
#MNEM.UNIT          VALUE    DESCRIPTION
#----------   ------------   ------------------------------
 PD  .                 GL:   PERMANENT DATUM
 EPD .F              5158:   ELEVATION PERMANENT DATUM
 LMF .                 KB:   LOG MEASURED FROM
 DAPD.F                10:   FEET ABOVE PERMANENT DATUM
 DMF .                 KB:   DRILLING MEASURED FROM
 EKB .F              5168:   KELLING BUSHING
 EDF .F              5167:   DRILLING FLOOR
 EGL .F              5158:   GROUND LEVEL
 DATE.         7-JAN-1995:   RUN DATE
 RUN .                  1:   RUN NUMBER
 DD  .F               625:   DEPTH DRILLER
 DL  .F               626:   DEPTH LOGGER
 BLI .F               618:   BOTTOM LOG INTERVAL
 CS  .IN            9.625:   CASING SIZE
 CBD .F                53:   CASING BOTTOM DRILLER
 CBL .F                54:   CASING BOTTOM LOGGER
 BS  .IN             8.75:   BIT SIZE
 BSD .F               625:   BIT SIZE AT DEPTH
 DFT .                AIR:   DRILLING FLUID TYPE
 MRT .F                89:   MAXIMUM RECORDED TEMPERATURE
 LUN .            HL 6530:   LOGGING UNIT NUMBER
 LUL .             CASPER:   LOGGING UNIT LOCATION
 ENGI.        VERN RAUTIO:   RECORDING ENGINEER
 WITN.        GARY STRONG:   WITNESSED BY
 CLNT.            A2DTECH:   CLIENT CODE
 ORIG.           5" PRINT:   ORIGIN OF DATA
 UWI .       490252267200:   UNIQUE WELL ID
 DICO. A2D Technologies, Inc.:   DIGITIZING COMPANY
~OTHER INFORMATION
~A    DEPT      GRR      RILD       RILM   
# ...
  546.0000   100.8579    12.6386    12.5221
  546.5000   100.3215    12.6208    12.5044
  547.0000    99.8503    12.6030    12.4867
  547.5000   101.4911    12.5852    12.4691
  548.0000   103.2825    12.5674    12.4515
  548.5000   105.0405    12.5496    12.4337
  549.0000   106.6478    12.5309    12.4154
  549.5000   108.2044    12.4685    12.3540
  550.0000   107.8441    12.3820    12.2678
  550.5000   105.4093    12.2963    12.1828
  551.0000   103.4754    12.2111    12.0985
  551.5000   105.1889    12.1265    12.0147
  552.0000   107.1053    12.0425    11.9315
  552.5000   107.2815    11.9591    11.8489
  553.0000   107.0929    11.8763    11.7668
  553.5000   107.2983    11.7941    11.6853
  554.0000   108.5213    11.6663    11.5587
  554.5000   109.9344    11.4480    11.3424
  555.0000   109.9762    11.2338    11.1303
  555.5000   108.0603    11.0236    10.9219
  556.0000   106.3196    10.8173    10.7176
  556.5000   107.7680    10.6149    10.5170
  557.0000   109.3314    10.4163    10.3202
  557.5000   110.8574    10.2214    10.1271
  558.0000   112.3443    10.0301     9.9415
  558.5000   113.8423     9.8443     9.7509
  559.0000   115.3422     9.2182     8.7787
  559.5000   117.1230     8.6375     7.9031
  560.0000   119.4291     7.6501     7.1177
  560.5000   122.2026     6.7207     6.4103
  561.0000   128.8824     5.9658     5.7708
  561.5000   136.9440     5.8567     5.1917
  562.0000   144.9734     5.8062     5.3776
  562.5000   149.1815     5.8051     5.8102
  563.0000   145.9685     5.9985     6.2758
  563.5000   136.4340     6.1202     6.7787
  564.0000   124.7449     6.2517     7.3219
  564.5000   118.0923     6.9674     7.9087
  565.0000   112.3342     7.8172     8.5424
  565.5000   107.9031     8.7707     9.2270
  566.0000   106.9205     9.3986     9.5974
  566.5000   110.0626     9.7535     9.7738
  567.0000   114.1751     9.8991     9.9534
  567.5000   117.5111    10.0779    10.1362
  568.0000   119.5852    10.2598    10.3225
  568.5000   119.8092    10.4451    10.5122
  569.0000   117.9968    10.6337    10.7054
  569.5000   117.4948    10.8257    10.9021
  570.0000   118.7279    11.0212    11.1024
  570.5000   119.5725    11.2201    11.3064
  571.0000   117.2898    11.4227    11.5142
  571.5000   115.0116    11.6290    11.7258
  572.0000   115.0199    11.8390    11.9412
  572.5000   115.4767    12.0527    12.1607
  573.0000   115.7548    12.2704    12.3841
  573.5000   113.6136    12.4331    12.5211
  574.0000   111.5340    12.5903    12.6475
  574.5000   111.6320    12.7493    12.7752
  575.0000   111.8204    12.9105    12.9042
  575.5000   110.9388    13.0737    13.0346
  576.0000   109.5559    13.2395    13.1666
  576.5000   106.3989    13.4897    13.3653
  577.0000   104.3106    13.4794    13.3402
  577.5000   106.1455    13.4590    13.2906
  578.0000   108.5379    13.4387    13.2411
  578.5000   107.3324    13.4183    13.1918
  579.0000   106.6240    13.3980    13.1427
  579.5000   106.8010    13.3777    13.0938
  580.0000   107.2035    13.3575    13.0451
  580.5000   106.9845    13.3372    12.9966
  581.0000   106.0539    13.3171    12.9482
  581.5000   105.3739    13.2969    12.9000
  582.0000   107.2179    13.2766    12.8522
  582.5000   109.5941    13.2567    12.8042
  583.0000   110.9676    13.1715    12.7602
  583.5000   110.7123    12.9152    12.5127
  584.0000   111.1023    12.6639    12.2873
  584.5000   111.7763    12.4175    12.0659
  585.0000   111.6520    12.1759    11.8486
  585.5000   111.4890    11.9390    11.6351
  586.0000   113.5156    11.7067    11.4255
  586.5000   115.7262    11.4789    11.2197
  587.0000   117.8781    11.2556    11.0176
  587.5000   119.3277    11.0366    10.8191
  588.0000   118.1719    10.8218    10.6242
  588.5000   116.6203    10.6112    10.4328
  589.0000   116.4065    10.4048    10.2449
  589.5000   117.4261    10.2023    10.0603
  590.0000   117.7292    10.0038     9.8790
  590.5000   117.4921     9.8092     9.7011
  591.0000   118.2263     9.6183     9.5263
  591.5000   119.1969     9.5684     9.4802
  592.0000   118.2104     9.5578     9.4697
  592.5000   116.4665     9.5476     9.4596
  593.0000   114.7508     9.5373     9.4494
  593.5000   115.8859     9.5270     9.4391
  594.0000   117.2233     9.5167     9.4289
  594.5000   118.1203     9.5063     9.4186
  595.0000   117.1055     9.4966     9.4085
  595.5000   116.1483     9.4856     9.3986
  596.0000   115.9532     9.3654     9.2785
  596.5000   119.0415     9.2486     9.1633
  597.0000   123.6170     9.1337     9.0495
  597.5000   123.5091     9.0203     8.9371
  598.0000   123.5013     8.9083     8.8262
  598.5000   123.4951     8.7977     8.7166
  599.0000   123.0600     8.6885     8.6083
  599.5000   120.9350     8.5806     8.5014
  600.0000   118.7837     8.4741     8.3959
  600.5000   118.2624     8.3690     8.2916
  601.0000   119.7202     8.2649     8.1887
  601.5000   122.7374     8.1341     8.0515
  602.0000   125.2367     7.8652     7.7355
  602.5000   125.1983     7.6051     7.4323
  603.0000   123.6780     7.3537     7.1410
  603.5000   123.2551     7.1106     6.8607
  604.0000   122.4418     6.8755     6.5897
  604.5000   120.7772     6.6707     6.3038
  605.0000   119.9646     6.6707     6.4657
  605.5000   119.1317     6.7500     6.8005
  606.0000   118.2934     6.9024     7.1479
  606.5000   116.8900     7.0590     7.5129
  607.0000   115.6695     7.2692     7.8965
  607.5000   115.2453     7.7019     8.2999
  608.0000   114.1814     8.1579     8.7234
  608.5000   112.6347     8.6409     9.1712
  609.0000   111.0834     9.1512     9.4652
  609.5000   110.2375     9.7007     9.6921
  610.0000   110.6186    10.0332     9.9359
  610.5000   112.1867    10.0733     9.9581
  611.0000   113.4903    10.1332     9.9879
  611.5000  -999.2500    10.1934    10.0173
  612.0000  -999.2500    10.2539    10.0470
  612.5000  -999.2500    10.3111    10.0768
  613.0000  -999.2500    10.3111    10.1067
  613.5000  -999.2500    10.1362    10.1217
  614.0000  -999.2500     9.9774     9.8860
  614.5000  -999.2500     9.8211     9.7306
  615.0000  -999.2500     9.6672     9.5781
  615.5000  -999.2500     9.5149     9.4280
  616.0000  -999.2500     9.4622     9.3748
  616.5000  -999.2500     9.4322     9.3453
  617.0000  -999.2500     9.4025     9.3158
  617.5000  -999.2500     9.3408     9.2546
  618.0000  -999.2500     9.2746     9.1891
