~VERSION INFORMATION
 VERS.                2.0:   CWLS LOG ASCII STANDARD - VERSION 2.0
 WRAP.                 NO:   ONE LINE PER DEPTH STEP
~WELL INFORMATION
#MNEM.UNIT      DATA TYPE    INFORMATION
#----------   ------------   ------------------------------
 STRT.F           24.5000:   START DEPTH
 STOP.F          576.0000:   STOP DEPTH
 STEP.F            0.5000:   STEP LENGTH
 NULL.          -999.2500:   NO VALUE
 COMP. FENIX & SCISSON INC:   COMPANY
 WELL.    NPR-3 SX #61-15:   WELL
 FLD .             TEAPOT:   FIELD
 LOC .      S15 T38N R78W:   LOCATION
 CNTY.            NATRONA:   COUNTY
 STAT.            WYOMING:   STATE
 CTRY. UNITED STATES OF AMERICA:   COUNTRY
 SRVC.            Unknown:   SERVICE COMPANY
 DATE.        29-MAY-1978:   LOGDATE
 API .       490251062300:   API NUMBER
~CURVE INFORMATION
#MNEM.UNIT       API CODE    CURVE DESCRIPTION
#----------   ------------   ------------------------------
 DEPT.F                  :   
 GRD .GAPI   45 310 01 00:   GAMMA RAY FROM DENSITY LOG
 CALD.IN     45 280 60 00:   CALIPER FROM DENSITY LOG
 SN  .OHMM   05 040 16 00:   SHORT NORMAL 16'
 SPR .MV     05 010 01 00:   SPONTANEOUS POTENTIAL
 ILD .OHMM   05 120 46 00:   INDUCTION LOG DEEP
 RHOB.G/C3   45 350 01 00:   BULK DENSITY
 DPHI.DEC    45 890 12 00:   DENSITY POROSITY SANDSTONE
 CORR.G/C3   45 356 01 00:   DENSITY CORRECTION
~PARAMETER INFORMATION
#MNEM.UNIT          VALUE    DESCRIPTION
#----------   ------------   ------------------------------
 PD  .                 GL:   PERMANENT DATUM
 EPD .F              5221:   ELEVATION PERMANENT DATUM
 LMF .                 KB:   LOG MEASURED FROM
 DAPD.F                 4:   FEET ABOVE PERMANENT DATUM
 DMF .                 KB:   DRILLING MEASURED FROM
 EKB .F              5225:   KELLING BUSHING
 EGL .F              5221:   GROUND LEVEL
 DATE.          5-29-1978:   RUN DATE
 RUN .                  1:   RUN NUMBER
 DD  .F               565:   DEPTH DRILLER
 DL  .F               578:   DEPTH LOGGER
 BLI .F               570:   BOTTOM LOG INTERVAL
 TLI .F                40:   TOP LOG INTERVAL
 CS  .IN            8.625:   CASING SIZE
 CBD .F                40:   CASING BOTTOM DRILLER
 CBL .F                40:   CASING BOTTOM LOGGER
 BS  .IN            7.875:   BIT SIZE
 BSD .F               565:   BIT SIZE AT DEPTH
 DFT .                KCL:   DRILLING FLUID TYPE
 DFD .                8.7:   DRILLING FLUID DENSITY
 DFV .                 34:   DRILLING FLUID VISCOSITY
 DFPH.                9.5:   DRILLING FLUID PH
 DFL .               10.4:   DRILLING FLUID LOSS
 BHT .F                76:   BOTTOM HOLE TEMPERATURE
 TCS .HRS               3:   TIME CURCULATED STOPPED
 MRT .F                76:   MAXIMUM RECORDED TEMPERATURE
 LUN .               2958:   LOGGING UNIT NUMBER
 LUL .              CASP.:   LOGGING UNIT LOCATION
 ENGI.             MILLER:   RECORDING ENGINEER
 WITN.           MCGINLEY:   WITNESSED BY
 CLNT.            A2DTECH:   CLIENT CODE
 ORIG.      2" , 5" PRINT:   ORIGIN OF DATA
 UWI .       490251062300:   UNIQUE WELL ID
 DICO. A2D Technologies, Inc.:   DIGITIZING COMPANY
~OTHER INFORMATION
~A   DEPT       GRD      CALD         SN        SPR        ILD       RHOB       DPHI       CORR   
# ...
   65.0000    87.0942     8.2806     7.2413   -36.5912     6.8155     2.4523     0.1252     0.0275
   65.5000    83.8082     8.2854     7.2170   -36.6049     6.8155     2.4530     0.1269     0.0305
   66.0000    80.1591     8.2905     7.2023   -36.6186     6.8155     2.4529     0.1255     0.0306
   66.5000    78.5922     8.2950     7.1364   -36.6322     6.7580     2.4538     0.1255     0.0325
   67.0000    79.0113     8.3276     7.1364   -36.6459     6.7012     2.4547     0.1268     0.0364
   67.5000    79.5233     8.3677     7.1364   -36.6596     6.6449     2.4556     0.1247     0.0399
   68.0000    80.6516     8.4088     7.1364   -36.6733     6.5891     2.4565     0.1238     0.0494
   68.5000    82.1917     8.4164     7.1364   -36.6869     6.5337     2.4574     0.1251     0.0581
   69.0000    83.3113     8.4168     7.1364   -36.7006     6.4788     2.4581     0.1260     0.0666
   69.5000    83.7676     8.4164     7.1363   -36.7143     6.4243     2.4586     0.1237     0.0847
   70.0000    82.9176     8.3936     7.1364   -36.7280     6.3904     2.4623     0.1177     0.1087
   70.5000    81.3195     8.2732     7.1364   -36.7416     6.3904     2.4911     0.1120     0.1382
   71.0000    79.7189     8.1553     7.2082   -36.7553     6.3904     2.4886     0.1123     0.1507
   71.5000    80.7622     8.0375     7.2983   -36.7690     6.3902     2.4824     0.1135     0.1343
   72.0000    86.1816     7.9198     7.3895   -36.7827     6.3910     2.4785     0.1118     0.1148
   72.5000    90.3384     7.8018     7.4818   -36.7963     6.3885     2.4771     0.1100     0.0954
   73.0000    90.1264     7.7077     7.5753   -36.8100     6.5660     2.4784     0.1114     0.0763
   73.5000    89.8549     7.6405     7.6700   -36.8237     6.7339     2.4784     0.1184     0.0620
   74.0000    90.0993     7.5966     7.7659   -36.8374     6.9049     2.4743     0.1192     0.0473
   74.5000    90.9174     7.5633     7.8629   -36.8510     7.0802     2.4702     0.1198     0.0325
   75.0000    91.3923     7.5299     7.9613   -36.8647     7.2598     2.4661     0.1197     0.0266
   75.5000    89.8190     7.4964     8.0612   -36.8784     7.4011     2.4661     0.1189     0.0265
   76.0000    86.1405     7.4914     8.1183   -36.8921     7.4004     2.4670     0.1198     0.0265
   76.5000    83.1413     7.5126     8.1170   -36.9057     7.4405     2.4678     0.1198     0.0266
   77.0000    82.0804     7.5341     8.1187   -36.9194     7.3870     2.4687     0.1176     0.0261
   77.5000    81.3172     7.5556     7.9688   -36.9331     7.3356     2.4695     0.1171     0.0260
   78.0000    81.5176     7.5768     7.8692   -36.9468     7.2847     2.4704     0.1165     0.0313
   78.5000    83.4254     7.6003     7.7712   -36.9521     7.2339     2.4713     0.1159     0.0403
   79.0000    84.4003     7.6827     7.6743   -36.9522     7.2025     2.4720     0.1153     0.0494
   79.5000    84.0661     7.7701     7.5787   -36.9522     7.1535     2.4720     0.1133     0.0584
   80.0000    83.7273     7.8574     7.4843   -36.9522     7.1039     2.4720     0.1178     0.0675
   80.5000    83.3792     7.9445     7.3910   -36.9522     7.0545     2.4720     0.1204     0.0765
   81.0000    83.6426     8.0318     7.2989   -36.9522     7.0056     2.4720     0.1149     0.0854
   81.5000    85.0869     8.1190     7.2023   -36.9522     6.9570     2.4726     0.1079     0.0939
   82.0000    86.9997     8.2055     7.2023   -36.9520     6.9421     2.4806     0.1008     0.1240
   82.5000    88.6394     8.2472     7.5476   -36.9527     7.1249     2.4907     0.0904     0.1548
   83.0000    89.1235     8.2215     7.7485   -36.9901     7.2944     2.5011     0.0784     0.1854
   83.5000    89.6336     8.1964     7.9526   -37.0307     7.4724     2.5179     0.0663     0.2088
   84.0000    90.0321     8.1577     8.1620   -37.0714     7.3997     2.5417     0.0543     0.1972
   84.5000    88.6119     8.0652     8.3772   -37.1126     7.3075     2.5627     0.0463     0.1783
   85.0000    87.2890     7.9908     8.5987   -37.1475     7.2165     2.5622     0.0523     0.1584
   85.5000    86.9003     7.9662     8.8998   -37.0618     7.1364     2.5568     0.0694     0.1245
   86.0000    85.7298     7.9417     8.7733   -36.9723     7.3284     2.5212     0.0712     0.0581
   86.5000    78.4741     7.9590     8.6134   -36.8833     7.4636     2.4974     0.1239     0.0189
   87.0000    71.3594     7.9978     8.4564   -36.7946     7.6111     2.4726     0.1253     0.0238
   87.5000    70.6782     7.9975     8.3022   -36.7058     7.6815     2.4565     0.1266     0.0282
   88.0000    77.4524     7.9903     8.1509   -36.6170     7.6815     2.4543     0.1280     0.0342
   88.5000    80.6892     7.9825     8.1175   -36.5283     7.6815     2.4519     0.1284     0.0349
   89.0000    79.5501     7.9630     8.1175   -36.4395     7.6405     2.4519     0.1217     0.0355
   89.5000    78.2264     7.9578     8.1175   -36.3508     7.5730     2.4532     0.1272     0.0362
   90.0000    77.5138     7.9584     8.1175   -36.2622     7.5062     2.4547     0.1238     0.0397
   90.5000    76.7821     7.9573     8.1175   -36.1747     7.4399     2.4561     0.1192     0.0494
   91.0000    77.3855     7.9069     8.1175   -36.0205     7.3742     2.4576     0.1192     0.0591
   91.5000    78.3713     7.8523     8.1175   -35.8528     7.3090     2.4590     0.1196     0.0689
   92.0000    78.3482     7.7979     8.1173   -35.7639     7.2445     2.4605     0.1208     0.0774
   92.5000    78.5756     7.7435     8.1178   -35.7826     7.1805     2.4612     0.1301     0.0715
   93.0000    80.0791     7.6864     8.0753   -35.8001     7.1171     2.4522     0.1390     0.0644
   93.5000    81.7894     7.6172     8.0325   -35.8180     7.0541     2.4416     0.1421     0.0584
   94.0000    83.5043     7.5476     7.9897   -35.8357     7.0078     2.4319     0.1381     0.0583
   94.5000    85.2165     7.4826     7.9471   -35.8535     7.0033     2.4382     0.1300     0.0664
   95.0000    86.9225     7.5111     7.9047   -35.8713     7.0710     2.4530     0.1244     0.0645
   95.5000    87.8455     7.6153     7.8626   -35.8890     7.2143     2.4652     0.1207     0.0517
   96.0000    87.1706     7.7727     7.8207   -35.9068     7.3135     2.4699     0.1168     0.0393
   96.5000    84.7854     7.9747     7.7790   -35.9246     7.4140     2.4785     0.1115     0.0522
   97.0000    83.3939     7.9909     7.7525   -35.9423     7.5159     2.4869     0.1061     0.0678
   97.5000    82.3499     8.0142     7.7583   -35.9565     7.6192     2.4920     0.1008     0.0834
   98.0000    81.7299     8.0860     7.7895   -35.9562     7.6815     2.4920     0.1005     0.0991
   98.5000    82.5287     8.1387     7.8209   -35.9562     7.6815     2.4920     0.1009     0.1045
   99.0000    86.5624     8.1558     7.8524   -35.9562     7.6815     2.4920     0.1012     0.1045
   99.5000    88.8946     8.2348     7.8841   -35.9562     7.6815     2.4921     0.1011     0.1040
  100.0000    90.9803     8.2668     7.9158   -35.9562     7.6814     2.4925     0.1000     0.1247
  100.5000    92.2560     8.2772     7.9477   -35.9562     7.6745     2.4932     0.0995     0.1472
  101.0000    92.3658     8.2771     7.9797   -35.9562     7.6149     2.4940     0.1005     0.1629
  101.5000    91.4453     8.2771     8.0119   -35.9566     7.5557     2.4922     0.1042     0.1626
  102.0000    89.7801     8.2666     8.0441   -35.9587     7.4969     2.4898     0.1088     0.1626
  102.5000    85.3979     8.2028     8.0766   -35.9459     7.4386     2.4879     0.0772     0.1748
  103.0000    83.4786     8.0997     8.1091   -35.5721     7.3808     2.4939     0.0910     0.1953
  103.5000    83.0930     7.9732     8.1418   -35.1819     7.3234     2.5272     0.1082     0.2052
  104.0000    83.5017     7.8462     8.1742   -34.9584     7.2665     2.5024     0.1243     0.1181
  104.5000    87.1885     7.7189     8.2224   -34.9603     7.2100     2.4708     0.1122     0.1085
  105.0000    90.2629     7.5919     8.2873   -34.9599     7.1539     2.4693     0.1210     0.1064
