~VERSION INFORMATION
 VERS.                2.0:   CWLS LOG ASCII STANDARD - VERSION 2.0
 WRAP.                 NO:   ONE LINE PER DEPTH STEP
~WELL INFORMATION
#MNEM.UNIT      DATA TYPE    INFORMATION
#----------   ------------   ------------------------------
 STRT.F            8.0000:   START DEPTH
 STOP.F          916.0000:   STOP DEPTH
 STEP.F            0.5000:   STEP LENGTH
 NULL.          -999.2500:   NO VALUE
 COMP. LAWRENCE/ALLISON INC:   COMPANY
 WELL.    41-66 SX #11-11:   WELL
 FLD .             NPR #3:   FIELD
 LOC .      S11 T38N R78W:   LOCATION
 CNTY.            NATRONA:   COUNTY
 STAT.            WYOMING:   STATE
 CTRY. UNITED STATES OF AMERICA:   COUNTRY
 SRVC.           Gearhart:   SERVICE COMPANY
 DATE.        13-MAY-1987:   LOGDATE
 API .       490251112600:   API NUMBER
~CURVE INFORMATION
#MNEM.UNIT       API CODE    CURVE DESCRIPTION
#----------   ------------   ------------------------------
 DEPT.F                  :   
 GRR .GAPI   07 310 01 00:   GAMMA RAY FROM RES. LOG.
 RILM.OHMM   07 120 44 00:   INDUCTION LOG MEDIUM RESISTIVITY
 RILD.OHMM   07 120 46 00:   INDUCTION LOG DEEP RESISTIVITY
~PARAMETER INFORMATION
#MNEM.UNIT          VALUE    DESCRIPTION
#----------   ------------   ------------------------------
 PD  .                 GL:   PERMANENT DATUM
 EPD .F              5166:   ELEVATION PERMANENT DATUM
 LMF .                 KB:   LOG MEASURED FROM
 DAPD.F                 8:   FEET ABOVE PERMANENT DATUM
 DMF .                 KB:   DRILLING MEASURED FROM
 EKB .F              5174:   KELLING BUSHING
 EDF .F              5174:   DRILLING FLOOR
 EGL .F              5166:   GROUND LEVEL
 DATE.            5-13-87:   RUN DATE
 RUN .                  1:   RUN NUMBER
 DD  .F               945:   DEPTH DRILLER
 DL  .F               930:   DEPTH LOGGER
 BLI .F               921:   BOTTOM LOG INTERVAL
 TLI .F                49:   TOP LOG INTERVAL
 CS  .IN            8.625:   CASING SIZE
 CBD .F                47:   CASING BOTTOM DRILLER
 CBL .F                49:   CASING BOTTOM LOGGER
 BS  .IN            7.875:   BIT SIZE
 BSD .F               945:   BIT SIZE AT DEPTH
 DFT .           AIR FOAM:   DRILLING FLUID TYPE
 TCS .HRS            2230:   TIME CURCULATED STOPPED
 TLAB.HRS            1105:   TIME LOGGER AT BOTTOM
 MRT .F                80:   MAXIMUM RECORDED TEMPERATURE
 LUN .               7597:   LOGGING UNIT NUMBER
 LUL .                GLT:   LOGGING UNIT LOCATION
 ENGI.            WANGLER:   RECORDING ENGINEER
 WITN.             STRONG:   WITNESSED BY
 CLNT.            A2DTECH:   CLIENT CODE
 ORIG.       2", 5" PRINT:   ORIGIN OF DATA
 UWI .       490251112600:   UNIQUE WELL ID
 DICO. A2D Technologies, Inc.:   DIGITIZING COMPANY
~OTHER INFORMATION
~A    DEPT      GRR      RILM       RILD   
# ...
  554.0000   101.9476     8.1746     8.0528
  554.5000   105.5074     7.9627     7.7768
  555.0000   105.2903     7.7562     7.5105
  555.5000   102.3884     7.5551     7.3207
  556.0000    99.5425     7.5310     7.3591
  556.5000    96.9810     7.5508     7.3897
  557.0000    96.6980     7.5662     7.4207
  557.5000    98.8246     7.5816     7.4515
  558.0000   101.1368     7.5970     7.4825
  558.5000   101.9306     7.6125     7.5137
  559.0000   101.4974     7.6280     7.5449
  559.5000   101.6022     7.6435     7.5763
  560.0000   102.6703     7.6591     7.6068
  560.5000   103.7258     7.6747     7.6324
  561.0000   104.7865     7.6903     7.6582
  561.5000   104.9389     7.7059     7.6839
  562.0000   102.0251     7.7217     7.7099
  562.5000   100.4329     7.7374     7.7359
  563.0000    99.6976     7.7785     7.7868
  563.5000   100.4696     7.8632     7.8575
  564.0000   102.1862     7.9490     7.9288
  564.5000   103.8704     8.0356     8.0008
  565.0000   105.5453     8.1232     8.0734
  565.5000   107.2199     8.1985     8.1985
  566.0000   108.8893     8.1821     8.1542
  566.5000   109.8001     8.1679     8.1081
  567.0000   108.6165     8.1537     8.0622
  567.5000   106.9601     8.1395     8.0166
  568.0000   106.1540     8.1253     7.9712
  568.5000   107.9042     8.0636     7.9261
  569.0000   111.3219     7.9853     7.8813
  569.5000   113.3645     7.9078     7.8367
  570.0000   112.2914     7.8948     7.8207
  570.5000   111.2276     7.9654     7.8638
  571.0000   110.1640     8.0327     7.9052
  571.5000   109.5654     8.1005     7.9467
  572.0000   109.6609     8.1690     7.9883
  572.5000   110.2998     8.2382     8.0452
  573.0000   110.1306     8.2769     8.0238
  573.5000   109.2902     8.2228     7.9906
  574.0000   108.9677     8.1618     7.9574
  574.5000   108.9592     8.1012     7.9245
  575.0000   108.9737     8.0410     7.8916
  575.5000   108.1180     7.9813     7.8589
  576.0000   107.5787     7.9220     7.8264
  576.5000   108.1500     7.8632     7.7939
  577.0000   107.4365     7.8048     7.7617
  577.5000   105.9865     7.7468     7.7135
  578.0000   104.4407     7.6893     7.6527
  578.5000   105.5548     7.6322     7.5924
  579.0000   106.1680     7.5756     7.5326
  579.5000   103.7587     7.5190     7.4732
  580.0000   101.9693     7.4610     7.4143
  580.5000   104.2023     7.3789     7.3559
  581.0000   107.1026     7.2717     7.2255
  581.5000   108.3892     7.1660     6.9897
  582.0000   109.5718     7.0619     6.7617
  582.5000   110.8000     6.8091     6.5404
  583.0000   112.4151     6.4691     6.3284
  583.5000   113.8223     6.1454     6.2154
  584.0000   111.7142     5.8386     6.1832
  584.5000   108.4230     5.6719     6.1498
  585.0000   105.1382     5.7344     6.1191
  585.5000   102.0006     5.9627     6.1191
  586.0000   100.7677     6.2000     6.1191
  586.5000   101.5545     6.3833     6.2567
  587.0000   102.9716     6.5493     6.4049
  587.5000   106.0831     6.7196     6.5567
  588.0000   107.8492     6.8944     6.7121
  588.5000   108.5556     7.0496     6.8605
  589.0000   107.8239     7.1240     6.9123
  589.5000   106.7495     7.1465     6.9669
  590.0000   106.3165     7.1690     7.0214
  590.5000   106.2994     7.1916     7.0764
  591.0000   107.3816     7.2143     7.1164
  591.5000   108.2213     7.2370     7.0761
  592.0000   108.4639     7.2520     7.0448
  592.5000   108.7053     7.1296     7.0136
  593.0000   108.9800     7.0250     6.9833
  593.5000   110.2275     6.9219     6.8910
  594.0000   112.3680     6.8203     6.8019
  594.5000   113.6456     6.7202     6.7246
  595.0000   114.2642     6.6216     6.4376
  595.5000   113.9443     6.4281     6.1422
  596.0000   113.0590     6.2123     5.8603
  596.5000   112.1807     6.0037     5.5920
  597.0000   111.3018     5.8021     5.3321
  597.5000   110.4177     5.5416     5.1796
  598.0000   108.7820     5.1306     5.0632
  598.5000   106.8662     4.7547     4.9719
  599.0000   104.9469     4.4817     5.0284
  599.5000   103.0206     4.4817     5.0438
  600.0000   101.7317     4.6694     5.0592
  600.5000   101.3602     4.8787     5.1444
  601.0000   102.9639     5.0978     5.3766
  601.5000   106.2166     5.3266     5.6193
  602.0000   109.4520     5.5656     5.8730
  602.5000   111.9524     5.8154     6.1384
  603.0000   112.0846     6.0763     6.4127
  603.5000   110.7602     6.3489     6.6674
  604.0000   109.4300     6.6338     6.7856
  604.5000   108.1633     6.9315     6.8942
  605.0000   107.8078     7.1235     7.0046
  605.5000   107.4857     7.1110     7.1168
  606.0000   107.8710     7.2461     7.2308
  606.5000   110.0807     7.3353     7.3465
  607.0000   112.6849     7.4254     7.4642
  607.5000   115.2930     7.5167     7.5837
  608.0000   116.7459     7.6092     7.6943
  608.5000   115.0146     7.6781     7.7379
  609.0000   112.0050     7.7116     7.7816
  609.5000   108.9667     7.7454     7.8257
  610.0000   107.2454     7.7793     7.8699
  610.5000   106.3836     7.8133     7.9144
  611.0000   105.5160     7.8474     7.9592
  611.5000   105.7122     7.8818     8.0042
  612.0000   108.3608     7.9163     8.0495
  612.5000   111.2232     7.9509     8.0950
  613.0000   113.8181     7.9857     8.1215
  613.5000   112.2227     8.0206     8.0884
  614.0000   109.1552     8.0452     8.0652
  614.5000   106.1547     7.9267     8.0452
  615.0000   105.6286     7.7986     7.9225
  615.5000   106.5404     7.6725     7.7942
  616.0000   109.4003     7.5485     7.6682
  616.5000   111.3875     7.4602     7.5442
  617.0000   111.4171     7.3987     7.4223
  617.5000   111.6291     7.3424     7.3186
  618.0000   113.4725     7.2865     7.1879
  618.5000   114.2410     7.2311     7.0596
  619.0000   112.5043     7.1760     6.9336
  619.5000   110.3829     7.1164     6.6285
  620.0000   109.3949     6.9259     6.2247
  620.5000   109.9054     6.5154     5.8371
  621.0000   110.4890     6.1292     5.3683
  621.5000   110.5548     5.7822     4.9421
  622.0000   111.9349     5.1443     4.6541
  622.5000   113.5231     4.6004     3.9939
  623.0000   113.7962     4.2751     3.4669
  623.5000   112.1095     3.5161     3.0095
  624.0000   109.7830     2.9426     2.7308
  624.5000   107.4384     2.5485     2.6389
  625.0000   104.9934     2.3009     2.5501
  625.5000   102.1982     2.0647     2.4269
  626.0000    99.2317     2.0679     2.4499
  626.5000    97.2465     2.1061     2.5598
  627.0000    97.0798     2.3261     2.7278
  627.5000   103.0215     2.6039     2.9456
  628.0000   111.1904     3.0154     3.3318
  628.5000   116.8140     3.4959     3.7685
  629.0000   118.4569     4.0570     4.2626
  629.5000   118.7596     4.7079     4.8214
  630.0000   120.1276     5.3120     5.2637
  630.5000   124.4704     5.5178     5.4975
  631.0000   124.1479     5.6741     5.7416
  631.5000   119.6912     5.7663     6.0047
  632.0000   115.1235     5.8924     6.0429
  632.5000   115.0140     5.9595     6.1191
  633.0000   116.2220     6.0063     5.9956
  633.5000   117.4421     6.0079     5.7544
  634.0000   118.7385     5.6674     5.5230
  634.5000   121.9878     5.4591     5.3008
  635.0000   126.1469     5.2590     5.0877
  635.5000   129.7137     5.0665     4.9093
  636.0000   130.8665     4.8809     4.7711
  636.5000   130.7220     4.7022     4.6104
  637.0000   129.7565     4.5242     4.6104
  637.5000   127.4118     4.5242     4.6982
  638.0000   125.3554     4.6011     4.8082
  638.5000   123.6720     4.7428     4.9675
  639.0000   122.8120     4.8684     5.1392
  639.5000   122.8518     5.0666     5.3801
  640.0000   120.8513     5.3064     5.6325
  640.5000   118.3964     5.5722     5.8924
  641.0000   118.3706     5.8514     6.0868
  641.5000   118.6553     6.1445     6.2845
  642.0000   118.9231     6.4526     6.4886
  642.5000   119.1839     6.7756     6.6993
  643.0000   119.4592     7.1164     6.9177
  643.5000   118.5075     7.1164     6.9533
  644.0000   116.8296     7.1164     6.9892
  644.5000   117.1227     7.1164     7.0232
