~VERSION INFORMATION
 VERS.                2.0:   CWLS LOG ASCII STANDARD - VERSION 2.0
 WRAP.                 NO:   ONE LINE PER DEPTH STEP
~WELL INFORMATION
#MNEM.UNIT      DATA TYPE    INFORMATION
#----------   ------------   ------------------------------
 STRT.F           32.0000:   START DEPTH
 STOP.F          571.0000:   STOP DEPTH
 STEP.F            0.5000:   STEP LENGTH
 NULL.          -999.2500:   NO VALUE
 COMP. FENIX & SCISSON INCORP.:   COMPANY
 WELL.      NPR-3 #21-S-3:   WELL
 FLD .             TEAPOT:   FIELD
 LOC .       S3 T38N R78W:   LOCATION
 CNTY.            NATRONA:   COUNTY
 STAT.            WYOMING:   STATE
 CTRY. UNITED STATES OF AMERICA:   COUNTRY
 SRVC.           BIRDWELL:   SERVICE COMPANY
 DATE.        25-JUL-1978:   LOGDATE
 API .       490251067100:   API NUMBER
~CURVE INFORMATION
#MNEM.UNIT       API CODE    CURVE DESCRIPTION
#----------   ------------   ------------------------------
 DEPT.F                  :   
 CALD.IN     45 280 60 00:   CALIPER FROM DENSITY LOG
 CORR.G/C3   45 356 01 00:   DENSITY CORRECTION
 DPHI.DEC    45 890 10 00:   DENSITY POROSITY LIMESTONE
 GRD .GAPI   45 310 01 00:   GAMMA RAY FROM DENSITY LOG
 RHOB.G/C3   45 350 01 00:   BULK DENSITY
 ILD .OHMM   05 120 46 00:   INDUCTION LOG DEEP
 SN  .OHMM   05 040 16 00:   SHORT NORMAL 16"
 SPR .MV     05 010 01 00:   SPONTANEOUS POTENTIAL FROM RES.
 NPHI.DEC    42 890 01 00:   NEUTRON POROSITY LIMESTONE
~PARAMETER INFORMATION
#MNEM.UNIT          VALUE    DESCRIPTION
#----------   ------------   ------------------------------
 PD  .                 GL:   PERMANENT DATUM
 EPD .F              5203:   ELEVATION PERMANENT DATUM
 LMF .                 KB:   LOG MEASURED FROM
 DAPD.F                 4:   FEET ABOVE PERMANENT DATUM
 DMF .                 KB:   DRILLING MEASURED FROM
 EKB .F              5207:   KELLING BUSHING
 EGL .F              5203:   GROUND LEVEL
 DATE.        25-JUL-1978:   RUN DATE
 RUN .                  1:   RUN NUMBER
 DD  .F               565:   DEPTH DRILLER
 DL  .F               573:   DEPTH LOGGER
 BLI .F               566:   BOTTOM LOG INTERVAL
 TLI .F                46:   TOP LOG INTERVAL
 CS  .IN            8.625:   CASING SIZE
 CBD .F                40:   CASING BOTTOM DRILLER
 CBL .F                48:   CASING BOTTOM LOGGER
 BS  .IN            7.875:   BIT SIZE
 BSD .F               565:   BIT SIZE AT DEPTH
 DFT .                KCL:   DRILLING FLUID TYPE
 DFD .                8.6:   DRILLING FLUID DENSITY
 DFV .                 30:   DRILLING FLUID VISCOSITY
 DFPH.                  9:   DRILLING FLUID PH
 MSS .           FLOWLINE:   MUD SAMPLE SOURCE
 LUN .               2958:   LOGGING UNIT NUMBER
 LUL .               CASP:   LOGGING UNIT LOCATION
 WITN.           MCGINLEY:   WITNESSED BY
 CLNT.            A2DTECH:   CLIENT CODE
 ORIG.           5" PRINT:   ORIGIN OF DATA
 UWI .       490251067100:   UNIQUE WELL ID
 DICO. A2D Technologies, Inc.:   DIGITIZING COMPANY
~OTHER INFORMATION
~A   DEPT     CALD       CORR       DPHI         GRD      RHOB        ILD         SN        SPR       NPHI   
# ...
  470.0000     6.9043     0.1105     0.2223    78.5292     2.3254    23.0657    16.5575   -34.8291     0.3119
  470.5000     6.8746     0.0926     0.2244    77.9330     2.3194    22.4583    16.4475   -34.6672     0.3005
  471.0000     6.9046     0.0701     0.2253    78.0905     2.3157    22.4827    16.2407   -34.6513     0.2961
  471.5000     6.9048     0.0446     0.2247    78.0964     2.3149    22.6578    16.1364   -34.7901     0.2952
  472.0000     6.9348     0.0192     0.2240    77.9522     2.3148    22.6774    15.9274   -35.0743     0.2949
  472.5000     6.9350     0.0085     0.2196    77.9581     2.3164    22.5364    15.8251   -35.2099     0.2952
  473.0000     6.8903     0.0118     0.2205    78.8708     2.3194    22.4012    15.5129   -35.3455     0.2955
  473.5000     6.8157     0.0103     0.2253    81.2213     2.3210    22.2667    15.5222   -35.3293     0.2952
  474.0000     6.8009     0.0121     0.2145    85.2352     2.3180    21.8350    15.5316   -35.1677     0.2931
  474.5000     6.8160     0.0165     0.2106    85.9396     2.3202    21.1140    15.4296   -35.0059     0.2934
  475.0000     6.8461     0.0165     0.2061    84.5956     2.3322    20.8432    15.2320   -34.9926     0.2955
  475.5000     6.8611     0.0166     0.2067    83.1000     2.3390    20.8659    15.1364   -35.2773     0.2973
  476.0000     6.9061     0.0181     0.2136    82.6539     2.3420    20.8840    15.0437   -35.5615     0.2967
  476.5000     6.9063     0.0272     0.2172    84.0126     2.3345    20.9022    15.0528   -35.3966     0.2964
  477.0000     6.9363     0.0318     0.2142    85.6702     2.3270    20.3517    14.9561   -35.3837     0.2964
  477.5000     6.9365     0.0288     0.2061    86.7271     2.3288    19.5447    14.7602   -35.2221     0.2958
  478.0000     6.9067     0.0229     0.2070    87.7841     2.3450    19.0300    14.5691   -35.1897     0.2976
  478.5000     6.9069     0.0154     0.2088    88.2404     2.3420    18.9158    14.4777   -35.1961     0.3018
  479.0000     6.8772     0.0094     0.2082    88.2463     2.3405    18.9328    14.3720   -35.0342     0.3102
  479.5000     6.8474     0.0080     0.2070    88.2522     2.3420    19.0838    14.2966   -35.1701     0.3132
  480.0000     6.7877     0.0096     0.2118    79.4295     2.3405    18.9651    14.4064   -35.1539     0.3132
  480.5000     6.7730     0.0112     0.2142    76.8540     2.3353    18.8513    14.4150   -34.9923     0.3108
  481.0000     6.7880     0.0097     0.2148    78.0611     2.3315    18.8718    14.4237   -34.8307     0.3025
  481.5000     6.7900     0.0113     0.2139    82.2712     2.3323    18.8882    14.3311   -34.8177     0.2938
  482.0000     6.7734     0.0098     0.2136    83.7786     2.3331    19.0353    14.2431   -34.8047     0.2932
  482.5000     6.8194     0.0084     0.2136    83.7845     2.3331    19.2510    14.2520   -35.0889     0.3016
  483.0000     6.8359     0.0085     0.2158    83.3399     2.3315    19.4671    14.2608   -35.2245     0.3076
  483.5000     6.9084     0.0070     0.2197    82.2947     2.3300    19.2211    14.1710   -35.1887     0.3121
  484.0000     6.9085     0.0056     0.2220    82.6009     2.3256    19.2378    14.0822   -35.0467     0.3160
  484.5000     6.9087     0.0056     0.2184    82.6068     2.3196    19.1181    13.9938   -34.8851     0.3052
  485.0000     6.9238     0.0057     0.2142    82.3123     2.3234    18.8729    14.0044   -34.5749     0.2956
  485.5000     6.9239     0.0058     0.2118    80.3663     2.3301    18.3799    13.7260   -34.4133     0.2905
  486.0000     6.9091     0.0088     0.2085    81.4795     2.3324    18.0196    13.5462   -34.4003     0.2870
  486.5000     6.9093     0.0104     0.2055    85.6136     2.3346    17.5451    13.3684   -34.8336     0.2923
  487.0000     6.8945     0.0120     0.2022    87.7428     2.3399    17.0831    13.0918   -35.1174     0.3076
  487.5000     6.8647     0.0120     0.1981    88.3493     2.3496    16.5226    12.8444   -35.2529     0.3076
  488.0000     6.8200     0.0151     0.1945    88.2051     2.3564    15.9771    12.6761   -35.3852     0.2981
  488.5000     6.9398     0.0181     0.1890    84.7575     2.3616    15.3435    12.5101   -35.2236     0.2897
  489.0000     6.6559     0.0212     0.1825    84.0112     2.3661    14.4336    12.3444   -35.0621     0.2885
  489.5000     6.4767     0.0243     0.1773    84.0185     2.3719    13.8612    12.2669   -35.4948     0.2885
  490.0000     6.3722     0.0243     0.1765    85.6761     2.3864    13.4962    12.0249   -35.7779     0.2882
  490.5000     6.2827     0.0274     0.1816    90.1865     2.3901    13.1418    11.8674   -35.9135     0.2885
  491.0000     6.2230     0.0275     0.1876    90.5756     2.3864    13.3357    11.6226   -36.3463     0.2897
  491.5000     6.2082     0.0305     0.1933    90.0481     2.3789    13.5324    11.4002   -36.6337     0.2918
  492.0000     6.2233     0.0351     0.1948    87.1612     2.3692    13.8296    11.4088   -36.7693     0.2951
  492.5000     6.2384     0.0411     0.1984    83.6034     2.3624    13.8395    11.4157   -37.0505     0.2993
  493.0000     6.2988     0.0472     0.2010    84.9621     2.3587    13.6615    11.3423   -37.3344     0.3050
  493.5000     6.3768     0.0518     0.2046    86.6197     2.3535    13.5795    11.2712   -37.3214     0.3068
  494.0000     6.5229     0.0608     0.2076    87.5264     2.3467    13.4980    11.1250   -37.7510     0.3071
  494.5000     6.7024     0.0789     0.2091    87.2306     2.3377    13.5127    11.0554   -37.7380     0.3029
  495.0000     6.8819     0.0835     0.1926    86.3370     2.3553    13.6179    11.1388   -37.8736     0.2949
  495.5000     6.9120     0.0818     0.1474    84.9916     2.4142    13.6298    11.0688   -38.1577     0.2897
  496.0000     6.9121     0.0776     0.1369    86.3488     2.4374    13.6417    11.0771   -38.2966     0.2846
  496.5000     6.9721     0.0762     0.1351    88.3303     2.4561    13.5597    11.0076   -38.2803     0.2829
  497.0000     7.0469     0.0732     0.1372    88.6128     2.4599    13.2968    10.9369   -38.7131     0.2799
  497.5000     7.0620     0.0673     0.1402    88.1683     2.4599    13.1263    10.7953   -38.8487     0.2763
  498.0000     7.0622     0.0613     0.1432    87.2712     2.4584    12.8662    10.7273   -38.8325     0.2784
  498.5000     7.0623     0.0524     0.1468    87.3494     2.4509    12.7889    10.5143   -38.9713     0.2787
  499.0000     7.0625     0.0419     0.1471    90.0661     2.4442    12.6276    10.4423   -39.4008     0.2781
  499.5000     7.0776     0.0345     0.1459    91.1963     2.4389    12.6386    10.3828   -39.5364     0.2805
  500.0000     7.0628     0.0225     0.1468    90.6016     2.4472    12.4782    10.4622   -39.9692     0.2835
  500.5000     7.0330     0.0087     0.1588    85.3469     2.4460    12.5745    10.4713   -39.6587     0.2817
  501.0000     7.0033     0.0015     0.1587    83.2463     2.4248    12.5846    10.4082   -40.2386     0.2817
  501.5000     6.9736     0.0030     0.1552    84.5991     2.4188    12.5947    10.3459   -40.3728     0.2820
  502.0000     6.9587    -0.0029     0.1525    86.5766     2.4293    12.5178    10.2838   -40.2062     0.2785
  502.5000     6.9589    -0.0029     0.1505    88.3562     2.4330    12.4422    10.2220   -40.3403     0.2770
  503.0000     6.9441     0.0001     0.1484    89.2585     2.4315    12.4523    10.2331   -40.7716     0.2830
  503.5000     6.9443    -0.0029     0.1463    89.8606     2.4346    12.2942    10.2420   -41.2036     0.2833
  504.0000     6.9444    -0.0044     0.1457    89.7119     2.4406    12.1333    10.2509   -41.0400     0.2830
  504.5000     6.9147    -0.0059     0.1525    89.5629     2.4421    12.1455    10.1871   -41.3227     0.2839
  505.0000     6.9148    -0.0011     0.1494    89.7148     2.4375    11.9889    10.1982   -41.3047     0.2842
  505.5000     6.8985    -0.0028     0.1441    89.7163     2.4346    11.8343    10.2071   -41.2903     0.2866
  506.0000     6.8852    -0.0043     0.1468    89.7178     2.4429    11.8438    10.1458   -41.4244     0.2926
