~VERSION INFORMATION
 VERS.                2.0:   CWLS LOG ASCII STANDARD - VERSION 2.0
 WRAP.                 NO:   ONE LINE PER DEPTH STEP
~WELL INFORMATION
#MNEM.UNIT      DATA TYPE    INFORMATION
#----------   ------------   ------------------------------
 STRT.F           22.0000:   START DEPTH
 STOP.F          500.0000:   STOP DEPTH
 STEP.F            0.5000:   STEP LENGTH
 NULL.          -999.2500:   NO VALUE
 COMP.    FENIX & SCISSON:   COMPANY
 WELL.      NPR-3 #65S3-3:   WELL
 FLD .             teapot:   FIELD
 LOC .       S3 T38N R78W:   LOCATION
 CNTY.            NATRONA:   COUNTY
 STAT.            WYOMING:   STATE
 CTRY. UNITED STATES OF AMERICA:   COUNTRY
 SRVC.           BIRDWELL:   SERVICE COMPANY
 DATE.        07-JAN-1978:   LOGDATE
 API .       490251055200:   API NUMBER
~CURVE INFORMATION
#MNEM.UNIT       API CODE    CURVE DESCRIPTION
#----------   ------------   ------------------------------
 DEPT.F                  :   
 ILD .OHMM   05 120 46 00:   INDUCTION LOG DEEP
 SN  .OHMM   05 040 16 00:   SHORT NORMAL 16"
 SPR .MV     05 010 01 00:   SPONTANEOUS POTENTIAL FROM RES.
 CALD.IN     45 280 60 00:   CALIPER FROM DENSITY LOG
 DPHI.DEC    45 890 12 00:   DENSITY POROSITY SANDSTONE
 DRHO.G/C3   45 356 01 00:   DENSITY CORRECTION
 GRD .GAPI   45 310 01 00:   GAMMA RAY FROM DENSITY LOG
 RHOB.G/C3   45 350 01 00:   BULK DENSITY
~PARAMETER INFORMATION
#MNEM.UNIT          VALUE    DESCRIPTION
#----------   ------------   ------------------------------
 PD  .                 GL:   PERMANENT DATUM
 EPD .F              5156:   ELEVATION PERMANENT DATUM
 LMF .                 KB:   LOG MEASURED FROM
 DAPD.F                 4:   FEET ABOVE PERMANENT DATUM
 DMF .                 KB:   DRILLING MEASURED FROM
 EKB .F              5160:   KELLING BUSHING
 EGL .F              5156:   GROUND LEVEL
 DATE.        07-JAN-1978:   RUN DATE
 RUN .                  1:   RUN NUMBER
 DD  .F               500:   DEPTH DRILLER
 DL  .F               502:   DEPTH LOGGER
 BLI .F               500:   BOTTOM LOG INTERVAL
 TLI .F                30:   TOP LOG INTERVAL
 CS  .IN            8.625:   CASING SIZE
 CBD .F                40:   CASING BOTTOM DRILLER
 CBL .F                40:   CASING BOTTOM LOGGER
 BS  .IN            7.875:   BIT SIZE
 BSD .F               500:   BIT SIZE AT DEPTH
 DFT .                KCL:   DRILLING FLUID TYPE
 DFD .                8.6:   DRILLING FLUID DENSITY
 DFV .                 33:   DRILLING FLUID VISCOSITY
 DFPH.                9.0:   DRILLING FLUID PH
 DFL .                7.6:   DRILLING FLUID LOSS
 MSS .           FLOWLINE:   MUD SAMPLE SOURCE
 RMS .OHMM           0.23:   RESISTIVITY MUD SAMPLE
 MST .F                60:   MUD SAMPLE TEMPERATURE
 RMF .OHMM            2.2:   RESISTIVITY MUD FILTRATE SAMPLE
 MFST.F                60:   MUD FILTRATE SAMPLE TEMPERATURE
 RMC .OHMM            3.4:   RESISTIVITY MUD CAKE
 MCST.F                60:   MUD CAKE SAMPLE TEMPERATURE
 MFSS.               MEAS:   MUD FILTRATE SAMPLE SOURCE
 MCSS.               MEAS:   MUD CAKE SAMPLE SOURCE
 RMB .OHMM            1.9:   RESISTIVITY MUD AT BHT
 BHT .F                71:   BOTTOM HOLE TEMPERATURE
 TCS .HRS               8:   TIME CURCULATED STOPPED
 MRT .F                71:   MAXIMUM RECORDED TEMPERATURE
 LUN .               2958:   LOGGING UNIT NUMBER
 LUL .             CASPER:   LOGGING UNIT LOCATION
 ENGI.            POINTER:   RECORDING ENGINEER
 WITN.      DAVE MCGINLEY:   WITNESSED BY
 CLNT.            A2DTECH:   CLIENT CODE
 ORIG.           5" PRINT:   ORIGIN OF DATA
 UWI .       490251055200:   UNIQUE WELL ID
 DICO. A2D Technologies, Inc.:   DIGITIZING COMPANY
~OTHER INFORMATION
~A   DEPT      ILD         SN        SPR       CALD       DPHI       DRHO         GRD      RHOB   
# ...
  427.0000    10.4115    14.7563   -34.2097     8.1739     0.1019     0.0182    92.3041     2.4727
  427.5000    10.1859    14.5388   -34.2370     8.1739     0.0989     0.0181    93.1999     2.4735
  428.0000     9.9634    14.4249   -34.5631     8.1739     0.0935     0.0220    92.6076     2.4713
  428.5000     9.8160    14.4121   -35.3452     8.1739     0.0970     0.0213    92.0145     2.4691
  429.0000     9.7385    14.2992   -35.5194     8.1739     0.0997     0.0213    91.1253     2.4691
  429.5000     9.7292    14.0884   -35.8455     8.1589     0.1015     0.0213    90.8299     2.4721
  430.0000     9.7199    13.9780   -36.3237     8.1589     0.1012     0.0213    90.8336     2.4729
  430.5000     9.7106    13.8684   -36.8018     8.1739     0.1000     0.0214    91.1341     2.4714
  431.0000     9.7014    13.6638   -36.9760     8.1889     0.0997     0.0221    91.1370     2.4692
  431.5000     9.7616    13.5398   -36.8462     8.1889     0.1015     0.0214    92.0328     2.4670
  432.0000     9.4816    13.2612   -37.0213     8.1889     0.1029     0.0199    93.2262     2.4680
  432.5000     9.1478    12.9748   -37.5041     8.1889     0.1041     0.0184    93.5268     2.4723
  433.0000     8.7034    12.5185   -37.8302     8.1889     0.1047     0.0177    92.9345     2.4724
  433.5000     7.9337    12.0783   -38.0044     8.1889     0.1050     0.0200    94.5446     2.4694
  434.0000     6.9713    11.6536   -38.9385     8.1739     0.1053     0.0245    98.2982     2.4672
  434.5000     6.0785    11.1655   -39.2646     8.1589     0.1062     0.0291   100.6821     2.4657
  435.0000     5.9056    10.5496   -38.8253     8.1589     0.1079     0.0351   103.3636     2.4635
  435.5000     6.0670     9.8291   -38.8531     8.1439     0.1115     0.0389   106.0451     2.4605
  436.0000     6.1464     9.6168   -39.3333     8.1439     0.1217     0.0390   107.8337     2.4568
  436.5000     6.1850     9.6064   -38.2720     8.1439     0.1295     0.0367   107.2414     2.4501
  437.0000     6.2223     9.8011   -37.5575     8.1439     0.1376     0.0209   104.2682     2.4351
  437.5000     6.3908    10.1404   -36.9718     8.1439     0.1457     0.0006    98.6163     2.4156
  438.0000     6.7513    11.0169   -36.5325     8.1289     0.1369    -0.0132    92.6669     2.3984
  438.5000     7.8732    12.4814   -35.9524     8.1289     0.1177     0.0142    92.0738     2.4087
  439.0000     9.0582    13.0039   -35.6706     8.1439     0.0856     0.0233    93.8632     2.4926
  439.5000    10.0177    13.3604   -35.5353     8.1439     0.0799     0.0233    94.4614     2.5043
  440.0000     9.9386    13.8229   -35.5630     8.1439     0.0835     0.0187    94.1667     2.5058
  440.5000     9.6558    14.0049   -35.5853     8.1589     0.0901     0.0180    92.6418     2.4968
  441.0000     9.6466    14.0906   -35.7599     8.1589     0.0843     0.0213    91.1963     2.4893
  441.5000     9.7072    14.2729   -35.7872     8.1589     0.0823     0.0249    91.4976     2.4999
  442.0000     9.7659    14.7670   -35.8094     8.1589     0.0882     0.0196    92.3934     2.5014
  442.5000     9.8226    15.0663   -35.8316     8.1589     0.0834     0.0227    93.5868     2.4924
  443.0000    10.0208    15.2646   -35.5499     8.1589     0.0774     0.0250    94.7802     2.5007
  443.5000    10.1527    15.3614   -35.1161     8.1589     0.0711     0.0272    94.4855     2.5075
  444.0000    10.2856    15.5602   -34.8288     8.1589     0.0747     0.0250    94.1901     2.5173
  444.5000    10.3478    15.7651   -35.3125     8.1589     0.0735     0.0243    93.5978     2.5189
  445.0000    10.4807    15.9728   -35.7906     8.1589     0.0696     0.0258    92.4110     2.5166
  445.5000    10.6204    16.1830   -36.1168     8.1589     0.0669     0.0236    90.9258     2.5242
  446.0000    10.9080    16.1680   -35.0090     8.1589     0.0692     0.0198    89.4406     2.5249
  446.5000    11.2060    16.2639   -34.0391     8.1589     0.0719     0.0168    88.5506     2.5194
  447.0000    11.4321    16.3634   -34.2133     8.1739     0.0737     0.0183    88.8512     2.5174
  447.5000    11.6084    16.4635   -34.3875     8.1739     0.0758     0.0206    90.6399     2.5182
  448.0000    11.8155    16.5679   -34.2521     8.1589     0.0813     0.0214    89.7302     2.5153
  448.5000    11.8014    16.5496   -33.9759     8.1589     0.0857     0.0169    89.4553     2.5108
  449.0000    11.7902    16.5349   -33.8406     8.1589     0.0840     0.0124    90.6494     2.5011
  449.5000    11.7789    16.5203   -33.7158     8.1739     0.0809     0.0169    92.1404     2.4943
  450.0000    11.7677    16.5057   -33.5866     8.1861     0.0827     0.0185    89.4655     2.4989
  450.5000    11.7548    16.8346   -33.6094     8.1746     0.0869     0.0185    88.5838     2.4974
  451.0000    11.7429    16.8090   -33.6366     8.1603     0.0887     0.0194    88.3010     2.4930
  451.5000    11.7310    16.7885   -33.5063     8.1613     0.0881     0.0209    90.1053     2.4923
  452.0000    11.6377    16.7681   -33.8323     8.1620     0.0847     0.0232    89.8225     2.4983
  452.5000    11.3850    16.7477   -34.0063     8.1778     0.0904     0.0203    87.7540     2.4939
  453.0000    11.3707    16.7273   -34.0284     8.1785     0.0934     0.0173    88.0665     2.4879
  453.5000    11.4416    16.7070   -33.7464     8.1943     0.0958     0.0159    88.9742     2.4812
  454.0000    11.4272    16.5657   -33.7690     8.1950     0.0964     0.0159    87.5009     2.4760
  454.5000    11.3363    16.4344   -33.7960     8.1806     0.0939     0.0145    86.6192     2.4753
  455.0000    11.3248    16.4102   -33.8181     8.1815     0.0930     0.0153    85.7449     2.4776
  455.5000    11.2347    16.3903   -33.8401     8.1822     0.0933     0.0161    84.8632     2.4851
  456.0000    11.2233    16.4901   -33.8622     8.1980     0.0929     0.0154    84.2828     2.4852
  456.5000    11.4492    16.9314   -33.7267     8.1987     0.0929     0.0147    84.8966     2.4844
  457.0000    11.4347    17.0344   -33.9063     8.1843     0.0866     0.0163    86.6972     2.4905
  457.5000    11.4232    16.6559   -33.4575     8.1852     0.0781     0.0247    89.0929     2.5078
  458.0000    11.4116    16.4046   -32.7345     8.1860     0.0700     0.0300    91.7864     2.5184
  458.5000    11.2421    16.3800   -33.5220     8.1867     0.0728     0.0292    91.5030     2.5154
  459.0000    11.0751    16.0234   -33.9999     8.1723     0.0868     0.0202    91.5184     2.4989
  459.5000    10.9106    15.6723   -33.8700     8.1732     0.0877     0.0189    92.4261     2.4967
  460.0000    10.6439    15.6491   -33.5881     8.1588     0.0876     0.0159    92.1429     2.4960
  460.5000    10.1521    15.5213   -33.3055     8.1597     0.0896     0.0062    91.5625     2.4796
  461.0000    10.0013    15.3945   -32.8723     8.1455     0.0938     0.0070    92.1730     2.4721
  461.5000     9.9912    15.2688   -32.8951     8.1462     0.0948     0.0093    93.3784     2.4812
  462.0000     9.9811    15.1441   -33.0739     8.1470     0.0933     0.0094    94.5837     2.4842
  462.5000     9.9710    15.1257   -34.0078     8.1627     0.0959     0.0087    93.1104     2.4812
  463.0000     9.9609    14.8976   -34.6377     8.1634     0.0962     0.0080    91.9348     2.4783
  463.5000     9.8814    14.7716   -34.8117     8.1642     0.0941     0.0080    90.7592     2.4836
  464.0000     9.8006    14.7536   -34.9858     8.1649     0.0941     0.0096    89.8811     2.4828
  464.5000     9.6550    14.5313   -35.1598     8.1807     0.0943     0.0112    91.0865     2.4837
  465.0000     9.5782    14.3124   -35.3343     8.1814     0.0913     0.0112    92.2918     2.4830
  465.5000     9.3703    14.1955   -35.3614     8.1822     0.0886     0.0113    93.1995     2.4845
  466.0000     9.2957    14.0795   -35.2259     8.1829     0.0886     0.0099    93.8096     2.4902
  466.5000     9.0939    13.8674   -34.9440     8.1987     0.0930     0.0077    94.7173     2.4936
  467.0000     9.0214    13.7538   -35.2755     8.2144     0.0942     0.0047    95.3313     2.4884
