~VERSION INFORMATION
 VERS.                2.0:   CWLS LOG ASCII STANDARD - VERSION 2.0
 WRAP.                 NO:   ONE LINE PER DEPTH STEP
~WELL INFORMATION
#MNEM.UNIT      DATA TYPE    INFORMATION
#----------   ------------   ------------------------------
 STRT.F           30.0000:   START DEPTH
 STOP.F          507.0000:   STOP DEPTH
 STEP.F            0.5000:   STEP LENGTH
 NULL.          -999.2500:   NO VALUE
 COMP. FENIX & SCISSON INC:   COMPANY
 WELL.      NPR-3 #42S-10:   WELL
 FLD .             TEAPOT:   FIELD
 LOC .      S10 T38N R78W:   LOCATION
 CNTY.            NATRONA:   COUNTY
 STAT.            WYOMING:   STATE
 CTRY. UNITED STATES OF AMERICA:   COUNTRY
 SRVC.            Unknown:   SERVICE COMPANY
 DATE.        15-JUL-1978:   LOGDATE
 API .       490251065700:   API NUMBER
~CURVE INFORMATION
#MNEM.UNIT       API CODE    CURVE DESCRIPTION
#----------   ------------   ------------------------------
 DEPT.F                  :   
 SPR .MV     07 010 01 00:   SPONTANEOUS POTENTIAL
 ILD .OHMM   07 120 46 00:   INDUCTION LOG DEEP
 SN  .OHMM   07 040 16 00:   SHORT NORMAL
 CALD.IN     45 280 60 00:   CALIPER FROM DENSITY LOG
 GRD .GAPI   45 310 01 00:   GAMMA RAY FROM DENSITY LOG
 CORR.G/C3   45 356 01 00:   DENSITY CORRECTION
 RHOB.G/C3   45 350 01 00:   BULK DENSITY
 DPHI.DEC    45 890 12 00:   DENSITY POROSITY SANDSTONE
~PARAMETER INFORMATION
#MNEM.UNIT          VALUE    DESCRIPTION
#----------   ------------   ------------------------------
 PD  .                 GL:   PERMANENT DATUM
 EPD .F              5204:   ELEVATION PERMANENT DATUM
 LMF .                 KB:   LOG MEASURED FROM
 DAPD.F                 4:   FEET ABOVE PERMANENT DATUM
 DMF .                 KB:   DRILLING MEASURED FROM
 EKB .F              5208:   KELLING BUSHING
 EGL .F              5204:   GROUND LEVEL
 DATE.        15-JUL-1978:   RUN DATE
 RUN .                  1:   RUN NUMBER
 DD  .F               500:   DEPTH DRILLER
 DL  .F               511:   DEPTH LOGGER
 BLI .F               504:   BOTTOM LOG INTERVAL
 TLI .F                30:   TOP LOG INTERVAL
 CS  .IN            8.625:   CASING SIZE
 CBD .F                40:   CASING BOTTOM DRILLER
 CBL .F                40:   CASING BOTTOM LOGGER
 BS  .IN            7.875:   BIT SIZE
 BSD .F               500:   BIT SIZE AT DEPTH
 DFT .                KCL:   DRILLING FLUID TYPE
 DFD .                8.7:   DRILLING FLUID DENSITY
 DFV .                 32:   DRILLING FLUID VISCOSITY
 DFPH.                9.0:   DRILLING FLUID PH
 RMS .OHMM           0.18:   RESISTIVITY MUD SAMPLE
 MST .F                78:   MUD SAMPLE TEMPERATURE
 RMF .OHMM           0.16:   RESISTIVITY MUD FILTRATE SAMPLE
 MFST.F                88:   MUD FILTRATE SAMPLE TEMPERATURE
 RMC .OHMM           0.28:   RESISTIVITY MUD CAKE
 MCST.F                88:   MUD CAKE SAMPLE TEMPERATURE
 MFSS.               MEAS:   MUD FILTRATE SAMPLE SOURCE
 MCSS.               MEAS:   MUD CAKE SAMPLE SOURCE
 TCS .HRS               1:   TIME CURCULATED STOPPED
 LUN .               2958:   LOGGING UNIT NUMBER
 LUL .               CASP:   LOGGING UNIT LOCATION
 ENGI.              HONEA:   RECORDING ENGINEER
 WITN.           MCGINLEY:   WITNESSED BY
 CLNT.            A2DTECH:   CLIENT CODE
 ORIG.           5" PRINT:   ORIGIN OF DATA
 UWI .       490251065700:   UNIQUE WELL ID
 DICO. A2D Technologies, Inc.:   DIGITIZING COMPANY
~OTHER INFORMATION
~A   DEPT      SPR        ILD         SN       CALD        GRD       CORR       RHOB       DPHI   
# ...
   70.5000   -34.3223     8.2559     7.2537     8.3999    91.2838     0.0205     2.4879     0.1256
   71.0000   -34.3090     8.0929     7.2562     8.4021    91.3087     0.0192     2.4835     0.1264
   71.5000   -34.2958     7.9320     7.2586     8.3744    89.2487     0.0194     2.4769     0.1243
   72.0000   -34.2826     7.8819     7.2611     8.3308    85.7029     0.0196     2.4770     0.1252
   72.5000   -34.1203     7.9406     7.2636     8.2757    85.5695     0.0213     2.4779     0.1248
   73.0000   -34.1071     7.9997     7.2707     8.2333    86.6350     0.0216     2.4810     0.1176
   73.5000   -34.0939     8.1708     7.3187     8.2058    85.9124     0.0203     2.4908     0.1068
   74.0000   -34.0805     8.2884     7.3217     8.1778    84.1496     0.0175     2.5050     0.1134
   74.5000   -34.0671     8.4657     7.3748     8.1503    84.3328     0.0133     2.4999     0.1260
   75.0000   -34.0536     8.5875     7.3773     8.1233    81.5156     0.0119     2.4963     0.1329
   75.5000   -34.0377     8.5921     7.3798     8.1107    81.0901     0.0122     2.4755     0.1297
   76.0000   -34.1768     8.5379     7.3317     8.0980    87.2076     0.0154     2.4707     0.1228
   76.5000   -34.1602     8.5427     7.3341     8.0853    91.6856     0.0171     2.4868     0.1177
   77.0000   -34.1470     8.5483     7.2857     8.0875    91.5522     0.0173     2.4907     0.1188
   77.5000   -34.1338     8.4932     7.2888     8.0898    91.1318     0.0175     2.4900     0.1200
   78.0000   -34.2729     8.4990     7.2913     8.1221    88.1803     0.0177     2.4872     0.1211
   78.5000   -34.4087     8.5036     7.2431     8.1391    85.0752     0.0179     2.4865     0.1211
   79.0000   -34.5412     8.5669     7.2462     8.1413    86.1407     0.0181     2.4873     0.1199
   79.5000   -34.5280     8.7501     7.2487     8.1434    86.3096     0.0183     2.4882     0.1183
   80.0000   -34.6671     8.8760     7.2511     8.0566    86.3299     0.0185     2.4890     0.1162
   80.5000   -34.6506     8.9421     7.3036     7.9549    85.1174     0.0202     2.4906     0.1150
   81.0000   -34.7869     8.9469     7.3062     7.8972    82.9580     0.0249     2.4915     0.1191
   81.5000   -34.7732     8.9518     7.3087     7.9444    83.1269     0.0311     2.4848     0.1251
   82.0000   -34.7599     8.8953     7.3112     8.0653    86.1189     0.0358     2.4790     0.1226
   82.5000   -34.8957     8.9001     7.3142     8.2030    89.4082     0.0375     2.4822     0.1208
   83.0000   -34.8823     8.8439     7.3166     8.2970    91.5087     0.0377     2.4874     0.1190
   83.5000   -35.0183     8.7881     7.3191     8.3988    92.4205     0.0379     2.4889     0.1246
   84.0000   -35.0045     8.6728     7.3216     8.4603    92.4408     0.0396     2.4741     0.1273
   84.5000   -34.9886     8.5510     7.3238     8.4625    91.8668     0.0443     2.4712     0.1267
   85.0000   -34.9753     8.3326     7.3266     8.4646    90.6984     0.0505     2.4683     0.1251
   85.5000   -34.9621     8.2233     7.3288     8.3926    90.4071     0.0567     2.4774     0.1188
   86.0000   -34.9489     8.1143     7.3317     8.3058    90.1446     0.0583     2.4939     0.1038
   86.5000   -34.9357     8.0631     7.3342     8.2926    89.2784     0.0421     2.4895     0.1104
   87.0000   -34.7734     8.0133     7.3365     8.2953    88.4021     0.0379     2.4776     0.1348
   87.5000   -34.7602     8.0176     7.3390     8.2975    88.4275     0.0396     2.4653     0.1297
   88.0000   -34.7469     8.0219     7.3415     8.2835    88.2992     0.0398     2.4682     0.1222
   88.5000   -34.7337     8.0263     7.3440     8.2425    84.7534     0.0385     2.4810     0.1219
   89.0000   -34.7205     8.0306     7.3465     8.1859    80.7618     0.0328     2.4841     0.1245
   89.5000   -34.7073     8.0904     7.3490     8.1138    80.6330     0.0284     2.4834     0.1260
   90.0000   -34.8435     8.1506     7.4091     8.0418    81.5453     0.0227     2.4723     0.1396
   90.5000   -34.8298     8.2113     7.5597     8.0138    82.0119     0.0214     2.4575     0.1441
   91.0000   -34.9657     8.2724     7.6670     7.9868    80.8480     0.0216     2.4501     0.1357
   91.5000   -35.1015     8.3915     7.7759     7.9736    81.6113     0.0218     2.4606     0.1255
   92.0000   -35.0879     8.4540     7.8322     7.9763    84.6033     0.0220     2.4795     0.1324
   92.5000   -35.0745     8.5228     7.8348     7.9785    85.0694     0.0178     2.4766     0.1416
   93.0000   -35.2108     8.5804     7.8375     7.9811    85.0897     0.0135     2.4587     0.1467
   93.5000   -35.1943     8.5860     7.8402     7.9978    85.1100     0.0092     2.4476     0.1529
   94.0000   -35.1811     8.5907     7.8428     7.9856    85.1303     0.0079     2.4357     0.1579
   94.5000   -35.0188     8.5953     7.8455     7.8987    85.0020     0.0127     2.4291     0.1576
   95.0000   -35.0056     8.6000     7.8481     7.7377    85.1709     0.0188     2.4255     0.1533
   95.5000   -34.8433     8.6047     7.8508     7.6657    85.2214     0.0250     2.4330     0.1482
   96.0000   -34.6811     8.6687     7.8535     7.6525    89.6742     0.0252     2.4428     0.1455
   96.5000   -34.5188     8.8541     7.8561     7.6552    90.5809     0.0180     2.4467     0.1476
   97.0000   -34.3566     9.1058     7.8588     7.7464    88.6747     0.0107     2.4436     0.1577
   97.5000   -34.3433     9.3647     7.8615     7.9415    87.9469     0.0094     2.4368     0.1556
   98.0000   -34.1811     9.6310     7.8102     8.1810    87.6751     0.0096     2.4350     0.1475
   98.5000   -34.1678     9.8370     7.8129     8.3488    86.0610     0.0129     2.4441     0.1469
   99.0000   -34.0056     9.8423     7.8162     8.4674    84.4468     0.0192     2.4457     0.1459
   99.5000   -33.9924     9.8476     7.8188     8.5145    83.5755     0.0267     2.4495     0.1378
  100.0000   -33.9791     9.8530     7.8133     8.5124    81.9731     0.0333     2.4564     0.1246
  100.5000   -33.8164     9.8577     7.8242     8.4666    80.6512     0.0392     2.4661     0.1170
  101.0000   -33.8047     9.7947     7.8913     8.4017    80.0801     0.0516     2.4811     0.1138
  101.5000   -33.7930     9.7322     8.0497     8.3449    80.2519     0.0558     2.5029     0.1162
  102.0000   -33.7813     9.7379     8.1645     8.3024    80.5665     0.0381     2.4798     0.1278
  102.5000   -33.6205     9.7425     8.3381     8.2599    77.7724     0.0278     2.4732     0.1316
  103.0000   -33.6088     9.7471     8.5154     8.2175    76.0126     0.0264     2.4718     0.1313
  103.5000   -33.5971     9.8867     8.6965     8.1453    75.4413     0.0266     2.4704     0.1265
  104.0000   -33.5854     9.9596     8.8814     8.0880    76.9826     0.0268     2.4779     0.1175
  104.5000   -33.5737    10.0330     9.0080     8.0598    79.5433     0.0270     2.4870     0.1157
  105.0000   -33.5618    10.1070     9.1996     8.0475    81.0149     0.0272     2.4901     0.1180
  105.5000   -33.5499    10.2517     9.3308     8.0793    81.1809     0.0259     2.4891     0.1216
  106.0000   -33.5380    10.2565     9.5292     8.2000    80.9070     0.0275     2.4835     0.1230
  106.5000   -33.5239    10.4095     9.6766     7.9442    81.5304     0.0292     2.4844     0.1230
  107.0000   -33.3631    10.5526     9.8039     7.8485    80.6621     0.0294     2.4875     0.1197
  107.5000   -32.9043    10.7786     9.9437     7.8208    74.2960     0.0296     2.4890     0.1208
  108.0000   -32.5945    11.0083    10.0164     7.7635    71.0504     0.0268     2.4869     0.1373
  108.5000   -32.4338    11.3205    10.0204     7.6469    71.2222     0.0239     2.4511     0.1525
  109.0000   -32.1240    12.0486     9.9548     7.5450    72.8799     0.0196     2.4318     0.1512
  109.5000   -31.9632    12.8235     9.9598     7.5619    75.6102     0.0183     2.4251     0.1473
  110.0000   -31.6535    13.4619     9.8945     7.7271    78.1674     0.0170     2.4402     0.1442
  110.5000   -31.6418    14.0353     9.7642     8.0111    78.8990     0.0142     2.4530     0.1460
