~VERSION INFORMATION
 VERS.                2.0:   CWLS LOG ASCII STANDARD - VERSION 2.0
 WRAP.                 NO:   ONE LINE PER DEPTH STEP
~WELL INFORMATION
#MNEM.UNIT      DATA TYPE    INFORMATION
#----------   ------------   ------------------------------
 STRT.F           90.0000:   START DEPTH
 STOP.F          928.0000:   STOP DEPTH
 STEP.F            0.5000:   STEP LENGTH
 NULL.          -999.2500:   NO VALUE
 COMP.  UNITED STATE NAVY:   COMPANY
 WELL.      NPR 3 #58-S-2:   WELL
 FLD .             TEAPOT:   FIELD
 LOC .       S2 T38N R78W:   LOCATION
 CNTY.            NATRONA:   COUNTY
 STAT.            WYOMING:   STATE
 CTRY. UNITED STATES OF AMERICA:   COUNTRY
 SRVC.       Schlumberger:   SERVICE COMPANY
 DATE.        26-JUN-1962:   LOGDATE
 API .       490250639500:   API NUMBER
~CURVE INFORMATION
#MNEM.UNIT       API CODE    CURVE DESCRIPTION
#----------   ------------   ------------------------------
 DEPT.F                  :   
 ASN .OHMM   05 041 16 00:   AMPLIFIED SHORT NORMAL 16"
 ILD .OHMM   05 120 46 00:   INDUCTION LOG DEEP
 CILD.MMHO   05 110 46 00:   CONDUCTIVITY INDUCTION LOG DEEP
 SPR .MV     05 010 01 00:   SPONTANEOUS POTENTIAL FROM RES.
 GR  .GAPI   30 310 01 00:   GAMMA RAY
~PARAMETER INFORMATION
#MNEM.UNIT          VALUE    DESCRIPTION
#----------   ------------   ------------------------------
 PD  .                 KB:   PERMANENT DATUM
 EKB .F              5189:   KELLING BUSHING
 EGL .F              5184:   GROUND LEVEL
 DATE.        26-JUN-1962:   RUN DATE
 RUN .                  1:   RUN NUMBER
 DD  .F               925:   DEPTH DRILLER
 DL  .F               929:   DEPTH LOGGER
 BLI .F               928:   BOTTOM LOG INTERVAL
 TLI .F                90:   TOP LOG INTERVAL
 BS  .IN             6.75:   BIT SIZE
 BSD .F               925:   BIT SIZE AT DEPTH
 DFT .       OIL EMULSION:   DRILLING FLUID TYPE
 DFD .                 10:   DRILLING FLUID DENSITY
 DFV .                 50:   DRILLING FLUID VISCOSITY
 DFL .                3.7:   DRILLING FLUID LOSS
 RMS .OHMM            4.7:   RESISTIVITY MUD SAMPLE
 MST .F                83:   MUD SAMPLE TEMPERATURE
 RMF .OHMM            3.8:   RESISTIVITY MUD FILTRATE SAMPLE
 MFST.F                83:   MUD FILTRATE SAMPLE TEMPERATURE
 RMC .OHMM            4.4:   RESISTIVITY MUD CAKE
 MCST.F                83:   MUD CAKE SAMPLE TEMPERATURE
 TCS .HRS               1:   TIME CURCULATED STOPPED
 LUN .               2503:   LOGGING UNIT NUMBER
 LUL .               CSPR:   LOGGING UNIT LOCATION
 ENGI.             DANNER:   RECORDING ENGINEER
 WITN.          JORGENSEN:   WITNESSED BY
 CLNT.            A2DTECH:   CLIENT CODE
 ORIG.      2" & 5" PRINT:   ORIGIN OF DATA
 UWI .       490250639500:   UNIQUE WELL ID
 DICO. A2D Technologies, Inc.:   DIGITIZING COMPANY
~OTHER INFORMATION
~A   DEPT        ASN        ILD      CILD       SPR         GR   
# ...
  700.0000     4.4828     4.2729   295.1896   -50.0000    55.2749
  700.5000     4.0919     3.8389   346.2592   -50.8941    64.2427
  701.0000     3.7011     3.5262   397.3289   -51.4893    76.4401
  701.5000     3.4347     3.3778   438.0554   -51.4878    73.9704
  702.0000     3.2102     3.2294   471.3347   -51.4863    71.6196
  702.5000     3.1207     3.1559   479.5828   -51.4848    70.8915
  703.0000     3.1812     3.1574   484.8290   -52.0803    78.0532
  703.5000     3.1965     3.1589   479.5377   -52.9743    79.0698
  704.0000     3.0471     3.1604   451.6956   -53.2717    78.7639
  704.5000     3.0026     3.4618   418.1213   -51.1803    79.1293
  705.0000     3.4378     3.9131   363.1708   -49.8060    80.2675
  705.5000     4.0530     4.2894   302.6768   -49.5358    74.1334
  706.0000     4.1134     4.8156   266.3755   -49.3850    73.2719
  706.5000     4.5636     5.0420   237.7616   -49.3836    70.2824
  707.0000     5.2237     5.6432   206.9585   -49.3821    69.7295
  707.5000     5.4491     6.3944   189.0219   -49.3806    77.0572
  708.0000     5.6294     6.6957   179.9691   -49.3792    82.5140
  708.5000     5.6449     6.9221   174.7192   -49.2284    75.4577
  709.0000     5.6753     6.9986   170.2707   -49.2269    77.3996
  709.5000     5.7507     6.7752   171.0004   -49.2254    78.2138
  710.0000     5.8711     6.4768   173.3345   -49.3732    72.7198
  710.5000     5.9765     6.1785   180.9396   -49.3637    70.1960
  711.0000     6.0068     5.8801   193.1250   -49.2209    76.8862
  711.5000     5.9025     5.6568   205.4704   -49.0702    71.6885
  712.0000     5.6780     5.4330   220.5080   -49.0687    77.6350
  712.5000     5.2737     5.1350   225.7486   -49.0672    87.1477
  713.0000     5.0792     5.0612   233.2448   -48.9164    88.6365
  713.5000     5.1097     4.9131   241.4930   -48.6164    90.4225
  714.0000     4.9152     4.9146   252.7486   -48.6149    87.0080
  714.5000     4.7058     4.8412   254.9874   -48.6134    77.0555
  715.0000     4.8711     4.9177   249.6961   -48.6119    73.0466
  715.5000     5.1115     4.9941   242.9066   -48.4612    66.6602
  716.0000     5.1418     5.0706   235.3653   -48.4597    65.1773
  716.5000     4.9923     5.2220   220.3051   -49.0552    62.6543
  717.0000     5.3827     5.6733   207.5006   -49.9492    59.0911
  717.5000     5.7879     5.9746   194.1410   -50.9925    69.7925
  718.0000     5.9983     6.2760   182.6454   -52.0358    73.3615
  718.5000     6.2236     6.4274   177.3597   -52.4821    75.1468
  719.0000     6.5239     6.6538   172.0740   -52.3313    69.3549
  719.5000     6.7642     6.8802   165.2846   -51.8820    66.6840
  720.0000     6.9596     7.0316   158.4951   -51.5820    72.0361
  720.5000     7.1100     7.1831   153.2094   -51.4313    76.3474
  721.0000     7.1704     7.2595   149.4275   -50.8328    64.6119
  721.5000     7.1558     7.2610   147.9012   -50.3835    63.8726
  722.0000     7.1563     7.2625   149.3834   -49.3372    65.5101
  722.5000     7.1266     7.2640   152.3674   -48.5895    71.7538
  723.0000     7.0672     7.1156   154.6005   -48.7372    70.5680
  723.5000     6.9627     7.0418   158.3374   -49.1835    68.9365
  724.0000     6.8582     6.9683   162.0742   -49.4809    72.8028
  724.5000     6.7537     6.8199   165.0592   -49.0312    67.3080
  725.0000     6.6343     6.6719   169.5479   -48.8805    63.1504
  725.5000     6.4998     6.5980   174.0367   -48.5805    67.7589
  726.0000     6.3353     6.3750   180.0292   -48.5790    68.2084
  726.5000     6.1259     6.1516   191.2848   -48.4282    70.4402
  727.0000     5.9164     5.9282   207.8036   -48.2775    76.9810
  727.5000     5.7669     5.5549   222.0668   -48.2760    73.1207
  728.0000     5.4376     5.1816   241.5932   -48.1252    67.0315
  728.5000     5.1681     4.8833   252.8488   -47.9745    57.8220
  729.0000     4.7788     4.8848   252.0744   -47.9730    62.1340
  729.5000     4.7192     4.9612   248.2925   -47.9715    70.3094
  730.0000     5.0945     5.0377   245.2624   -47.9700    73.1348
  730.5000     4.9750     5.0392   240.7286   -48.2670    70.7603
  731.0000     4.9454     5.2656   231.6835   -48.5640    81.3131
  731.5000     5.6056     5.7918   218.8790   -48.7121    80.5738
  732.0000     6.2508     6.3930   196.3001   -48.7103    79.5367
  732.5000     6.4161     6.6944   176.7287   -48.7088    70.1786
  733.0000     6.5365     6.9208   165.4279   -48.7073    63.3465
  733.5000     6.6569     6.9973   157.8866   -48.4073    58.1488
  734.0000     6.7923     7.0737   153.3528   -48.2565    55.4772
  734.5000     6.9127     7.1502   154.0821   -48.4046    77.7684
  735.0000     6.9460     7.3016   154.0596   -48.4028    75.6912
  735.5000     7.0600     7.3031   153.2852   -48.7001    72.7224
  736.0000     7.2166     7.3796   149.5032   -49.1460    76.5886
  736.5000     7.2919     7.4560   149.4807   -49.8912    73.6198
  737.0000     7.3496     7.5325   149.4582   -50.0389    78.5262
  737.5000     7.3675     7.4591   150.1875   -50.0371    75.7060
  738.0000     7.3805     7.4606   150.9173   -50.0356    73.9259
  738.5000     7.3809     7.3867   152.3981   -50.0341    86.2617
  739.0000     7.3814     7.3886   153.1278   -49.8833    90.7216
  739.5000     7.3519     7.3151   154.6086   -49.7326    87.6049
  740.0000     7.3053     7.3164   155.3384   -49.5818    90.5796
  740.5000     7.2309     7.3179   155.3154   -49.5803    91.3255
  741.0000     7.1697     7.2443   154.5410   -49.4296   103.3642
  741.5000     7.1138     7.3209   154.5185   -49.4281   106.6361
  742.0000     7.1608     7.3224   153.7441   -49.2773   100.6955
  742.5000     7.2046     7.3239   152.2178   -49.2761    96.2184
  743.0000     7.2201     7.3254   152.1952   -49.2746    89.4087
  743.5000     7.2205     7.3269   152.1727   -49.1238    86.7371
  744.0000     7.1748     7.2443   158.1652   -49.1224    88.8560
  744.5000     7.0854     7.0136   167.1652   -48.9716    74.7074
  745.0000     7.0110     6.7242   174.6615   -48.9701    73.8923
  745.5000     6.7672     6.5082   179.9023   -48.8194    73.6731
  746.0000     6.4376     6.4288   181.3835   -48.8180    80.5112
  746.5000     6.3087     6.2863   183.6164   -48.8165    78.6999
  747.0000     6.3391     6.2129   185.8495   -48.6657    80.6657
  747.5000     5.9628     6.2144   188.0826   -48.5049    90.6241
  748.0000     5.8453     6.1409   189.5639   -48.2069    91.2214
  748.5000     6.1471     6.2174   191.7969   -47.7657    86.9153
  749.0000     6.3259     6.2189   197.0376   -47.7642    75.1798
  749.5000     6.2813     6.2204   203.0301   -48.0632    71.0223
  750.0000     6.0870     5.9220   213.5338   -48.5075    85.8841
  750.5000     5.6802     5.4740   215.0239   -48.6499    89.1588
  751.0000     5.3554     5.1007   208.9902   -48.4932    90.0524
  751.5000     5.6118     5.5519   207.4752   -49.9765    85.8930
  752.0000     5.7628     5.6284   208.2122   -50.1202    82.1388
  752.5000     5.5098     5.5545   208.9491   -50.1109    74.7498
  753.0000     5.4363     5.7813   205.1710   -50.2546    66.1544
  753.5000     6.1725     6.0826   192.3741   -49.4991    59.7533
  754.0000     6.3838     6.3090   178.0735   -48.1484    66.9205
  754.5000     6.5053     6.5353   166.7804   -47.6932    67.4858
  755.0000     6.5817     6.6868   161.5023   -47.6858    72.1043
  755.5000     6.5987     6.7632   159.2354   -47.9768    86.8303
  756.0000     6.6147     6.6148   167.4874   -48.7157    84.5166
  756.5000     6.5997     6.4663   178.7507   -49.4545    81.4650
  757.0000     6.5238     6.3928   193.7733   -50.0441    80.6784
  757.5000     6.4168     6.1694   208.0441   -50.0367    75.2302
  758.0000     5.9313     5.6462   220.0592   -49.2830    80.2852
  758.5000     5.4381     5.4218   223.8074   -48.2308    75.1348
  759.0000     5.4092     5.3453   225.2932   -47.0294    67.5362
  759.5000     5.4111     5.2689   226.0301   -46.7235    64.0792
  760.0000     5.1727     5.1274   226.0145   -47.3131    69.6178
  760.5000     5.2941     5.1420   223.7440   -48.3504    71.2362
