~VERSION INFORMATION
 VERS.                2.0:   CWLS LOG ASCII STANDARD - VERSION 2.0
 WRAP.                 NO:   ONE LINE PER DEPTH STEP
~WELL INFORMATION
#MNEM.UNIT      DATA TYPE    INFORMATION
#----------   ------------   ------------------------------
 STRT.F           20.5000:   START DEPTH
 STOP.F          544.0000:   STOP DEPTH
 STEP.F            0.5000:   STEP LENGTH
 NULL.          -999.2500:   NO VALUE
 COMP. LAWRENCE/ALLISON INC:   COMPANY
 WELL.    45-65 SX #10-10:   WELL
 FLD .             TEAPOT:   FIELD
 LOC .      S10 T38N R78W:   LOCATION
 CNTY.            NATRONA:   COUNTY
 STAT.            WYOMING:   STATE
 CTRY. UNITED STATES OF AMERICA:   COUNTRY
 SRVC.            Unknown:   SERVICE COMPANY
 DATE.        01-SEP-1984:   LOGDATE
 API .       490251098400:   API NUMBER
~CURVE INFORMATION
#MNEM.UNIT       API CODE    CURVE DESCRIPTION
#----------   ------------   ------------------------------
 DEPT.F                  :   
 GRD .GAPI   45 310 01 00:   GAMMA RAY FROM DENSITY LOG
 CALD.IN     45 280 60 00:   CALIPER
 DEN .G/C3   45 350 01 00:   COMPENSATED BULK DENSTIY
 CORR.G/C3   45 356 01 00:   DENSITY CORRECTION
 CNC .DEC    42 890 03 00:   NEUTRON POROSITY SANDSTONE
 PORD.DEC    45 890 12 00:   POROSITY DENSITY SANDSTONE
 AC  .US/F   60 520 00 00:   ACOUSTIC SONIC
 SPR .MV     07 010 01 00:   SPONTANEOUS POTENTIAL
 RILD.OHMM   07 120 46 00:   INDUCTION LOG DEEP RESISTIVITY
 RILM.OHMM   07 120 44 00:   INDUCTION LOG MEDIUM RESISTIVITY
 RFOC.OHMM   07 220 04 00:   RESISTIVITY FOCUSED LOG
~PARAMETER INFORMATION
#MNEM.UNIT          VALUE    DESCRIPTION
#----------   ------------   ------------------------------
 PD  .                 GL:   PERMANENT DATUM
 EPD .F              5208:   ELEVATION PERMANENT DATUM
 LMF .                 KB:   LOG MEASURED FROM
 DAPD.F                12:   FEET ABOVE PERMANENT DATUM
 DMF .                 KB:   DRILLING MEASURED FROM
 EKB .F              5220:   KELLING BUSHING
 EGL .F              5208:   GROUND LEVEL
 DATE.        1-SEPT-1984:   RUN DATE
 RUN .                  1:   RUN NUMBER
 DD  .F               550:   DEPTH DRILLER
 DL  .F               544:   DEPTH LOGGER
 BLI .F               544:   BOTTOM LOG INTERVAL
 TLI .F                30:   TOP LOG INTERVAL
 CBL .F                44:   CASING BOTTOM LOGGER
 BS  .IN            7.875:   BIT SIZE
 BSD .F               550:   BIT SIZE AT DEPTH
 DFT .          KCL WATER:   DRILLING FLUID TYPE
 MSS .               TANK:   MUD SAMPLE SOURCE
 RMS .OHMM           .236:   RESISTIVITY MUD SAMPLE
 MST .F                75:   MUD SAMPLE TEMPERATURE
 TCS .HRS               3:   TIME CURCULATED STOPPED
 MRT .F               100:   MAXIMUM RECORDED TEMPERATURE
 LUN .               4082:   LOGGING UNIT NUMBER
 LUL .               ROOS:   LOGGING UNIT LOCATION
 ENGI.             MILLER:   RECORDING ENGINEER
 WITN.            JOHNSON:   WITNESSED BY
 CLNT.            A2DTECH:   CLIENT CODE
 ORIG.       2", 5" PRINT:   ORIGIN OF DATA
 UWI .       490251098400:   UNIQUE WELL ID
 DICO. A2D Technologies, Inc.:   DIGITIZING COMPANY
~OTHER INFORMATION
~A   DEPT      GRD       CALD        DEN       CORR          CNC     PORD         AC        SPR       RILD       RILM       RFOC   
# ...
   81.5000   147.9751     8.3304     2.4501     0.0264     0.1367  -999.2500   104.9286  -999.2500     9.0307     9.4112  -999.2500
   82.0000   149.1630     8.3294     2.4401     0.0136     0.1397  -999.2500   104.6853  -999.2500     9.2819     9.6972  -999.2500
   82.5000   150.7159     8.3284     2.4305     0.0002     0.1505  -999.2500   104.6210  -999.2500     9.5477     9.9945  -999.2500
   83.0000   150.3440     8.3275     2.4246     0.0101     0.1527  -999.2500   104.2769  -999.2500     9.8212    10.3006  -999.2500
   83.5000   148.3802     8.3265     2.4271     0.0268     0.1515  -999.2500   103.2650  -999.2500    10.1022    10.6158  -999.2500
   84.0000   145.5420     8.3255     2.4392     0.0438     0.1327  -999.2500   101.2679  -999.2500    10.3915    10.9407  -999.2500
   84.5000   142.7056     8.3246     2.4520     0.0360     0.1309  -999.2500    98.4651  -999.2500    10.6890    11.2757  -999.2500
   85.0000   142.1555     8.3236     2.4638     0.0021     0.1333  -999.2500    96.1239  -999.2500    10.9950    11.6208  -999.2500
   85.5000   142.3449     8.3226     2.4627    -0.0233     0.1323  -999.2500    95.2947  -999.2500    11.3098    11.9575  -999.2500
   86.0000   142.6461     8.3217     2.4405    -0.0239     0.1385  -999.2500    95.6741  -999.2500    11.6336    12.1189  -999.2500
   86.5000   142.9446     8.3207     2.4300    -0.0209     0.1459  -999.2500    96.1246  -999.2500    11.9667    12.4030  -999.2500
   87.0000   143.2638     8.3197     2.4401    -0.0133     0.1421  -999.2500    95.7230  -999.2500    12.3093    12.6901  -999.2500
   87.5000   142.2366     8.3188     2.4477    -0.0013     0.1463  -999.2500    94.9950  -999.2500    12.6617    12.9839  -999.2500
   88.0000   140.6510     8.3178     2.4322     0.0110     0.1523  -999.2500    94.4955  -999.2500    12.8061    13.1642  -999.2500
   88.5000   139.0608     8.3168     2.4147     0.0221     0.1573  -999.2500    95.4497  -999.2500    12.7793    13.0153  -999.2500
   89.0000   138.0547     8.3166     2.4147     0.0336     0.1587  -999.2500    96.3569  -999.2500    12.6413    12.9101  -999.2500
   89.5000   137.1621     8.3189     2.4170     0.0223     0.1587  -999.2500    97.2641  -999.2500    12.5047    12.8052  -999.2500
   90.0000   137.6471     8.3212     2.4193     0.0086     0.1591  -999.2500    97.9449  -999.2500    12.3696    12.7014  -999.2500
   90.5000   138.7743     8.3235     2.4216     0.0183     0.1595  -999.2500    98.3916  -999.2500    12.2360    12.5984  -999.2500
   91.0000   138.2457     8.3257     2.4170     0.0328     0.1595  -999.2500    98.1082  -999.2500    12.1038    12.4963  -999.2500
   91.5000   140.2992     8.3280     2.4105     0.0345     0.1607  -999.2500    97.8412  -999.2500    11.9730    12.3951  -999.2500
   92.0000   142.9217     8.3303     2.4039     0.0199     0.1607  -999.2500    97.5924  -999.2500    11.8437    12.2946  -999.2500
   92.5000   145.3364     8.3325     2.4042     0.0100     0.1607  -999.2500    97.9211  -999.2500    11.7157    12.0930  -999.2500
   93.0000   145.3978     8.3348     2.4153     0.0133     0.1559  -999.2500    98.6218  -999.2500    11.5895    11.9326  -999.2500
   93.5000   146.0066     8.3351     2.4261     0.0163     0.1497  -999.2500    99.3225  -999.2500    11.4640    11.7744  -999.2500
   94.0000   148.7626     8.3332     2.4365     0.0129     0.1483  -999.2500   100.0232  -999.2500    11.3401    11.6182  -999.2500
   94.5000   150.4772     8.3313     2.4359     0.0026     0.1497  -999.2500   100.4895  -999.2500    11.3637    11.4641  -999.2500
   95.0000   150.2063     8.3295     2.4290    -0.0019     0.1531  -999.2500   100.3796  -999.2500    11.1567    11.3625  -999.2500
   95.5000   149.8544     8.3276     2.4224     0.0035     0.1539  -999.2500    99.6289  -999.2500    11.2161    11.3642  -999.2500
   96.0000   149.4924     8.3257     2.4190     0.0146     0.1525  -999.2500    98.8781  -999.2500    11.1812    11.3636  -999.2500
   96.5000   149.1071     8.3238     2.4296     0.0256     0.1415  -999.2500    98.1274  -999.2500    11.1447    11.3637  -999.2500
   97.0000   147.3527     8.3219     2.4397     0.0370     0.1401  -999.2500    97.3766  -999.2500    11.1083    11.3639  -999.2500
   97.5000   143.9617     8.3201     2.4501     0.0389     0.1391  -999.2500    97.1928  -999.2500    11.0721    11.3635  -999.2500
   98.0000   140.6761     8.3182     2.4457     0.0262     0.1401  -999.2500    97.6740  -999.2500    11.0547    11.3627  -999.2500
   98.5000   139.7224     8.3162     2.4396     0.0227     0.1431  -999.2500    98.2145  -999.2500    11.0547    11.5746  -999.2500
   99.0000   139.7061     8.3189     2.4401     0.0280     0.1439  -999.2500    98.7551  -999.2500    11.0547    11.5296  -999.2500
   99.5000   139.7078     8.3221     2.4408     0.0169     0.1433  -999.2500    99.2956  -999.2500    11.0554    11.4418  -999.2500
  100.0000   139.7117     8.3252     2.4416     0.0081     0.1415  -999.2500    99.8901  -999.2500    11.0151    11.3547  -999.2500
  100.5000   140.4490     8.3284     2.4490     0.0135     0.1359  -999.2500    99.7020  -999.2500    10.9592    11.2683  -999.2500
  101.0000   142.1253     8.3315     2.4572     0.0184     0.1323  -999.2500    99.1248  -999.2500    10.9035    11.1825  -999.2500
  101.5000   143.6427     8.3347     2.4650     0.0210     0.1305  -999.2500    98.5476  -999.2500    10.8480    11.0974  -999.2500
  102.0000   143.8311     8.3379     2.4646     0.0181     0.1311  -999.2500    97.9704  -999.2500    10.7929    11.0129  -999.2500
  102.5000   145.7082     8.3410     2.4591     0.0538     0.1379  -999.2500    97.7922  -999.2500    10.7380    10.9291  -999.2500
  103.0000   149.4907     8.3442     2.4515     0.0401     0.1349  -999.2500    97.9920  -999.2500    10.6838    10.8459  -999.2500
  103.5000   151.6749     8.3473     2.4438     0.0177     0.1461  -999.2500    98.4852  -999.2500    10.6550    10.7634  -999.2500
  104.0000   155.9264     8.3505     2.4360     0.0000     0.1477  -999.2500    98.9383  -999.2500    10.5679    10.7124  -999.2500
  104.5000   151.6644     8.3536     2.4347     0.0120     0.1481  -999.2500    99.3915  -999.2500    10.4870    10.6657  -999.2500
  105.0000   147.1732     8.3555     2.4335     0.0286     0.1477  -999.2500    99.8447  -999.2500    10.4071    10.6193  -999.2500
  105.5000   144.1424     8.3537     2.4332     0.0457     0.1457  -999.2500   100.0899  -999.2500    10.3658    10.5730  -999.2500
  106.0000   140.3783     8.3520     2.4382     0.0538     0.1437  -999.2500   100.2649  -999.2500    10.2961    10.5267  -999.2500
  106.5000   143.6691     8.3504     2.4433     0.0401     0.1423  -999.2500   100.2636  -999.2500    10.2319    10.4797  -999.2500
  107.0000   141.1169     8.3487     2.4417     0.0250     0.1439  -999.2500   100.1687  -999.2500    10.1681    10.4333  -999.2500
  107.5000   136.0419     8.3471     2.4346     0.0102     0.1467  -999.2500   100.0737  -999.2500    10.1047    10.3871  -999.2500
  108.0000   135.6497     8.3454     2.4297     0.0012     0.1467  -999.2500    99.9788  -999.2500    10.0417    10.3411  -999.2500
  108.5000   141.7217     8.3438     2.4312     0.0119     0.1467  -999.2500    99.8901  -999.2500     9.9791    10.2953  -999.2500
  109.0000   143.6640     8.3421     2.4325     0.0224     0.1467  -999.2500   100.2664  -999.2500     9.9169    10.2497  -999.2500
  109.5000   144.1360     8.3405     2.4253     0.0330     0.1485  -999.2500   100.4895  -999.2500     9.8550    10.2043  -999.2500
  110.0000   145.8320     8.3388     2.4174     0.0440     0.1649  -999.2500   100.4895  -999.2500     9.7936    10.1591  -999.2500
  110.5000   146.0562     8.3372     2.4095     0.0285     0.1673  -999.2500   100.5611  -999.2500     9.7325    10.1142  -999.2500
  111.0000   141.7911     8.3363     2.4016     0.0077     0.1697  -999.2500   100.8381  -999.2500     9.6718    10.0694  -999.2500
  111.5000   138.5776     8.3378     2.3937    -0.0119     0.1732  -999.2500   101.1150  -999.2500     9.6115    10.0248  -999.2500
