~VERSION INFORMATION
 VERS.                2.0:   CWLS LOG ASCII STANDARD - VERSION 2.0
 WRAP.                 NO:   ONE LINE PER DEPTH STEP
~WELL INFORMATION
#MNEM.UNIT      DATA TYPE    INFORMATION
#----------   ------------   ------------------------------
 STRT.F           11.5000:   START DEPTH
 STOP.F          697.0000:   STOP DEPTH
 STEP.F            0.5000:   STEP LENGTH
 NULL.          -999.2500:   NO VALUE
 COMP. FENIX & SCISSON INC:   COMPANY
 WELL.    NPR3 SX-2 #12-2:   WELL
 FLD .             TEAPOT:   FIELD
 LOC .       S2 T38N R78W:   LOCATION
 CNTY.            NATRONA:   COUNTY
 STAT.            WYOMING:   STATE
 CTRY. UNITED STATES OF AMERICA:   COUNTRY
 SRVC.           BIRDWELL:   SERVICE COMPANY
 DATE.        13-JAN-1978:   LOGDATE
 API .       490251055000:   API NUMBER
~CURVE INFORMATION
#MNEM.UNIT       API CODE    CURVE DESCRIPTION
#----------   ------------   ------------------------------
 DEPT.F                  :   
 CALD.IN     45 280 60 00:   CALIPER FROM DENSITY LOG
 CORR.G/C3   45 356 01 00:   DENSITY CORRECTION
 RHOB.G/C3   45 350 01 00:   BULK DENSITY
 GRD .GAPI   45 310 01 00:   GAMMA RAY FROM DENSITY LOG
 DPHI.DEC    45 890 12 00:   DENSITY POROSITY SANDSTONE
 ILD .OHMM   05 120 46 00:   INDUCTION LOG DEEP
 SN  .OHMM   05 040 16 00:   SHORT NORMAL 16"
 SPR .MV     05 010 01 00:   SPONTANEOUS POTENTIAL FROM RES.
~PARAMETER INFORMATION
#MNEM.UNIT          VALUE    DESCRIPTION
#----------   ------------   ------------------------------
 PD  .                 GL:   PERMANENT DATUM
 EPD .F              5094:   ELEVATION PERMANENT DATUM
 LMF .                 KB:   LOG MEASURED FROM
 DAPD.F                 4:   FEET ABOVE PERMANENT DATUM
 DMF .                 KB:   DRILLING MEASURED FROM
 EKB .F              5098:   KELLING BUSHING
 EGL .F              5094:   GROUND LEVEL
 DATE.        13-JAN-1978:   RUN DATE
 RUN .                  1:   RUN NUMBER
 DD  .F               695:   DEPTH DRILLER
 DL  .F               697:   DEPTH LOGGER
 BLI .F               692:   BOTTOM LOG INTERVAL
 TLI .F                30:   TOP LOG INTERVAL
 CS  .IN            8.625:   CASING SIZE
 CBD .F                35:   CASING BOTTOM DRILLER
 CBL .F                35:   CASING BOTTOM LOGGER
 BS  .IN            7.875:   BIT SIZE
 BSD .F               695:   BIT SIZE AT DEPTH
 DFT .                KCL:   DRILLING FLUID TYPE
 DFD .                8.6:   DRILLING FLUID DENSITY
 DFV .                 32:   DRILLING FLUID VISCOSITY
 DFPH.                9.5:   DRILLING FLUID PH
 DFL .                 12:   DRILLING FLUID LOSS
 MSS .           FLOWLINE:   MUD SAMPLE SOURCE
 RMS .OHMM            0.3:   RESISTIVITY MUD SAMPLE
 MST .F                59:   MUD SAMPLE TEMPERATURE
 RMF .OHMM           0.24:   RESISTIVITY MUD FILTRATE SAMPLE
 MFST.F                70:   MUD FILTRATE SAMPLE TEMPERATURE
 RMC .OHMM           0.56:   RESISTIVITY MUD CAKE
 MCST.F                63:   MUD CAKE SAMPLE TEMPERATURE
 MFSS.               MEAS:   MUD FILTRATE SAMPLE SOURCE
 MCSS.               MEAS:   MUD CAKE SAMPLE SOURCE
 RMB .OHMM           0.26:   RESISTIVITY MUD AT BHT
 BHT .F                72:   BOTTOM HOLE TEMPERATURE
 TCS .HRS               2:   TIME CURCULATED STOPPED
 MRT .F                72:   MAXIMUM RECORDED TEMPERATURE
 LUN .               2958:   LOGGING UNIT NUMBER
 LUL .             CASPER:   LOGGING UNIT LOCATION
 ENGI.           MARTINEZ:   RECORDING ENGINEER
 WITN.       MR. MCGINLEY:   WITNESSED BY
 CLNT.            A2DTECH:   CLIENT CODE
 ORIG.           5" PRINT:   ORIGIN OF DATA
 UWI .       490251055000:   UNIQUE WELL ID
 DICO. A2D Technologies, Inc.:   DIGITIZING COMPANY
~OTHER INFORMATION
~A   DEPT     CALD       CORR       RHOB         GRD      DPHI        ILD         SN        SPR   
# ...
  538.0000     8.5633     0.1205     2.4934    77.9337     0.0969    15.2377    13.2621   -22.2123
  538.5000     8.5626     0.0981     2.4807    79.7429     0.1068    15.2305    13.3481   -22.5203
  539.0000     8.5621     0.0979     2.4829    78.2473     0.1092    15.2233    13.3416   -22.8284
  539.5000     8.5464     0.1027     2.4912    76.3012     0.1044    15.3223    13.4279   -22.9853
  540.0000     8.5458     0.1057     2.5009    75.7050     0.0972    15.5277    13.5149   -22.9912
  540.5000     8.5302     0.1040     2.5106    78.1148     0.0975    15.6283    13.6023   -22.9971
  541.0000     8.5296     0.0885     2.5008    80.3729     0.1014    15.5130    13.7839   -22.8520
  541.5000     8.5290     0.0728     2.4824    80.6791     0.1053    15.5056    13.7773   -22.8459
  542.0000     8.5284     0.0698     2.4638    82.1865     0.1090    15.4853    13.8665   -22.7127
  542.5000     8.5278     0.0744     2.4619    83.1156     0.1135    15.3825    13.8599   -22.5676
  543.0000     8.5421     0.0775     2.4664    81.5172     0.1185    15.2705    13.7578   -22.4239
  543.5000     8.5416     0.0745     2.4671    79.4470     0.1200    15.1579    13.7516   -22.4298
  544.0000     8.5259     0.0640     2.4589    77.2376     0.1191    15.0199    13.7447   -22.4357
  544.5000     8.5239     0.0611     2.4544    78.2961     0.1155    14.8169    13.7382   -22.4416
  545.0000     8.5218     0.0731     2.4768    79.5046     0.1065    14.6210    13.6369   -22.4475
  545.5000     8.5198     0.0777     2.4836    79.3618     0.0996    14.5134    13.5362   -22.4270
  546.0000     8.5178     0.0762     2.4821    80.5166     0.0972    14.5066    13.4351   -22.4593
  546.5000     8.5158     0.0700     2.4806    85.4059     0.0993    14.3998    13.3360   -22.3142
  547.0000     8.5138     0.0625     2.4776    84.7912     0.1077    14.2937    13.1464   -22.3202
  547.5000     8.5118     0.0553     2.4731    83.7475     0.1089    14.1869    13.1401   -22.1749
  548.0000     8.5097     0.0494     2.4655    83.6029     0.1107    14.0825    13.1339   -22.1823
  548.5000     8.5077     0.0449     2.4554    85.1136     0.1137    13.9789    13.1277   -22.3393
  549.0000     8.5057     0.0434     2.4445    88.2742     0.1203    13.8760    13.1215   -22.3452
  549.5000     8.5043     0.0645     2.4558    86.9302     0.1188    14.0626    13.1153   -22.3511
  550.0000     8.5038     0.0676     2.4738    84.2349     0.1088    14.0559    13.2919   -22.3649
  550.5000     8.5032     0.0526     2.4708    81.2392     0.1149    14.2449    13.3864   -22.4225
  551.0000     8.5026     0.0435     2.4558    78.3937     0.1208    14.3372    13.5581   -22.4801
  551.5000     8.5018     0.0337     2.4483    75.2480     0.1289    14.6306    13.7406   -22.6730
  552.0000     8.5021     0.0256     2.4392    72.2523     0.1361    15.0392    14.0224   -22.6774
  552.5000     8.5039     0.0272     2.4183    69.5371     0.1436    15.5712    14.5079   -22.5297
  553.0000     8.5058     0.0302     2.4003    67.2481     0.1511    16.6591    15.1162   -22.5352
  553.5000     8.5076     0.0362     2.4062    65.3138     0.1583    18.0918    15.7501   -22.3875
  554.0000     8.5094     0.0393     2.3628    64.0254     0.1664    19.6352    16.4668   -22.0909
  554.5000     8.5112     0.0363     2.3388    63.2820     0.1832    22.0089    17.3804   -21.6422
  555.0000     8.5130     0.0348     2.3193    62.5386     0.1946    24.3826    18.2940   -20.5892
  555.5000     8.5149     0.0409     2.3110    62.0937     0.1988    27.0498    19.2077   -18.9240
  556.0000     8.5152     0.0499     2.3155    62.4032     0.2030    29.3841    20.3682   -17.7100
  556.5000     8.4998     0.0650     2.3132    63.9121     0.2039    30.8351    21.0815   -16.9782
  557.0000     8.4845     0.0770     2.3110    65.4210     0.2027    31.4750    21.3723   -16.6805
  557.5000     8.4692     0.0830     2.3192    65.8788     0.1970    31.4541    21.5164   -16.3828
  558.0000     8.4689     0.0861     2.3335    65.7357     0.1853    30.9957    21.6616   -16.2351
  558.5000     8.4535     0.0966     2.3499    65.8935     0.1781    30.1760    21.6561   -16.0885
  559.0000     8.4532     0.1086     2.3604    66.3514     0.1739    29.3469    21.6517   -15.7919
  559.5000     8.4529     0.1237     2.3604    66.5089     0.1742    28.5405    21.4979   -15.7963
  560.0000     8.4526     0.1389     2.3762    67.1771     0.1703    27.7563    21.4936   -15.8006
  560.5000     8.4523     0.1555     2.3837    69.8288     0.1622    27.3696    21.3408   -15.6541
  561.0000     8.4520     0.1463     2.3754    71.3377     0.1658    27.3640    21.1882   -15.6586
  561.5000     8.4517     0.1388     2.3716    71.4952     0.1703    27.3585    20.8926   -15.6631
  562.0000     8.4514     0.1479     2.3769    71.2023     0.1667    27.5429    20.7442   -15.8196
  562.5000     8.4511     0.1434     2.3671    70.3087     0.1647    27.5371    20.5969   -15.8240
  563.0000     8.4508     0.1269     2.3549    69.7155     0.1742    27.5314    20.5927   -15.8284
  563.5000     8.4505     0.1179     2.3473    69.4207     0.1775    27.5257    20.4464   -15.8329
  564.0000     8.4502     0.1149     2.3416    69.2780     0.1818    27.3294    20.3012   -15.8373
  564.5000     8.4650     0.1195     2.3401    69.2872     0.1863    27.1356    20.2971   -15.8417
  565.0000     8.4647     0.1330     2.3401    69.2945     0.1877    26.9431    20.1529   -15.8461
  565.5000     8.4643     0.1527     2.3483    69.6022     0.1718    26.3846    20.0097   -15.8506
  566.0000     8.4640     0.1819     2.3633    70.2142     0.1526    26.0170    19.8667   -15.8550
  566.5000     8.4637     0.2157     2.3881    71.5952     0.1472    25.6544    19.8626   -15.8595
  567.0000     8.4785     0.2338     2.4060    72.6517     0.1463    25.1227    19.7216   -15.7128
  567.5000     8.4782     0.2398     2.4195    71.2852     0.1460    24.9445    19.7176   -15.7183
  568.0000     8.4929     0.2383     2.4220    69.0403     0.1424    24.5969    19.7136   -15.5706
  568.5000     8.4926     0.2293     2.4060    69.0477     0.1378    24.2540    19.5736   -15.4240
  569.0000     8.5074     0.1993     2.4000    68.4545     0.1321    23.9150    19.5696   -15.2773
  569.5000     8.5221     0.1904     2.4205    66.9603     0.1297    24.4113    19.7017   -15.2829
  570.0000     8.5368     0.2024     2.4315    64.8656     0.1270    24.5770    19.6976   -15.2873
  570.5000     8.5365     0.2084     2.4427    69.0772     0.1225    24.9142    19.6936   -15.2917
  571.0000     8.5513     0.2130     2.4555    70.4359     0.1129    25.0819    19.8264   -15.2962
  571.5000     8.5510     0.2130     2.4824    69.9928     0.1074    25.0756    19.9602   -15.4517
  572.0000     8.5506     0.2113     2.5184    70.0002     0.0956    25.0705    19.9551   -15.6073
  572.5000     8.5353     0.1875     2.5132    71.2088     0.0868    25.0654    19.9511   -15.9148
  573.0000     8.5322     0.1530     2.4704    72.5857     0.1135    24.8877    19.4021   -16.5234
  573.5000     8.5046     0.1411     2.4352    73.3256     0.1243    24.1948    19.1313   -17.1321
  574.0000     8.4854     0.1306     2.4074    70.6321     0.1411    23.3528    18.7342   -17.5897
  574.5000     8.4589     0.1171     2.3819    69.7368     0.1564    22.1130    18.3453   -18.0473
  575.0000     8.4586     0.1306     2.3849    72.2985     0.1603    21.5054    17.9644   -18.3538
  575.5000     8.4433     0.1547     2.3864    72.6062     0.1621    21.2057    17.7015   -18.3583
  576.0000     8.4280     0.1607     2.3799    71.8628     0.1609    21.2014    17.3451   -18.3627
  576.5000     8.4277     0.1592     2.3692    71.1194     0.1618    21.4923    17.1031   -18.2160
  577.0000     8.4274     0.1653     2.3797    71.2770     0.1666    21.6381    16.8644   -18.0634
  577.5000     8.4271     0.1821     2.3924    72.1852     0.1645    21.7839    16.8610   -17.7718
  578.0000     8.4418     0.1789     2.4014    73.5440     0.1591    21.4792    16.8576   -17.4741
