~VERSION INFORMATION
 VERS.                2.0:   CWLS LOG ASCII STANDARD - VERSION 2.0
 WRAP.                 NO:   ONE LINE PER DEPTH STEP
~WELL INFORMATION
#MNEM.UNIT      DATA TYPE    INFORMATION
#----------   ------------   ------------------------------
 STRT.F           95.0000:   START DEPTH
 STOP.F          922.0000:   STOP DEPTH
 STEP.F            0.5000:   STEP LENGTH
 NULL.          -999.2500:   NO VALUE
 COMP.          U.S. NAVY:   COMPANY
 WELL. RES 3 TEAPOT DOM #57S-11:   WELL
 FLD .             TEAPOT:   FIELD
 LOC .      S11 T38N R78W:   LOCATION
 CNTY.            NATRONA:   COUNTY
 STAT.            WYOMING:   STATE
 CTRY. UNITED STATES OF AMERICA:   COUNTRY
 SRVC.       Schlumberger:   SERVICE COMPANY
 DATE.        02-AUG-1961:   LOGDATE
 API .       490250632800:   API NUMBER
~CURVE INFORMATION
#MNEM.UNIT       API CODE    CURVE DESCRIPTION
#----------   ------------   ------------------------------
 DEPT.F                  :   
 GR  .GAPI   30 310 01 00:   GAMMA RAY
 SPR .MV     05 010 01 00:   SPONTANEOUS POTENTIAL FROM RES.
 CILD.MMHO   05 110 46 00:   CONDUCTIVITY INDUCTION LOG DEEP
 ASN .OHMM   05 041 16 00:   AMPLIFIED SHORT NORMAL 16"
 ILD .OHMM   05 120 46 00:   INDUCTION LOG DEEP
~PARAMETER INFORMATION
#MNEM.UNIT          VALUE    DESCRIPTION
#----------   ------------   ------------------------------
 PD  .                 GL:   PERMANENT DATUM
 EPD .F              5213:   ELEVATION PERMANENT DATUM
 LMF .                 KB:   LOG MEASURED FROM
 DAPD.F                 6:   FEET ABOVE PERMANENT DATUM
 DMF .                 KB:   DRILLING MEASURED FROM
 EKB .F              5219:   KELLING BUSHING
 EGL .F              5213:   GROUND LEVEL
 DATE.             8-2-61:   RUN DATE
 RUN .                  1:   RUN NUMBER
 DD  .F               920:   DEPTH DRILLER
 DL  .F               921:   DEPTH LOGGER
 BLI .F               920:   BOTTOM LOG INTERVAL
 TLI .F               100:   TOP LOG INTERVAL
 BS  .IN             6.75:   BIT SIZE
 BSD .F               920:   BIT SIZE AT DEPTH
 DFT .       OIL EMULSION:   DRILLING FLUID TYPE
 DFD .                9.2:   DRILLING FLUID DENSITY
 DFV .                 55:   DRILLING FLUID VISCOSITY
 MFSS.                  M:   MUD FILTRATE SAMPLE SOURCE
 MCSS.                  M:   MUD CAKE SAMPLE SOURCE
 RMB .OHMM            .75:   RESISTIVITY MUD AT BHT
 BHT .F                80:   BOTTOM HOLE TEMPERATURE
 TCS .HRS               1:   TIME CURCULATED STOPPED
 MRT .F                80:   MAXIMUM RECORDED TEMPERATURE
 LUN .               2552:   LOGGING UNIT NUMBER
 LUL .                RIV:   LOGGING UNIT LOCATION
 ENGI.             RANDLE:   RECORDING ENGINEER
 WITN.          VORGENSEN:   WITNESSED BY
 CLNT.            A2DTECH:   CLIENT CODE
 ORIG.       2", 5" PRINT:   ORIGIN OF DATA
 UWI .       490250632800:   UNIQUE WELL ID
 DICO. A2D Technologies, Inc.:   DIGITIZING COMPANY
~OTHER INFORMATION
~A   DEPT       GR        SPR       CILD        ASN        ILD   
# ...
  705.0000    65.4740   -38.4253   153.8616     7.6001     6.1445
  705.5000    64.1696   -38.3053   158.6735     7.4758     5.9639
  706.0000    60.4380   -38.3129   163.0968     7.3454     5.7698
  706.5000    57.6249   -38.4355   167.5201     7.2677     5.6304
  707.0000    59.0148   -38.5412   171.0130     7.1429     5.4232
  707.5000    59.8543   -38.6540   180.5567     7.0013     5.2103
  708.0000    60.8408   -38.7571   191.4253     6.8236     5.0079
  708.5000    59.8002   -38.8743   202.2939     6.6257     4.7980
  709.0000    61.9453   -38.8348   213.1625     6.3274     4.5887
  709.5000    59.6713   -38.6561   220.8576     6.0967     4.5401
  710.0000    57.2962   -38.5256   218.1545     5.8727     4.5184
  710.5000    57.9927   -38.4127   214.7688     5.7804     4.4818
  711.0000    59.3585   -38.2656   211.1334     5.9059     4.4863
  711.5000    60.8739   -38.1411   205.6971     5.9010     4.7000
  712.0000    57.9797   -37.9993   199.6504     6.3110     4.9316
  712.5000    54.6203   -37.9112   191.1359     6.9159     5.1480
  713.0000    55.3394   -37.9702   177.8661     7.2374     5.4174
  713.5000    52.5108   -38.0301   168.6359     7.1792     5.7191
  714.0000    62.8497   -38.0896   161.0532     7.2869     6.0345
  714.5000    61.5334   -38.1502   153.4704     7.6152     6.2038
  715.0000    60.3238   -38.2080   146.9408     7.8702     6.2481
  715.5000    62.9698   -38.2723   145.8843     7.9279     6.3197
  716.0000    70.8124   -38.3030   144.9348     8.0161     6.3784
  716.5000    69.4678   -38.3000   145.5834     8.1521     6.4436
  717.0000    66.4023   -38.3003   145.9378     8.1796     6.5065
  717.5000    64.6734   -38.3025   144.1625     7.9756     6.5643
  718.0000    61.6004   -38.2972   142.9288     7.8575     6.5601
  718.5000    58.0713   -38.3088   144.0193     8.4384     6.5474
  719.0000    57.2260   -38.2130   144.9384     8.2790     6.5367
  719.5000    62.8395   -38.0531   145.8576     7.7293     6.5251
  720.0000    67.1488   -37.9262   146.9408     8.0997     6.5140
  720.5000    65.8937   -37.7751   146.9408     8.3798     6.5025
  721.0000    63.3581   -37.6594   146.9408     8.3931     6.4914
  721.5000    58.7464   -37.5715   146.9408     8.2157     6.4798
  722.0000    60.4880   -37.4940   146.9408     8.1364     6.4704
  722.5000    60.2178   -37.4169   147.1971     8.0999     6.4697
  723.0000    60.0045   -37.3325   147.7588     8.1060     6.4705
  723.5000    65.0338   -37.2513   147.1615     8.1267     6.4699
  724.0000    70.0238   -37.1692   145.9949     8.1325     6.4710
  724.5000    70.8028   -37.0863   144.9624     8.1225     6.4690
  725.0000    72.1404   -37.0060   145.5751     8.0982     6.4742
  725.5000    66.1388   -36.9219   147.1794     8.0342     6.4453
  726.0000    69.4092   -36.9132   152.8364     7.9525     6.1204
  726.5000    73.9597   -36.9544   162.1115     7.8130     5.6989
  727.0000    71.3302   -36.9864   171.3933     7.6442     5.3890
  727.5000    67.5273   -37.0233   177.8618     7.4292     5.3354
  728.0000    64.9193   -37.0573   182.0461     6.9971     5.2752
  728.5000    67.7047   -37.0958   183.5213     6.7307     5.2186
  729.0000    67.2525   -37.1011   185.0768     6.5646     5.1582
  729.5000    66.7444   -37.1005   187.7803     6.4086     5.1022
  730.0000    70.7832   -37.1002   192.4466     6.4688     5.0086
  730.5000    74.0440   -37.1019   198.0943     6.7419     4.8664
  731.0000    72.9855   -37.0917   203.1093     6.8233     4.7210
  731.5000    74.4166   -36.9990   210.0326     6.6417     4.6348
  732.0000    73.0979   -36.8998   216.2322     6.2075     4.5814
  732.5000    74.9028   -36.8018   216.2925     5.8483     4.5182
  733.0000    73.6068   -36.7038   212.5214     5.7206     4.4693
  733.5000    74.7185   -36.6043   207.3086     5.8947     4.5361
  734.0000    72.4072   -36.5096   206.4693     5.8480     4.6292
  734.5000    74.2033   -36.4957   205.3275     5.7621     4.7265
  735.0000    71.5548   -36.5025   203.4994     5.9750     4.8068
  735.5000    64.8451   -36.4926   199.5298     6.5440     5.0074
  736.0000    66.2421   -36.5570   188.2342     6.9319     5.3352
  736.5000    57.8032   -36.7197   169.1145     6.9853     5.6557
  737.0000    55.1646   -36.8839   162.5187     7.0684     5.9604
  737.5000    64.0674   -37.0395   158.8558     7.0984     6.1082
  738.0000    62.7860   -37.2202   166.6064     7.0316     5.7891
  738.5000    65.3996   -37.2669   180.3345     6.9149     5.1876
  739.0000    62.2324   -37.1328   198.9342     6.7928     4.7712
  739.5000    64.0996   -37.1427   215.1160     6.5198     4.4690
  740.0000    60.6051   -37.2544   225.1755     5.9563     4.2749
  740.5000    61.4028   -37.2678   226.5329     5.5660     4.2587
  741.0000    60.3884   -37.1321   230.4647     5.5628     4.2598
  741.5000    55.0426   -37.0060   233.1996     5.5599     4.2595
  742.0000    51.3258   -36.8708   231.8670     5.6020     4.2728
  742.5000    53.7807   -36.7456   228.1846     5.9195     4.5168
  743.0000    52.4398   -36.6048   213.7011     6.3906     4.7074
  743.5000    50.5716   -36.5258   198.9245     6.7690     5.0566
  744.0000    54.4753   -36.6909   181.9659     7.0474     5.4800
  744.5000    53.5983   -36.8742   167.3721     7.4191     5.8902
  745.0000    54.7720   -36.8342   156.4193     7.7051     6.3070
  745.5000    55.0023   -36.7268   147.9438     7.9089     6.5272
  746.0000    60.2273   -36.6409   142.7783     8.0838     6.8196
  746.5000    58.9605   -36.5354   137.9137     8.2554     7.0572
  747.0000    64.8593   -36.4568   136.9642     8.3932     7.1377
  747.5000    64.2854   -36.3297   135.8118     8.5308     7.2247
  748.0000    60.8055   -36.4387   134.6837     8.5917     7.2744
  748.5000    61.1045   -36.7884   134.0957     8.6096     7.2274
  749.0000    58.0433   -37.1377   134.9483     8.6363     7.1894
  749.5000    56.8629   -37.3195   135.8006     8.6560     7.1462
  750.0000    60.6884   -37.2915   136.6410     8.6758     7.1064
  750.5000    56.3147   -37.3082   136.3351     8.6973     7.0637
  751.0000    53.4124   -37.2948   135.5390     8.7180     7.0245
  751.5000    51.0943   -37.3124   134.9047     8.7480     6.9806
  752.0000    51.9745   -37.2087   133.4136     8.7374     6.9840
  752.5000    50.5286   -37.0090   135.0886     8.6635     7.0114
  753.0000    50.0513   -36.8422   135.9077     8.5792     7.0375
  753.5000    52.0023   -36.6640   134.9047     8.5376     7.0558
  754.0000    48.4326   -36.4909   132.2673     8.5215     7.1382
  754.5000    52.3524   -36.3130   129.0936     8.6105     7.3462
  755.0000    49.2213   -36.2271   125.9199     8.7923     7.5472
  755.5000    46.2053   -36.1543   122.7461     8.9700     7.7624
  756.0000    47.4040   -36.0723   122.5918     9.1425     7.9098
  756.5000    41.4959   -36.0026   127.8837     9.1507     7.2564
  757.0000    44.1455   -35.9130   142.3626     9.0748     6.4473
  757.5000    48.7057   -36.0139   155.9679     8.7961     5.6415
  758.0000    53.1090   -36.3358   190.0301     8.2030     4.9896
  758.5000    57.2544   -36.5411   211.1334     7.2230     4.8618
  759.0000    59.1821   -36.7854   214.1424     6.4921     4.7861
  759.5000    56.7291   -37.0681   209.4383     5.9470     4.6845
  760.0000    50.8750   -37.2865   207.5058     5.9968     4.6875
  760.5000    46.2350   -37.2864   206.1184     6.1608     4.8894
  761.0000    49.3757   -37.0495   201.3842     6.3280     5.1517
  761.5000    46.9680   -36.7500   194.0822     7.6047     5.3640
  762.0000    46.2760   -36.5285   162.8970     8.7333     6.4082
  762.5000    50.2861   -36.7083   128.8867    10.1971     7.9335
  763.0000    49.1895   -36.8571   114.8445    10.3806     8.9254
  763.5000    48.3201   -37.1345   107.9338    10.5577     9.3438
  764.0000    51.7699   -37.4992   101.8054    10.6717     9.4466
  764.5000    53.5361   -37.5895   103.9278    10.8767     9.3073
  765.0000    54.8820   -37.6824   106.2187    10.8754     9.1835
  765.5000    49.7477   -37.7644   108.7312    10.8864     9.0841
