~VERSION INFORMATION
 VERS.                2.0:   CWLS LOG ASCII STANDARD - VERSION 2.0
 WRAP.                 NO:   ONE LINE PER DEPTH STEP
~WELL INFORMATION
#MNEM.UNIT      DATA TYPE    INFORMATION
#----------   ------------   ------------------------------
 STRT.F           30.0000:   START DEPTH
 STOP.F          677.0000:   STOP DEPTH
 STEP.F            0.5000:   STEP LENGTH
 NULL.          -999.2500:   NO VALUE
 COMP. FENIX & SCISSON INC:   COMPANY
 WELL. TEAPOT DOME #27 SX -2:   WELL
 FLD .             TEAPOT:   FIELD
 LOC .       S2 T38N R78W:   LOCATION
 CNTY.            NATRONA:   COUNTY
 STAT.            WYOMING:   STATE
 CTRY. UNITED STATES OF AMERICA:   COUNTRY
 SRVC.            Unknown:   SERVICE COMPANY
 DATE.        28-JAN-1978:   LOGDATE
 API .       490251056500:   API NUMBER
~CURVE INFORMATION
#MNEM.UNIT       API CODE    CURVE DESCRIPTION
#----------   ------------   ------------------------------
 DEPT.F                  :   
 ILD .OHMM   05 120 46 00:   INDUCTION LOG DEEP
 SN  .OHMM   05 040 16 00:   SHORT NORMAL 16"
 SPR .MV     05 010 01 00:   SPONTANEOUS POTENSIAL
 CALD.IN     45 280 60 00:   CALIPER FROM DENSITY LOG
 CORR.G/C3   45 356 01 00:   DENSITY CORRECTION
 DPHI.DEC    45 890 12 00:   DENSITY POROSITY SANDSTONE
 GRD .GAPI   45 310 01 00:   GAMMA RAY FROM DENSITY LOG
 RHOB.G/C3   45 350 01 00:   BULK DENSITY
~PARAMETER INFORMATION
#MNEM.UNIT          VALUE    DESCRIPTION
#----------   ------------   ------------------------------
 PD  .                 GL:   PERMANENT DATUM
 EPD .F              5147:   ELEVATION PERMANENT DATUM
 LMF .                 KB:   LOG MEASURED FROM
 DAPD.F                 4:   FEET ABOVE PERMANENT DATUM
 DMF .                 KB:   DRILLING MEASURED FROM
 EKB .F              5151:   KELLING BUSHING
 EGL .F              5147:   GROUND LEVEL
 DATE.        28-JAN-1978:   RUN DATE
 RUN .                  1:   RUN NUMBER
 DD  .F               675:   DEPTH DRILLER
 DL  .F               678:   DEPTH LOGGER
 BLI .F               677:   BOTTOM LOG INTERVAL
 TLI .F                40:   TOP LOG INTERVAL
 CS  .IN            8.625:   CASING SIZE
 CBD .F                40:   CASING BOTTOM DRILLER
 CBL .F                40:   CASING BOTTOM LOGGER
 BS  .IN            7.875:   BIT SIZE
 BSD .F               675:   BIT SIZE AT DEPTH
 DFT .                KCL:   DRILLING FLUID TYPE
 DFD .                8.6:   DRILLING FLUID DENSITY
 DFV .                .34:   DRILLING FLUID VISCOSITY
 DFPH.                9.5:   DRILLING FLUID PH
 MSS .           FLOWLINE:   MUD SAMPLE SOURCE
 RMS .OHMM           0.38:   RESISTIVITY MUD SAMPLE
 MST .F                60:   MUD SAMPLE TEMPERATURE
 RMF .OHMM           0.36:   RESISTIVITY MUD FILTRATE SAMPLE
 MFST.F                62:   MUD FILTRATE SAMPLE TEMPERATURE
 RMC .OHMM            0.7:   RESISTIVITY MUD CAKE
 MCST.F                63:   MUD CAKE SAMPLE TEMPERATURE
 MFSS.               MEAS:   MUD FILTRATE SAMPLE SOURCE
 MCSS.               MEAS:   MUD CAKE SAMPLE SOURCE
 RMB .OHMM           0.31:   RESISTIVITY MUD AT BHT
 BHT .F                76:   BOTTOM HOLE TEMPERATURE
 TCS .HRS               3:   TIME CURCULATED STOPPED
 MRT .F                76:   MAXIMUM RECORDED TEMPERATURE
 LUN .               2958:   LOGGING UNIT NUMBER
 LUL .             CASPER:   LOGGING UNIT LOCATION
 ENGI.           REYNOLDS:   RECORDING ENGINEER
 WITN.     MR. HARRINGTON:   WITNESSED BY
 CLNT.            A2DTECH:   CLIENT CODE
 ORIG.           5" PRINT:   ORIGIN OF DATA
 UWI .       490251056500:   UNIQUE WELL ID
 DICO. A2D Technologies, Inc.:   DIGITIZING COMPANY
~OTHER INFORMATION
~A   DEPT      ILD         SN        SPR       CALD       CORR       DPHI        GRD       RHOB   
# ...
  435.0000     5.9275     6.6673   -66.5889     8.6090     0.0317     0.1100   109.9859     2.4715
  435.5000     6.4648     7.0020   -66.5673     8.6094     0.0306     0.1108   109.7112     2.4708
  436.0000     7.0029     7.2529   -66.5458     8.6100     0.0278     0.1105   111.6608     2.4732
  436.5000     7.3537     7.4101   -66.5243     8.6105     0.0249     0.1099   111.9725     2.4673
  437.0000     7.6166     7.4674   -66.5022     8.6111     0.0221     0.1104   111.6978     2.4666
  437.5000     7.6221     7.5261   -66.4758     8.6117     0.0223     0.1125   112.6118     2.4695
  438.0000     7.7068     7.5841   -66.4542     8.6122     0.0224     0.1103   112.9306     2.4720
  438.5000     7.7403     7.6425   -66.4327     8.6128     0.0226     0.1100   113.0997     2.4668
  439.0000     7.7628     7.6486   -66.4112     8.6134     0.0227     0.1121   113.5769     2.4716
  439.5000     7.6984     7.6547   -66.3896     8.6139     0.0199     0.1127   114.6266     2.4791
  440.0000     7.5988     7.6611   -66.3677     8.6145     0.0170     0.1132   116.2750     2.4829
  440.5000     7.5004     7.6674   -66.3411     8.6151     0.0127     0.1135   116.8879     2.4837
  441.0000     7.4033     7.6742   -66.4745     8.6156     0.0189     0.1123   117.2049     2.4711
  441.5000     7.3592     7.7331   -66.5970     8.6162     0.0235     0.1173   117.6770     2.4577
  442.0000     7.2626     7.7395   -66.5755     8.6168     0.0236     0.1125   117.8443     2.4660
  442.5000     7.2686     7.7459   -66.5539     8.6174     0.0238     0.1110   115.9423     2.4699
  443.0000     7.2741     7.6985   -66.5321     8.6179     0.0239     0.1103   114.1831     2.4729
  443.5000     7.2798     7.7060   -66.5055     8.6185     0.0241     0.1115   114.3575     2.4723
  444.0000     7.2851     7.7010   -66.4839     8.6191     0.0242     0.1121   114.3787     2.4701
  444.5000     7.2906     7.6653   -66.4624     8.6198     0.0244     0.1120   114.4051     2.4702
  445.0000     7.3981     7.6427   -66.4408     8.6209     0.0245     0.1117   114.7221     2.4726
  445.5000     7.4545     7.6247   -66.4193     8.6220     0.0216     0.1108   114.8859     2.4741
  446.0000     7.4600     7.5799   -66.3976     8.6231     0.0188     0.1152   113.4331     2.4765
  446.5000     7.3999     7.5855   -66.3708     8.6243     0.0235     0.1149   112.8624     2.4743
  447.0000     7.3182     7.5918   -66.5041     8.6254     0.0281     0.1178   113.1848     2.4640
  447.5000     7.3249     7.5980   -66.3277     8.6265     0.0298     0.1190   113.7977     2.4603
  448.0000     7.2300     7.6053   -66.4611     8.6276     0.0314     0.1184   113.5177     2.4596
  448.5000     7.1351     7.5072   -66.5845     8.6288     0.0331     0.1165   113.1004     2.4612
  449.0000     7.0599     7.4425   -66.5620     8.6299     0.0362     0.1144   114.0092     2.4613
  449.5000     6.9052     7.4049   -66.5351     8.6310     0.0319     0.1165   116.8831     2.4591
  450.0000     6.7691     7.3206   -66.5172     8.6322     0.0215     0.1203   119.3822     2.4607
  450.5000     6.7752     7.2276   -66.4921     8.6333     0.0156     0.1215   117.3324     2.4556
  451.0000     6.7802     7.1344   -66.4705     8.6344     0.0173     0.1232   117.0524     2.4522
  451.5000     6.7207     6.9941   -66.4490     8.6325     0.0205     0.1256   116.4872     2.4490
  452.0000     6.6045     6.6704   -66.4274     8.6292     0.0251     0.1423   113.5497     2.4422
  452.5000     6.2998     6.4469   -66.4051     8.6258     0.0298     0.1459   113.5762     2.4269
  453.0000     5.9259     6.2377   -66.3790     8.6225     0.0374     0.1497   113.5974     2.4172
  453.5000     5.6525     6.1138   -66.3574     8.6192     0.0405     0.1518   113.9144     2.4129
  454.0000     5.5031     5.9936   -66.3359     8.6159     0.0377     0.1526   113.0480     2.4002
  454.5000     5.3946     5.9572   -66.4692     8.6126     0.0363     0.1442   110.7027     2.4063
  455.0000     5.3238     5.9222   -66.4423     8.6092     0.0380     0.1295   110.1326     2.4184
  455.5000     5.3286     5.9689   -66.5702     8.6062     0.0412     0.1184   110.0059     2.4387
  456.0000     5.3325     6.0149   -66.3938     8.6085     0.0443     0.1151   110.0325     2.4530
  456.5000     5.6393     6.2304   -66.0733     8.6104     0.0414     0.1163   109.9058     2.4628
  457.0000     6.0452     6.4094   -65.6033     8.6122     0.0416     0.1180   110.0750     2.4561
  457.5000     6.4359     6.5935   -65.2828     8.6141     0.0463     0.1174   110.2442     2.4518
  458.0000     6.6203     6.7406   -64.9623     8.6163     0.0479     0.1147   110.5621     2.4669
  458.5000     6.8099     6.8442   -65.0903     8.6034     0.0465     0.1107   110.2920     2.4708
  459.0000     6.8619     6.9368   -65.0634     8.6052     0.0452     0.1083   109.5736     2.4768
  459.5000     6.9622     7.0385   -65.0418     8.6070     0.0440     0.1074   108.7073     2.4814
  460.0000     7.0164     7.0440   -64.9038     8.6089     0.0423     0.1064   108.5799     2.4845
  460.5000     6.9734     7.0498   -64.9615     8.6112     0.0415     0.1058   108.7500     2.4846
  461.0000     6.6048     6.9123   -65.0128     8.6278     0.0432     0.1165   108.7763     2.4780
  461.5000     5.9208     6.5923   -65.1424     8.6297     0.0448     0.1333   109.8331     2.4646
  462.0000     5.6855     6.3306   -65.2670     8.6315     0.0509     0.1314   114.2922     2.4475
  462.5000     5.6119     5.9961   -65.2466     8.6334     0.0331     0.1239   114.1655     2.4379
  463.0000     5.6170     5.8751   -65.2222     8.6353     0.0318     0.1215   112.8554     2.4373
  463.5000     5.5443     5.7637   -64.9033     8.6375     0.0303     0.1188   112.5808     2.4449
  464.0000     5.5483     5.7683   -64.7339     8.6394     0.0261     0.1121   112.4541     2.4622
  464.5000     5.5524     5.8529   -64.5645     8.6412     0.0248     0.1115   110.2618     2.4698
  465.0000     6.1845     6.0210   -64.2451     8.6278     0.0265     0.1106   109.0996     2.4721
  465.5000     6.8506     6.4616   -64.0713     8.6301     0.0266     0.1102   108.8197     2.4744
  466.0000     7.2438     7.1644   -64.0514     8.6171     0.0268     0.1093   108.2545     2.4776
  466.5000     7.6071     7.5240   -64.0314     8.6194     0.0269     0.1090   105.7135     2.4777
  467.0000     7.8795     7.7936   -64.0115     8.6058     0.0256     0.1077   103.8644     2.4800
  467.5000     7.9951     8.0728   -63.9910     8.6066     0.0273     0.1047   101.6573     2.4831
  468.0000     8.0579     8.0792   -63.8172     8.6074     0.0275     0.1017   100.6472     2.4877
  468.5000     8.1199     8.0872   -63.7973     8.6082     0.0276     0.1020    99.4903     2.4930
  469.0000     8.1263     8.0935   -63.7774     8.6091     0.0278     0.1047   101.4694     2.4887
  469.5000     8.1326     8.0999   -63.7575     8.6099     0.0280     0.1064   104.5677     2.4857
  470.0000     8.1406     8.1063   -63.8871     8.6107     0.0281     0.1060   106.0683     2.4866
  470.5000     8.1470     8.1127   -63.8622     8.6115     0.0298     0.1063   106.0895     2.4867
  471.0000     8.1534     8.1512   -63.8849     8.6123     0.0299     0.1081   106.5546     2.4846
  471.5000     8.1598     8.2398   -63.9768     8.6131     0.0361     0.1149   106.8717     2.4768
  472.0000     8.1663     8.3032   -63.9442     8.6139     0.0424     0.1170   107.9763     2.4654
  472.5000     8.1730     8.3098   -64.0815     8.6147     0.0575     0.1139   108.1029     2.4632
  473.0000     8.1806     8.3738   -64.0566     8.6156     0.0726     0.1136   108.5680     2.4641
  473.5000     8.2430     8.3805   -64.0057     8.6020     0.0743     0.1127   109.4768     2.4672
  474.0000     8.3069     8.3887   -64.0217     8.6038     0.0729     0.1069   109.6460     2.4762
  474.5000     8.3136     8.3953   -63.9968     8.5904     0.0746     0.1018   108.9276     2.4918
  475.0000     8.4368     8.3443   -64.1264     8.5926     0.0823     0.1060   108.6530     2.4884
