~VERSION INFORMATION
 VERS.                2.0:   CWLS LOG ASCII STANDARD - VERSION 2.0
 WRAP.                 NO:   ONE LINE PER DEPTH STEP
~WELL INFORMATION
#MNEM.UNIT      DATA TYPE    INFORMATION
#----------   ------------   ------------------------------
 STRT.F            0.0000:   START DEPTH
 STOP.F         3139.0000:   STOP DEPTH
 STEP.F            0.5000:   STEP LENGTH
 NULL.          -999.2500:   NO VALUE
 COMP. BROWN JOHN E&C INC:   COMPANY
 WELL.       TX-10 #63-10:   WELL
 FLD .             TEAPOT:   FIELD
 LOC .      S10 T38N R78W:   LOCATION
 CNTY.            NATRONA:   COUNTY
 STAT.            WYOMING:   STATE
 CTRY. UNITED STATES OF AMERICA:   COUNTRY
 SRVC.       Schlumberger:   SERVICE COMPANY
 DATE.        05-OCT-1982:   LOGDATE
 API .       490251090100:   API NUMBER
~CURVE INFORMATION
#MNEM.UNIT       API CODE    CURVE DESCRIPTION
#----------   ------------   ------------------------------
 DEPT.F                  :   
 DPHI.DEC    45 890 12 00:   DENSITY POROSITY  SANDSTONE
 GRD .GAPI   45 310 01 00:   GAMMA RAY FROM DENSITY LOG
 NPHI.DEC    42 890 03 00:   NEUTRON POROSITY SANDSTONE
 CALD.IN     45 280 60 00:   CALIPER FROM DENSITY LOG
 CORR.G/C3   45 356 01 00:   DENSITY CORRECTION
 RHOB.G/C3   45 350 01 00:   BULK DENSITY
 ILD .OHMM   07 120 46 00:   INDUCTION LOG DEEP
 ILM .OHMM   07 120 44 00:   INDUCTION LOG MEDIUM
 SFLU.OHMM   07 220 01 00:   SPHERICALLY FOCUSED LOG UNAVERAGED RESISTIVITY
 SPR .MV     07 010 01 00:   SPONTANEOUS POTENTIAL
~PARAMETER INFORMATION
#MNEM.UNIT          VALUE    DESCRIPTION
#----------   ------------   ------------------------------
 PD  .                 GL:   PERMANENT DATUM
 EPD .F              5189:   ELEVATION PERMANENT DATUM
 LMF .                 KB:   LOG MEASURED FROM
 DAPD.F                10:   FEET ABOVE PERMANENT DATUM
 DMF .                 KB:   DRILLING MEASURED FROM
 EKB .F              5199:   KELLING BUSHING
 EGL .F              5189:   GROUND LEVEL
 DATE.        05-OCT-1982:   RUN DATE
 RUN .                  1:   RUN NUMBER
 DD  .F              3200:   DEPTH DRILLER
 DL  .F              3142:   DEPTH LOGGER
 BLI .F              3139:   BOTTOM LOG INTERVAL
 TLI .F               484:   TOP LOG INTERVAL
 CS  .IN            9.625:   CASING SIZE
 CBD .F               482:   CASING BOTTOM DRILLER
 CBL .F               484:   CASING BOTTOM LOGGER
 BS  .IN            7.875:   BIT SIZE
 BSD .F              3200:   BIT SIZE AT DEPTH
 DFT .        KCL/POLYMER:   DRILLING FLUID TYPE
 DFD .                8.6:   DRILLING FLUID DENSITY
 DFV .                 38:   DRILLING FLUID VISCOSITY
 DFPH.                8.5:   DRILLING FLUID PH
 DFL .                6.8:   DRILLING FLUID LOSS
 MSS .           MUD TANK:   MUD SAMPLE SOURCE
 RMS .OHMM            .40:   RESISTIVITY MUD SAMPLE
 MST .F                64:   MUD SAMPLE TEMPERATURE
 RMF .OHMM            .34:   RESISTIVITY MUD FILTRATE SAMPLE
 MFST.F                64:   MUD FILTRATE SAMPLE TEMPERATURE
 RMC .OHMM            .36:   RESISTIVITY MUD CAKE
 MCST.F                64:   MUD CAKE SAMPLE TEMPERATURE
 MFSS.               MEAS:   MUD FILTRATE SAMPLE SOURCE
 MCSS.               CALC:   MUD CAKE SAMPLE SOURCE
 RMB .OHMM             .2:   RESISTIVITY MUD AT BHT
 BHT .F               125:   BOTTOM HOLE TEMPERATURE
 TCS .HRS            2300:   TIME CURCULATED STOPPED
 TLAB.HRS            0500:   TIME LOGGER AT BOTTOM
 MRT .F               125:   MAXIMUM RECORDED TEMPERATURE
 LUN .               8043:   LOGGING UNIT NUMBER
 LUL .                GLT:   LOGGING UNIT LOCATION
 ENGI.            NEUFFER:   RECORDING ENGINEER
 WITN.             STRONG:   WITNESSED BY
 CLNT.            A2DTECH:   CLIENT CODE
 ORIG.           5" PRINT:   ORIGIN OF DATA
 UWI .       490251090100:   UNIQUE WELL ID
 DICO. A2D Technologies, Inc.:   DIGITIZING COMPANY
~OTHER INFORMATION
~A    DEPT    DPHI          GRD     NPHI       CALD       CORR       RHOB        ILD        ILM       SFLU        SPR   
# ...
 2747.0000     0.2980   114.5070     0.3272     9.0774     0.1408     2.1280     6.6803     6.3271     7.0188   -26.1033
 2747.5000     0.2994   115.9880     0.3554     8.2018     0.0632     2.0407     6.7719     6.4592     7.3657   -26.4143
 2748.0000     0.1860   119.7978     0.3641     8.1560     0.0016     2.1525     6.9122     6.6351     7.6765   -26.7240
 2748.5000     0.1475   123.6241     0.3103     8.1253     0.0115     2.3932     7.0070     6.7723     7.8900   -27.0336
 2749.0000     0.1065   125.3856     0.2959     8.1099     0.0358     2.4757     7.0542     6.8170     7.9984   -27.2108
 2749.5000     0.0800   124.4922     0.2917     8.0944     0.0487     2.5159     7.0525     6.9090     7.9968   -27.6544
 2750.0000     0.0626   123.6499     0.2965     8.1093     0.0524     2.5537     6.9065     6.9546     7.8854   -27.8120
 2750.5000     0.0579   123.8555     0.3003     8.1995     0.0524     2.5589     6.8102     6.9242     7.8822   -28.0726
 2751.0000     0.0605   125.2217     0.3024     8.1988     0.0493     2.5445     6.7767     6.8473     7.6116   -28.2285
 2751.5000     0.0699   127.4680     0.3068     8.1980     0.0416     2.5205     6.6176     6.6653     7.4528   -28.2908
 2752.0000     0.0844   125.7120     0.3053     8.2125     0.0341     2.4987     6.3906     6.2630     7.2973   -27.9939
 2752.5000     0.0923   125.1328     0.3041     8.1964     0.0295     2.4919     6.1713     6.0489     7.2378   -27.6772
 2753.0000     0.0967   124.2593     0.3032     8.2111     0.0264     2.4918     6.0003     5.8421     7.0439   -27.0984
 2753.5000     0.0982   124.5683     0.3039     8.2102     0.0294     2.4971     5.7149     5.6424     6.8494   -26.9536
 2754.0000     0.0926   125.7593     0.3059     8.2548     0.0484     2.5113     5.5188     5.4065     6.7065   -26.8071
 2754.5000     0.0808   128.4253     0.3079     8.3300     0.1471     2.5472     5.4410     5.1907     6.5665   -26.8160
 2755.0000     0.0643   131.6912     0.3115     8.5265     0.1859     2.5832     5.3643     5.1182     6.4290   -26.5193
 2755.5000     0.0437   131.1053     0.3176     8.7686     0.2109     2.5914     5.2841     5.0467     6.2948   -26.5283
 2756.0000     0.0410   128.7565     0.3307     9.3443     0.1698     2.4781     5.1777     4.9401     6.1635   -26.5355
 2756.5000     0.1153   126.9950     0.3416     9.7078     0.0809     2.4353     5.0696     4.8725     5.9932   -26.5426
 2757.0000     0.1385   128.1888     0.3481     9.4188     0.0353     2.4285     4.9981     4.8378     5.7472   -26.5516
 2757.5000     0.1194   132.3326     0.3516     8.8718     0.0277     2.4712     4.9276     4.8365     5.5884   -26.5588
 2758.0000     0.1093   135.8835     0.3466     8.3701     0.0261     2.4809     4.9252     4.8352     5.4718   -26.5660
 2758.5000     0.1053   135.5997     0.3374     8.1873     0.0268     2.4831     4.8899     4.9012     5.5463   -26.5732
 2759.0000     0.1044   134.1359     0.3304     8.0955     0.0291     2.4838     4.9218     4.9677     5.6607   -26.5805
 2759.5000     0.1038   132.0849     0.3246     8.0493     0.0275     2.4853     4.9194     5.0008     5.6982   -26.5894
 2760.0000     0.1048   129.7362     0.3203     8.0334     0.0180     2.4822     4.9220     5.0443     5.7752   -26.5966
 2760.5000     0.1153   128.2696     0.3250     8.0173     0.0077     2.4634     4.9839     5.1061     5.8139   -26.6038
 2761.0000     0.1206   127.1036     0.3330     8.0014     0.0039     2.4446     5.0229     5.1723     5.8519   -26.6110
 2761.5000     0.1294   126.1977     0.3395     8.0007     0.0046     2.4438     5.0837     5.2430     5.9315   -26.6185
 2762.0000     0.1275   122.9989     0.3324     8.0000     0.0125     2.4528     5.1408     5.3141     6.0122   -26.6271
 2762.5000     0.1144   120.3551     0.3256     7.9991     0.0251     2.4715     5.1889     5.3866     6.1358   -26.6343
 2763.0000     0.1023   118.8886     0.3215     7.9984     0.0418     2.4939     5.2555     5.4975     6.2193   -26.6415
 2763.5000     0.0970   117.4112     0.3188     7.9977     0.0410     2.4977     5.3108     5.5345     6.3039   -26.6489
 2764.0000     0.0998   117.1437     0.3176     7.9970     0.0348     2.4736     5.3613     5.6098     6.3456   -26.6577
 2764.5000     0.1111   120.9925     0.3203     7.9961     0.0363     2.4698     5.4364     5.6471     6.3430   -26.4325
 2765.0000     0.1141   123.6585     0.3280     7.9954     0.0439     2.4848     5.4829     5.7241     6.3409   -26.3663
 2765.5000     0.1011   123.6696     0.3365     8.0100     0.0652     2.5012     5.5810     5.7622     6.3828   -26.2193
 2766.0000     0.0958   120.7337     0.3333     8.0091     0.0651     2.5072     5.6180     5.8408     6.4056   -26.0786
 2766.5000     0.0914   121.0398     0.3226     8.0236     0.0415     2.4951     5.6947     5.8554     6.5119   -25.9338
 2767.0000     0.0999   122.5259     0.3232     8.0227     0.0271     2.4846     5.7702     5.8778     6.5550   -25.6388
 2767.5000     0.1064   123.4220     0.3250     8.0373     0.0217     2.4860     5.8073     5.8759     6.6903   -25.4939
 2768.0000     0.1043   118.4211     0.3238     8.0516     0.0316     2.4965     5.7254     5.8340     6.8758   -25.1991
 2768.5000     0.0922   115.1874     0.3020     8.0810     0.0923     2.5168     5.6059     5.7524     7.0665   -25.0543
 2769.0000     0.0722   114.6086     0.2813     8.1865     0.1637     2.5542     5.5248     5.5943     7.3123   -24.9095
 2769.5000     0.0557   115.5047     0.2751     8.2617     0.2131     2.5669     5.4484     5.4401     7.3612   -24.9167
 2770.0000     0.0642   117.6202     0.2857     8.2610     0.2275     2.4753     5.4088     5.4387     6.5780   -24.9240
 2770.5000     0.1102   119.0696     0.3013     8.1690     0.1925     2.4280     5.3694     5.3999     6.0596   -24.9329
 2771.0000     0.1541   120.2607     0.3409     8.0166     0.1256     2.3469     5.3673     5.3613     5.7712   -24.9401
 2771.5000     0.1865   122.3367     0.3527     7.9552     0.0564     2.3432     5.4019     5.3971     5.6508   -24.9468
 2772.0000     0.1841   125.1456     0.3577     7.9696     0.0448     2.4031     5.4377     5.4329     5.8075   -24.9545
 2772.5000     0.1482   128.8515     0.3436     7.9841     0.0569     2.4406     5.5111     5.5449     6.1356   -24.9620
 2773.0000     0.1236   126.7977     0.3270     8.0591     0.0845     2.4765     5.5851     5.6042     6.3936   -24.9696
 2773.5000     0.1052   122.6790     0.3193     8.1797     0.1201     2.4945     5.7392     5.7367     6.6624   -24.9778
 2774.0000     0.0975   117.6676     0.3078     8.4067     0.1467     2.4948     5.8161     5.8145     6.8000   -24.9850
 2774.5000     0.0957   116.8016     0.2995     8.4818     0.1248     2.4876     5.8547     5.8939     6.9454   -24.9924
 2775.0000     0.0999   116.2228     0.2990     8.3899     0.0950     2.4899     5.9332     5.9335     7.1322   -25.0012
 2775.5000     0.1001   115.0540     0.2987     8.2526     0.0752     2.4943     6.0157     6.0557     7.2298   -25.0084
 2776.0000     0.0972   114.7649     0.2990     8.1456     0.0660     2.4980     6.1361     6.1011     7.2268   -25.0156
 2776.5000     0.0995   116.2618     0.2989     8.0675     0.0442     2.4852     6.2190     6.2220     7.2245   -25.1248
 2777.0000     0.1054   116.8629     0.2978     8.0075     0.0189     2.4837     6.2597     6.3069     7.2215   -25.3357
 2777.5000     0.1025   117.4640     0.2910     7.9916     0.0181     2.4926     6.3006     6.3485     7.2192   -25.3419
 2778.0000     0.0939   118.0651     0.2753     7.9757     0.0203     2.5016     6.3857     6.3032     7.2168   -25.5542
 2778.5000     0.0869   121.0289     0.2645     7.9750     0.0249     2.5170     6.4267     6.3011     7.0662   -25.6612
 2779.0000     0.0792   123.9899     0.2620     7.9741     0.0309     2.5300     6.4694     6.2995     6.9597   -25.9726
 2779.5000     0.0742   126.3609     0.2653     7.9734     0.0377     2.5375     6.5567     6.2979     6.8209   -26.2853
 2780.0000     0.0677   126.0771     0.2665     7.9726     0.0453     2.5412     6.5535     6.2962     6.9137   -26.5965
