~VERSION INFORMATION
 VERS.                2.0:   CWLS LOG ASCII STANDARD - VERSION 2.0
 WRAP.                 NO:   ONE LINE PER DEPTH STEP
~WELL INFORMATION
#MNEM.UNIT      DATA TYPE    INFORMATION
#----------   ------------   ------------------------------
 STRT.F           14.0000:   START DEPTH
 STOP.F          581.5000:   STOP DEPTH
 STEP.F            0.5000:   STEP LENGTH
 NULL.          -999.2500:   NO VALUE
 COMP. LAWRENCE/ALLISON INC:   COMPANY
 WELL.   41-11 STX #10-10:   WELL
 FLD .              NPR 3:   FIELD
 LOC .      S10 T38N R78W:   LOCATION
 CNTY.            NATRONA:   COUNTY
 STAT.            WYOMING:   STATE
 CTRY. UNITED STATES OF AMERICA:   COUNTRY
 SRVC.           Gearhart:   SERVICE COMPANY
 DATE.        03-JUL-1986:   LOGDATE
 API .       490251107900:   API NUMBER
~CURVE INFORMATION
#MNEM.UNIT       API CODE    CURVE DESCRIPTION
#----------   ------------   ------------------------------
 DEPT.F                  :   
 GRR .GAPI   07 310 01 00:   GAMMA RAY FROM RES. LOG.
 RILM.OHMM   07 120 44 00:   INDUCTION LOG MEDIUM RESISTIVITY
 RILD.OHMM   07 120 46 00:   INDUCTION LOG DEEP RESISTIVITY
~PARAMETER INFORMATION
#MNEM.UNIT          VALUE    DESCRIPTION
#----------   ------------   ------------------------------
 PD  .                 GL:   PERMANENT DATUM
 EPD .F              5233:   ELEVATION PERMANENT DATUM
 LMF .                 KB:   LOG MEASURED FROM
 DAPD.F                 5:   FEET ABOVE PERMANENT DATUM
 DMF .                 KB:   DRILLING MEASURED FROM
 EKB .F              5238:   KELLING BUSHING
 EGL .F              5233:   GROUND LEVEL
 DATE.             7-3-86:   RUN DATE
 RUN .                  1:   RUN NUMBER
 DD  .F               590:   DEPTH DRILLER
 DL  .F               591:   DEPTH LOGGER
 BLI .F               581:   BOTTOM LOG INTERVAL
 TLI .F                14:   TOP LOG INTERVAL
 CS  .IN            8.625:   CASING SIZE
 CBD .F                47:   CASING BOTTOM DRILLER
 CBL .F                47:   CASING BOTTOM LOGGER
 BS  .IN            7.875:   BIT SIZE
 BSD .F               590:   BIT SIZE AT DEPTH
 DFT .                AIR:   DRILLING FLUID TYPE
 TCS .HRS            0900:   TIME CURCULATED STOPPED
 TLAB.HRS            1100:   TIME LOGGER AT BOTTOM
 MRT .F                80:   MAXIMUM RECORDED TEMPERATURE
 LUN .               7609:   LOGGING UNIT NUMBER
 LUL .           GILLETTE:   LOGGING UNIT LOCATION
 ENGI.              BAUER:   RECORDING ENGINEER
 WITN.              FIVAS:   WITNESSED BY
 CLNT.            A2DTECH:   CLIENT CODE
 ORIG.       2", 5" PRINT:   ORIGIN OF DATA
 UWI .       490251107900:   UNIQUE WELL ID
 DICO. A2D Technologies, Inc.:   DIGITIZING COMPANY
~OTHER INFORMATION
~A   DEPT       GRR      RILM       RILD   
# ...
  105.0000   107.2020     8.9313     8.7761
  105.5000   108.2774     8.8971     8.7543
  106.0000   109.9911     8.8631     8.7327
  106.5000   111.7220     8.8323     8.7110
  107.0000   112.1476     8.8442     8.6895
  107.5000   111.3487     8.8554     8.6679
  108.0000   110.5282     8.8666     8.6465
  108.5000   109.6943     8.8778     8.6251
  109.0000   108.9665     8.8897     8.6036
  109.5000   110.2561     8.9004     8.5881
  110.0000   113.7427     8.9116     8.6686
  110.5000   115.7453     9.4720     8.6454
  111.0000   116.4745    10.3520     8.6128
  111.5000   117.1767    11.1106     8.5804
  112.0000   117.1865    12.1838     8.5481
  112.5000   116.7769    12.8218     8.5159
  113.0000   116.3587    11.6621     8.4838
  113.5000   115.9412    10.7248     8.4519
  114.0000   115.5382     9.8688     8.4201
  114.5000   113.9962     9.0819     8.3883
  115.0000   112.0828     8.7499     8.3568
  115.5000   111.3300     8.7499     8.2697
  116.0000   112.7818     8.8489     8.4546
  116.5000   114.5227     8.9689     8.6070
  117.0000   114.9149     9.0906     8.7620
  117.5000   112.9964     9.2144     8.9195
  118.0000   109.9021     9.3423     9.0830
  118.5000   109.3215     9.3336     9.0830
  119.0000   109.7464     9.3207     9.0830
  119.5000   109.8343     9.3079     9.0830
  120.0000   108.3864     9.2952     9.0830
  120.5000   107.5003     9.2824     9.0833
  121.0000   108.1191     9.2695     9.0841
  121.5000   109.6065     9.2569     8.9827
  122.0000   111.1216     9.1987     8.8967
  122.5000   111.3632     9.1069     8.8114
  123.0000   111.1655     9.0161     8.7271
  123.5000   110.2890     8.9262     8.6529
  124.0000   109.4718     8.8320     8.6010
  124.5000   109.6592     8.7436     8.5153
  125.0000   112.5751     8.6506     8.4187
  125.5000   116.7687     8.5586     8.3233
  126.0000   119.9514     8.4676     8.2290
  126.5000   118.2532     8.3775     8.1357
  127.0000   112.0267     8.2884     8.0436
  127.5000   107.7867     8.2001     7.9525
  128.0000   106.1552     8.1131     7.8955
  128.5000   107.6004     8.0444     7.8221
  129.0000   109.2054     8.1329     7.7494
  129.5000   109.7847     8.2216     7.8955
  130.0000   107.9197     8.3112     7.9993
  130.5000   105.8370     8.4018     8.0977
  131.0000   104.2008     8.4934     8.1974
  131.5000   103.9650     8.5859     8.2982
  132.0000   105.9452     8.6795     8.4004
  132.5000   107.8882     8.7741     8.5037
  133.0000   108.7139     8.8698     8.6084
  133.5000   104.9642     8.9664     8.7143
  134.0000   100.9168     9.0642     8.8215
  134.5000    97.4633     9.1632     8.9301
  135.0000    98.4971     9.2627     9.0400
  135.5000   102.4927     9.3412     9.0830
  136.0000   106.1674     9.2825     9.0334
  136.5000   106.3708     9.2347     8.9931
  137.0000   105.0479     9.1873     8.9530
  137.5000   103.7174     9.1400     8.9130
  138.0000   103.7850     9.0930     8.8732
  138.5000   106.4678     9.0463     8.8336
  139.0000   109.1092     8.9998     8.7941
  139.5000   110.7127     8.9535     8.7549
  140.0000   110.5254     8.9074     8.6647
  140.5000   108.6927     8.8617     8.6656
  141.0000   106.9567     8.8320     8.6686
  141.5000   106.8415     8.9109     8.6687
  142.0000   108.5545     8.9937     8.6671
  142.5000   110.6707     9.0773     8.6596
  143.0000   111.3990     9.1617     8.8320
  143.5000   109.8328     9.2543     9.0001
  144.0000   108.0820     9.4216     9.1589
  144.5000   106.3478     9.6084     9.3206
  145.0000   105.2686     9.7989     9.4850
  145.5000   105.7105     9.9932     9.6524
  146.0000   106.7737    10.1913     9.8228
  146.5000   107.6058    10.3934     9.9961
  147.0000   105.7267    10.5994    10.1725
  147.5000   104.4952    10.8096    10.3520
  148.0000   104.6680    11.0239    10.5347
  148.5000   104.8346    11.2424    10.7206
  149.0000   104.7662    11.4653    10.9098
  149.5000   101.8704    11.6927    11.0537
  150.0000    98.4702    11.9246    11.3121
  150.5000    94.5095    12.1596    11.5642
  151.0000    94.0262    12.3625    11.8207
  151.5000    94.8879    12.5418    12.0828
  152.0000    95.5329    12.7295    12.3568
  152.5000    94.6488    12.8331    12.6421
  153.0000    92.7235    12.7689    12.9548
  153.5000    92.6919    12.7249    13.0688
  154.0000    92.6971    12.7138    13.0694
  154.5000    92.4826    12.6925    13.0751
  155.0000    91.1225    12.5819    13.0751
  155.5000    91.6344    12.4731    12.9878
  156.0000    93.5866    12.3651    12.8551
  156.5000    97.4453    12.2581    12.7237
  157.0000    98.0604    12.1520    12.5936
  157.5000    96.8249    12.0468    12.4649
  158.0000    97.0645    11.9425    12.3374
  158.5000    97.2726    11.8392    12.2113
  159.0000    97.5125    11.7373    12.0865
  159.5000    96.7443    11.6876    11.9091
  160.0000    95.5854    11.6886    11.9210
  160.5000    94.3988    11.6886    11.9424
  161.0000    93.8570    11.6886    11.9637
  161.5000    93.7378    11.6886    11.9852
  162.0000    93.6247    11.6885    12.0072
  162.5000    93.5217    11.6891    12.0208
  163.0000    94.0403    11.5766    11.8923
  163.5000    95.6431    11.4799    11.7967
  164.0000    98.0658    11.3839    11.7021
  164.5000   100.3670    11.2887    11.6083
  165.0000   100.8014    11.2039    11.5153
  165.5000   101.1653    11.1238    11.4229
  166.0000   101.5377    11.0443    11.3314
  166.5000   101.9106    10.9654    11.2405
  167.0000   102.2890    10.8870    11.1504
  167.5000   102.2975    10.8092    11.0610
  168.0000   102.1301    10.7320    10.9724
  168.5000    99.6939    10.6553    10.8844
  169.0000    96.8738    10.5791    10.7971
  169.5000    94.9958    10.5035    10.7106
  170.0000    93.1350    10.4284    10.6247
  170.5000    92.5451    10.3539    10.5395
  171.0000    94.1300    10.2799    10.4492
  171.5000    95.5251    10.2064    10.4050
  172.0000    95.3786    10.1335    10.3454
  172.5000    95.1667    10.0611    10.2861
  173.0000    96.6968     9.9892    10.2271
  173.5000    99.4695     9.9178    10.1685
  174.0000   101.4585     9.8469    10.1101
  174.5000   100.3423     9.7855    10.0520
  175.0000    99.5730     9.7751     9.9726
  175.5000    99.5958     9.7640     9.9898
  176.0000    99.6040     9.7531    10.0182
  176.5000    99.5459     9.7422    10.0467
  177.0000    97.9805     9.7312    10.0753
  177.5000    96.7432     9.7203    10.1042
  178.0000    97.5957     9.7097    10.1340
  178.5000    99.3717     9.7012    10.1594
  179.0000   101.1763     9.5718     9.9156
  179.5000   103.3038     9.3787     9.6850
  180.0000   107.5920     9.1910     9.4598
  180.5000   108.8796     9.0071     9.2399
  181.0000   105.9281     8.8268     9.0250
  181.5000   103.0010     8.6501     8.8151
  182.0000   101.5603     8.4770     8.6102
  182.5000   101.3675     8.3074     8.5081
  183.0000   101.2297     8.1961     8.5081
  183.5000   101.5036     8.2381     8.5080
  184.0000   102.7955     8.2752     8.5081
  184.5000   104.3228     8.3125     8.5080
  185.0000   105.2450     8.3499     8.5081
  185.5000   105.0841     8.3875     8.5277
  186.0000   104.9582     8.4252     8.5927
  186.5000   105.3150     8.4630     8.6582
  187.0000   106.4147     8.5013     8.7241
  187.5000   105.0347     8.5570     8.7906
  188.0000   101.3410     8.6353     8.8575
  188.5000    97.6958     8.7144     8.9250
  189.0000    98.7126     8.7941     8.9930
  189.5000   101.2822     8.8746     9.0615
  190.0000   103.1010     8.9559     9.1305
  190.5000   102.1769     9.0378     9.2001
  191.0000   101.3171     9.1206     9.2702
  191.5000   100.4507     9.2041     9.3408
  192.0000    99.5792     9.2883     9.4120
  192.5000   101.0362     9.3412     9.6968
  193.0000   102.7885     9.3015     9.5115
  193.5000   104.5389     9.2723     9.4845
  194.0000   106.4650     9.2434     9.4576
  194.5000   106.2904     9.2146     9.4291
  195.0000   104.7476     9.1860     9.4048
  195.5000   102.9735     9.1598     9.3726
