~VERSION INFORMATION
 VERS.                2.0:   CWLS LOG ASCII STANDARD - VERSION 2.0
 WRAP.                 NO:   ONE LINE PER DEPTH STEP
~WELL INFORMATION
#MNEM.UNIT      DATA TYPE    INFORMATION
#----------   ------------   ------------------------------
 STRT.F           20.0000:   START DEPTH
 STOP.F          805.5000:   STOP DEPTH
 STEP.F            0.5000:   STEP LENGTH
 NULL.          -999.2500:   NO VALUE
 COMP. FENIX & SCISSON INC:   COMPANY
 WELL.    16-SX-14 #16-14:   WELL
 FLD .             TEAPOT:   FIELD
 LOC .      S14 T38N R78W:   LOCATION
 CNTY.            NATRONA:   COUNTY
 STAT.            WYOMING:   STATE
 CTRY. UNITED STATES OF AMERICA:   COUNTRY
 SRVC.            Unknown:   SERVICE COMPANY
 DATE.        23-MAY-1978:   LOGDATE
 API .       490251063200:   API NUMBER
~CURVE INFORMATION
#MNEM.UNIT       API CODE    CURVE DESCRIPTION
#----------   ------------   ------------------------------
 DEPT.F                  :   
 SN  .OHMM   05 040 16 00:   SHORT NORMAL 16"
 ILD .OHMM   05 120 46 00:   INDUCTION LOG DEEP
 SPR .MV     05 010 01 00:   SPONTANEOUS POTENTIAL FROM RES.
 RHOB.G/C3   45 350 01 00:   BULK DENSITY
 DPOR.DEC    45 890 12 00:   DENSITY POROSITY SANDSTONE
 CORR.G/C3   45 356 01 00:   DENSITY CORRECTION
 GRD .GAPI   45 310 01 00:   GAMMA RAY FROM DENSITY LOG
 CALD.IN     45 280 60 00:   CALIPER FROM DENSITY LOG
~PARAMETER INFORMATION
#MNEM.UNIT          VALUE    DESCRIPTION
#----------   ------------   ------------------------------
 PD  .                 GL:   PERMANENT DATUM
 EPD .F              5246:   ELEVATION PERMANENT DATUM
 LMF .                 KB:   LOG MEASURED FROM
 DAPD.F                 4:   FEET ABOVE PERMANENT DATUM
 DMF .                 KB:   DRILLING MEASURED FROM
 EKB .F              5250:   KELLING BUSHING
 EGL .F              5246:   GROUND LEVEL
 DATE.          5-23-1978:   RUN DATE
 RUN .                  1:   RUN NUMBER
 DD  .F               825:   DEPTH DRILLER
 DL  .F               812:   DEPTH LOGGER
 BLI .F               805:   BOTTOM LOG INTERVAL
 TLI .F                40:   TOP LOG INTERVAL
 CS  .IN            8.625:   CASING SIZE
 CBD .F                40:   CASING BOTTOM DRILLER
 BS  .IN            7.875:   BIT SIZE
 BSD .F               825:   BIT SIZE AT DEPTH
 DFT .                KCL:   DRILLING FLUID TYPE
 DFD .                8.6:   DRILLING FLUID DENSITY
 DFV .                 30:   DRILLING FLUID VISCOSITY
 DFPH.                 11:   DRILLING FLUID PH
 DFL .                 14:   DRILLING FLUID LOSS
 MSS .            MUD PIT:   MUD SAMPLE SOURCE
 RMS .OHMM            .32:   RESISTIVITY MUD SAMPLE
 MST .F                72:   MUD SAMPLE TEMPERATURE
 RMF .OHMM            .28:   RESISTIVITY MUD FILTRATE SAMPLE
 MFST.F                72:   MUD FILTRATE SAMPLE TEMPERATURE
 RMC .OHMM            .50:   RESISTIVITY MUD CAKE
 MCST.F                82:   MUD CAKE SAMPLE TEMPERATURE
 MFSS.               MEAS:   MUD FILTRATE SAMPLE SOURCE
 RMB .OHMM            .31:   RESISTIVITY MUD AT BHT
 BHT .F                75:   BOTTOM HOLE TEMPERATURE
 TCS .HRS               2:   TIME CURCULATED STOPPED
 MRT .F                75:   MAXIMUM RECORDED TEMPERATURE
 LUN .               2958:   LOGGING UNIT NUMBER
 LUL .              CSPR.:   LOGGING UNIT LOCATION
 ENGI.             MILLER:   RECORDING ENGINEER
 WITN.            RHOADES:   WITNESSED BY
 CLNT.            A2DTECH:   CLIENT CODE
 ORIG.    1" , 2.5" PRINT:   ORIGIN OF DATA
 UWI .       490251063200:   UNIQUE WELL ID
 DICO. A2D Technologies, Inc.:   DIGITIZING COMPANY
~OTHER INFORMATION
~A   DEPT       SN        ILD        SPR       RHOB       DPOR       CORR         GRD      CALD   
# ...
  749.0000     9.8408     9.2517   -26.4503     2.5018     0.1121     0.0411    76.7715     7.4600
  749.5000     9.8409     9.2585   -26.4859     2.4894     0.1139     0.0400    71.8557     7.4600
  750.0000     9.8409     9.2654   -26.5210     2.4846     0.1157     0.0390    69.8275     7.4599
  750.5000     9.8412     9.2723   -26.5565     2.4851     0.1175     0.0380    76.0163     7.4600
  751.0000     9.8407     9.2793   -26.5918     2.4850     0.1178     0.0369    84.1848     7.4599
  751.5000     9.8404     9.2864   -26.6270     2.4863     0.1141     0.0359    86.4424     7.4598
  752.0000     9.8397     9.2928   -26.6633     2.4877     0.1116     0.0349    82.8217     7.4600
  752.5000     9.8421     9.3005   -26.6987     2.4887     0.1158     0.0341    80.4414     7.4598
  753.0000     9.8386     9.3105   -26.7781     2.4850     0.1204     0.0354    81.4617     7.4595
  753.5000     9.7435     9.2891   -26.8728     2.4852     0.1179     0.0364    82.0945     7.4611
  754.0000     9.6489     9.1883   -26.9674     2.4848     0.1153     0.0375    82.9670     7.4596
  754.5000     9.5551     9.0880   -27.0614     2.4866     0.1128     0.0396    82.4645     7.5093
  755.0000     9.4619     8.9889   -27.1557     2.4892     0.1103     0.0423    81.1992     7.5846
  755.5000     9.3694     8.8909   -27.2500     2.4932     0.1076     0.0449    78.8619     7.6164
  756.0000     9.2777     8.7939   -27.3442     2.4970     0.1104     0.0474    75.9911     7.5922
  756.5000     9.1869     8.6980   -27.4385     2.4979     0.1124     0.0500    73.1053     7.5752
  757.0000     9.0970     8.6031   -27.5327     2.4932     0.1109     0.0529    72.7075     7.5548
  757.5000     9.0080     8.5092   -27.6269     2.4930     0.1052     0.0531    74.0915     7.5343
  758.0000     8.9199     8.4164   -27.7211     2.4931     0.1101     0.0506    75.5207     7.4549
  758.5000     8.8326     8.3374   -27.8153     2.4922     0.1132     0.0483    76.9427     7.3899
  759.0000     8.7608     8.2217   -27.9095     2.4906     0.1148     0.0461    78.3325     7.3182
  759.5000     8.6945     8.1215   -28.0037     2.4891     0.1148     0.0438    78.7046     7.3213
  760.0000     8.6287     8.0225   -28.0979     2.4874     0.1148     0.0415    77.1760     7.3550
  760.5000     8.5633     7.9247   -28.1920     2.4879     0.1140     0.0390    75.4742     7.3875
  761.0000     8.4983     7.8281   -28.2862     2.4903     0.1127     0.0386    74.1911     7.4187
  761.5000     8.4333     7.7326   -28.3804     2.4928     0.1114     0.0406    73.7871     7.4512
  762.0000     8.3687     7.6384   -28.4746     2.4954     0.1108     0.0422    77.2074     7.4688
  762.5000     8.3044     7.5453   -28.5688     2.4985     0.1108     0.0439    80.3221     7.4802
  763.0000     8.2438     7.4533   -28.6630     2.4941     0.1132     0.0460    83.6888     7.4914
  763.5000     8.1852     7.3625   -28.7572     2.4860     0.1165     0.0503    85.7615     7.5072
  764.0000     7.7823     7.2727   -28.8517     2.4801     0.1205     0.0554    85.0740     7.5337
  764.5000     7.4211     7.1950   -28.9460     2.4749     0.1245     0.0608    84.5058     7.5587
  765.0000     7.0767     6.3292   -29.0415     2.4688     0.1285     0.0658    85.2382     7.5792
  765.5000     6.7482     5.6469   -29.1351     2.4642     0.1348     0.0708    87.6656     7.5315
  766.0000     6.4350     5.0382   -29.2285     2.4598     0.1297     0.0772    91.7727     7.4735
  766.5000     6.1364     4.6460   -29.3288     2.4729     0.1183     0.0665    96.0313     7.4234
  767.0000     5.8515     4.7351   -29.4130     2.4856     0.1115     0.0467    99.7743     7.4506
  767.5000     5.5799     4.8260   -29.5005     2.4993     0.1061     0.0471   102.5430     7.4738
  768.0000     5.3583     4.9187   -29.1995     2.5135     0.1007     0.0477    94.5362     7.5003
  768.5000     5.5799     5.0131   -28.8610     2.5217     0.0954     0.0486    87.9660     7.4869
  769.0000     5.9845     5.1093   -28.4960     2.5210     0.0935     0.0498    80.6904     7.4638
  769.5000     6.5661     5.1645   -28.2236     2.5207     0.0951     0.0479    78.3634     7.4417
  770.0000     7.3507     6.0329   -28.0534     2.5201     0.0966     0.0425    77.7736     7.4199
  770.5000     8.2291     6.9989   -27.8690     2.5192     0.0980     0.0381    75.8775     7.3983
  771.0000     8.5654     8.1852   -27.6843     2.5185     0.0974     0.0370    74.0871     7.3762
  771.5000     8.6503     8.0358   -27.5007     2.5178     0.0969     0.0359    74.8384     7.3521
  772.0000     8.7749     8.1105   -27.3216     2.5171     0.0963     0.0351    75.8232     7.3462
  772.5000     8.8828     8.1589   -27.1174     2.5180     0.0958     0.0341    75.6510     7.3716
  773.0000     8.9920     8.2075   -26.9368     2.5189     0.0953     0.0366    75.6487     7.3937
  773.5000     9.1026     8.2549   -26.7208     2.5198     0.0947     0.0397    75.9428     7.4185
  774.0000     9.2145     8.3054   -26.5216     2.5208     0.0942     0.0428    76.7007     7.4322
  774.5000     9.3278     8.4084   -26.3158     2.5217     0.0936     0.0458    77.6065     7.4470
  775.0000     9.4425     8.6105   -26.3066     2.5226     0.0932     0.0460    77.9939     7.4609
  775.5000     9.5586     8.8176   -26.3017     2.5236     0.0932     0.0461    77.9053     7.4751
  776.0000     9.6761     8.9998   -26.3052     2.5246     0.0932     0.0460    78.5528     7.4897
  776.5000     9.7951     9.0976   -26.3046     2.5251     0.0932     0.0460    79.6681     7.5034
  777.0000     9.9156     9.1963   -26.3044     2.5250     0.0932     0.0460    79.1420     7.5175
  777.5000    10.0375     9.2961   -26.3050     2.5250     0.0932     0.0460    77.6885     7.5342
  778.0000    10.1609     9.3971   -26.3050     2.5250     0.0948     0.0444    78.0598     7.5245
  778.5000    10.2101     9.4992   -26.3052     2.5252     0.0969     0.0424    78.6237     7.4791
  779.0000    10.2101     9.6023   -26.3052     2.5230     0.0989     0.0403    77.9059     7.4543
  779.5000    10.2101     9.7066   -26.3052     2.5170     0.1010     0.0382    75.4702     7.4474
  780.0000    10.2101     9.8120   -26.3052     2.5114     0.1030     0.0362    72.4712     7.4380
  780.5000    10.2101     9.8408   -26.3052     2.5056     0.1051     0.0341    69.6574     7.4299
  781.0000    10.2101     9.8407   -26.3052     2.5009     0.1072     0.0336    67.2750     7.4211
  781.5000    10.2101     9.8407   -26.3052     2.4986     0.1092     0.0330    70.5728     7.4370
  782.0000    10.2103     9.8406   -26.3052     2.4967     0.1113     0.0325    74.3986     7.4553
  782.5000    10.2101     9.8406   -26.3052     2.4946     0.1134     0.0320    77.5559     7.4743
  783.0000    10.2102     9.8406   -26.3052     2.4927     0.1156     0.0315    77.9698     7.4951
  783.5000    10.2109     9.8407   -26.3052     2.4911     0.1137     0.0311    78.0217     7.4870
  784.0000    10.2011     9.8408   -26.3052     2.4923     0.1116     0.0306    78.3224     7.4617
  784.5000    10.1743     9.8408   -26.3052     2.4934     0.1096     0.0300    77.4090     7.4384
  785.0000    10.1484     9.8408   -26.3052     2.4944     0.1084     0.0301    76.8615     7.4158
  785.5000    10.1224     9.8408   -26.3052     2.4968     0.1148     0.0303    78.0296     7.3918
  786.0000    10.0963     9.8408   -26.3052     2.4999     0.1120     0.0371    79.0497     7.3695
  786.5000    10.0704     9.8408   -26.3045     2.5028     0.1062     0.0454    80.0177     7.3466
  787.0000    10.0446     9.8408   -26.3041     2.5058     0.1042     0.0452    80.6798     7.3362
  787.5000    10.0188     9.8408   -26.3042     2.5088     0.1052     0.0446    79.0300     7.3725
  788.0000     9.9931     9.8411   -26.3020     2.5100     0.1060     0.0436    77.2290     7.4387
  788.5000     9.9676     9.8412   -26.3061     2.5058     0.1046     0.0429    79.4816     7.5005
  789.0000     9.9420     9.8407   -26.3037     2.5034     0.1028     0.0421    81.6728     7.5631
