~VERSION INFORMATION
 VERS.                2.0:   CWLS LOG ASCII STANDARD - VERSION 2.0
 WRAP.                 NO:   ONE LINE PER DEPTH STEP
~WELL INFORMATION
#MNEM.UNIT      DATA TYPE    INFORMATION
#----------   ------------   ------------------------------
 STRT.F           32.0000:   START DEPTH
 STOP.F          757.0000:   STOP DEPTH
 STEP.F            0.5000:   STEP LENGTH
 NULL.          -999.2500:   NO VALUE
 COMP. FENIX & SCISSON INC:   COMPANY
 WELL.     88 S 34 #88-34:   WELL
 FLD .             NPR #3:   FIELD
 LOC .      S34 T39N R78W:   LOCATION
 CNTY.            NATRONA:   COUNTY
 STAT.            WYOMING:   STATE
 CTRY. UNITED STATES OF AMERICA:   COUNTRY
 SRVC.              Welex:   SERVICE COMPANY
 DATE.        10-MAY-1977:   LOGDATE
 API .       490251035800:   API NUMBER
~CURVE INFORMATION
#MNEM.UNIT       API CODE    CURVE DESCRIPTION
#----------   ------------   ------------------------------
 DEPT.F                  :   
 GURD.OHMM   07 220 05 00:   SHALLOW GUARD RESISTIVITY
 ILD .OHMM   07 120 46 00:   INDUCTION LOG DEEP
 ILM .OHMM   07 120 44 00:   INDUCTION LOG MEDIUM
 SPR .MV     07 010 01 00:   SPONTANEOUS POTENTIAL FROM RES.
 CALD.IN     45 280 60 00:   CALIPER FROM DENSITY LOG
 CORR.G/C3   45 356 01 00:   DENSITY CORRECTION
 DPHI.DEC    45 890 12 00:   DENSITY POROSITY SANDSTONE
 GRD .GAPI   45 310 01 00:   GAMMA RAY FROM DENSITY LOG
 RHOB.G/C3   45 350 01 00:   BULK DENSITY
~PARAMETER INFORMATION
#MNEM.UNIT          VALUE    DESCRIPTION
#----------   ------------   ------------------------------
 PD  .                 GL:   PERMANENT DATUM
 EPD .F              5094:   ELEVATION PERMANENT DATUM
 LMF .                 GL:   LOG MEASURED FROM
 DMF .                 GL:   DRILLING MEASURED FROM
 EGL .F              5094:   GROUND LEVEL
 DATE.        10-MAY-1977:   RUN DATE
 RUN .                  1:   RUN NUMBER
 DD  .F               760:   DEPTH DRILLER
 DL  .F               759:   DEPTH LOGGER
 BLI .F               757:   BOTTOM LOG INTERVAL
 TLI .F                30:   TOP LOG INTERVAL
 CS  .IN            8.625:   CASING SIZE
 CBD .F                40:   CASING BOTTOM DRILLER
 CBL .F                45:   CASING BOTTOM LOGGER
 BS  .IN            7.875:   BIT SIZE
 BSD .F               760:   BIT SIZE AT DEPTH
 DFT .            KCL MUD:   DRILLING FLUID TYPE
 DFD .                9.0:   DRILLING FLUID DENSITY
 DFV .                 33:   DRILLING FLUID VISCOSITY
 DFPH.                7.5:   DRILLING FLUID PH
 DFL .                7.4:   DRILLING FLUID LOSS
 MSS .           FLOWLINE:   MUD SAMPLE SOURCE
 RMS .OHMM           0.33:   RESISTIVITY MUD SAMPLE
 MST .F                70:   MUD SAMPLE TEMPERATURE
 RMF .OHMM           0.28:   RESISTIVITY MUD FILTRATE SAMPLE
 MFST.F                70:   MUD FILTRATE SAMPLE TEMPERATURE
 RMC .OHMM           0.40:   RESISTIVITY MUD CAKE
 MCST.F                70:   MUD CAKE SAMPLE TEMPERATURE
 MFSS.           FANN KIT:   MUD FILTRATE SAMPLE SOURCE
 MCSS.           FANN KIT:   MUD CAKE SAMPLE SOURCE
 RMB .OHMM           0.26:   RESISTIVITY MUD AT BHT
 BHT .F                86:   BOTTOM HOLE TEMPERATURE
 TCS .HRS             1.5:   TIME CURCULATED STOPPED
 MRT .F                86:   MAXIMUM RECORDED TEMPERATURE
 LUN .               8611:   LOGGING UNIT NUMBER
 LUL .             CASPER:   LOGGING UNIT LOCATION
 ENGI.            C. DOAK:   RECORDING ENGINEER
 WITN.         D. RHOADES:   WITNESSED BY
 CLNT.            A2DTECH:   CLIENT CODE
 ORIG.           5" PRINT:   ORIGIN OF DATA
 UWI .       490251035800:   UNIQUE WELL ID
 DICO. A2D Technologies, Inc.:   DIGITIZING COMPANY
~OTHER INFORMATION
~A   DEPT     GURD        ILD        ILM        SPR         CALD      CORR      DPHI         GRD        RHOB 
# ...
  141.5000     8.3355     6.7879     6.8531   -28.9625     7.9040     0.0200     0.1414   102.2783     2.4425
  142.0000     8.1088     6.3364     6.4859   -29.2338     7.9040     0.0230     0.1474   104.4019     2.4323
  142.5000     7.4127     5.5767     6.2209   -29.2324     7.9040     0.0230     0.1561   106.6513     2.4203
  143.0000     6.7297     5.0128     5.3845   -29.5294     7.9040     0.0275     0.1631   107.9998     2.4068
  143.5000     7.0150     4.5518     4.7230   -29.9747     7.9040     0.0320     0.1710   107.6966     2.3926
  144.0000     7.1624     3.8575     3.8930   -30.7362     7.9040     0.0351     0.1752   107.3934     2.3791
  144.5000     6.6643     3.3086     3.2988   -31.6108     7.9040     0.0381     0.1812   109.2672     2.3678
  145.0000     3.8731     2.6582     2.9952   -32.0568     7.9190     0.0411     0.2031   112.3419     2.3283
  145.5000     2.2286     2.2683     2.7385   -32.2044     7.9040     0.0396     0.2268   114.7414     2.2855
  146.0000     2.1382     2.1029     2.5000   -31.9045     7.9040     0.0366     0.2585   117.2910     2.2338
  146.5000     2.2913     2.0460     2.4528   -31.4560     7.9190     0.0321     0.2892   120.2912     2.1970
  147.0000     2.3395     2.0464     2.5573   -30.4024     7.9190     0.0261     0.2988   123.2913     2.1723
  147.5000     2.3559     2.0610     2.7219   -29.2173     7.9040     0.0157     0.2994   125.0895     2.1574
  148.0000     2.3903     2.1227     2.9783   -28.3217     7.8891     0.0052     0.2994   125.2375     2.1476
  148.5000     2.5423     2.2869     3.4441   -27.1280     7.8891    -0.0023     0.2964   123.4321     2.1589
  149.0000     4.6700     2.5370     4.2177   -26.0833     7.8891    -0.0038     0.2817   118.9247     2.1795
  149.5000     8.1735     2.8931     4.8449   -25.4858     7.8891    -0.0068     0.2436   112.1650     2.2265
  150.0000    10.0566     3.4760     5.8818   -24.7392     7.8741    -0.0058     0.2003   101.5015     2.2800
  150.5000     9.8522     4.4336     7.6519   -24.3451     7.8197     0.0053     0.1758    89.3393     2.3972
  151.0000     9.7189     5.4631     8.6128   -23.6960     7.8198     0.0098     0.1524    89.7898     2.4228
  151.5000    10.4167     6.7212     9.2934   -23.3979     7.8200     0.0143     0.1503    91.7417     2.4302
  152.0000    11.3227     7.9930     9.5572   -23.5469     7.8202     0.0174     0.1524    92.9429     2.4242
  152.5000    11.6396     8.3855     9.6935   -23.8450     7.8203     0.0204     0.1604    93.3934     2.4002
  153.0000    11.7226     8.6215     9.7632   -23.9940     7.8054     0.0234     0.1592    93.5435     2.4115
  153.5000    11.7250     8.6226     9.5667   -24.2921     7.7905     0.0280     0.1556    93.8438     2.4182
  154.0000    11.5658     8.5644     9.1078   -24.9121     7.7756     0.0295     0.1553    94.8949     2.4181
  154.5000    11.2533     8.2749     8.3952   -25.6334     7.7758     0.0325     0.1568    96.6967     2.4107
  155.0000    10.7910     7.5870     7.2629   -26.0805     7.8060     0.0325     0.1617   100.1501     2.4017
  155.5000    10.2203     5.9424     5.7830   -26.5276     7.8212     0.0326     0.1679   103.3033     2.3867
  156.0000     9.1524     4.8985     5.2876   -26.8256     7.8665     0.0325     0.1766   108.0060     2.3687
  156.5000     5.9645     4.6040     4.9360   -27.1237     7.8817     0.0296     0.1886   111.7117     2.3492
  157.0000     3.2033     4.7663     4.9036   -26.9747     7.8818     0.0282     0.2009   114.5646     2.3297
  157.5000     3.0934     5.1077     5.2933   -26.3785     7.8669     0.0192     0.2135   117.2673     2.3057
  158.0000     7.5935     5.4045     5.7532   -25.6334     7.8671     0.0057     0.2343   120.8709     2.2832
  158.5000    11.1176     5.7060     6.2964   -25.0373     7.8823    -0.0002     0.2285   118.0180     2.2847
  159.0000    11.2740     5.8666     7.0353   -24.2881     7.8838    -0.0002     0.2078   106.9308     2.2997
  159.5000    11.0449     6.1155     7.9756   -23.3979     7.8813     0.0088     0.1967    98.4985     2.3305
  160.0000    10.9614     6.4636     9.0932   -22.6528     7.8376     0.0178     0.1919    94.1441     2.3553
  160.5000    11.1298     7.5364     9.8151   -22.2057     7.8077     0.0149     0.1952    92.1922     2.3478
  161.0000    11.6807     8.5811    10.3767   -21.7586     7.7627     0.0119     0.1964    93.6937     2.3478
  161.5000    12.0937     9.2595    10.8199   -21.4605     7.7328     0.0119     0.1967    95.9459     2.3478
  162.0000    12.4351     9.7866    11.2042   -21.1515     7.7329     0.0150     0.1946    98.6846     2.3523
  162.5000    12.7861    10.2019    11.4429   -20.8644     7.7180     0.0180     0.1889   101.6516     2.3643
  163.0000    12.8773    10.5616    11.6070   -20.7154     7.7333     0.0210     0.1886   100.9009     2.3628
  163.5000    13.0591    10.7918    11.8542   -20.5663     7.7936     0.0226     0.1910   100.1501     2.3583
  164.0000    13.3359    11.0879    12.0233   -20.2683     7.8388     0.0241     0.1940    99.0991     2.3516
  164.5000    13.6179    11.3999    12.2794   -20.1133     7.8407     0.0241     0.1964    98.0480     2.3478
  165.0000    13.8101    11.4804    12.6279   -19.6721     7.8241     0.0211     0.1943    96.8168     2.3516
  165.5000    13.9086    11.5614    12.8970   -19.3741     7.8242     0.0212     0.1937    94.7447     2.3493
  166.0000    13.9114    11.6431    13.0819   -18.9270     7.8244     0.0197     0.1967    93.2432     2.3366
  166.5000    13.9143    11.7254    13.2684   -18.4799     7.8396     0.0182     0.2097    88.5886     2.3246
  167.0000    13.9176    11.7272    13.3649   -18.0308     7.8547     0.0168     0.2084    85.8859     2.3268
  167.5000    13.9204    11.7288    13.3694   -17.5857     7.8549     0.0153     0.2066    85.7357     2.3328
  168.0000    13.9231    11.7302    13.4666   -17.2876     7.8723     0.0106     0.2060    86.3544     2.3320
  168.5000    13.8299    11.7319    13.5656   -17.1386     7.9003     0.0049     0.2093    86.9369     2.3276
  169.0000    13.7375    11.7335    13.6643   -17.1386     7.9155     0.0034     0.2111    85.8859     2.3239
  169.5000    13.7409    11.7354    13.7636   -16.9896     7.9157     0.0019     0.2126    86.9369     2.3201
  170.0000    13.9349    11.8182    13.8637   -16.9896     7.9158     0.0004     0.2135    88.1381     2.3186
  170.5000    14.2296    11.8198    13.9646   -17.1386     7.8852     0.0005     0.2132    89.3393     2.3194
  171.0000    14.5305    11.8214    14.1194   -16.9896     7.8542     0.0007     0.2108    90.7537     2.3246
  171.5000    14.9407    11.9048    14.2757   -17.1386     7.8260     0.0050     0.2077    92.0420     2.3314
  172.0000    15.4804    11.9065    14.4714   -17.1386     7.8262     0.0096     0.2074    88.2883     2.3307
  172.5000    16.4655    12.0740    14.5766   -17.1386     7.8263     0.0156     0.2077    89.3393     2.3292
  173.0000    17.1658    12.0756    14.6826   -17.1386     7.8265     0.0186     0.2077    91.4414     2.3284
  173.5000    17.0510    12.2451    14.7894   -17.1386     7.8266     0.0246     0.2083    93.2432     2.3277
  174.0000    16.0262    12.2467    14.8969   -16.9896     7.8117     0.0309     0.2086    93.5435     2.3269
  174.5000    15.1674    12.3332    14.1011   -16.8405     7.7818     0.0397     0.2098    93.2432     2.3224
  175.0000    15.8133    12.4207    13.3455   -16.6915     7.7519     0.0427     0.2119    94.2943     2.3209
  175.5000    16.3724    12.5950    14.4062   -16.5425     7.7069     0.0458     0.2071    95.9459     2.3300
  176.0000    16.6035    12.7066    15.0214   -16.3934     7.6766     0.0458     0.2065    98.0480     2.3322
  176.5000    16.4916    13.0409    15.4478   -16.0954     7.6621     0.0428     0.2107   100.7507     2.3247
  177.0000    16.2693    13.3156    15.6694   -15.9463     7.6924     0.0369     0.2119    99.5496     2.3217
  177.5000    16.9732    13.6008    15.7834   -15.7973     7.7226     0.0339     0.2053    98.1982     2.3398
