~VERSION INFORMATION
 VERS.                2.0:   CWLS LOG ASCII STANDARD - VERSION 2.0
 WRAP.                 NO:   ONE LINE PER DEPTH STEP
~WELL INFORMATION
#MNEM.UNIT      DATA TYPE    INFORMATION
#----------   ------------   ------------------------------
 STRT.F           36.0000:   START DEPTH
 STOP.F          686.0000:   STOP DEPTH
 STEP.F            0.5000:   STEP LENGTH
 NULL.          -999.2500:   NO VALUE
 COMP.    FENIX & SCISSON:   COMPANY
 WELL.        NPR #15-S-2:   WELL
 FLD .             TEAPOT:   FIELD
 LOC .       S2 T38N R78W:   LOCATION
 CNTY.            NATRONA:   COUNTY
 STAT.            WYOMING:   STATE
 CTRY. UNITED STATES OF AMERICA:   COUNTRY
 SRVC.       Schlumberger:   SERVICE COMPANY
 DATE.        16-MAR-1977:   LOGDATE
 API .       490251029900:   API NUMBER
~CURVE INFORMATION
#MNEM.UNIT       API CODE    CURVE DESCRIPTION
#----------   ------------   ------------------------------
 DEPT.F                  :   
 SPR .MV     07 010 01 00:   SPONTANEOUS POTENTIAL FROM RES.
 ILD .OHMM   07 120 46 00:   INDUCTION LOG DEEP
 ILM .OHMM   07 120 44 00:   INDUCTION LOG MEDIUM
 LL8 .OHMM   07 220 08 00:   LATEROLOG-8 RES.
 GRD .GAPI   45 310 01 00:   GAMMA RAY FROM DENSITY LOG
 CALD.IN     45 280 60 00:   CALIPER FROM DENSITY LOG
 CORR.G/C3   45 356 01 00:   DENSITY CORRECTION
 RHOB.G/C3   45 350 01 00:   BULK DENSITY
 DPHI.DEC    45 890 12 00:   DENSITY POROSITY SANDSTONE
~PARAMETER INFORMATION
#MNEM.UNIT          VALUE    DESCRIPTION
#----------   ------------   ------------------------------
 PD  .                 GL:   PERMANENT DATUM
 EPD .F              5129:   ELEVATION PERMANENT DATUM
 LMF .                 KB:   LOG MEASURED FROM
 DAPD.F                 4:   FEET ABOVE PERMANENT DATUM
 DMF .                 KB:   DRILLING MEASURED FROM
 EKB .F              5133:   KELLING BUSHING
 EGL .F              5129:   GROUND LEVEL
 DATE.        15-MAR-1977:   RUN DATE
 RUN .                  1:   RUN NUMBER
 DD  .F               680:   DEPTH DRILLER
 DL  .F               680:   DEPTH LOGGER
 BLI .F               683:   BOTTOM LOG INTERVAL
 TLI .F                48:   TOP LOG INTERVAL
 CS  .IN            8.625:   CASING SIZE
 CBD .F                40:   CASING BOTTOM DRILLER
 CBL .F                49:   CASING BOTTOM LOGGER
 BS  .IN            7.875:   BIT SIZE
 BSD .F               680:   BIT SIZE AT DEPTH
 DFT .            KCL MUD:   DRILLING FLUID TYPE
 DFD .                8.8:   DRILLING FLUID DENSITY
 DFV .                 33:   DRILLING FLUID VISCOSITY
 DFPH.                9.6:   DRILLING FLUID PH
 DFL .                9.0:   DRILLING FLUID LOSS
 MSS .                PIT:   MUD SAMPLE SOURCE
 RMS .OHMM           0.22:   RESISTIVITY MUD SAMPLE
 MST .F                50:   MUD SAMPLE TEMPERATURE
 RMF .OHMM           0.21:   RESISTIVITY MUD FILTRATE SAMPLE
 MFST.F                50:   MUD FILTRATE SAMPLE TEMPERATURE
 MFSS.               MEAS:   MUD FILTRATE SAMPLE SOURCE
 TCS .HRS            1800:   TIME CURCULATED STOPPED
 TLAB.HRS            2130:   TIME LOGGER AT BOTTOM
 LUN .               7711:   LOGGING UNIT NUMBER
 LUL .               CSPR:   LOGGING UNIT LOCATION
 ENGI.             TAYLER:   RECORDING ENGINEER
 CLNT.            A2DTECH:   CLIENT CODE
 ORIG.           5" PRINT:   ORIGIN OF DATA
 UWI .       490251029900:   UNIQUE WELL ID
 DICO. A2D Technologies, Inc.:   DIGITIZING COMPANY
~OTHER INFORMATION
~A   DEPT      SPR        ILD        ILM        LL8         GRD      CALD       CORR       RHOB       DPHI   
# ...
  364.5000   -67.4334     6.2607     6.2678     8.5118   128.8237     8.2430     0.0102     2.4859     0.0978
  365.0000   -67.1184     5.8858     5.9331     8.5777   131.0704     8.2451     0.0186     2.4799     0.1056
  365.5000   -67.1020     5.5718     5.5773     8.4657   133.0200     8.2467     0.0164     2.4702     0.1121
  366.0000   -67.0856     5.3111     5.2428     6.8287   133.9295     8.2484     0.0263     2.4575     0.1184
  366.5000   -67.3718     5.1687     5.2095     5.6245   133.5017     8.2500     0.0280     2.4366     0.1277
  367.0000   -67.9525     5.1354     5.2145     5.3241   128.1705     8.2517     0.0189     2.4299     0.1328
  367.5000   -68.5290     5.1380     5.1813     5.1450   121.5019     8.2557     0.0129     2.4395     0.1276
  368.0000   -68.5126     5.1761     5.1863     6.6617   119.5838     8.2695     0.0100     2.4497     0.1207
  368.5000   -68.4962     5.2146     5.2265     6.1329   120.0520     8.2711     0.0085     2.4466     0.1210
  369.0000   -68.0320     5.4006     5.3408     5.9692   123.3388     8.2875     0.0011     2.4445     0.1227
  369.5000   -67.7171     5.6321     5.5727     6.1423   126.1800     8.2891     0.0008     2.4575     0.1215
  370.0000   -67.4022     5.8330     5.8552     7.6264   126.6437     8.2908     0.0072     2.4665     0.1095
  370.5000   -67.2365     6.1268     6.1951     7.4228   126.8102     8.2924     0.0013     2.4696     0.1070
  371.0000   -67.2201     6.5248     6.7396     7.3245   126.6751     8.2941    -0.0017     2.4734     0.1064
  371.5000   -67.3530     6.9032     7.1308     7.5384   126.5490     8.2809     0.0007     2.4878     0.1028
  372.0000   -67.3365     7.2985     7.3523     8.9220   124.3381     8.2677     0.0045     2.4976     0.0949
  372.5000   -67.3201     7.6615     7.6562     9.3036   123.9058     8.2693     0.0053     2.4981     0.0922
  373.0000   -67.4537     7.8587     7.8237     9.5712   125.8599     8.2710     0.0054     2.4910     0.0937
  373.5000   -67.4366     8.0446     8.0506     9.7142   126.1705     8.2726     0.0039     2.4881     0.0960
  374.0000   -67.5701     8.1043     8.2267     9.9262   122.9240     8.2742     0.0032     2.4882     0.0984
  374.5000   -67.7030     8.1645     8.3483    10.2131   122.0459     8.2759     0.0033     2.4890     0.0975
  375.0000   -67.8358     8.1685     8.4130     9.9404   123.8514     8.2775     0.0041     2.4816     0.0998
  375.5000   -67.6695     8.1159     8.4195     9.7426   127.1383     8.2792     0.0057     2.4839     0.0983
  376.0000   -67.3546     8.0649     8.3095     9.6153   130.8710     8.2808     0.0088     2.4930     0.0941
  376.5000   -67.1889     8.0122     8.1441     9.3586   132.5234     8.2824     0.0111     2.4924     0.0958
  377.0000   -67.0232     7.8524     7.9805     9.1724   130.6097     8.2841     0.0104     2.4797     0.1036
  377.5000   -67.0068     7.6949     7.7690     8.9898   126.9092     8.2857     0.0083     2.4745     0.1063
  378.0000   -66.9904     7.5397     7.5091     8.7498   122.4703     8.2874     0.0076     2.4768     0.1052
  378.5000   -66.9740     7.2878     7.1577     8.5162   121.8653     8.2890     0.0061     2.4762     0.1041
  379.0000   -66.9576     6.9950     6.5895     8.5228   124.2892     8.2906     0.0054     2.4755     0.1050
  379.5000   -67.2397     6.7140     5.9411     8.4701   126.9818     8.2923     0.0047     2.4748     0.1053
  380.0000   -67.5218     6.3558     5.3939     8.3016   128.7828     8.2791     0.0026     2.4734     0.1067
  380.5000   -67.5054     5.8931     5.1415     8.0240   130.4352     8.2659     0.0011     2.4630     0.1142
  381.0000   -67.7875     5.5786     4.9009     7.8098   130.5972     8.2675     0.0035     2.4510     0.1193
  381.5000   -67.7711     5.3176     4.8697     7.0413   128.2423     8.2692     0.0065     2.4345     0.1265
  382.0000   -68.0537     5.2829     5.0119     5.6013   125.8828     8.2556     0.0043     2.4230     0.1394
  382.5000   -68.3353     5.3597     5.2296     4.8774   124.8606     8.2576     0.0036     2.4204     0.1388
  383.0000   -68.4687     5.5937     5.5006     5.9309   123.8385     8.2440     0.0037     2.4369     0.1291
  383.5000   -68.4518     5.9175     5.8951     7.3640   122.9604     8.2609     0.0068     2.4623     0.1141
  384.0000   -68.1369     6.2413     6.1084     9.0169   124.7659     8.2626     0.0099     2.4938     0.0948
  384.5000   -67.5235     6.5652     6.3295     9.2141   126.5669     8.2642     0.0152     2.5043     0.0888
  385.0000   -67.2085     6.8890     6.6217     9.2856   127.4764     8.2658     0.0236     2.5095     0.0830
  385.5000   -67.0429     7.3037     6.8993     9.2927   128.2373     8.2675     0.0191     2.5021     0.0875
  386.0000   -66.8772     7.6930     6.9525     9.2998   128.8496     8.2539     0.0102     2.4992     0.0944
  386.5000   -66.7116     8.0823     7.0953     9.1147   128.7145     8.2559     0.0042     2.4925     0.0965
  387.0000   -66.3967     8.3217     7.1007     9.2495   128.5838     8.2724     0.0028     2.4994     0.0895
  387.5000   -66.2310     8.2683     7.1061     9.5178   127.4175     8.2740     0.0066     2.5024     0.0892
  388.0000   -66.0653     8.2723     7.1692     9.7939   126.9853     8.2757     0.0104     2.5025     0.0888
  388.5000   -65.8997     8.2763     7.3178     9.8014   128.0478     8.2770     0.0127     2.5026     0.0885
  389.0000   -65.8833     8.2223     7.4856     9.7405   130.1460     8.2787     0.0083     2.5004     0.0918
  389.5000   -65.8669     8.2272     7.6489     9.6804   132.0956     8.2803     0.0053     2.4915     0.0951
  390.0000   -65.8505     8.2312     7.7544    10.2426   131.8424     8.2819     0.0137     2.4953     0.0893
  390.5000   -65.9836     8.2920     7.7604    10.1089   127.9615     8.2835     0.0168     2.5150     0.0836
  391.0000   -65.9669     8.1801     7.7661     9.9077   125.2232     8.2851     0.0154     2.5188     0.0778
  391.5000   -65.9505     8.0179     7.7182     9.6413   123.6761     8.2868     0.0132     2.5227     0.0769
  392.0000   -65.9341     7.9629     7.6174     9.5818   123.5627     8.2736     0.0102     2.5175     0.0784
  392.5000   -66.0672     7.8609     7.6233     9.6580   124.0367     8.2752     0.0113     2.5131     0.0817
  393.0000   -65.9013     7.8648     7.6824     9.6654   124.5140     8.2769     0.0156     2.5139     0.0795
  393.5000   -65.8849     7.9231     7.7960     9.6039   126.5924     8.2785     0.0149     2.5170     0.0813
  394.0000   -65.7192     7.9820     7.8609     9.4146   127.3492     8.2653     0.0135     2.5095     0.0870
  394.5000   -65.7028     8.0413     7.9727     9.3547   127.9615     8.2669     0.0120     2.5111     0.0851
  395.0000   -65.6864     8.1104     8.0345     9.4948   128.1377     8.2537     0.0097     2.5105     0.0839
  395.5000   -65.6700     8.2178     8.0406     9.7025   126.9573     8.2554     0.0062     2.5075     0.0887
  396.0000   -65.8030     8.2225     8.0467     9.7099   125.7866     8.2570     0.0039     2.5039     0.0896
  396.5000   -65.9357     8.2265     7.8841     9.4507   125.3581     8.2587     0.0025     2.4979     0.0901
  397.0000   -65.9193     8.1174     7.5659     9.3273   125.3767     8.2752     0.0027     2.4869     0.1008
  397.5000   -66.0522     7.9546     7.2107     9.2680   127.4749     8.2916     0.0057     2.4823     0.1009
  398.0000   -66.1850     7.7951     6.6405     9.3416   130.3160     8.2933     0.0058     2.4923     0.0951
  398.5000   -66.3179     7.4819     6.3745     9.2822   131.5227     8.2949     0.0058     2.4952     0.0930
  399.0000   -66.4507     7.1318     6.2060     9.0361   132.4322     8.2966     0.0066     2.4937     0.0959
  399.5000   -66.7328     7.0852     6.2111     8.1470   133.9360     8.2982     0.0082     2.4778     0.1075
  400.0000   -66.8657     6.9835     6.3476     6.9464   136.0755     8.2969     0.0072     2.4511     0.1185
  400.5000   -67.0040     6.8902     6.4877     7.4039   136.3484     8.2823     0.0030     2.4505     0.1183
