~VERSION INFORMATION
 VERS.                2.0:   CWLS LOG ASCII STANDARD - VERSION 2.0
 WRAP.                 NO:   ONE LINE PER DEPTH STEP
~WELL INFORMATION
#MNEM.UNIT      DATA TYPE    INFORMATION
#----------   ------------   ------------------------------
 STRT.F           13.0000:   START DEPTH
 STOP.F          508.0000:   STOP DEPTH
 STEP.F            0.5000:   STEP LENGTH
 NULL.          -999.2500:   NO VALUE
 COMP. LAWRENCE/ALLISON INC:   COMPANY
 WELL.    51-35 SX #10-10:   WELL
 FLD .             TEAPOT:   FIELD
 LOC .      S10 T38N R78W:   LOCATION
 CNTY.            NATRONA:   COUNTY
 STAT.            WYOMING:   STATE
 CTRY. UNITED STATES OF AMERICA:   COUNTRY
 SRVC.       Schlumberger:   SERVICE COMPANY
 DATE.        26-FEB-1988:   LOGDATE
 API .       490251115500:   API NUMBER
~CURVE INFORMATION
#MNEM.UNIT       API CODE    CURVE DESCRIPTION
#----------   ------------   ------------------------------
 DEPT.F                  :   
 GRR .GAPI   07 310 01 00:   GAMMA RAY
 RILD.OHMM   07 120 46 00:   INDUCTION LOG DEEP RESISTIVITY
 RILM.OHMM   07 120 44 00:   RESITIVITY LONG MEDIUM
~PARAMETER INFORMATION
#MNEM.UNIT          VALUE    DESCRIPTION
#----------   ------------   ------------------------------
 PD  .                 GL:   PERMANENT DATUM
 EPD .F              5181:   ELEVATION PERMANENT DATUM
 LMF .                 KB:   LOG MEASURED FROM
 DAPD.F                 8:   FEET ABOVE PERMANENT DATUM
 DMF .                 KB:   DRILLING MEASURED FROM
 EKB .F              5189:   KELLING BUSHING
 EDF .F              5188:   DRILLING FLOOR
 EGL .F              5181:   GROUND LEVEL
 DATE.        26-FEB-1988:   RUN DATE
 RUN .                  1:   RUN NUMBER
 DD  .F               458:   DEPTH DRILLER
 DL  .F               440:   DEPTH LOGGER
 BLI .F               430:   BOTTOM LOG INTERVAL
 TLI .F               140:   TOP LOG INTERVAL
 CS  .IN            8.625:   CASING SIZE
 CBD .F                46:   CASING BOTTOM DRILLER
 CBL .F                46:   CASING BOTTOM LOGGER
 BSD .F               458:   BIT SIZE AT DEPTH
 DFT .          WATER/AIR:   DRILLING FLUID TYPE
 BHT .F               172:   BOTTOM HOLE TEMPERATURE
 TLAB.HRS            0830:   TIME LOGGER AT BOTTOM
 MRT .F               172:   MAXIMUM RECORDED TEMPERATURE
 LUN .               8256:   LOGGING UNIT NUMBER
 LUL .             CASPER:   LOGGING UNIT LOCATION
 ENGI.      PREISLER/FINK:   RECORDING ENGINEER
 WITN.               LOWE:   WITNESSED BY
 CLNT.            A2DTECH:   CLIENT CODE
 ORIG.           5" PRINT:   ORIGIN OF DATA
 UWI .       490251115500:   UNIQUE WELL ID
 DICO. A2D Technologies, Inc.:   DIGITIZING COMPANY
~OTHER INFORMATION
~A   DEPT       GRR      RILD       RILM   
# ...
  377.0000    67.7317    14.7288    13.9597
  377.5000    68.3561    14.5295    13.9635
  378.0000    68.3679    14.5335    13.7721
  378.5000    67.4650    14.4362    13.5850
  379.0000    65.6475    14.4402    13.4939
  379.5000    65.0466    14.2439    13.4985
  380.0000    65.6711    14.1487    13.5022
  380.5000    66.2927    14.0551    13.4106
  381.0000    66.3049    14.0589    13.3216
  381.5000    66.9290    14.0627    13.2322
  382.0000    68.1603    14.0665    13.2356
  382.5000    69.0867    14.0703    13.1931
  383.0000    69.7082    13.9762    13.1445
  383.5000    69.1103    13.9809    12.9711
  384.0000    65.7684    13.9847    12.8840
  384.5000    66.4491    13.8908    12.8884
  385.0000    70.3681    13.9923    12.8919
  385.5000    73.4287    13.9959    12.8954
  386.0000    75.8795    13.9998    12.8989
  386.5000    77.1108    14.0037    12.9025
  387.0000    78.6470    14.0083    12.9975
  387.5000    79.5734    14.0121    13.1844
  388.0000    78.3495    14.0154    13.3740
  388.5000    77.1609    14.0197    13.4717
  389.0000    76.2581    14.0235    13.4753
  389.5000    76.2699    13.9296    13.2914
  390.0000    76.5865    13.8366    13.0187
  390.5000    76.9032    13.7441    12.9194
  391.0000    76.9150    13.6532    12.8445
  391.5000    76.3170    13.6120    12.8489
  392.0000    76.6789    13.4703    12.8524
  392.5000    77.5631    13.3803    12.8558
  393.0000    77.8798    13.3848    12.7687
  393.5000    77.8916    13.2953    12.5953
  394.0000    80.3424    13.2004    12.5988
  394.5000    82.4883    13.1182    12.4277
  395.0000    84.0245    13.0305    12.4311
  395.5000    84.0366    13.0349    12.4345
  396.0000    82.8315    13.0384    12.5253
  396.5000    80.4043    13.1332    12.6167
  397.0000    75.8429    13.1368    12.6201
  397.5000    72.1962    13.1403    12.7123
  398.0000    69.7660    13.1562    12.8052
  398.5000    73.1344    13.2404    12.8095
  399.0000    74.3841    13.1510    12.9030
  399.5000    74.6853    13.1554    12.9065
  400.0000    75.6117    13.0666    12.9100
  400.5000    78.6723    12.9792    12.8225
  401.0000    79.5987    12.8036    12.7373
  401.5000    80.5251    12.7123    12.5577
  402.0000    81.7565    12.3722    12.3921
  402.5000    82.9929    12.2032    12.3963
  403.0000    83.6097    12.0382    12.3123
  403.5000    82.7094    11.9577    12.2297
  404.0000    83.0261    11.8770    12.0628
  404.5000    84.5623    11.7983    11.9826
  405.0000    84.2662    11.7195    11.9860
  405.5000    83.0615    11.7228    11.8945
  406.0000    80.9391    11.6443    11.6611
  406.5000    79.7314    11.4860    11.5020
  407.0000    81.5754    11.4092    11.3451
  407.5000    84.3311    11.2549    11.1911
  408.0000    87.6965    11.1012    11.0377
  408.5000    89.8425    10.9511    10.7364
  409.0000    86.5006    10.6476    10.6644
  409.5000    82.2441    10.2246    10.4233
  410.0000    81.0364     9.7534     9.8107
  410.5000    85.6243     9.2593     9.3438
  411.0000    89.9044     8.6975     8.7754
  411.5000    91.7454     8.1018     7.9579
  412.0000    92.0621     7.3598     7.2673
  412.5000    92.0739     6.7700     6.7776
  413.0000    93.0003     6.5389     6.4100
  413.5000    96.0893     6.4947     5.8032
  414.0000   104.3295     6.5419     5.1856
  414.5000   111.0265     6.6816     4.9855
  415.0000   107.0748     6.9202     5.6178
  415.5000    99.1598     7.4808     6.8849
  416.0000    87.2826     8.1286     7.4906
  416.5000    84.5476     8.7788     8.0362
  417.0000    85.4770     9.5475     8.6216
  417.5000    85.4888    10.0274     9.5125
  418.0000    84.2812    10.4582    10.0045
  418.5000    82.1588    10.8317    10.3529
  419.0000    79.7256    11.0631    10.3557
  419.5000    81.0944    11.1434    10.2855
  420.0000    85.8558    11.2237    10.2890
  420.5000    90.4408    11.5437    10.5104
  421.0000    93.5014    11.7903    10.8120
  421.5000    94.4249    12.0421    11.2003
  422.0000    90.1714    12.2138    11.7664
  422.5000    87.1345    12.4747    12.1126
  423.0000    86.5366    12.6526    12.5396
  423.5000    87.5426    12.8451    12.8094
  424.0000    89.9168    13.1077    12.9936
  424.5000    90.5355    13.2946    13.1805
  425.0000    86.5868    13.5786    13.3389
  425.5000    86.9035    13.7722    13.5622
  426.0000    87.8271    13.8715    13.6615
  426.5000    84.4882    13.9261    13.8580
  427.0000    79.9268    13.9744    13.8618
  427.5000    80.3507    13.9773    13.9639
  428.0000    84.8315    14.0785    13.9841
  428.5000    88.5019    14.1800    14.1686
  429.0000    90.9527    14.2821    14.2721
  429.5000    89.4402    14.3851    14.3763
  430.0000    84.2691    14.4887    14.3802
  430.5000    81.5370    14.5932    14.3842
  431.0000    80.3293    14.5968    14.3881
  431.5000    80.0363    14.5998    14.4933
  432.0000    80.0511    14.7050    14.4981
  432.5000    80.0629    14.7080    14.5020
  433.0000    79.4650    14.7109    14.5060
  433.5000    79.1719    14.6116    14.5099
  434.0000    78.8759    14.5129    14.5139
  434.5000    78.8907    14.4150    14.5178
  435.0000    79.5123    14.4186    14.5218
  435.5000    81.7135    14.4211    14.5258
  436.0000    85.3316    14.1257    14.4283
  436.5000    87.4776    13.9737    14.4332
  437.0000    86.8796    13.7424    14.3354
  437.5000    84.7573    13.5547    14.0421
  438.0000    83.8516    13.2706    13.9470
  438.5000    85.3907    12.9145    13.6607
  439.0000    86.6221    12.6495    13.3812
  439.5000    86.6339    12.4767    13.1986
  440.0000    85.1214    12.3057    12.9218
  440.5000    84.8283    12.1891    12.5749
  441.0000    86.0626    11.9724    12.2308
  441.5000    88.5135    11.8089    11.9797
  442.0000    90.9643    11.5666    11.5706
  442.5000    91.8878    11.4885    11.1755
  443.0000    90.9880    11.2528    10.9453
  443.5000    90.6949    11.0225    10.9490
  444.0000    91.3195    10.9475    10.9520
  444.5000    92.2459    10.7985    10.8786
  445.0000    92.8675    10.6511    10.7302
  445.5000    93.4891    10.6533    10.6582
  446.0000    93.1931    10.5083    10.5135
  446.5000    94.7323    10.4865    10.3701
  447.0000    96.2685    10.5127    10.3729
  447.5000    95.9298    10.5145    10.4486
  448.0000    92.8862    10.4437    10.4515
  448.5000    95.0874    10.4457    10.3814
  449.0000    97.2334    10.3754    10.3843
  449.5000    98.7696    10.3779    10.3872
  450.0000    98.4766    10.3796    10.3901
  450.5000    96.9640    10.3819    10.2944
  451.0000    96.6707    10.3842    10.1801
  451.5000    96.9878    10.3863    10.1118
  452.0000    97.6586    10.3161    10.1145
  452.5000    99.1485    10.1753     9.9069
  453.0000   100.0749    10.1066     9.8395
  453.5000   101.0014     9.8309     9.6343
  454.0000   102.2327     9.5622     9.3754
  454.5000   102.8514     9.3004     9.3118
  455.0000    97.3783     9.0467     9.1213
  455.5000    94.3343     8.7383     8.9969
  456.0000    92.8288     8.3817     8.8116
  456.5000    94.6729     8.1489     8.4519
  457.0000    96.5140     7.9303     8.1062
  457.5000    99.2697     7.9875     7.8276
  458.0000   100.1932     8.0450     7.5466
  458.5000    97.1592     8.1030     7.2027
  459.0000    95.9516     8.1046     7.1539
  459.5000    96.8811     8.2777     7.7838
  460.0000    97.4996     8.5138     8.6484
  460.5000    96.5998     8.8963     9.3027
  461.0000    95.3921     9.4574     9.6740
  461.5000    94.1844     9.8638    10.0269
  462.0000    93.8884    10.4321    10.3959
  462.5000    95.1227    10.8047    10.7610
  463.0000    96.9638    11.0355    11.0697
  463.5000    96.6707    11.1928    11.3078
  464.0000    94.2073    11.1173    11.3904
  464.5000    92.2410    11.1974    11.3132
  465.0000    91.0474    11.2238    11.3170
  465.5000    91.3783    11.2268    11.3201
  466.0000    93.8432    11.1510    11.3233
  466.5000    95.6984    11.1548    11.2472
  467.0000    95.1145    11.0032    11.1717
  467.5000    95.1405    10.9296    11.0968
