~VERSION INFORMATION
 VERS.                2.0:   CWLS LOG ASCII STANDARD - VERSION 2.0
 WRAP.                 NO:   ONE LINE PER DEPTH STEP
~WELL INFORMATION
#MNEM.UNIT      DATA TYPE    INFORMATION
#----------   ------------   ------------------------------
 STRT.F          100.0000:   START DEPTH
 STOP.F          812.0000:   STOP DEPTH
 STEP.F            0.5000:   STEP LENGTH
 NULL.          -999.2500:   NO VALUE
 COMP.               NAVY:   COMPANY
 WELL. RES 3 TEAPOT DOM #42S-11:   WELL
 FLD .             TEAPOT:   FIELD
 LOC .      S11 T38N R78W:   LOCATION
 CNTY.            NATRONA:   COUNTY
 STAT.            WYOMING:   STATE
 CTRY. UNITED STATES OF AMERICA:   COUNTRY
 SRVC.       Schlumberger:   SERVICE COMPANY
 DATE.        02-AUG-1961:   LOGDATE
 API .       490250636700:   API NUMBER
~CURVE INFORMATION
#MNEM.UNIT       API CODE    CURVE DESCRIPTION
#----------   ------------   ------------------------------
 DEPT.F                  :   
 SPR .MV     05 010 01 00:   SPONTANEOUS POTENTIAL FROM RES.
 ILD .OHMM   05 120 46 00:   INDUCTION LOG DEEP
 ASN .OHMM   05 041 16 00:   AMPLIFIED SHORT NORMAL 16"
 CILD.MMHO   05 110 46 00:   CONDUCTIVITY INDUCTION LOG DEEP
 GR  .GAPI   30 310 01 00:   GAMMA RAY
~PARAMETER INFORMATION
#MNEM.UNIT          VALUE    DESCRIPTION
#----------   ------------   ------------------------------
 PD  .                 GL:   PERMANENT DATUM
 EPD .F              5172:   ELEVATION PERMANENT DATUM
 LMF .                 KB:   LOG MEASURED FROM
 DAPD.F                 5:   FEET ABOVE PERMANENT DATUM
 DMF .                 KB:   DRILLING MEASURED FROM
 EKB .F              5177:   KELLING BUSHING
 EGL .F              5172:   GROUND LEVEL
 DATE.             8-2-61:   RUN DATE
 RUN .                  1:   RUN NUMBER
 DD  .F               810:   DEPTH DRILLER
 DL  .F               813:   DEPTH LOGGER
 BLI .F               812:   BOTTOM LOG INTERVAL
 TLI .F               100:   TOP LOG INTERVAL
 BS  .IN             6.75:   BIT SIZE
 BSD .F               810:   BIT SIZE AT DEPTH
 DFT .       OIL EMULSION:   DRILLING FLUID TYPE
 DFD .                9.2:   DRILLING FLUID DENSITY
 DFV .                 56:   DRILLING FLUID VISCOSITY
 MFSS.                  M:   MUD FILTRATE SAMPLE SOURCE
 MCSS.                  M:   MUD CAKE SAMPLE SOURCE
 RMB .OHMM            .70:   RESISTIVITY MUD AT BHT
 BHT .F                80:   BOTTOM HOLE TEMPERATURE
 TCS .HRS               1:   TIME CURCULATED STOPPED
 MRT .F                80:   MAXIMUM RECORDED TEMPERATURE
 LUN .               2552:   LOGGING UNIT NUMBER
 LUL .                RIV:   LOGGING UNIT LOCATION
 ENGI.             RANDLE:   RECORDING ENGINEER
 WITN.          VORGENSON:   WITNESSED BY
 CLNT.            A2DTECH:   CLIENT CODE
 ORIG.       2", 5" PRINT:   ORIGIN OF DATA
 UWI .       490250636700:   UNIQUE WELL ID
 DICO. A2D Technologies, Inc.:   DIGITIZING COMPANY
~OTHER INFORMATION
~A   DEPT      SPR        ILD        ASN        CILD        GR   
# ...
  283.0000   -35.5649     6.1939     7.2463   171.0394  -999.2500
  283.5000   -35.4586     6.2187     7.2737   170.5096  -999.2500
  284.0000   -35.3498     6.2574     7.3215   168.9203  -999.2500
  284.5000   -35.2438     6.3013     7.3887   167.3310  -999.2500
  285.0000   -35.1340     6.3405     7.4011   165.7417  -999.2500
  285.5000   -35.0308     6.3857     7.3438   163.9758  -999.2500
  286.0000   -34.9133     6.4079     7.2705   163.9758  -999.2500
  286.5000   -34.8513     6.3809     7.1909   163.9758  -999.2500
  287.0000   -34.8602     6.3520     7.1161   163.9758  -999.2500
  287.5000   -34.8661     6.3228     7.0368   163.9758  -999.2500
  288.0000   -34.8801     6.3011     7.0624   163.4868  -999.2500
  288.5000   -34.8903     6.3505     7.1403   162.3865  -999.2500
  289.0000   -34.9025     6.4572     7.2129   161.2862  -999.2500
  289.5000   -34.9138     6.5574     7.2857   160.1859  -999.2500
  290.0000   -34.9255     6.6617     7.3639   159.0856  -999.2500
  290.5000   -34.9369     6.7232     7.3975   157.9853  -999.2500
  291.0000   -34.9483     6.6277     7.3538   156.9122  -999.2500
  291.5000   -34.9598     6.5411     7.3119   157.8420  -999.2500
  292.0000   -34.9712     6.4845     7.2675   159.5935  -999.2500
  292.5000   -34.9827     6.4188     7.2244   161.3450  -999.2500
  293.0000   -34.9945     6.3559     7.1810   163.0964  -999.2500
  293.5000   -35.0056     6.2945     7.1368   164.8479  -999.2500
  294.0000   -35.0184     6.2271     7.0947   166.5994  -999.2500
  294.5000   -35.0278     6.2058     7.0484   168.3509  -999.2500
  295.0000   -35.0429     6.1990     7.0165   169.0212  -999.2500
  295.5000   -35.0475     6.2308     7.0079   169.0212  -999.2500
  296.0000   -35.0702     6.3097     7.0565   169.0212  -999.2500
  296.5000   -34.9579     6.3216     7.1424   166.9569  -999.2500
  297.0000   -34.7495     6.4396     7.2185   165.1590  -999.2500
  297.5000   -34.5828     6.5193     7.2958   163.3611  -999.2500
  298.0000   -34.3761     6.5916     7.3785   161.5632  -999.2500
  298.5000   -34.2936     6.6636     7.4312   159.7652  -999.2500
  299.0000   -34.5486     6.7339     7.4678   157.9673  -999.2500
  299.5000   -34.6833     6.8052     7.5170   156.1694  -999.2500
  300.0000   -34.8253     6.8758     7.5806   154.3715  -999.2500
  300.5000   -34.9614     6.9469     7.6874   152.5735  -999.2500
  301.0000   -35.0989     7.0175     7.7392   150.7756  -999.2500
  301.5000   -35.2546     7.0890     7.8014   148.9777  -999.2500
  302.0000   -35.3928     7.1592     7.8579   147.1798  -999.2500
  302.5000   -35.5783     7.2319     7.9178   145.3819  -999.2500
  303.0000   -35.6812     7.2998     7.9758   143.5839  -999.2500
  303.5000   -35.6681     7.3784     8.0378   141.7860  -999.2500
  304.0000   -35.6729     7.4215     8.0687   139.7578  -999.2500
  304.5000   -35.6335     7.4168     8.0975   139.7578  -999.2500
  305.0000   -35.5964     7.4105     8.1272   140.5030  -999.2500
  305.5000   -35.5475     7.2972     8.1491   142.3834  -999.2500
  306.0000   -35.5203     7.1546     8.1071   144.2743  -999.2500
  306.5000   -35.4266     7.0248     8.0153   146.1645  -999.2500
  307.0000   -35.1968     6.8741     7.9254   148.0559  -999.2500
  307.5000   -35.0937     6.8288     7.8384   149.9496  -999.2500
  308.0000   -34.9653     6.9021     7.7420   151.8677  -999.2500
  308.5000   -34.8664     6.9507     7.6751   151.3662  -999.2500
  309.0000   -34.8552     7.0164     7.6802   150.3495  -999.2500
  309.5000   -34.8573     6.9467     7.8295   149.3305  -999.2500
  310.0000   -34.8569     6.8158     8.1067   148.8605  -999.2500
  310.5000   -34.8563     6.8267     8.3794   151.0072  -999.2500
  311.0000   -34.8613     6.8567     8.4969   151.8815  -999.2500
  311.5000   -34.8998     6.8875     8.4868   151.8835  -999.2500
  312.0000   -34.9376     6.9098     8.3681   149.6491  -999.2500
  312.5000   -34.9754     6.9152     8.1541   148.8715  -999.2500
  313.0000   -35.0126     6.8975     7.9745   149.8486  -999.2500
  313.5000   -35.0512     6.7737     7.7716   151.7134  -999.2500
  314.0000   -35.0872     6.6483     7.6287   153.3522  -999.2500
  314.5000   -35.1286     6.6088     7.6449   154.8940  -999.2500
  315.0000   -35.1600     6.6514     7.6678   154.8940  -999.2500
  315.5000   -35.2088     6.6818     7.6920   154.1725  -999.2500
  316.0000   -35.2270     6.7170     7.6961   153.1483  -999.2500
  316.5000   -35.4250     6.7768     7.6654   152.1241  -999.2500
  317.0000   -35.4375     6.8319     7.6441   151.0999  -999.2500
  317.5000   -35.2910     6.8869     7.6104   150.0757  -999.2500
  318.0000   -35.1736     6.9417     7.6273   149.0515  -999.2500
  318.5000   -35.0403     6.9966     7.7310   148.0273  -999.2500
  319.0000   -34.9159     7.0515     7.8333   147.0030  -999.2500
  319.5000   -34.7848     7.1087     7.9339   145.9788  -999.2500
  320.0000   -34.6723     7.1120     8.0453   144.8032  -999.2500
  320.5000   -34.7588     7.0228     8.1101   144.8032  -999.2500
  321.0000   -34.8784     6.9304     8.0296   144.8032  -999.2500
  321.5000   -34.9920     6.8354     7.8916   147.5126  -999.2500
  322.0000   -35.1086     6.7395     7.7514   150.5853  -999.2500
  322.5000   -35.2225     6.6432     7.6101   153.6579  -999.2500
  323.0000   -35.3402     6.5485     7.4717   156.7306  -999.2500
  323.5000   -35.4512     6.4506     7.3266   159.8032  -999.2500
  324.0000   -35.5748     6.3580     7.2114   162.8759  -999.2500
  324.5000   -35.6601     6.2262     7.1430   165.9940  -999.2500
  325.0000   -35.6847     6.1949     7.1171   167.0030  -999.2500
  325.5000   -35.5228     6.1862     7.1250   167.3742  -999.2500
  326.0000   -35.4131     6.1705     7.1364   168.1058  -999.2500
  326.5000   -35.3478     6.1574     7.1503   168.8374  -999.2500
  327.0000   -35.2669     6.1442     7.1399   169.5690  -999.2500
  327.5000   -35.1943     6.1289     7.1295   170.3006  -999.2500
  328.0000   -35.1174     6.1183     7.1018   171.0322  -999.2500
  328.5000   -35.0426     6.1003     7.0696   171.7637  -999.2500
  329.0000   -34.9667     6.1750     7.0391   172.0484  -999.2500
  329.5000   -34.8919     6.2648     7.0127   170.1638  -999.2500
  330.0000   -34.8158     6.3629     7.0138   167.1514  -999.2500
  330.5000   -34.7415     6.4602     7.0210   164.1390  -999.2500
  331.0000   -34.6611     6.5575     7.0968   161.1266  -999.2500
  331.5000   -34.6536     6.6546     7.2111   158.1142  -999.2500
  332.0000   -34.6494     6.7522     7.3163   155.1018  -999.2500
  332.5000   -34.6965     6.8493     7.5235   152.0894  -999.2500
  333.0000   -34.8184     6.9464     7.7085   149.0770  -999.2500
  333.5000   -34.9351     7.0474     7.7670   146.8214  -999.2500
  334.0000   -35.0536     7.1961     7.7730   145.6559  -999.2500
  334.5000   -35.1742     7.2224     7.7989   143.7941  -999.2500
  335.0000   -35.2878     7.1889     7.8159   145.1492  -999.2500
  335.5000   -35.4171     7.1043     7.8409   146.3197  -999.2500
  336.0000   -35.4504     7.0180     7.8242   147.4903  -999.2500
  336.5000   -35.3874     6.9312     7.7689   148.8396  -999.2500
  337.0000   -35.3410     6.8449     7.7060   150.8577  -999.2500
  337.5000   -35.2861     6.7579     7.6432   152.7498  -999.2500
  338.0000   -35.2359     6.6716     7.5800   155.1396  -999.2500
  338.5000   -35.1831     6.5843     7.5177   157.5294  -999.2500
  339.0000   -35.1313     6.4986     7.4536   159.9193  -999.2500
  339.5000   -35.0792     6.4126     7.3927   162.3091  -999.2500
  340.0000   -35.0269     6.4080     7.3253   164.6990  -999.2500
  340.5000   -34.9760     6.3996     7.2910   164.9849  -999.2500
  341.0000   -34.9219     6.4752     7.2961   163.3165  -999.2500
  341.5000   -34.8758     6.6441     7.3071   159.7887  -999.2500
  342.0000   -34.8461     6.7993     7.4050   156.2608  -999.2500
  342.5000   -34.8998     6.9614     7.5575   152.7329  -999.2500
  343.0000   -35.1536     7.1207     7.7025   149.2051  -999.2500
  343.5000   -35.2744     7.2795     7.8515   145.6772  -999.2500
