~VERSION INFORMATION
 VERS.                2.0:   CWLS LOG ASCII STANDARD - VERSION 2.0
 WRAP.                 NO:   ONE LINE PER DEPTH STEP
~WELL INFORMATION
#MNEM.UNIT      DATA TYPE    INFORMATION
#----------   ------------   ------------------------------
 STRT.F           27.0000:   START DEPTH
 STOP.F          566.0000:   STOP DEPTH
 STEP.F            0.5000:   STEP LENGTH
 NULL.          -999.2500:   NO VALUE
 COMP.    FENIX & SCISSON:   COMPANY
 WELL. S-3 NPR #3 #86-S-3:   WELL
 FLD .             TEAPOT:   FIELD
 LOC .       S3 T38N R78W:   LOCATION
 CNTY.            NATRONA:   COUNTY
 STAT.            WYOMING:   STATE
 CTRY. UNITED STATES OF AMERICA:   COUNTRY
 SRVC.       Schlumberger:   SERVICE COMPANY
 DATE.        08-APR-1977:   LOGDATE
 API .       490251032900:   API NUMBER
~CURVE INFORMATION
#MNEM.UNIT       API CODE    CURVE DESCRIPTION
#----------   ------------   ------------------------------
 DEPT.F                  :   
 CALD.IN     45 280 60 00:   CALIPER FROM DENSITY LOG
 GRD .GAPI   45 310 01 00:   GAMMA RAY FROM DENSITY LOG
 CORR.G/C3   45 356 01 00:   DENSITY CORRECTION
 RHOB.G/C3   45 350 01 00:   BULK DENSITY
 DPHI.DEC    45 890 12 00:   DENSITY POROSITY SANDSTONE
 SPR .MV     07 010 01 00:   SPONTANEOUS POTENTIAL
 ILD .OHMM   07 120 46 00:   INDUCTION LOG DEEP
 ILM .OHMM   07 120 44 00:   INDUCTION LOG MEDIUM
 LL8 .OHMM   07 220 08 00:   LATEROLOG-8 RES.
~PARAMETER INFORMATION
#MNEM.UNIT          VALUE    DESCRIPTION
#----------   ------------   ------------------------------
 PD  .                 GL:   PERMANENT DATUM
 EPD .F              5147:   ELEVATION PERMANENT DATUM
 LMF .                 KB:   LOG MEASURED FROM
 DMF .                 KB:   DRILLING MEASURED FROM
 EGL .F              5147:   GROUND LEVEL
 DATE.        08-APR-1977:   RUN DATE
 RUN .                  1:   RUN NUMBER
 DD  .F               570:   DEPTH DRILLER
 DL  .F               567:   DEPTH LOGGER
 BLI .F               566:   BOTTOM LOG INTERVAL
 TLI .F                27:   TOP LOG INTERVAL
 CS  .IN            8.625:   CASING SIZE
 CBD .F                40:   CASING BOTTOM DRILLER
 CBL .F                33:   CASING BOTTOM LOGGER
 BS  .IN            7.875:   BIT SIZE
 BSD .F               570:   BIT SIZE AT DEPTH
 DFT .                KCL:   DRILLING FLUID TYPE
 DFD .                8.6:   DRILLING FLUID DENSITY
 DFV .                 31:   DRILLING FLUID VISCOSITY
 DFPH.                9.5:   DRILLING FLUID PH
 DFL .                8.6:   DRILLING FLUID LOSS
 MSS .           FLOWLINE:   MUD SAMPLE SOURCE
 RMS .OHMM          0.306:   RESISTIVITY MUD SAMPLE
 MST .F                78:   MUD SAMPLE TEMPERATURE
 RMF .OHMM          0.230:   RESISTIVITY MUD FILTRATE SAMPLE
 MFST.F                78:   MUD FILTRATE SAMPLE TEMPERATURE
 MFSS.               MEAS:   MUD FILTRATE SAMPLE SOURCE
 RMB .OHMM          0.341:   RESISTIVITY MUD AT BHT
 BHT .F                70:   BOTTOM HOLE TEMPERATURE
 TCS .HRS              20:   TIME CURCULATED STOPPED
 MRT .F                70:   MAXIMUM RECORDED TEMPERATURE
 LUN .               5642:   LOGGING UNIT NUMBER
 LUL .               CSPR:   LOGGING UNIT LOCATION
 ENGI.             MARTIN:   RECORDING ENGINEER
 WITN.               LYON:   WITNESSED BY
 CLNT.            A2DTECH:   CLIENT CODE
 ORIG.       2", 5" PRINT:   ORIGIN OF DATA
 UWI .       490251032900:   UNIQUE WELL ID
 DICO. A2D Technologies, Inc.:   DIGITIZING COMPANY
~OTHER INFORMATION
~A   DEPT     CALD         GRD      CORR       RHOB       DPHI        SPR        ILD        ILM        LL8   
# ...
  246.0000     8.1606   114.6710     0.0141     2.4366     0.1297   -75.1705     7.7026     7.8330     8.7129
  246.5000     8.1471   113.5026     0.0141     2.4327     0.1292   -75.6091     7.4977     7.5148     8.7159
  247.0000     8.1341   110.0940     0.0150     2.4241     0.1380   -76.0481     7.2452     7.3611     8.7189
  247.5000     8.1365   107.8777     0.0158     2.4197     0.1380   -76.6362     6.8096     7.0620     8.7219
  248.0000     8.1384   106.5555     0.0181     2.4137     0.1389   -76.7745     6.3561     6.6356     8.4864
  248.5000     8.1403   104.3391     0.0257     2.4048     0.1468   -77.2132     6.0572     6.1490     8.2572
  249.0000     8.1272   100.7815     0.0250     2.3891     0.1556   -77.8016     5.8125     5.8180     7.9787
  249.5000     8.1292    98.7141     0.0191     2.3756     0.1658   -77.7897     5.7338     5.7783     6.0491
  250.0000     8.1311   100.2235    -0.0015     2.3651     0.1628   -77.6276     5.7595     5.7995     5.3048
  250.5000     8.1439   103.8628     0.0022     2.4088     0.1573   -77.1649     5.8980     5.9428     6.6233
  251.0000     8.1505   108.7675     0.0068     2.4187     0.1375   -76.7039     6.0648     6.0686     8.5019
  251.5000     8.1526   112.2188     0.0132     2.4338     0.1332   -76.3931     6.2363     6.3273     8.7427
  252.0000     8.1547   112.8385     0.0210     2.4474     0.1236   -75.9321     6.4127     6.5515     8.6242
  252.5000     8.1567   109.4344     0.0219     2.4520     0.1193   -75.7714     6.7324     6.8308     8.4485
  253.0000     8.1588   106.6264     0.0219     2.4468     0.1268   -75.4606     6.9708     7.1221     8.6277
  253.5000     8.1609   105.6067     0.0062     2.4176     0.1364   -74.8495     7.2177     7.4257     8.9959
  254.0000     8.1629   103.9910    -0.0027     2.4102     0.1442   -74.2383     7.5775     7.6888     9.4450
  254.5000     8.1650   105.0666     0.0086     2.4201     0.1384   -74.0777     7.9004     7.9062     9.2526
  255.0000     8.1671   107.0941     0.0163     2.4464     0.1312   -74.2173     8.1802     8.1863     9.0011
  255.5000     8.1691   112.7705     0.0193     2.4518     0.1203   -74.6572     8.2960     8.3596     8.9407
  256.0000     8.1712   113.9503     0.0224     2.4534     0.1185   -74.6467     8.4717     8.4189     9.2584
  256.5000     8.1733   115.5902     0.0270     2.4595     0.1169   -74.6362     8.4735     8.5971     9.5868
  257.0000     8.1603   118.4454     0.0361     2.4708     0.1151   -74.6256     8.5341     8.6581     9.7902
  257.5000     8.1476   120.1083     0.0467     2.4769     0.1112   -74.6151     8.5952     8.6593     9.9980
  258.0000     8.1497   118.4926     0.0370     2.4468     0.1204   -74.6046     8.6566     8.6605     9.7943
  258.5000     8.1517   115.5356     0.0289     2.4178     0.1333   -74.5940     8.6584     8.8438     9.7963
  259.0000     8.1538   111.5353     0.0227     2.4474     0.1151   -74.2832     8.7204     8.9066     9.7302
  259.5000     8.1559   109.4725     0.0388     2.4811     0.1064   -74.1225     8.9052     8.9078     9.7327
  260.0000     8.1579   109.9431     0.0441     2.5029     0.0999   -74.1141     8.9689     9.0964     9.7347
  260.5000     8.1601   111.1590     0.0365     2.4835     0.1074   -74.1036     9.2225     9.1609     9.8045
  261.0000     8.1622   110.5864     0.0296     2.4641     0.1130   -74.0931     9.2244     9.3548    10.0822
  261.5000     8.1642   108.8217     0.0196     2.4589     0.1151   -74.5335     9.4199     9.4213    10.2961
  262.0000     8.1667   107.2059     0.0174     2.4552     0.1165   -75.1236     9.4872     9.4881    10.5877
  262.5000     8.1688   106.1863     0.0160     2.4516     0.1192   -75.2632     9.5551     9.6220    10.7377
  263.0000     8.1709   105.6078     0.0146     2.4471     0.1207   -75.2764     9.4907     9.6903    10.9656
  263.5000     8.1729   105.9354     0.0139     2.4322     0.1224   -75.5424     9.4932     9.6916    10.9678
  264.0000     8.1750   107.1512     0.0147     2.4308     0.1251   -75.5315     9.4951     9.6930    10.9701
  264.5000     8.1771   108.5161     0.0208     2.4474     0.1194   -75.5210     9.4971     9.6943    10.9724
  265.0000     8.1791   109.8810     0.0216     2.4670     0.1148   -75.5105     9.4991     9.6957    10.7488
  265.5000     8.1663   111.0969     0.0187     2.4716     0.1118   -75.5000     9.5011     9.6970    10.6025
  266.0000     8.1684   110.7750     0.0173     2.4687     0.1139   -75.1892     9.5030     9.6313    10.2441
  266.5000     8.1704   107.5389     0.0151     2.4598     0.1171   -75.0285     9.5050     9.5661     9.8289
  267.0000     8.1725   106.3577     0.0137     2.4509     0.1192   -75.0180     9.5070     9.4356     9.5622
  267.5000     8.1591   105.4744     0.0115     2.4494     0.1225   -74.8423     9.3783     9.4369     9.5641
  268.0000     8.1617   103.9122    -0.0004     2.4405     0.1263   -74.5466     9.2508     9.1800     9.5661
  268.5000     8.1638   104.6869     0.0004     2.4383     0.1314   -74.3859     9.0001     9.1175     9.6346
  269.0000     8.1659   105.9027     0.0080     2.4369     0.1311   -74.3634     8.7567     8.9310     9.8391
  269.5000     8.1679   107.5656     0.0089     2.4348     0.1334   -74.3651     8.5194     8.6881     9.7057
  270.0000     8.1700   109.6757     0.0066     2.4280     0.1388   -74.5146     8.3343     8.4513     9.2480
  270.5000     8.1721   112.2328     0.0044     2.4174     0.1421   -74.9534     8.0526     8.1646     8.4530
  271.0000     8.1741   114.1938     0.0024     2.4078     0.1471   -75.5347     7.7600     7.7788     7.7801
  271.5000     8.1762   114.5154     0.0009     2.4006     0.1499   -75.9815     7.2526     7.3091     7.3111
  272.0000     8.1783   114.6822     0.0040     2.3947     0.1614   -76.2644     6.6220     6.5423     6.9183
  272.5000     8.1803   111.2839     0.0071     2.3842     0.1701   -76.7043     6.0315     5.7354     6.5013
  273.0000     8.1824   110.8545     0.0110     2.3663     0.1780   -77.2944     5.0982     4.7237     6.1947
  273.5000     8.1845   110.5860     0.0133     2.3206     0.2001   -77.8844     4.2459     4.1411     5.7811
  274.0000     8.1866   107.7779     0.0036     2.2696     0.2250   -78.3264     3.6815     3.5803     4.9646
  274.5000     8.1887   103.1816     0.0089     2.2291     0.2514   -78.9154     3.2251     3.2047     4.3833
  275.0000     8.1908    99.4794     0.0158     2.2201     0.2616   -79.0541     2.9689     2.9288     3.4638
  275.5000     8.1933    98.4597     0.0121     2.2217     0.2594   -79.1937     2.7423     2.7330     2.6624
  276.0000     8.1953   100.2717     0.0077     2.2369     0.2297   -79.1831     2.6681     2.6402     2.6815
  276.5000     8.1820   103.1269     0.0213     2.3008     0.2059   -79.0225     2.6990     2.7528     3.5388
  277.0000     8.1697   109.8608     0.0304     2.3542     0.1853   -78.5615     2.9129     2.9305     4.9365
  277.5000     8.1717   112.5670     0.0320     2.3573     0.1840   -78.2507     3.1688     3.1632     3.8207
  278.0000     8.1738   115.5712     0.0012     2.3514     0.1725   -77.7897     3.4748     3.5843     3.3220
  278.5000     8.1759   116.7811     0.0105     2.3674     0.1532   -77.3287     3.9592     4.1182     4.8045
  279.0000     8.1779   115.1713     0.0158     2.4239     0.1297   -76.7176     4.4628     4.7316     7.2833
  279.5000     8.1651   115.0399     0.0195     2.4501     0.1204   -76.4067     5.1817     5.2876     8.3100
  280.0000     8.1517   115.6656     0.0106     2.4119     0.1333   -75.9458     5.6701     5.7873     7.9732
  280.5000     8.1389   115.6891     0.0265     2.4398     0.1220   -75.4848     6.1561     6.1183     7.7568
  281.0000     8.1415   114.5205     0.0378     2.4774     0.1104   -75.3241     6.5016     6.4683     7.7049
  281.5000     8.1436   113.4949     0.0470     2.4813     0.1139   -74.8631     6.7316     6.7441     7.7065
  282.0000     8.1456   114.1206     0.0237     2.4528     0.1241   -74.8526     6.8624     6.9347     7.7081
