~VERSION INFORMATION
 VERS.                2.0:   CWLS LOG ASCII STANDARD - VERSION 2.0
 WRAP.                 NO:   ONE LINE PER DEPTH STEP
~WELL INFORMATION
#MNEM.UNIT      DATA TYPE    INFORMATION
#----------   ------------   ------------------------------
 STRT.F           32.5000:   START DEPTH
 STOP.F          433.0000:   STOP DEPTH
 STEP.F            0.5000:   STEP LENGTH
 NULL.          -999.2500:   NO VALUE
 COMP.    FENIX & SCISSON:   COMPANY
 WELL. NPR-3 65-S-10 #65-10:   WELL
 FLD .             TEAPOT:   FIELD
 LOC .      S10 T38N R78W:   LOCATION
 CNTY.            NATRONA:   COUNTY
 STAT.            WYOMING:   STATE
 CTRY. UNITED STATES OF AMERICA:   COUNTRY
 SRVC.           BIRDWELL:   SERVICE COMPANY
 DATE.        13-JUN-1978:   LOGDATE
 API .       490251063000:   API NUMBER
~CURVE INFORMATION
#MNEM.UNIT       API CODE    CURVE DESCRIPTION
#----------   ------------   ------------------------------
 DEPT.F                  :   
 CALD.IN     45 280 60 00:   CALIPER FROM DENSITY LOG
 CORR.G/C3   45 356 01 00:   DENSITY CORRECTION
 DEN .G/C3   45 350 01 00:   COMPENSATED BULK DENSITY
 GRD .GAPI   45 310 01 00:   GAMMA RAY FROM DENSITY LOG
 DPHI.DEC    45 890 12 00:   DENSITY POROSITY SANDSTONE
 IL  .OHMM   05 120 00 00:   INDUCTION LOG 40"
 SN  .OHMM   05 040 16 00:   SHORT NORMAL 16"
 SPR .MV     05 010 01 00:   SPONTANEOUS POTENTIAL FROM RES.
~PARAMETER INFORMATION
#MNEM.UNIT          VALUE    DESCRIPTION
#----------   ------------   ------------------------------
 PD  .                 GL:   PERMANENT DATUM
 EPD .F              5193:   ELEVATION PERMANENT DATUM
 LMF .                 KB:   LOG MEASURED FROM
 DMF .                 KB:   DRILLING MEASURED FROM
 EKB .F              5197:   KELLING BUSHING
 EGL .F              5193:   GROUND LEVEL
 DATE.          6-13-1978:   RUN DATE
 RUN .                  1:   RUN NUMBER
 DD  .F               430:   DEPTH DRILLER
 DL  .F               433:   DEPTH LOGGER
 BLI .F               427:   BOTTOM LOG INTERVAL
 TLI .F                50:   TOP LOG INTERVAL
 CS  .IN            8.625:   CASING SIZE
 CBD .F                40:   CASING BOTTOM DRILLER
 CBL .F                48:   CASING BOTTOM LOGGER
 BS  .IN            7.875:   BIT SIZE
 BSD .F               430:   BIT SIZE AT DEPTH
 DFT .                KCL:   DRILLING FLUID TYPE
 DFD .                8.7:   DRILLING FLUID DENSITY
 DFV .                 32:   DRILLING FLUID VISCOSITY
 DFPH.                9.5:   DRILLING FLUID PH
 DFL .                8.4:   DRILLING FLUID LOSS
 MSS .           FLOWLINE:   MUD SAMPLE SOURCE
 RMS .OHMM            .38:   RESISTIVITY MUD SAMPLE
 MST .F                86:   MUD SAMPLE TEMPERATURE
 RMF .OHMM            .36:   RESISTIVITY MUD FILTRATE SAMPLE
 MFST.F                82:   MUD FILTRATE SAMPLE TEMPERATURE
 MFSS.               MEAS:   MUD FILTRATE SAMPLE SOURCE
 MCSS.               MEAS:   MUD CAKE SAMPLE SOURCE
 TCS .HRS               3:   TIME CURCULATED STOPPED
 MRT .F                73:   MAXIMUM RECORDED TEMPERATURE
 LUN .               2958:   LOGGING UNIT NUMBER
 LUL .               CASP:   LOGGING UNIT LOCATION
 ENGI.           REYNOLDS:   RECORDING ENGINEER
 WITN.           MCGINLEY:   WITNESSED BY
 CLNT.            A2DTECH:   CLIENT CODE
 ORIG.           5" PRINT:   ORIGIN OF DATA
 UWI .       490251063000:   UNIQUE WELL ID
 DICO. A2D Technologies, Inc.:   DIGITIZING COMPANY
~OTHER INFORMATION
~A   DEPT     CALD       CORR        DEN        GRD       DPHI         IL         SN        SPR   
   32.5000  -999.2500  -999.2500  -999.2500   112.1831  -999.2500  -999.2500  -999.2500  -999.2500
   33.0000  -999.2500  -999.2500  -999.2500   110.7105  -999.2500  -999.2500  -999.2500  -999.2500
   33.5000  -999.2500  -999.2500  -999.2500   109.2380  -999.2500  -999.2500  -999.2500  -999.2500
   34.0000  -999.2500  -999.2500  -999.2500   107.7655  -999.2500  -999.2500  -999.2500  -999.2500
   34.5000  -999.2500  -999.2500  -999.2500   106.2929  -999.2500  -999.2500  -999.2500  -999.2500
   35.0000  -999.2500  -999.2500  -999.2500   104.8204  -999.2500  -999.2500  -999.2500  -999.2500
   35.5000  -999.2500  -999.2500  -999.2500   103.3479  -999.2500  -999.2500  -999.2500  -999.2500
   36.0000  -999.2500  -999.2500  -999.2500   101.8834  -999.2500  -999.2500  -999.2500  -999.2500
   36.5000  -999.2500  -999.2500  -999.2500   101.2855  -999.2500  -999.2500  -999.2500  -999.2500
   37.0000  -999.2500  -999.2500  -999.2500   100.9865  -999.2500  -999.2500  -999.2500  -999.2500
   37.5000  -999.2500  -999.2500  -999.2500    98.8939  -999.2500  -999.2500  -999.2500  -999.2500
   38.0000  -999.2500  -999.2500  -999.2500    97.5386  -999.2500  -999.2500  -999.2500  -999.2500
   38.5000  -999.2500  -999.2500  -999.2500   101.2855  -999.2500  -999.2500  -999.2500  -999.2500
   39.0000  -999.2500  -999.2500  -999.2500   101.8834  -999.2500  -999.2500  -999.2500  -999.2500
   39.5000  -999.2500  -999.2500  -999.2500    99.7808  -999.2500  -999.2500  -999.2500  -999.2500
   40.0000  -999.2500  -999.2500  -999.2500    97.3991  -999.2500  -999.2500  -999.2500  -999.2500
   40.5000  -999.2500  -999.2500  -999.2500    97.2496  -999.2500  -999.2500  -999.2500  -999.2500
   41.0000  -999.2500  -999.2500  -999.2500    97.1002  -999.2500  -999.2500  -999.2500  -999.2500
   41.5000  -999.2500  -999.2500  -999.2500    96.9507  -999.2500  -999.2500  -999.2500  -999.2500
   42.0000     7.0302  -999.2500  -999.2500   100.9865  -999.2500  -999.2500  -999.2500  -999.2500
   42.5000     7.3306  -999.2500  -999.2500   105.7698  -999.2500  -999.2500  -999.2500  -999.2500
   43.0000     7.3304  -999.2500  -999.2500   112.6457  -999.2500  -999.2500  -999.2500  -999.2500
   43.5000     7.3004  -999.2500  -999.2500   112.3468  -999.2500  -999.2500  -999.2500  -999.2500
   44.0000     7.3450  -999.2500  -999.2500   114.5889  -999.2500  -999.2500  -999.2500  -999.2500
   44.5000     7.4195  -999.2500  -999.2500   113.8416  -999.2500  -999.2500  -999.2500  -999.2500
   45.0000     7.4194  -999.2500  -999.2500   115.0374  -999.2500  -999.2500  -999.2500  -999.2500
   45.5000     7.4508  -999.2500  -999.2500   117.1300  -999.2500  -999.2500  -999.2500  -999.2500
   46.0000     7.5833  -999.2500  -999.2500   127.1151  -999.2500  -999.2500  -999.2500  -999.2500
   46.5000    10.4936  -999.2500  -999.2500   130.8819  -999.2500  -999.2500  -999.2500  -999.2500
   47.0000    10.9412  -999.2500  -999.2500   132.9746  -999.2500  -999.2500  -999.2500  -999.2500
   47.5000    10.4336  -999.2500  -999.2500   133.7344  -999.2500  -999.2500  -999.2500  -999.2500
   48.0000     7.4931     0.0441  -999.2500   135.0673  -999.2500     6.9847  -999.2500  -999.2500
   48.5000     7.4184     0.0430  -999.2500   136.1136  -999.2500     1.3603  -999.2500  -999.2500
   49.0000     7.4481     0.0460  -999.2500   137.1699  -999.2500     1.7821  -999.2500  -999.2500
   49.5000     7.4628     0.0550  -999.2500   138.3558  -999.2500     4.6439  -999.2500  -999.2500
   50.0000     7.4776     0.0623     2.3169   139.5516     0.2143     4.7779     6.2119  -999.2500
   50.5000     7.4775     0.0593     2.3139   140.4484     0.2145     4.7168     5.0745  -999.2500
   51.0000     7.4756     0.0519     2.3087   141.4948     0.2166     4.4631     4.5175  -999.2500
   51.5000     7.4473     0.0460     2.3005   141.9432     0.2217     4.2047     4.3676  -999.2500
   52.0000     7.4173     0.0431     2.2959   141.7937     0.2324     4.2963     4.3706  -999.2500
   52.5000     7.3711     0.0505     2.2953   141.6442     0.2390     4.5125     4.3433  -999.2500
   53.0000     7.2827     0.0520     2.2916   141.4948     0.2399     4.4856     4.4375  -999.2500
   53.5000     7.2079     0.0491     2.2781   141.1958     0.2348     5.0222     4.7566  -999.2500
   54.0000     7.1182     0.0506     2.2662   140.4484     0.2294     5.2299     5.1693  -999.2500
   54.5000     6.9837     0.0550     2.2640   139.5516     0.2215     5.2709     5.3171  -999.2500
   55.0000     6.9686     0.0612     2.2715   138.6547     0.2169     5.2383     5.3213  -999.2500
   55.5000     6.9536     0.0935     2.2814   137.7578     0.2127     5.1726     5.2161  -999.2500
   56.0000     6.9684     0.1142     2.2939   138.9537     0.2085     5.0715     5.0778  -999.2500
   56.5000     6.9831     0.1231     2.3059   140.1495     0.2011     5.1124     5.1162  -999.2500
   57.0000     7.0128     0.1379     2.3066   140.7474     0.1798     5.1880     5.3037  -999.2500
   57.5000     7.1781     0.1734     2.3149   140.2990     0.1744     5.3377     5.4886  -999.2500
   58.0000     7.2065     0.2148     2.3440   141.4948     0.1672     5.5308     5.6454  -999.2500
   58.5000     7.2960     0.2267     2.3605   144.3423     0.1547     5.6515     5.7669  -999.2500
   59.0000     7.4152     0.2030     2.3788   144.3348     0.1493     5.8146     5.8506  -999.2500
   59.5000     7.4449     0.1794     2.3942   143.4380     0.1427     5.9824     5.9767  -999.2500
   60.0000     7.3851     0.0981     2.4024   142.5411     0.1343     6.0709     6.0636  -999.2500
   60.5000     7.3401     0.0486     2.4069   140.8969     0.1092     6.1641     6.1523  -999.2500
   61.0000     7.2952     0.0345     2.3920   143.8864     0.1128     6.2104     6.1988  -999.2500
   61.5000     7.2353     0.0256     2.3860   148.8191     0.1020     6.2590     6.3322  -999.2500
   62.0000     7.2054     0.0168     2.3868   154.4993     0.1074     6.3955     6.5253  -999.2500
   62.5000     7.1754     0.0138     2.4174   158.7034     0.1507     6.7173     6.9348  -999.2500
   63.0000     7.1454     0.0153     2.4219   156.0172     0.1567     7.1105     6.9393  -999.2500
   63.5000     7.1004     0.0168     2.4070   150.3406     0.1597     7.3108     6.9918  -999.2500
   64.0000     7.0555     0.0198     2.4018   148.5504     0.1612     7.5738     7.0447  -999.2500
   64.5000     7.0852     0.0257     2.3980   149.3013     0.1618    82.5805     7.0981  -999.2500
   65.0000     7.1149     0.0331     2.3958   148.7078     0.1618   262.8560     7.1038  -999.2500
   65.5000     7.1148     0.0376     2.3951   147.0670     0.1600   274.1907     7.1084  -999.2500
   66.0000     7.0848     0.0406     2.3951   147.0705     0.1564   242.5148     7.1131  -999.2500
   66.5000     7.0399     0.0376     2.3966   147.3730     0.1516   249.5135     7.1177  -999.2500
   67.0000     7.0546     0.0302     2.3981   145.8818     0.1426   271.2477     7.1224  -999.2500
   67.5000     7.0992     0.0169     2.4056   148.2778     0.1361   281.0367     7.0297  -999.2500
   68.0000     7.1737     0.0110     2.4133   149.7761     0.1355   287.1952     6.9861  -999.2500
   68.5000     7.2333     0.0111     2.4266   150.0786     0.1391   287.4212     6.9427  -999.2500
   69.0000     7.1585     0.0111     2.4318   149.3356     0.1423   287.7216     6.9484  -999.2500
   69.5000     7.1136     0.0127     2.4094   146.2001     0.1411   284.0475     6.9531  -999.2500
   70.0000     7.0836     0.0170     2.4191   143.3635     0.1343   282.3574     7.1038   -74.0882
   70.5000     7.0834     0.0170     2.4266   140.5270     0.1283   284.6333     7.2566   -50.6845
   71.0000     7.1131     0.0111     2.4326   141.7272     0.1193   288.8434     7.5673     3.1575
   71.5000     7.1429     0.0023     2.4402   141.1328     0.1173   291.1050     7.7835    17.4575
   72.0000     7.1089    -0.0066     2.4491   138.1468     0.1217   295.4108     7.9040    14.4955
   72.5000     6.9933    -0.0110     2.4596   134.4133     0.1289   293.6530     7.9017   -61.6808
