~VERSION INFORMATION
 VERS.                2.0:   CWLS LOG ASCII STANDARD - VERSION 2.0
 WRAP.                 NO:   ONE LINE PER DEPTH STEP
~WELL INFORMATION
#MNEM.UNIT      DATA TYPE    INFORMATION
#----------   ------------   ------------------------------
 STRT.F           16.0000:   START DEPTH
 STOP.F          661.0000:   STOP DEPTH
 STEP.F            0.5000:   STEP LENGTH
 NULL.          -999.2500:   NO VALUE
 COMP. FENIX & SCISSON INC:   COMPANY
 WELL.  26-66 SX 11 #I-11:   WELL
 FLD .             TEAPOT:   FIELD
 LOC .      S11 T38N R78W:   LOCATION
 CNTY.            NATRONA:   COUNTY
 STAT.            WYOMING:   STATE
 CTRY. UNITED STATES OF AMERICA:   COUNTRY
 SRVC.      Dresser Atlas:   SERVICE COMPANY
 DATE.        22-JUL-1980:   LOGDATE
 API .       490251083200:   API NUMBER
~CURVE INFORMATION
#MNEM.UNIT       API CODE    CURVE DESCRIPTION
#----------   ------------   ------------------------------
 DEPT.F                  :   
 SFL .OHMM   07 220 01 00:   SHALLOW FOCUSED LOG RESISTIVITY
 ILD .OHMM   07 120 46 00:   INDUCTION LOG DEEP
 ILM .OHMM   07 120 44 00:   INDUCTION LOG MEDIUM
 SPR .MV     07 010 01 00:   SPONTANEOUS POTENTIAL
 CALD.IN     45 280 60 00:   CALIPER
 GRD .GAPI   45 310 01 00:   GAMMA RAY FROM DENSITY LOG
 RHOB.G/C3   45 350 01 00:   BULK DENSITY
 CORR.G/C3   45 356 01 00:   DENSITY CORRECTION
 DPHI.DEC    45 890 12 00:   DENSITY POROSITY SANDSTONE
 NPHI.DEC    42 890 03 00:   NEUTRON POROSITY SANDSTONE
~PARAMETER INFORMATION
#MNEM.UNIT          VALUE    DESCRIPTION
#----------   ------------   ------------------------------
 PD  .                 GL:   PERMANENT DATUM
 EPD .F              5193:   ELEVATION PERMANENT DATUM
 LMF .                 KB:   LOG MEASURED FROM
 DAPD.F                 5:   FEET ABOVE PERMANENT DATUM
 DMF .                 KB:   DRILLING MEASURED FROM
 EKB .F              5198:   KELLING BUSHING
 EDF .F              5196:   DRILLING FLOOR
 EGL .F              5193:   GROUND LEVEL
 DATE.            7-22-80:   RUN DATE
 RUN .                  1:   RUN NUMBER
 DD  .F               655:   DEPTH DRILLER
 DL  .F               655:   DEPTH LOGGER
 BLI .F               653:   BOTTOM LOG INTERVAL
 TLI .F                20:   TOP LOG INTERVAL
 BS  .IN            7.875:   BIT SIZE
 BSD .F               655:   BIT SIZE AT DEPTH
 DFT .                KCL:   DRILLING FLUID TYPE
 DFD .                9.1:   DRILLING FLUID DENSITY
 DFV .                 46:   DRILLING FLUID VISCOSITY
 DFPH.                 11:   DRILLING FLUID PH
 DFL .                  6:   DRILLING FLUID LOSS
 MSS .           FLOWLINE:   MUD SAMPLE SOURCE
 RMS .OHMM            .17:   RESISTIVITY MUD SAMPLE
 MST .F                75:   MUD SAMPLE TEMPERATURE
 RMF .OHMM            .13:   RESISTIVITY MUD FILTRATE SAMPLE
 MFST.F                75:   MUD FILTRATE SAMPLE TEMPERATURE
 RMC .OHMM            .26:   RESISTIVITY MUD CAKE
 MCST.F                75:   MUD CAKE SAMPLE TEMPERATURE
 MFSS.                  C:   MUD FILTRATE SAMPLE SOURCE
 MCSS.                  C:   MUD CAKE SAMPLE SOURCE
 TCS .HRS               1:   TIME CURCULATED STOPPED
 LUN .               6240:   LOGGING UNIT NUMBER
 LUL .               RVTN:   LOGGING UNIT LOCATION
 ENGI.   K. RALL/J. GETTY:   RECORDING ENGINEER
 WITN.            RHOADES:   WITNESSED BY
 CLNT.            A2DTECH:   CLIENT CODE
 ORIG.        2" 5" PRINT:   ORIGIN OF DATA
 UWI .       490251083200:   UNIQUE WELL ID
 DICO. A2D Technologies, Inc.:   DIGITIZING COMPANY
~OTHER INFORMATION
~A   DEPT      SFL        ILD        ILM        SPR       CALD        GRD       RHOB       CORR         DPHI     NPHI   
   16.0000  -999.2500  -999.2500  -999.2500  -999.2500  -999.2500  -999.2500  -999.2500  -999.2500     0.6488  -999.2500
   16.5000  -999.2500  -999.2500  -999.2500  -999.2500  -999.2500  -999.2500  -999.2500  -999.2500     0.6488  -999.2500
   17.0000  -999.2500  -999.2500  -999.2500  -999.2500  -999.2500  -999.2500  -999.2500  -999.2500     0.6488  -999.2500
   17.5000  -999.2500  -999.2500  -999.2500  -999.2500  -999.2500  -999.2500  -999.2500  -999.2500     0.6499  -999.2500
   18.0000 10000.0000  -999.2500  -999.2500  -999.2500     8.9276   246.4286  -999.2500     0.0207     0.6488  -999.2500
   18.5000  9901.0635    63.7622    27.7992   -70.3396     8.9276   246.4286  -999.2500     0.0207     0.6488  -999.2500
   19.0000  9901.0635    53.0555    24.1181   -70.0605     8.9276   248.1640  -999.2500     0.0227     0.6331  -999.2500
   19.5000  9901.0635    41.0169    21.0954   -67.3696     8.9275   246.0605  -999.2500     0.0186     0.6087  -999.2500
   20.0000  9901.0635    41.3898    18.6672   -65.1972     8.9108   239.4596  -999.2500    -0.0156     0.5802     0.6256
   20.5000  9901.0635    32.4362    15.8759   -65.1224     8.8859   228.7981  -999.2500    -0.0600     0.5597     0.5039
   21.0000  9901.0635    28.9754    14.7182   -72.2177     8.9384   222.4469  -999.2500    -0.0575     0.5430     0.4100
   21.5000  9901.0635    25.9496    13.7731   -78.9501     9.0108   226.8953  -999.2500    -0.0353     0.5263     0.3462
   22.0000  9901.0635    23.2397    13.8886   -85.6240     9.0837   235.5244  -999.2500    -0.0008     0.5096     0.3748
   22.5000  9901.0635    20.8463    14.0312   -88.7295     9.1501   241.5284  -999.2500     0.0042     0.5019     0.3870
   23.0000  9901.0635    19.6789    14.1748   -86.9743     9.1650   232.4204  -999.2500    -0.0273     0.4991     0.3681
   23.5000  9901.0635    18.5427    14.2872   -82.4235     9.1790   220.8696  -999.2500    -0.0536     0.4969     0.3492
   24.0000  9901.0635    17.4720    13.5758   -79.6452     9.1707   215.2945  -999.2500    -0.0735     0.4953     0.3718
   24.5000  9901.0635    16.4444    12.5366   -81.8738     9.0800   210.2293  -999.2500    -0.0727     0.4976     0.4379
   25.0000  9901.0635    15.2086    11.5749   -84.2354     8.8978   194.0517  -999.2500    -0.0704     0.4970     0.4473
   25.5000  9901.0635    14.1589    10.6869   -83.5893     8.6833   180.3379  -999.2500    -0.0588     0.4506     0.3890
   26.0000  9901.0635    13.1532     9.9471   -82.8553     8.4662   166.4991  -999.2500    -0.0247     0.4063     0.2984
   26.5000  9901.0635    12.0249     9.3547   -83.0987     8.3851   158.8612  -999.2500    -0.0120     0.3717     0.2424
   27.0000  9901.0635    11.3536     9.0163   -85.1550     8.4007   158.1614  -999.2500    -0.0195     0.3699     0.2180
   27.5000  9901.0635    10.7198     8.7596   -88.4702     8.4174   163.6781  -999.2500    -0.0257     0.3788     0.2152
   28.0000  9901.0635    10.1214     8.5455   -92.2830     8.4515   170.9036  -999.2500    -0.0195     0.3823     0.2272
   28.5000  9901.0635     9.8862     8.3759   -96.1238     8.5280   191.1024  -999.2500    -0.0168     0.3787     0.2610
   29.0000  9901.0635     9.8722     8.4534   -99.0608     8.6003   211.7599  -999.2500    -0.0240     0.3765     0.2814
   29.5000  9901.0635     9.8483     8.5316   -99.5364     8.6699   229.6413  -999.2500    -0.0311     0.3743     0.2852
   30.0000  9901.0635     9.8245     8.6645   -97.8427     8.7074   252.4157  -999.2500    -0.0382     0.3871     0.2851
   30.5000  9901.0635     9.8008     8.7706   -95.7033     8.7878   263.9336  -999.2500    -0.0455     0.4081     0.2824
   31.0000  9901.0635     9.7956     8.6902   -95.0618     8.8269   223.6670  -999.2500    -0.0464     0.4187     0.2943
   31.5000  9901.0635     9.9980     8.8518   -94.7301     8.8708   169.2943  -999.2500    -0.0394     0.4302     0.3304
   32.0000  9901.0635    10.1136     8.9608   -94.5145     8.9151   131.2507  -999.2500    -0.0314     0.4447     0.3713
   32.5000  9901.0635    10.2304     9.0738   -93.7726     8.9594   107.7952  -999.2500    -0.0235     0.4509     0.4574
   33.0000  9901.0635    10.2572     9.0998   -92.9838     9.0036   101.5083  -999.2500    -0.0156     0.4495     0.5104
   33.5000  9901.0635    10.2707     8.8607   -92.7268     8.9750   103.6768  -999.2500    -0.0170     0.4448     0.5817
   34.0000  9901.0635    10.2945     8.4411   -92.4239     8.9347   105.5273  -999.2500    -0.0167     0.4359     0.6432
   34.5000  9901.0635    10.3187     8.0414   -91.2099     8.8937   102.0393  -999.2500    -0.0100     0.4242     0.6576
   35.0000  9901.0635    10.3415     7.6607   -89.9335     8.8526    97.1566  -999.2500    -0.0009     0.4116     0.6110
   35.5000  9901.0635    10.3555     7.4995   -87.5064     8.8115    92.7873  -999.2500     0.0082     0.3978     0.5197
   36.0000  9901.0635     9.6920     7.4473   -84.7612     8.7709    89.8695  -999.2500     0.0038     0.3839     0.2802
   36.5000  9901.0635     9.1571     6.9473   -82.3197     8.7664    86.4183  -999.2500    -0.0045     0.3814     0.2547
   37.0000  9901.0635     8.6517     6.2600   -80.5498     8.7626    82.9082  -999.2500    -0.0129     0.3924     0.2288
   37.5000  9901.0635     8.2905     5.6407   -78.7174     8.7583    82.9749  -999.2500    -0.0199     0.4003     0.2746
   38.0000  9736.8047     7.9811     5.3337   -78.0185     8.7539    86.7638  -999.2500    -0.0228     0.4042     0.3187
   38.5000    34.9164     7.6833     5.5287   -77.6018     8.7495    90.3963  -999.2500    -0.0252     0.4081     0.3489
   39.0000    21.3128     7.3966     6.1806   -77.1941     8.7464    90.5776  -999.2500    -0.0275     0.4142     0.3738
   39.5000    18.6651     7.1205     6.0963   -76.7837     8.7465    89.4764  -999.2500    -0.0286     0.4161     0.3785
   40.0000    19.0121     6.8396     6.0168   -76.2568     8.7465    90.2089  -999.2500    -0.0188     0.4067     0.3175
   40.5000    21.3975     6.8396     5.9383   -75.4757     8.7465    92.7659  -999.2500    -0.0074     0.4011     0.3007
   41.0000    22.2346     7.1301     5.9024   -75.1859     8.7465    95.2618  -999.2500     0.0037     0.4049     0.2931
   41.5000    22.6480     7.4995     6.0435   -75.0243     8.7465    95.1808  -999.2500     0.0037     0.4025     0.2847
   42.0000    23.7674     7.4307     6.2955   -74.8671     8.7465    93.0964  -999.2500    -0.0086     0.3985     0.2759
   42.5000    25.3802     7.2404     6.2378   -74.7085     8.7465    90.4927  -999.2500    -0.0250     0.3955     0.2881
   43.0000    27.2289     7.0162     6.1239   -74.5497     8.7463    87.6751  -999.2500    -0.0417     0.3986     0.3157
   43.5000    27.0970     6.7991     5.9396   -74.3910     8.7460    83.2982  -999.2500    -0.0486     0.3990     0.3240
   44.0000    25.7650     6.5886     5.7259   -74.2325     8.7382    77.5590  -999.2500    -0.0379     0.3856     0.3162
   44.5000    24.3800     6.3648     5.5002   -74.0479     8.7497    74.7008     2.0445    -0.0158     0.3555     0.3137
   45.0000    22.8576     6.1413     5.2834   -73.7169     8.7577    76.7938     2.0677     0.0013     0.3275     0.3232
   45.5000    22.4404     5.9257     5.0937   -73.3810     8.7651    81.8830     2.0583    -0.0053     0.3373     0.3325
   46.0000    21.3319     5.7176     5.0937   -73.0455     8.7726    86.9550     2.0382    -0.0121     0.3483     0.3411
   46.5000    20.0923     5.5169     5.1217   -72.7099     8.7801    90.4537     2.0482    -0.0030     0.3472     0.3576
   47.0000    19.7067     5.3232     5.1408   -72.3606     8.7880    91.4432     2.0524     0.0074     0.3372     0.3611
   47.5000    19.7208     5.1360     4.8554   -72.2791     8.7579    91.4762     2.0582     0.0187     0.3330     0.3502
   48.0000    19.3722     4.9559     4.6071   -72.2787     8.7416    89.3207     2.0790     0.0365     0.3229     0.3463
   48.5000    20.0414     4.7318     4.3716   -72.2821     8.7242    85.6267     2.0954     0.0336     0.3110     0.3525
   49.0000    20.4659     4.8198     4.1445   -72.2060     8.7098    82.4971     2.0852     0.0244     0.3185     0.3678
