~VERSION INFORMATION
 VERS.                2.0:   CWLS LOG ASCII STANDARD - VERSION 2.0
 WRAP.                 NO:   ONE LINE PER DEPTH STEP
~WELL INFORMATION
#MNEM.UNIT      DATA TYPE    INFORMATION
#----------   ------------   ------------------------------
 STRT.F           80.0000:   START DEPTH
 STOP.F          739.0000:   STOP DEPTH
 STEP.F            0.5000:   STEP LENGTH
 NULL.          -999.2500:   NO VALUE
 COMP. U S NAVY-INTEX OIL:   COMPANY
 WELL.        NPR #36-S-2:   WELL
 FLD .             TEAPOT:   FIELD
 LOC .       S2 T38N R78W:   LOCATION
 CNTY.            NATRONA:   COUNTY
 STAT.            WYOMING:   STATE
 CTRY. UNITED STATES OF AMERICA:   COUNTRY
 SRVC.       Schlumberger:   SERVICE COMPANY
 DATE.        23-JUN-1962:   LOGDATE
 API .       490250641800:   API NUMBER
~CURVE INFORMATION
#MNEM.UNIT       API CODE    CURVE DESCRIPTION
#----------   ------------   ------------------------------
 DEPT.F                  :   
 ASN .OHMM   05 041 16 00:   AMPLIFIED SHORT NORMAL 16"
 ILD .OHMM   05 120 46 00:   INDUCTION LOG DEEP
 CILD.MMHO   05 110 46 00:   CONDUCTIVITY INDUCTION LOG DEEP
 SPR .MV     05 010 01 00:   SPONTANEOUS POTENTIAL FROM RES.
 GR  .GAPI   30 310 01 00:   GAMMA RAY
~PARAMETER INFORMATION
#MNEM.UNIT          VALUE    DESCRIPTION
#----------   ------------   ------------------------------
 PD  .                 KB:   PERMANENT DATUM
 EPD .F              5143:   ELEVATION PERMANENT DATUM
 EKB .F              5143:   KELLING BUSHING
 EGL .F              5138:   GROUND LEVEL
 DATE.        23-JUN-1962:   RUN DATE
 RUN .                  1:   RUN NUMBER
 DD  .F               738:   DEPTH DRILLER
 DL  .F               740:   DEPTH LOGGER
 BLI .F               739:   BOTTOM LOG INTERVAL
 TLI .F                80:   TOP LOG INTERVAL
 BS  .IN             6.75:   BIT SIZE
 BSD .F               738:   BIT SIZE AT DEPTH
 DFT .       OIL EMULSION:   DRILLING FLUID TYPE
 DFD .               10.0:   DRILLING FLUID DENSITY
 DFV .                 53:   DRILLING FLUID VISCOSITY
 DFL .                3.8:   DRILLING FLUID LOSS
 RMS .OHMM            3.9:   RESISTIVITY MUD SAMPLE
 MST .F                66:   MUD SAMPLE TEMPERATURE
 RMF .OHMM            2.9:   RESISTIVITY MUD FILTRATE SAMPLE
 MFST.F                66:   MUD FILTRATE SAMPLE TEMPERATURE
 RMC .OHMM            4.4:   RESISTIVITY MUD CAKE
 MCST.F                66:   MUD CAKE SAMPLE TEMPERATURE
 TCS .HRS               1:   TIME CURCULATED STOPPED
 LUN .               2503:   LOGGING UNIT NUMBER
 LUL .               CSPR:   LOGGING UNIT LOCATION
 ENGI.             DANNER:   RECORDING ENGINEER
 WITN.          JORGENSON:   WITNESSED BY
 CLNT.            A2DTECH:   CLIENT CODE
 ORIG.           5" PRINT:   ORIGIN OF DATA
 UWI .       490250641800:   UNIQUE WELL ID
 DICO. A2D Technologies, Inc.:   DIGITIZING COMPANY
~OTHER INFORMATION
~A   DEPT        ASN        ILD      CILD       SPR         GR   
# ...
  507.0000     8.6530     8.2794   128.8486   -46.9091    63.0427
  507.5000     8.6536     8.2809   128.1531   -47.3494    62.7458
  508.0000     8.6542     8.2824   128.1381   -46.7449    67.4954
  508.5000     8.7301     8.3590   128.1231   -45.9912    63.7848
  509.0000     8.8211     8.3605   128.1081   -45.5360    69.5733
  509.5000     8.9271     8.3619   127.3423   -45.6777    72.3933
  510.0000     9.0030     8.3634   127.3273   -45.9706    76.6976
  510.5000     9.0036     8.4400   127.3123   -46.5583    72.9870
  511.0000     8.8386     8.3663   127.1871   -46.7001    74.0259
  511.5000     8.7477     8.3679   126.5315   -46.8438    60.9648
  512.0000     8.5972     8.3694   126.5165   -46.2374    57.5510
  512.5000     8.4463     8.3709   126.5015   -45.9314    68.5344
  513.0000     8.3255     8.3724   126.4865   -45.9240    76.2523
  513.5000     8.2220     8.3739   126.4714   -46.0676    71.2059
  514.0000     8.1618     8.3003   126.4565   -46.2094    61.7069
  514.5000     8.0899     8.3018   128.0884   -46.9463    59.9258
  515.0000     7.8796     8.2282   131.6787   -47.3885    67.3469
  515.5000     7.6091     8.0754   136.9189   -47.2299    64.9722
  516.0000     7.2483     7.8499   145.9130   -46.4780    66.1595
  516.5000     6.8875     7.4742   156.4085   -46.7691    61.8554
  517.0000     6.5266     7.0892   165.4025   -46.4612    58.1446
  517.5000     6.1055     6.4001   178.1503   -45.5582    59.3322
  518.0000     5.7296     5.5836   208.9161   -44.8045    57.6994
  518.5000     5.2483     4.7105   243.4356   -44.3493    58.7384
  519.0000     4.8121     4.0363   276.4537   -44.4929    42.7086
  519.5000     4.4814     3.5123   318.4807   -45.0806    33.9518
  520.0000     4.0904     3.1384   349.9972   -44.9239    34.3970
  520.5000     3.8199     2.6895   397.2795   -44.6194    42.4118
  521.0000     3.6097     2.5404   439.3066   -44.2846    49.0909
  521.5000     3.4597     2.3171   453.5559   -44.0075    53.0984
  522.0000     3.3699     2.2435   459.5469   -43.8507    69.1280
  522.5000     3.0543     2.2450   455.7781   -43.8433    82.9314
  523.0000     3.0549     2.3215   430.9884   -43.9854    81.4471
  523.5000     3.5374     2.6233   394.9374   -44.1272    76.2523
  524.0000     4.0199     2.9251   339.3668   -44.5675    69.7218
  524.5000     4.4874     3.6023   297.3098   -44.4105    75.5887
  525.0000     4.8795     4.2795   241.7392   -44.4030    68.3859
  525.5000     5.2868     5.0317   215.4480   -44.5451    74.0259
  526.0000     5.8295     5.6338   198.9165   -45.0090    78.4787
  526.5000     6.0711     5.9356   181.6342   -45.4488    85.4546
  527.0000     6.2072     6.0872   168.1057   -45.5675    83.9702
  527.5000     6.2380     6.1638   160.5832   -45.1119    78.7582
  528.0000     6.2235     6.2404   159.0667   -44.8059    85.0093
  528.5000     6.2248     6.3920   158.3010   -45.0973    80.1114
  529.0000     6.3022     6.4686   159.0367   -45.3883    82.3376
  529.5000     6.3925     6.4701   162.0248   -45.2110    86.0710
  530.0000     6.4387     6.3214   173.2710   -44.9254    84.8608
  530.5000     6.4524     6.0226   190.5233   -45.0674    77.7365
  531.0000     6.1645     5.4986   201.0188   -45.0597    70.4427
  531.5000     5.7911     5.1247   210.0128   -44.8662    77.2914
  532.0000     5.4905     4.8259   219.0069   -43.9821    83.9702
  532.5000     5.3403     4.6772   224.9979   -43.8433    87.5325
  533.0000     5.3560     4.4534   231.7396   -43.8358    87.3840
  533.5000     5.1909     4.4550   238.4814   -43.8284    86.3385
  534.0000     5.2067     4.4565   242.2202   -43.8209    75.8014
  534.5000     5.3278     4.4580   236.9499   -44.1427    75.0650
  535.0000     5.6296     4.6847   224.9229   -44.7164    80.1114
  535.5000     5.6453     4.9114   210.6437   -44.8435    70.1287
  536.0000     5.6760     5.2151   199.3674   -44.8218    68.5344
  536.5000     6.1284     5.5205   189.5927   -44.6791    80.1114
  537.0000     6.3850     5.9715   182.0702   -44.8211    80.4191
  537.5000     6.7019     6.2813   173.7969   -45.1243    86.6543
  538.0000     7.0338     6.6616   164.7729   -46.1612    85.9367
  538.5000     7.3657     7.0323   157.2504   -46.2912    84.4155
  539.0000     7.5922     7.2607   149.7279   -46.2836    89.9240
  539.5000     7.6982     7.4892   142.2054   -46.1269    86.3268
  540.0000     7.7892     7.6279   136.9352   -46.1194    85.9886
  540.5000     7.8199     7.7796   136.1694   -45.9627    80.9168
  541.0000     7.8053     7.7811   136.1545   -45.8060    65.5204
  541.5000     7.7910     7.7071   137.6410   -46.1139    65.1206
  542.0000     7.7163     7.7090   139.1275   -46.8359    80.4971
  542.5000     7.5964     7.6354   142.1155   -45.9329    83.3766
  543.0000     7.4313     7.5614   147.3558   -46.3802    82.2565
  543.5000     7.3115     7.4879   154.0975   -46.8198    80.7050
  544.0000     7.1765     7.2645   158.5870   -47.1045    85.8998
  544.5000     7.0113     7.1155   163.0766   -47.0970    88.8683
  545.0000     6.8449     6.6669   173.5721   -47.0895    86.0483
  545.5000     6.6163     5.9927   191.5751   -46.6298    72.5418
  546.0000     6.3149     5.3936   205.8244   -46.0299    71.7997
  546.5000     5.9485     5.0948   220.8244   -46.1717    80.1114
  547.0000     5.6256     4.7956   231.3199   -46.1642    84.4155
  547.5000     5.2748     4.7220   238.8124   -45.8557    69.5733
  548.0000     5.1180     4.7239   235.0437   -45.2497    69.1280
  548.5000     5.3748     4.8005   231.2749   -44.7985    68.8312
  549.0000     5.4206     4.8019   227.5062   -44.4925    73.8776
  549.5000     5.4212     5.1037   223.7375   -44.1866    77.4397
  550.0000     5.6368     5.3305   217.7456   -44.0299    89.6104
  550.5000     6.4169     5.6322   199.8496   -44.4709    83.9702
  551.0000     6.8104     6.1593   181.9536   -44.9119    86.6419
  551.5000     7.0500     6.7614   167.4174   -45.3471    72.3933
  552.0000     7.1695     7.1382   150.9009   -45.3360    75.0650
  552.5000     7.2610     7.3649   144.8949   -44.7301    83.5251
  553.0000     7.3681     7.5166   142.6426   -45.1689    80.7050
  553.5000     7.5179     7.6682   142.6426   -45.9063    78.4787
  554.0000     7.6237     7.8199   143.3934   -46.9422    83.5251
  554.5000     7.7277     7.8214   145.6456   -47.2340    75.2133
  555.0000     7.8183     7.8229   144.1441   -47.0736    81.2987
  555.5000     7.9110     7.8244   142.6426   -47.6639    96.8830
  556.0000     8.0168     7.8258   138.8689   -47.9535    98.2189
  556.5000     8.0723     7.8273   136.6366   -48.2431    75.9555
  557.0000     8.0723     7.9039   137.4521   -47.3365    73.7291
  557.5000     8.0723     7.9054   138.9767   -47.1783    71.7997
  558.0000     8.1175     7.9069   139.6396   -47.1694    75.3618
  558.5000     8.1175     7.9084   140.3904   -46.5635    83.6222
  559.0000     8.0572     7.8348   142.6426   -46.2560    81.0019
  559.5000     8.0120     7.7530   144.1441   -46.0979    82.0408
  560.0000     7.9819     7.5375   144.8949   -46.3875    82.1893
  560.5000     7.9217     7.5391   145.6456   -46.8263    83.9702
  561.0000     7.8614     7.5406   145.6456   -47.2652    88.7198
  561.5000     7.8313     7.5423   144.1441   -47.8555    91.0946
  562.0000     7.9518     7.6940   139.6396   -48.4414    99.2579
  562.5000     7.8614     7.6955   138.8889   -49.3280   101.8552
  563.0000     7.8464     7.5468   146.3964   -49.9164    98.3674
  563.5000     7.7861     7.5483   152.4024   -49.9072    81.7440
  564.0000     7.6054     7.3246   159.1592   -49.8983    79.5176
  564.5000     7.2590     7.1759   163.6637   -49.8894    75.3618
  565.0000     6.8976     6.9522   167.4174   -49.4327    69.7218
  565.5000     6.8223     6.8782   169.6697   -48.8268    82.6659
  566.0000     6.8072     6.7299   171.9219   -48.2208    81.0019
  566.5000     6.5964     6.6560   174.1742   -47.7642    84.4155
  567.0000     6.3855     6.4326   175.6757   -47.6060    87.0872
  567.5000     6.6114     6.3587   177.9279   -47.5970    76.8362
