~VERSION INFORMATION
 VERS.                2.0:   CWLS LOG ASCII STANDARD - VERSION 2.0
 WRAP.                 NO:   ONE LINE PER DEPTH STEP
~WELL INFORMATION
#MNEM.UNIT      DATA TYPE    INFORMATION
#----------   ------------   ------------------------------
 STRT.F           38.0000:   START DEPTH
 STOP.F          517.0000:   STOP DEPTH
 STEP.F            0.5000:   STEP LENGTH
 NULL.          -999.2500:   NO VALUE
 COMP. FENIX & SCISSON U.S. NAVY:   COMPANY
 WELL.     NPR 3 #88 S -3:   WELL
 FLD .             TEAPOT:   FIELD
 LOC .       S3 T38N R78W:   LOCATION
 CNTY.            NATRONA:   COUNTY
 STAT.            WYOMING:   STATE
 CTRY. UNITED STATES OF AMERICA:   COUNTRY
 SRVC.              Welex:   SERVICE COMPANY
 DATE.        10-APR-1977:   LOGDATE
 API .       490251033000:   API NUMBER
~CURVE INFORMATION
#MNEM.UNIT       API CODE    CURVE DESCRIPTION
#----------   ------------   ------------------------------
 DEPT.F                  :   
 GRD .GAPI   45 310 01 00:   GAMMA RAY FROM DENSITY LOG
 CALD.IN     45 280 60 00:   CALIPER FROM DENSITY LOG
 CORR.G/C3   45 356 01 00:   DENSITY CORRECTION
 RHOB.G/C3   45 350 01 00:   BULK DENSITY
 DPHI.DEC    45 890 12 00:   DENSITY POROSITY SANDSTONE
 SPR .MV     07 010 01 00:   SPONTANEOUS POTENTIAL
 ILD .OHMM   07 120 46 00:   INDUCTION LOG DEEP
 ILM .OHMM   07 120 44 00:   INDUCTION LOG MEDIUM
 SGRD.OHMM   07 221 05 00:   SHALLOW SHORT GUARD RESISTIVITY
~PARAMETER INFORMATION
#MNEM.UNIT          VALUE    DESCRIPTION
#----------   ------------   ------------------------------
 PD  .                 GL:   PERMANENT DATUM
 EPD .F              5120:   ELEVATION PERMANENT DATUM
 LMF .                 GL:   LOG MEASURED FROM
 DMF .                 GL:   DRILLING MEASURED FROM
 EGL .F              5120:   GROUND LEVEL
 DATE.        10-APR-1977:   RUN DATE
 RUN .                  1:   RUN NUMBER
 DD  .F               520:   DEPTH DRILLER
 DL  .F               519:   DEPTH LOGGER
 BLI .F               517:   BOTTOM LOG INTERVAL
 TLI .F                40:   TOP LOG INTERVAL
 CS  .IN            8.625:   CASING SIZE
 CBD .F                40:   CASING BOTTOM DRILLER
 CBL .F                42:   CASING BOTTOM LOGGER
 BS  .IN            7.875:   BIT SIZE
 BSD .F               520:   BIT SIZE AT DEPTH
 DFT .           KCL- GEL:   DRILLING FLUID TYPE
 DFD .                8.8:   DRILLING FLUID DENSITY
 DFV .                 38:   DRILLING FLUID VISCOSITY
 DFPH.                8.0:   DRILLING FLUID PH
 DFL .                6.4:   DRILLING FLUID LOSS
 MSS .            MUD PIT:   MUD SAMPLE SOURCE
 RMS .OHMM            .28:   RESISTIVITY MUD SAMPLE
 MST .F                55:   MUD SAMPLE TEMPERATURE
 RMF .OHMM            .23:   RESISTIVITY MUD FILTRATE SAMPLE
 MFST.F                55:   MUD FILTRATE SAMPLE TEMPERATURE
 RMC .OHMM            .32:   RESISTIVITY MUD CAKE
 MCST.F                55:   MUD CAKE SAMPLE TEMPERATURE
 MFSS.               MEAS:   MUD FILTRATE SAMPLE SOURCE
 MCSS.               MEAS:   MUD CAKE SAMPLE SOURCE
 RMB .OHMM            .24:   RESISTIVITY MUD AT BHT
 BHT .F                65:   BOTTOM HOLE TEMPERATURE
 TCS .HRS            0300:   TIME CURCULATED STOPPED
 MRT .F                65:   MAXIMUM RECORDED TEMPERATURE
 LUN .               0716:   LOGGING UNIT NUMBER
 LUL .             VERNAL:   LOGGING UNIT LOCATION
 ENGI.        E. CALLAHAN:   RECORDING ENGINEER
 WITN.            R. LYON:   WITNESSED BY
 CLNT.            A2DTECH:   CLIENT CODE
 ORIG.           5" PRINT:   ORIGIN OF DATA
 UWI .       490251033000:   UNIQUE WELL ID
 DICO. A2D Technologies, Inc.:   DIGITIZING COMPANY
~OTHER INFORMATION
~A   DEPT       GRD        CALD     CORR         RHOB     DPHI        SPR        ILD        ILM       SGRD   
   38.0000    87.4298     8.0539  -999.2500     1.9095  -999.2500  -999.2500  -999.2500  -999.2500  -999.2500
   38.5000    85.2120     8.0554    -0.3463     1.9299  -999.2500  -999.2500  -999.2500  -999.2500  -999.2500
   39.0000    83.1433     8.0568    -0.2817     1.9961  -999.2500  -999.2500  -999.2500  -999.2500  -999.2500
   39.5000    81.6707     8.0583    -0.2066     1.9989  -999.2500  -999.2500  -999.2500  -999.2500  -999.2500
   40.0000    80.1982     8.0445    -0.1180     2.0601  -999.2500  -999.2500  -999.2500  -999.2500  -999.2500
   40.5000    78.5766     8.0311     0.0052     2.1376  -999.2500  -999.2500  -999.2500  -999.2500  -999.2500
   41.0000    77.1040     7.9736     0.0728     2.2068  -999.2500  -999.2500  -999.2500  -999.2500  -999.2500
   41.5000    76.5212     7.9452     0.0909     2.2226     0.2605  -999.2500  -999.2500  -999.2500  -999.2500
   42.0000    76.8414     7.9168     0.0746     2.1979     0.2698   -16.1948  -999.2500  -999.2500  -999.2500
   42.5000    77.3062     7.9631     0.0628     2.2611     0.2433   -16.9679    40.4895   505.2625     1.5340
   43.0000    77.4730     8.0094     0.0479     2.2875     0.2196   -17.2891     2.7233   195.5668     5.9484
   43.5000    77.3417     8.0108     0.0376     2.3011     0.2096   -17.7455     1.0543    12.6170     9.9400
   44.0000    76.9079     8.0272     0.0333     2.3147     0.2027   -18.0823     0.4927     3.9929    10.4183
   44.5000    76.1849     8.0287     0.0349     2.3253     0.1952   -18.5256     0.3426     7.0137    10.5078
   45.0000    75.6065     8.0145     0.0381     2.3358     0.1894   -18.9935     0.3062     7.3589    11.5525
   45.5000    74.4320     7.9865     0.0413     2.3442     0.1834   -19.3081     0.2448     7.4567    12.6434
   46.0000    73.8536     7.9582     0.0429     2.3525     0.1801   -19.6228     0.2953     7.7195    12.9920
   46.5000    73.8714     7.9447     0.0311     2.3571     0.1767   -19.7868     0.5118     8.6473    13.4455
   47.0000    74.1872     7.9309     0.0267     2.3579     0.1749   -19.8002     0.7879     9.3063    14.0121
   47.5000    75.6952     7.9331     0.0224     2.3572     0.1743   -19.9642     1.4044     9.2273    14.6027
   48.0000    77.0542     7.9346     0.0256     2.3663     0.1725   -20.2788     6.6902     9.1561    15.3246
   48.5000    76.1778     7.9510     0.0303     2.3769     0.1673   -20.2922     7.3705     9.4723    15.3162
   49.0000    76.3445     7.9674     0.0349     2.3883     0.1595   -20.3056     7.5206     9.8027    15.6313
   49.5000    76.6603     7.9988     0.0351     2.3951     0.1529   -20.3190     7.6738     9.5907    15.9529
   50.0000    76.6781     8.0152     0.0352     2.4034     0.1544   -20.4828     8.2216     9.3216    16.2517
   50.5000    76.6958     8.0167     0.0354     2.3870     0.1555   -20.5029    13.1961     9.3814    16.6157
   51.0000    76.7136     8.0181     0.0371     2.3916     0.1537   -20.8235    13.7513     9.4423    16.1380
   51.5000    76.5778     8.0347     0.0372     2.3984     0.1498   -21.2946    11.5397     9.4944    15.5552
   52.0000    77.3496     8.0360     0.0389     2.4060     0.1464   -21.7658     9.2263     9.4862    14.5271
   52.5000    78.8576     8.0375     0.0376     2.4121     0.1416   -22.3875    11.6012     9.4768    16.6879
   53.0000    79.4715     8.0390     0.0362     2.4159     0.1392   -22.8587    13.1416     9.3378    18.6487
   53.5000    79.9363     8.0405     0.0304     2.4168     0.1389   -23.0286    14.1774     9.0735    15.8733
   54.0000    80.1031     8.0419     0.0216     2.4048     0.1415   -23.2048    13.3041     8.8783    15.2135
   54.5000    80.2699     8.0434     0.0143     2.4011     0.1481   -23.5196     9.5788     8.6270    15.1008
   55.0000    80.1297     8.0296     0.0099     2.4132     0.1457   -23.6898     8.5606     8.4415    16.1787
   55.5000    79.5602     8.0165     0.0131     2.4148     0.1412   -23.7364     8.3765     8.1455    16.3982
   56.0000    78.0876     8.0180     0.0193     2.4119     0.1396   -23.8833     8.0266     8.0261    15.4966
   56.5000    76.7641     8.0042     0.0194     2.4127     0.1402   -24.2038     7.9643     8.0755    15.5953
   57.0000    76.0366     8.0061     0.0180     2.4128     0.1408   -24.3738     8.0134     8.1270    15.6971
   57.5000    75.5984     8.0075     0.0242     2.4166     0.1402   -24.5437     8.1192     8.2343    15.4678
   58.0000    78.1585     7.9937     0.0289     2.4250     0.1368   -24.5631     8.1078     8.2851    15.1382
   58.5000    86.3730     7.9960     0.0306     2.4265     0.1353   -24.7330     7.9933     8.2765    14.5090
   59.0000    92.0539     7.9974     0.0277     2.4191     0.1377   -24.7524     7.8213     8.2122    14.0032
   59.5000    99.5232     7.9832     0.0249     2.4199     0.1386   -24.6163     7.5986     8.1484    13.8007
   60.0000   106.3964     7.9855     0.0251     2.4230     0.1359   -24.4851     7.3835     8.0289    13.6012
   60.5000   109.9909     7.9870     0.0267     2.4268     0.1334   -24.2080     7.2752     7.6936    13.3096
   61.0000   111.9460     7.9731     0.0299     2.4292     0.1313   -23.7756     6.8748     7.4211    13.4899
   61.5000   113.3050     7.9750     0.0301     2.4270     0.1310   -23.1925     6.5420     7.1599    13.4814
   62.0000   113.7699     7.9765     0.0272     2.4135     0.1361   -22.3083     6.2252     6.9491    12.8995
   62.5000   113.3405     7.9627     0.0229     2.4053     0.1432   -21.4240     6.0490     6.7088    11.7803
   63.0000   112.4641     7.9645     0.0185     2.4002     0.1492   -20.5397     6.0016     6.4800    11.5411
   63.5000   112.0303     7.9507     0.0142     2.4025     0.1504   -19.8061     5.9136     6.2528    11.4538
   64.0000   112.6486     7.9376     0.0114     2.4108     0.1459   -19.2230     5.8269     6.1611    11.3672
   64.5000   113.7095     7.9242     0.0085     2.4034     0.1479   -18.6370     5.8220     6.1560    11.0477
   65.0000   114.3234     7.9257     0.0087     2.4012     0.1467   -18.2075     5.8172     6.1509    10.8880
   65.5000   114.0386     7.9118     0.0119     2.4133     0.1419   -18.2274     5.8543     6.2321    10.9591
   66.0000   113.7627     7.9286     0.0165     2.4277     0.1332   -18.2470     5.9316     6.3157    11.4184
   66.5000   113.9295     7.9301     0.0227     2.4337     0.1256   -18.2704     6.0087     6.4426    12.1503
   67.0000   114.6968     7.9465     0.0274     2.4413     0.1238   -18.7416     6.0893     6.5733    13.0196
   67.5000   115.7578     7.9480     0.0321     2.4451     0.1241   -18.9115     6.2115     6.7536    13.1046
   68.0000   116.6697     7.9644     0.0322     2.4370     0.1259   -19.0815     6.3819     6.9874    12.9131
   68.5000   117.2836     7.9659     0.0294     2.4333     0.1282   -19.2514     6.5570     7.1307    12.7264
   69.0000   117.5994     7.9823     0.0251     2.4296     0.1306   -19.2708     6.6915     7.2739    12.5424
   69.5000   117.4636     7.9838     0.0236     2.4259     0.1330   -19.2901     6.7316     7.3190    12.8891
   70.0000   117.4858     8.0002     0.0239     2.4245     0.1357   -19.4601     6.7257     7.3640    12.7916
   70.5000   117.6526     8.0017     0.0225     2.4238     0.1344   -19.7806     6.6271     7.2559    12.6067
   71.0000   118.4155     8.0031     0.0212     2.4299     0.1284   -20.5530     6.4846     7.0998    12.2523
   71.5000   119.9235     8.0046     0.0168     2.4390     0.1260   -20.7230     6.4792     6.9954    11.4190
   72.0000   120.8354     8.0061     0.0125     2.4398     0.1272   -20.7423     6.4264     6.8930    11.1767
   72.5000   122.3435     8.0076     0.0097     2.4377     0.1277   -20.7617     6.3788     6.8873    11.1619
   73.0000   123.1064     7.9938     0.0068     2.4362     0.1274   -20.7810     6.4183     6.8817    10.9205
   73.5000   122.3790     7.9803     0.0040     2.4333     0.1274   -20.8004     6.4565     6.9241     9.9768
   74.0000   121.2044     7.9822     0.0012     2.4319     0.1259   -20.8197     6.4976     6.9140    10.7654
