~VERSION INFORMATION
 VERS.                2.0:   CWLS LOG ASCII STANDARD - VERSION 2.0
 WRAP.                 NO:   ONE LINE PER DEPTH STEP
~WELL INFORMATION
#MNEM.UNIT      DATA TYPE    INFORMATION
#----------   ------------   ------------------------------
 STRT.F           42.0000:   START DEPTH
 STOP.F         3145.0000:   STOP DEPTH
 STEP.F            0.5000:   STEP LENGTH
 NULL.          -999.2500:   NO VALUE
 COMP. LAWRENCE/ALLISON INC:   COMPANY
 WELL.      46 STX #34-34:   WELL
 FLD .             TEAPOT:   FIELD
 LOC .      S34 T39N R78W:   LOCATION
 CNTY.            NATRONA:   COUNTY
 STAT.            WYOMING:   STATE
 CTRY. UNITED STATES OF AMERICA:   COUNTRY
 SRVC.              Welex:   SERVICE COMPANY
 DATE.        01-MAY-1977:   LOGDATE
 API .       490251104800:   API NUMBER
~CURVE INFORMATION
#MNEM.UNIT       API CODE    CURVE DESCRIPTION
#----------   ------------   ------------------------------
 DEPT.F                  :   
 ILD .OHMM   07 120 46 00:   INDUCTION LOG DEEP
 ILM .OHMM   07 120 44 00:   INDUCTION LOG MEDIUM
 SGRD.OHMM   07 221 05 00:   SHALLOW SHORT GUARD RESISTIVITY
 SPR .MV     07 010 01 00:   SPONTANEOUS POTENTIAL
 GR  .GAPI   81 310 01 00:   GAMMA RAY
~PARAMETER INFORMATION
#MNEM.UNIT          VALUE    DESCRIPTION
#----------   ------------   ------------------------------
 PD  .                 GL:   PERMANENT DATUM
 EPD .F              5120:   ELEVATION PERMANENT DATUM
 LMF .                 GL:   LOG MEASURED FROM
 DMF .                 GL:   DRILLING MEASURED FROM
 EGL .F              5120:   GROUND LEVEL
 DATE.        01-MAY-1977:   RUN DATE
 RUN .                  1:   RUN NUMBER
 DD  .F               660:   DEPTH DRILLER
 DL  .F               661:   DEPTH LOGGER
 BLI .F               659:   BOTTOM LOG INTERVAL
 TLI .F                40:   TOP LOG INTERVAL
 CS  .IN            8.625:   CASING SIZE
 CBD .F                40:   CASING BOTTOM DRILLER
 CBL .F                42:   CASING BOTTOM LOGGER
 BS  .IN            7.875:   BIT SIZE
 BSD .F               660:   BIT SIZE AT DEPTH
 DFT .             KCLMUD:   DRILLING FLUID TYPE
 DFD .                8.7:   DRILLING FLUID DENSITY
 DFV .                 31:   DRILLING FLUID VISCOSITY
 DFPH.                  9:   DRILLING FLUID PH
 DFL .                  5:   DRILLING FLUID LOSS
 MSS .           FLOWLINE:   MUD SAMPLE SOURCE
 RMS .OHMM            .23:   RESISTIVITY MUD SAMPLE
 MST .F                62:   MUD SAMPLE TEMPERATURE
 RMF .OHMM            .17:   RESISTIVITY MUD FILTRATE SAMPLE
 MFST.F                62:   MUD FILTRATE SAMPLE TEMPERATURE
 RMC .OHMM            .32:   RESISTIVITY MUD CAKE
 MCST.F                62:   MUD CAKE SAMPLE TEMPERATURE
 MFSS.           MEASURED:   MUD FILTRATE SAMPLE SOURCE
 MCSS.           MEASURED:   MUD CAKE SAMPLE SOURCE
 RMB .OHMM             .2:   RESISTIVITY MUD AT BHT
 BHT .F                71:   BOTTOM HOLE TEMPERATURE
 TCS .HRS             1.5:   TIME CURCULATED STOPPED
 MRT .F                71:   MAXIMUM RECORDED TEMPERATURE
 LUL .             CASPER:   LOGGING UNIT LOCATION
 ENGI.          T. JOYNER:   RECORDING ENGINEER
 WITN.            R. LYON:   WITNESSED BY
 CLNT.            A2DTECH:   CLIENT CODE
 ORIG.        2" 5" PRINT:   ORIGIN OF DATA
 UWI .       490251104800:   UNIQUE WELL ID
 DICO. A2D Technologies, Inc.:   DIGITIZING COMPANY
~OTHER INFORMATION
~A   DEPT      ILD        ILM       SGRD        SPR         GR   
# ...
  164.0000     8.4824    10.2387    11.3073   -41.1234  -999.2500
  164.5000     8.5973    10.0926    11.4572   -41.1304  -999.2500
  165.0000     8.7137    10.0178    11.6123   -40.9860  -999.2500
  165.5000     8.8307     9.9436    11.8481   -40.9930  -999.2500
  166.0000     8.9007    10.0092    11.9255   -40.9991  -999.2500
  166.5000     8.9554    10.1428    11.9171   -40.8547  -999.2500
  167.0000     9.0686    10.2223    11.5045   -40.7112  -999.2500
  167.5000     9.0647    10.4194    11.2612   -40.5673  -999.2500
  168.0000     9.1240    10.5636    11.2562   -40.4238  -999.2500
  168.5000     9.1201    10.7767    11.3284   -40.4305  -999.2500
  169.0000     9.1163    10.8465    11.4050   -40.4375  -999.2500
  169.5000     9.1124    10.9927    11.5536   -40.2925  -999.2500
  170.0000     9.1730    11.1407    11.7084   -40.3001  -999.2500
  170.5000     9.2329    11.2922    11.8654   -40.3061  -999.2500
  171.0000     9.4220    11.4444    12.0245   -40.1612  -999.2500
  171.5000     9.4846    11.6795    12.2700   -40.1470  -999.2500
  172.0000     9.6789    11.9178    12.5227   -40.0238  -999.2500
  172.5000     9.7432    12.2473    12.7770   -40.0299  -999.2500
  173.0000     9.8741    12.4124    12.8605   -40.0359  -999.2500
  173.5000     9.9396    12.4942    12.8514   -40.1914  -999.2500
  174.0000    10.0732    12.4865    12.9354   -40.1974  -999.2500
  174.5000    10.2095    12.5688    12.9263   -40.3530  -999.2500
  175.0000    10.2891    12.6501    13.0108   -40.5085  -999.2500
  175.5000    10.4244    12.7319    13.0940   -40.5145  -999.2500
  176.0000    10.5614    12.8143    13.1777   -40.5206  -999.2500
  176.5000    10.7750    12.8972    13.2758   -40.6761  -999.2500
  177.0000    10.9968    12.9807    13.4481   -40.9811  -999.2500
  177.5000    11.3014    13.1558    13.6227   -41.1366  -999.2500
  178.0000    11.6144    13.3345    13.8981   -41.2921  -999.2500
  178.5000    12.0192    13.5125    14.0843   -41.4476  -999.2500
  179.0000    12.2667    13.6963    14.2733   -41.7526  -999.2500
  179.5000    12.4328    13.9776    14.6662   -41.7587  -999.2500
  180.0000    12.6902    14.1642    14.8627   -41.4643  -999.2500
  180.5000    12.9515    14.2576    15.1666   -41.1714  -999.2500
  181.0000    13.1269    14.3498    15.3720   -41.0294  -999.2500
  181.5000    13.3046    14.4426    15.4703   -40.7350  -999.2500
  182.0000    13.3915    14.4337    15.4594   -40.5916  -999.2500
  182.5000    13.3845    14.4266    15.4507   -40.4210  -999.2500
  183.0000    13.3788    14.4210    15.1240   -40.1552  -999.2500
  183.5000    13.3743    14.4140    14.9073   -40.0118  -999.2500
  184.0000    13.3687    14.4070    15.0047   -40.0179  -999.2500
  184.5000    13.3632    14.3003    14.9958   -39.8744  -999.2500
  185.0000    13.2653    14.1944    15.0921   -39.8805  -999.2500
  185.5000    13.1681    14.0893    14.9792   -39.8865  -999.2500
  186.0000    13.0716    14.0823    14.9709   -39.8926  -999.2500
  186.5000    12.9757    13.9780    14.7563   -40.0481  -999.2500
  187.0000    12.9703    13.7785    14.5449   -40.0541  -999.2500
  187.5000    12.9648    13.5819    14.5203   -40.0602  -999.2500
  188.0000    12.9593    13.4813    14.7314   -40.2157  -999.2500
  188.5000    12.9539    13.3814    15.0327   -40.3712  -999.2500
  189.0000    12.9484    13.2823    15.1309   -40.3773  -999.2500
  189.5000    12.8535    13.1839    15.0158   -40.5328  -999.2500
  190.0000    12.8480    13.0863    14.9036   -40.5388  -999.2500
  190.5000    12.7539    13.0627    14.6900   -40.5449  -999.2500
  191.0000    12.6604    12.8945    14.4795   -40.7004  -999.2500
  191.5000    12.5676    12.8882    14.5741   -40.7064  -999.2500
  192.0000    12.4754    12.7929    14.7693   -40.7125  -999.2500
  192.5000    12.3693    12.8756    14.8638   -40.8680  -999.2500
  193.0000    12.2094    12.8693    14.8550   -40.8740  -999.2500
  193.5000    12.1199    12.8629    14.8352   -40.8801  -999.2500
  194.0000    12.0300    12.9477    14.5276   -40.7351  -999.2500
  194.5000    11.8604    13.0315    14.0299   -40.7414  -999.2500
  195.0000    11.8554    13.0234    13.3575   -40.7474  -999.2500
  195.5000    11.7685    13.0170    13.2577   -40.7618  -999.2500
  196.0000    11.6822    13.0106    13.3428   -40.7593  -999.2500
  196.5000    11.5966    12.8249    13.5231   -40.7654  -999.2500
  197.0000    11.5917    12.7299    13.7023   -40.9209  -999.2500
  197.5000    11.5067    12.5482    13.6946   -40.9269  -999.2500
  198.0000    11.5019    12.4553    13.5923   -40.9330  -999.2500
  198.5000    11.4970    12.3643    13.3049   -40.9390  -999.2500
  199.0000    11.4922    12.3582    13.1143   -40.9451  -999.2500
  199.5000    11.4873    12.3522    13.1069   -40.9511  -999.2500
  200.0000    11.3037    12.3462    13.1010   -40.9663  -999.2500
  200.5000    11.0463    12.3956    13.0973   -41.0292  -999.2500
  201.0000    10.7650    12.3323    13.0935   -41.0922  -999.2500
  201.5000    10.2556    12.3253    13.1816   -41.1551  -999.2500
  202.0000     9.7667    12.1485    13.1770   -41.2181  -999.2500
  202.5000     9.4368    11.9743    13.0822   -41.2811  -999.2500
  203.0000     9.1747    11.8025    12.7207   -41.4790  -999.2500
  203.5000     9.1074    11.6332    12.2837   -41.6406  -999.2500
  204.0000     8.9161    11.3871    11.8616   -41.7997  -999.2500
  204.5000     8.7896    11.2237    11.6949   -41.9611  -999.2500
  205.0000     8.6049    11.0628    11.6916   -41.9731  -999.2500
  205.5000     8.4242    11.0578    11.7705   -41.9851  -999.2500
  206.0000     8.4206    11.1379    11.8491   -42.1468  -999.2500
  206.5000     8.4171    11.2780    11.9320   -42.1589  -999.2500
  207.0000     8.6068    11.4292    12.1755   -42.1711  -999.2500
  207.5000     8.8283    11.5825    12.4280   -42.1832  -999.2500
  208.0000     8.9618    11.7376    12.6857   -42.0459  -999.2500
  208.5000     9.1966    11.8966    13.0388   -42.0580  -999.2500
  209.0000     9.3860    12.2229    13.1268   -42.0702  -999.2500
  209.5000     9.5792    12.4748    13.2135   -42.0823  -999.2500
  210.0000     9.7089    12.6420    13.3017   -42.0945  -999.2500
  210.5000     9.8405    12.8989    13.3914   -42.1066  -999.2500
  211.0000     9.9738    12.6259    13.5737   -41.9693  -999.2500
  211.5000    10.1097    12.2733    15.0576   -41.9791  -999.2500
  212.0000    10.1043    11.8480    16.9371   -41.9910  -999.2500
  212.5000    10.1704    11.4255    15.1397   -42.0030  -999.2500
  213.0000    10.1660    11.1896    12.6104   -42.0149  -999.2500
  213.5000    10.0915    11.0363    11.8819   -42.0270  -999.2500
  214.0000    10.0872    10.9538    11.9612   -42.1887  -999.2500
  214.5000    10.0830    10.9476    12.1249   -42.2008  -999.2500
  215.0000    10.0787    10.9414    12.3765   -42.2130  -999.2500
  215.5000    10.0753    10.9352    12.7208   -42.2251  -999.2500
  216.0000    10.1413    10.9290    12.8958   -42.2373  -999.2500
  216.5000    10.2076    10.9229    13.0722   -42.2494  -999.2500
  217.0000    10.2743    10.8412    13.0676   -42.2616  -999.2500
  217.5000    10.3415    10.7601    12.7949   -42.2737  -999.2500
  218.0000    10.4092    10.6058    12.6151   -42.2859  -999.2500
  218.5000    10.4045    10.5265    12.8767   -42.2980  -999.2500
  219.0000    10.3283    10.3766    12.9635   -42.3102  -999.2500
  219.5000    10.3239    10.3608    12.8453   -42.3199  -999.2500
  220.0000    10.3195    10.2934    12.4223   -42.3324  -999.2500
  220.5000    10.3151    10.2877    12.1688   -42.3438  -999.2500
  221.0000    10.2395    10.2819    12.1587   -42.3558  -999.2500
  221.5000    10.1644    10.2050    12.3319   -42.3679  -999.2500
  222.0000    10.1601    10.1287    12.4150   -42.2302  -999.2500
  222.5000    10.1567    10.1229    12.4978   -42.2437  -999.2500
  223.0000    10.1525    10.0472    12.4934   -42.1034  -999.2500
  223.5000    10.0751    10.1129    12.4036   -42.1175  -999.2500
  224.0000     9.8665    10.1058    12.3144   -42.1297  -999.2500
  224.5000     9.7941    10.1719    12.2258   -42.1418  -999.2500
