~VERSION INFORMATION
 VERS.                2.0:   CWLS LOG ASCII STANDARD - VERSION 2.0
 WRAP.                 NO:   ONE LINE PER DEPTH STEP
~WELL INFORMATION
#MNEM.UNIT      DATA TYPE    INFORMATION
#----------   ------------   ------------------------------
 STRT.F            0.0000:   START DEPTH
 STOP.F         1002.0000:   STOP DEPTH
 STEP.F            0.5000:   STEP LENGTH
 NULL.          -999.2500:   NO VALUE
 COMP. U S NAVY-INTEX OIL:   COMPANY
 WELL.     NPR ##3 28-S-2:   WELL
 FLD .             TEAPOT:   FIELD
 LOC .       S2 T38N R78W:   LOCATION
 CNTY.            NATRONA:   COUNTY
 STAT.            WYOMING:   STATE
 CTRY. UNITED STATES OF AMERICA:   COUNTRY
 SRVC.      NL McCullough:   SERVICE COMPANY
 DATE.        13-JUN-1963:   LOGDATE
 API .       490250639400:   API NUMBER
~CURVE INFORMATION
#MNEM.UNIT       API CODE    CURVE DESCRIPTION
#----------   ------------   ------------------------------
 DEPT.F                  :   
 ASN .OHMM   05 041 16 00:   AMPLIFIED SHORT NORMAL 16"
 ILD .OHMM   05 120 46 00:   INDUCTION LOG DEEP
 CILD.MMHO   05 110 46 00:   CONDUCTIVITY INDUCTION LOG DEEP
 SPR .MV     05 010 01 00:   SPONTANEOUS POTENTIAL FROM RES.
 GR  .GAPI   30 310 01 00:   GAMMA RAY
~PARAMETER INFORMATION
#MNEM.UNIT          VALUE    DESCRIPTION
#----------   ------------   ------------------------------
 PD  .                 GL:   PERMANENT DATUM
 EPD .F              5147:   ELEVATION PERMANENT DATUM
 LMF .                 KB:   LOG MEASURED FROM
 DAPD.F                 5:   FEET ABOVE PERMANENT DATUM
 DMF .                 KB:   DRILLING MEASURED FROM
 EKB .F              5152:   KELLING BUSHING
 EGL .F              5147:   GROUND LEVEL
 DATE.        13-SEP-1963:   RUN DATE
 RUN .                  1:   RUN NUMBER
 BLI .F               600:   BOTTOM LOG INTERVAL
 CS  .IN                7:   CASING SIZE
 DFT .                OIL:   DRILLING FLUID TYPE
 ENGI.            JACKSON:   RECORDING ENGINEER
 WITN.             HUDSON:   WITNESSED BY
 CLNT.            A2DTECH:   CLIENT CODE
 ORIG.           5" PRINT:   ORIGIN OF DATA
 UWI .       490250639400:   UNIQUE WELL ID
 DICO. A2D Technologies, Inc.:   DIGITIZING COMPANY
~OTHER INFORMATION
~A    DEPT     ASN        ILD       CILD        SPR          GR  
# ...
  793.0000    10.8628     9.8096    95.2588   -35.6282  -999.2500
  793.5000    10.8631     9.8855    95.2215   -35.6227  -999.2500
  794.0000    10.8634     9.9612    95.1842   -35.7670  -999.2500
  794.5000    10.8637     9.9619    95.1470   -35.9125  -999.2500
  795.0000    10.8640    10.0376    95.1097   -36.0568  -999.2500
  795.5000    10.8643    10.0384    95.0724   -36.2012  -999.2500
  796.0000    10.8646    10.0391    95.0351   -36.1956  -999.2500
  796.5000    10.8649     9.9647    94.9978   -36.0424  -999.2500
  797.0000    10.7905     9.8905    95.7124   -36.0379  -999.2500
  797.5000    10.7908     9.8163    96.4270   -35.8846  -999.2500
  798.0000    10.7911     9.8172    97.1428   -35.8802  -999.2500
  798.5000    10.6418     9.7428    97.8571   -35.8757  -999.2500
  799.0000    10.5674     9.6686    99.3227   -35.8713  -999.2500
  799.5000    10.4929     9.5944   100.7892   -35.7180  -999.2500
  800.0000    10.4933     9.5096   100.7519   -35.7070  -999.2500
  800.5000    10.4188     9.3820   100.7519   -35.6149  -999.2500
  801.0000    10.4192     9.2236   100.7519   -35.5593  -999.2500
  801.5000    10.4195     9.2251   100.7519   -35.4075  -999.2500
  802.0000    10.4211     9.2266   100.7519   -35.2557  -999.2500
  802.5000    10.4295     9.3031   100.7519   -35.1039  -999.2500
  803.0000    10.4378     9.3046   100.7519   -35.1009  -999.2500
  803.5000    10.4462     9.3061   100.7519   -35.0979  -999.2500
  804.0000    10.4546     9.3075   100.7519   -35.3925  -999.2500
  804.5000    10.4629     9.3840   100.7519   -35.5391  -999.2500
  805.0000    10.3916     9.4605   100.7519   -35.6849  -999.2500
  805.5000    10.3920     9.3120   100.7519   -35.6812  -999.2500
  806.0000    10.3175     9.3135   100.7519   -35.6782  -999.2500
  806.5000    10.1684     9.2397   101.5038   -35.5264  -999.2500
  807.0000    10.0191     9.2415   101.5038   -35.5234  -999.2500
  807.5000    10.0195     9.1677   102.2556   -35.5204  -999.2500
  808.0000    10.0198     9.0946   102.2556   -35.6670  -999.2500
  808.5000    10.0201     9.0961   102.2556   -35.8121  -999.2500
  809.0000    10.0204     8.9473   102.2556   -35.8091  -999.2500
  809.5000    10.0207     8.8742   103.0075   -35.8061  -999.2500
  810.0000     9.9461     8.8757   103.0075   -35.8031  -999.2500
  810.5000     9.7970     8.8018   103.0075   -35.6513  -999.2500
  811.0000     9.7225     8.7284   104.5113   -35.4995  -999.2500
  811.5000     9.6481     8.6549   106.0150   -35.4965  -999.2500
  812.0000     9.6485     8.5814   107.5188   -35.3448  -999.2500
  812.5000     9.6488     8.5833   108.2707   -35.3418  -999.2500
  813.0000     9.6491     8.5848   108.2707   -35.1900  -999.2500
  813.5000     9.6494     8.5863   109.0226   -35.1870  -999.2500
  814.0000     9.7244     8.5878   109.0226   -35.4824  -999.2500
  814.5000     9.7994     8.5893   108.2707   -35.6282  -999.2500
  815.0000     9.7997     8.6657   108.2707   -35.7733  -999.2500
  815.5000     9.8748     8.8171   107.5188   -35.7703  -999.2500
  816.0000     9.8751     8.8186   106.0150   -35.9168  -999.2500
  816.5000     9.9501     8.8951   104.5113   -35.7643  -999.2500
  817.0000     9.9504     8.9716   103.7594   -35.7613  -999.2500
  817.5000    10.0254     9.0480   102.2556   -35.7589  -999.2500
  818.0000    10.1005     9.1994   102.2556   -35.7560  -999.2500
  818.5000    10.1755     9.2759   100.7519   -35.7530  -999.2500
  819.0000    10.3253     9.2774   100.0000   -35.7500  -999.2500
  819.5000    10.4751     9.3538    99.2481   -35.7470  -999.2500
  820.0000    10.6248     9.4303    99.2481   -35.7440  -999.2500
  820.5000    10.6999     9.4331    99.2481   -35.5923  -999.2500
  821.0000    10.7749     9.4333    99.2481   -35.4405  -999.2500
  821.5000    10.8499     9.4348    99.2481   -35.4375  -999.2500
  822.0000    10.8502     9.4363   100.0000   -35.4464  -999.2500
  822.5000    10.7010     9.3628   100.7519   -35.5804  -999.2500
  823.0000    10.6265     9.3643   100.7519   -35.5774  -999.2500
  823.5000    10.5522     9.2908   100.7519   -35.7232  -999.2500
  824.0000    10.4777     9.2924   100.0000   -35.7203  -999.2500
  824.5000    10.5528     9.3688   100.0000   -35.7173  -999.2500
  825.0000    10.6278     9.4578    99.2481   -35.7143  -999.2500
  825.5000    10.6281     9.5967    98.4962   -35.7113  -999.2500
  826.0000    10.7031     9.6735    97.7444   -35.7083  -999.2500
  826.5000    10.7782     9.6750    96.9925   -35.7053  -999.2500
  827.0000    10.9280     9.8264    96.2406   -35.7023  -999.2500
  827.5000    10.9283     9.9028    96.2406   -35.6994  -999.2500
  828.0000    11.0033     9.9793    94.7368   -35.6964  -999.2500
  828.5000    11.0036    10.0557    93.9850   -35.6934  -999.2500
  829.0000    11.0786    10.0572    93.2331   -35.6904  -999.2500
  829.5000    11.0789    10.0587    93.2331   -35.6874  -999.2500
  830.0000    11.0792     9.9849    93.9850   -35.5356  -999.2500
  830.5000    11.0795     9.9114    94.7368   -35.5326  -999.2500
  831.0000    11.0798     9.9133    95.4887   -35.3808  -999.2500
  831.5000    11.0054     9.9148    95.4887   -35.3778  -999.2500
  832.0000    10.9309     9.9163    96.2406   -35.3749  -999.2500
  832.5000    10.7818     9.8428    96.2406   -35.5208  -999.2500
  833.0000    10.6326     9.8443    98.4962   -35.6665  -999.2500
  833.5000    10.6329     9.8458    99.2481   -35.6635  -999.2500
  834.0000    10.5584     9.8473    99.2481   -35.6605  -999.2500
  834.5000    10.4840     9.7734   100.0000   -35.6575  -999.2500
  835.0000    10.4843     9.7753   101.5038   -35.6546  -999.2500
  835.5000    10.5593     9.6269   102.2556   -35.8004  -999.2500
  836.0000    10.4741     9.5534   102.2556   -35.7974  -999.2500
  836.5000    10.4332     9.4046   102.2556   -35.7944  -999.2500
  837.0000    10.3923     9.3311   102.2556   -35.9410  -999.2500
  837.5000    10.3514     9.1081   103.0075   -36.0868  -999.2500
  838.0000    10.3105     8.9597   104.5113   -36.2326  -999.2500
  838.5000    10.2696     8.8858   105.2632   -36.3785  -999.2500
  839.0000    10.2287     8.7378   107.5188   -36.3747  -999.2500
  839.5000    10.1878     8.6639   109.0226   -36.2229  -999.2500
  840.0000    10.1470     8.4409   111.2782   -36.0711  -999.2500
  840.5000    10.1061     8.3671   114.2857   -35.7705  -999.2500
  841.0000    10.0652     8.2190   117.2932   -35.6187  -999.2500
  841.5000    10.0243     8.1455   118.0451   -35.6157  -999.2500
  842.0000     9.9834     8.0717   119.5489   -35.6128  -999.2500
  842.5000     9.9425     7.9233   120.3008   -35.7593  -999.2500
  843.0000     9.9016     7.8498   121.0526   -35.7556  -999.2500
  843.5000     9.8317     7.7763   121.8045   -35.7526  -999.2500
  844.0000     9.8170     7.7782   121.8045   -35.7496  -999.2500
  844.5000     9.8772     7.7797   121.8045   -35.7466  -999.2500
  845.0000     9.9074     7.8561   121.8045   -35.8932  -999.2500
  845.5000     9.9226     7.8576   121.8045   -35.7407  -999.2500
  846.0000     9.9378     7.8591   121.8045   -35.7377  -999.2500
  846.5000     9.9381     7.8606   121.8045   -35.5859  -999.2500
  847.0000     9.9234     7.8621   121.8045   -35.5829  -999.2500
  847.5000     9.9238     7.7886   122.5564   -35.5799  -999.2500
  848.0000     9.8643     7.7152   124.8120   -35.5769  -999.2500
  848.5000     9.7600     7.5667   126.3158   -35.4251  -999.2500
  849.0000     9.5809     7.4183   129.3233   -35.2733  -999.2500
  849.5000     9.3570     7.1949   133.0827   -35.1215  -999.2500
  850.0000     9.1480     6.9715   136.8328   -35.1052  -999.2500
  850.5000     8.8494     6.6717   141.2996   -34.9367  -999.2500
  851.0000     8.5357     6.5217   145.8193   -34.7682  -999.2500
  851.5000     8.2371     6.4468   148.8041   -34.6680  -999.2500
  852.0000     8.1178     6.3718   150.2857   -34.6665  -999.2500
  852.5000     8.0583     6.2219   152.5181   -34.6650  -999.2500
  853.0000     7.9988     6.1469   153.9992   -34.8127  -999.2500
  853.5000     7.9543     6.0720   156.2322   -34.8109  -999.2500
