~VERSION INFORMATION
 VERS.                2.0:   CWLS LOG ASCII STANDARD - VERSION 2.0
 WRAP.                 NO:   ONE LINE PER DEPTH STEP
~WELL INFORMATION
#MNEM.UNIT      DATA TYPE    INFORMATION
#----------   ------------   ------------------------------
 STRT.F            3.0000:   START DEPTH
 STOP.F          462.0000:   STOP DEPTH
 STEP.F            0.5000:   STEP LENGTH
 NULL.          -999.2500:   NO VALUE
 COMP. LAWRENCE/ALLISON INC:   COMPANY
 WELL.    67-15-1 SX #3-3:   WELL
 FLD .             TEAPOT:   FIELD
 LOC .       S3 T38N R78W:   LOCATION
 CNTY.            NATRONA:   COUNTY
 STAT.            WYOMING:   STATE
 CTRY. UNITED STATES OF AMERICA:   COUNTRY
 SRVC.           Gearhart:   SERVICE COMPANY
 DATE.        11-JUN-1988:   LOGDATE
 API .       490251121800:   API NUMBER
~CURVE INFORMATION
#MNEM.UNIT       API CODE    CURVE DESCRIPTION
#----------   ------------   ------------------------------
 DEPT.F                  :   
 GRR .GAPI   07 310 01 00:   GAMMA RAY
 RILD.OHMM   07 120 46 00:   INDUCTION LOG DEEP RESISTIVITY
 RILM.OHMM   07 120 44 00:   INDUCTION LOG MEDIUM RESISTIVITY
~PARAMETER INFORMATION
#MNEM.UNIT          VALUE    DESCRIPTION
#----------   ------------   ------------------------------
 PD  .                 GL:   PERMANENT DATUM
 EPD .F              5175:   ELEVATION PERMANENT DATUM
 LMF .                 KB:   LOG MEASURED FROM
 DAPD.F                 5:   FEET ABOVE PERMANENT DATUM
 DMF .                 KB:   DRILLING MEASURED FROM
 EKB .F              5180:   KELLING BUSHING
 EGL .F              5175:   GROUND LEVEL
 DATE.        11-JUN-1988:   RUN DATE
 RUN .                  1:   RUN NUMBER
 DD  .F               470:   DEPTH DRILLER
 DL  .F             470.5:   DEPTH LOGGER
 BLI .F             461.5:   BOTTOM LOG INTERVAL
 TLI .F                41:   TOP LOG INTERVAL
 CS  .IN            8.625:   CASING SIZE
 CBD .F                41:   CASING BOTTOM DRILLER
 CBL .F                41:   CASING BOTTOM LOGGER
 BS  .IN            7.875:   BIT SIZE
 BSD .F               470:   BIT SIZE AT DEPTH
 DFT .                AIR:   DRILLING FLUID TYPE
 TLAB.HRS            0318:   TIME LOGGER AT BOTTOM
 MRT .F                70:   MAXIMUM RECORDED TEMPERATURE
 LUN .               7597:   LOGGING UNIT NUMBER
 LUL .           GILLETTE:   LOGGING UNIT LOCATION
 ENGI.          HUCKFELDT:   RECORDING ENGINEER
 WITN.             STRONG:   WITNESSED BY
 CLNT.            A2DTECH:   CLIENT CODE
 ORIG.        2" 5" PRINT:   ORIGIN OF DATA
 UWI .       490251121800:   UNIQUE WELL ID
 DICO. A2D Technologies, Inc.:   DIGITIZING COMPANY
~OTHER INFORMATION
~A    DEPT      GRR      RILD       RILM   
    3.0000    64.0244  -999.2500  -999.2500
    3.5000    64.9390  -999.2500  -999.2500
    4.0000    66.1585  -999.2500  -999.2500
    4.5000    67.3781  -999.2500  -999.2500
    5.0000    67.9878  -999.2500  -999.2500
    5.5000    65.2439  -999.2500  -999.2500
    6.0000    65.5488  -999.2500  -999.2500
    6.5000    66.7683  -999.2500  -999.2500
    7.0000    67.3781  -999.2500  -999.2500
    7.5000    68.2927  -999.2500  -999.2500
    8.0000    68.2927  -999.2500  -999.2500
    8.5000    67.9878  -999.2500  -999.2500
    9.0000    67.6829  -999.2500  -999.2500
    9.5000    67.9878  -999.2500  -999.2500
   10.0000    68.2927  -999.2500  -999.2500
   10.5000    68.9024  -999.2500  -999.2500
   11.0000    69.2073  -999.2500  -999.2500
   11.5000    69.8171  -999.2500  -999.2500
   12.0000    70.7317  -999.2500  -999.2500
   12.5000    72.2561  -999.2500  -999.2500
   13.0000    74.3902  -999.2500  -999.2500
   13.5000    75.0030  -999.2500  -999.2500
   14.0000    75.6098  -999.2500  -999.2500
   14.5000    76.8293  -999.2500  -999.2500
   15.0000    77.1341  -999.2500  -999.2500
   15.5000    77.1341  -999.2500  -999.2500
   16.0000    76.4715  -999.2500  -999.2500
   16.5000    74.6951  -999.2500  -999.2500
   17.0000    73.4756  -999.2500  -999.2500
   17.5000    72.5610  -999.2500  -999.2500
   18.0000    71.9512  -999.2500  -999.2500
   18.5000    71.6463  -999.2500  -999.2500
   19.0000    70.7317  -999.2500  -999.2500
   19.5000    69.8171  -999.2500  -999.2500
   20.0000    68.9024  -999.2500  -999.2500
   20.5000    68.5976  -999.2500  -999.2500
   21.0000    69.8171  -999.2500  -999.2500
   21.5000    71.6463  -999.2500  -999.2500
   22.0000    73.1707  -999.2500  -999.2500
   22.5000    73.1707  -999.2500  -999.2500
   23.0000    73.1707  -999.2500  -999.2500
   23.5000    73.7805  -999.2500  -999.2500
   24.0000    74.6951  -999.2500  -999.2500
   24.5000    74.3902  -999.2500  -999.2500
   25.0000    74.0854  -999.2500  -999.2500
   25.5000    73.4756  -999.2500  -999.2500
   26.0000    73.1707  -999.2500  -999.2500
   26.5000    72.8659  -999.2500  -999.2500
   27.0000    72.8659  -999.2500  -999.2500
   27.5000    72.8607  -999.2500  -999.2500
   28.0000    71.9512  -999.2500  -999.2500
   28.5000    71.3415  -999.2500  -999.2500
   29.0000    71.6463  -999.2500  -999.2500
   29.5000    71.9512  -999.2500  -999.2500
   30.0000    72.2561  -999.2500  -999.2500
   30.5000    73.1707  -999.2500  -999.2500
   31.0000    75.6098  -999.2500  -999.2500
   31.5000    77.7439  -999.2500  -999.2500
   32.0000    79.2683  -999.2500  -999.2500
   32.5000    75.3049  -999.2500  -999.2500
   33.0000    73.7805  -999.2500  -999.2500
   33.5000    73.7805  -999.2500  -999.2500
   34.0000    73.7805  -999.2500  -999.2500
   34.5000    73.4756  -999.2500  -999.2500
   35.0000    73.4756  -999.2500  -999.2500
   35.5000    73.4756  -999.2500  -999.2500
   36.0000    74.3902  -999.2500  -999.2500
   36.5000    75.6098  -999.2500  -999.2500
   37.0000    75.9146  -999.2500  -999.2500
   37.5000    75.3049  -999.2500  -999.2500
   38.0000    74.3902  -999.2500  -999.2500
   38.5000    75.0000  -999.2500  -999.2500
   39.0000    76.8293  -999.2500  -999.2500
   39.5000    81.7073  -999.2500  -999.2500
   40.0000    88.7195  -999.2500  -999.2500
   40.5000   100.6098  -999.2500  -999.2500
   41.0000   107.9347     2.0003    22.7046
   41.5000   113.1497     1.7752     3.3622
   42.0000   110.9025     3.1260     2.4192
   42.5000   107.5862     6.2879     2.7608
   43.0000   107.6687     9.5615     3.4997
   43.5000   108.9572    12.6431     4.8247
   44.0000   111.2805     8.7833     6.1588
   44.5000   112.5000     7.0679     6.4188
   45.0000   114.0244     7.6294     6.0235
   45.5000   114.6341     7.8429     5.6525
   46.0000   115.2439     7.0084     6.3389
   46.5000   116.1585     6.6239     6.8666
   47.0000   117.0732     6.5673     6.7072
   47.5000   117.3781     7.1967     5.9151
   48.0000   117.0732     7.8779     5.6349
   48.5000   114.6341     7.6568     6.1234
   49.0000   112.1951     7.3901     6.6553
   49.5000   112.1951     7.3852     7.0339
   50.0000   113.1098     7.8077     7.3822
   50.5000   111.5054     7.9153     7.6413
   51.0000   109.4512     8.0214     7.8519
   51.5000   108.5366     8.0782     7.9575
   52.0000   109.7561     8.1835     8.1212
   52.5000   111.2805     8.2370     8.2882
   53.0000   111.2805     8.2999     8.3412
   53.5000   110.0610     8.4624     8.4547
   54.0000   108.5366     8.5764     8.5087
   54.5000   109.7561     8.6930     8.5631
   55.0000   111.2805     8.6887     8.5564
   55.5000   112.1951     8.7465     8.5511
   56.0000   112.1951     8.6803     8.5457
   56.5000   111.5854     8.6156     8.4809
   57.0000   110.6707     8.4918     8.4756
   57.5000   110.3659     8.4285     8.4113
   58.0000   110.6707     8.2495     8.2893
   58.5000   111.2805     8.1880     8.1690
   59.0000   112.1951     7.9583     8.0505
   59.5000   113.4146     7.8439     7.9894
   60.0000   114.3497     7.7312     7.8187
   60.5000   114.9705     7.7275     7.7593
   61.0000   115.5488     7.7237     7.7004
   61.5000   115.2439     7.7200     7.7497
   62.0000   114.3293     7.7713     7.8539
   62.5000   113.4146     7.9313     7.9596
   63.0000   112.1951     7.9840     8.1220
   63.5000   111.5854     8.0925     8.2890
   64.0000   110.9756     8.2015     8.4595
   64.5000   110.9756     8.3130     8.6334
   65.0000   110.6707     8.4260     8.6900
   65.5000   110.6707     8.6007     8.8069
   66.0000   110.9756     8.7785     8.8631
   66.5000   111.5854     8.8978     8.9198
   67.0000   112.1951     9.0188     8.9768
   67.5000   111.2805     9.0144     8.9698
   68.0000   109.7561     9.0100     8.9642
   68.5000   108.2317     9.0056     9.0228
   69.0000   107.6219     9.0013     9.0158
   69.5000   108.2317     8.9969     9.0102
   70.0000   109.7561     8.9924     9.0046
   70.5000   110.4156     8.9254     8.9989
   71.0000   109.1463     8.8589     8.9933
   71.5000   108.5366     8.8545     8.9251
   72.0000   109.1463     8.8502     8.9195
   72.5000   110.9756     8.8450     8.9139
   73.0000   113.1221     8.8407     8.9084
   73.5000   115.5660     8.8995     8.9028
   74.0000   117.3781     8.9576     8.8973
   74.5000   113.2958     9.0161     9.0169
   75.0000   110.0103     9.0738     9.0746
   75.5000   107.9268     9.1331     9.1987
   76.0000   106.4024     9.1927     9.3247
   76.5000   106.7073     9.2538     9.5120
   77.0000   108.2317     9.4454     9.6488
   77.5000   109.7561     9.7075     9.7809
   78.0000   110.3659     9.8406    10.0390
   78.5000   108.5366    10.0444    10.2454
   79.0000   107.0122    10.2511    10.4561
   79.5000   104.8781    10.5368    10.7460
   80.0000   103.6585    10.9064    10.9670
   80.5000   102.4390    11.2104    11.1926
   81.0000   101.8293    11.5228    11.5029
   81.5000   101.5244    11.8454    11.7394
   82.0000   101.2195    12.1755    12.0649
   82.5000   100.0000    12.5148    12.4865
   83.0000   100.3049    12.8620    12.8327
   83.5000    99.3902    13.1299    13.1885
   84.0000    97.5610    13.3068    13.3659
   84.5000    95.1219    13.4879    13.4534
   85.0000    94.2073    13.4811    13.4429
   85.5000    95.1219    13.4745    13.4345
   86.0000    96.6463    13.4680    13.4262
   86.5000    97.5610    13.3676    13.3243
   87.0000    97.5610    13.2680    13.3160
   87.5000    97.5610    13.1691    13.3077
   88.0000    97.5610    13.0685    13.1146
   88.5000    96.3415    12.8831    13.1064
   89.0000    95.1219    12.7871    12.9163
   89.5000    94.5122    12.6823    12.8183
   90.0000    96.6463    12.5093    12.6324
   90.5000    99.6951    12.4161    12.5335
   91.0000   100.6098    12.3235    12.3546
   91.5000   100.0000    12.3163    12.2607
   92.0000    98.7805    12.2245    12.1676
   92.5000    98.7805    12.2186    12.1600
   93.0000   100.0000    12.2126    12.1508
   93.5000   100.0000    12.2067    12.2304
