~VERSION INFORMATION
 VERS.                2.0:   CWLS LOG ASCII STANDARD - VERSION 2.0
 WRAP.                 NO:   ONE LINE PER DEPTH STEP
~WELL INFORMATION
#MNEM.UNIT      DATA TYPE    INFORMATION
#----------   ------------   ------------------------------
 STRT.F           33.0000:   START DEPTH
 STOP.F          957.0000:   STOP DEPTH
 STEP.F            0.5000:   STEP LENGTH
 NULL.          -999.2500:   NO VALUE
 COMP. TESORO PETROLEUM CORP:   COMPANY
 WELL.  NPR #3 46-S-14 #3:   WELL
 FLD .             TEAPOT:   FIELD
 LOC .      S14 T38N R78W:   LOCATION
 CNTY.            NATRONA:   COUNTY
 STAT.            WYOMING:   STATE
 CTRY. UNITED STATES OF AMERICA:   COUNTRY
 SRVC.       Schlumberger:   SERVICE COMPANY
 DATE.        25-JUN-1970:   LOGDATE
 API .       490251023100:   API NUMBER
~CURVE INFORMATION
#MNEM.UNIT       API CODE    CURVE DESCRIPTION
#----------   ------------   ------------------------------
 DEPT.F                  :   
 SPR .MV     05 010 01 00:   SPONTANEOUS POTENTIAL FROM RES.
 ILD .OHMM   05 120 46 00:   INDUCTION LOG DEEP
 CILD.MMHO   05 110 46 00:   CONDUCTIVITY INDUCTION LOG DEEP
 ASN .OHMM   05 041 16 00:   AMPLIFIED SHORT NORMAL 16"
 GR  .GAPI   30 310 01 00:   GAMMA RAY
 CALD.IN     45 280 60 00:   CALIPER FROM DENSITY LOG
 CORR.G/C3   45 356 01 00:   DENSITY CORRECTION
 DPHI.DEC    45 890 12 00:   DENSITY POROSITY SANDSTONE
 RHOB.G/C3   45 350 01 00:   BULK DENSITY
~PARAMETER INFORMATION
#MNEM.UNIT          VALUE    DESCRIPTION
#----------   ------------   ------------------------------
 PD  .                 GL:   PERMANENT DATUM
 EPD .F              5271:   ELEVATION PERMANENT DATUM
 LMF .                 KB:   LOG MEASURED FROM
 DAPD.F                10:   FEET ABOVE PERMANENT DATUM
 DMF .                 KB:   DRILLING MEASURED FROM
 EKB .F              5281:   KELLING BUSHING
 EDF .F              5280:   DRILLING FLOOR
 EGL .F              5271:   GROUND LEVEL
 DATE.        25-JUN-1970:   RUN DATE
 RUN .                  1:   RUN NUMBER
 DD  .F               950:   DEPTH DRILLER
 DL  .F               958:   DEPTH LOGGER
 BLI .F               957:   BOTTOM LOG INTERVAL
 TLI .F                33:   TOP LOG INTERVAL
 CS  .IN            10.75:   CASING SIZE
 CBD .F                30:   CASING BOTTOM DRILLER
 CBL .F                33:   CASING BOTTOM LOGGER
 BS  .IN                9:   BIT SIZE
 BSD .F               950:   BIT SIZE AT DEPTH
 DFT .         MO-MAR MUD:   DRILLING FLUID TYPE
 DFD .                9.7:   DRILLING FLUID DENSITY
 DFV .                 62:   DRILLING FLUID VISCOSITY
 DFPH.                7.4:   DRILLING FLUID PH
 DFL .                5.6:   DRILLING FLUID LOSS
 MSS .           FLOWLINE:   MUD SAMPLE SOURCE
 RMS .OHMM           1.40:   RESISTIVITY MUD SAMPLE
 MST .F                85:   MUD SAMPLE TEMPERATURE
 RMF .OHMM           0.85:   RESISTIVITY MUD FILTRATE SAMPLE
 MFST.F                87:   MUD FILTRATE SAMPLE TEMPERATURE
 MFSS.               MEAS:   MUD FILTRATE SAMPLE SOURCE
 RMB .OHMM           1.06:   RESISTIVITY MUD AT BHT
 BHT .F               112:   BOTTOM HOLE TEMPERATURE
 TCS .HRS               1:   TIME CURCULATED STOPPED
 MRT .F               112:   MAXIMUM RECORDED TEMPERATURE
 LUN .               7037:   LOGGING UNIT NUMBER
 LUL .                GLT:   LOGGING UNIT LOCATION
 ENGI.           KNOSTMAN:   RECORDING ENGINEER
 WITN.                MAY:   WITNESSED BY
 CLNT.            A2DTECH:   CLIENT CODE
 ORIG.         2.5" PRINT:   ORIGIN OF DATA
 UWI .       490251023100:   UNIQUE WELL ID
 DICO. A2D Technologies, Inc.:   DIGITIZING COMPANY
~OTHER INFORMATION
~A   DEPT       SPR        ILD       CILD       ASN         GR       CALD       CORR       DPHI       RHOB   
# ...
  836.0000   -30.7842    10.2020    96.1691    10.3454    74.3799     9.3012     0.0345     0.1360     2.4278
  836.5000   -30.7812    10.0253    96.1550    10.3439    75.4398     9.3005     0.0252     0.1494     2.4115
  837.0000   -30.7781     9.9044    96.1398    10.3778    76.0479     9.2999     0.0191     0.1555     2.4054
  837.5000   -30.7751     9.9053    96.1246    10.6442    74.2478     9.2690     0.0329     0.1562     2.4002
  838.0000   -30.7720     9.9062    96.1094    10.6421    68.2294     9.2683     0.0359     0.1593     2.3948
  838.5000   -31.0733     9.9069    96.0942    10.7003    69.7412     9.2676     0.0344     0.1645     2.3994
  839.0000   -31.0699     9.9076    95.3876    10.7909    71.2530     9.2692     0.0344     0.1481     2.4207
  839.5000   -31.0663     9.9083    94.5441    10.9410    71.5598     9.2965     0.0410     0.1400     2.4266
  840.0000   -31.0636    10.0606    93.8871    10.9899    69.1573     9.3013     0.0528     0.1373     2.4266
  840.5000   -31.0608    10.0615    92.9939    11.2409    71.5726     9.3254     0.0429     0.1390     2.4267
  841.0000   -31.0578    10.2137    92.5051    11.3907    72.7832     9.2944     0.0312     0.1428     2.4158
  841.5000   -30.9544    10.2144    90.8346    11.5408    71.2843     9.2531     0.0388     0.1538     2.3986
  842.0000   -30.7477    10.2283    89.9087    11.5495    68.2765     9.2326     0.0188     0.1511     2.4175
  842.5000   -30.7442    10.5189    89.6531    11.8411    71.4463     9.2759     0.0080     0.1390     2.4392
  843.0000   -30.7414    10.5848    88.3587    11.9912    74.9158     9.2917     0.0220     0.1240     2.4561
  843.5000   -30.4235    10.8236    88.3435    12.1409    78.0064     9.3212     0.0255     0.1189     2.4644
  844.0000   -30.0628    11.1274    89.8459    11.9877    77.0371     9.3320     0.0157     0.1214     2.4569
  844.5000   -29.7022    11.4311    89.8319    11.8348    76.4404     9.2895     0.0126     0.1292     2.4423
  845.0000   -29.5131    11.5833    89.8936    11.4798    72.8317     9.2888     0.0230     0.1345     2.4319
  845.5000   -29.5103    11.4325    92.8435    11.0212    74.0422     9.2882     0.0264     0.1389     2.4175
  846.0000   -30.1154    10.9909    93.4447    10.6182    75.7059     9.2875     0.0248     0.1449     2.4145
  846.5000   -30.4458    10.2221    95.8511    10.3134    71.0430     9.2868     0.0211     0.1461     2.4156
  847.0000   -30.8004     9.9198    98.8737    10.1605    71.9523     9.2862     0.0155     0.1429     2.4221
  847.5000   -31.0182     9.6174    98.8598    10.1465    72.2592     9.2855     0.0124     0.1388     2.4266
  848.0000   -30.7107     9.6182   101.8853    10.0061    70.8936     9.2848     0.0093     0.1364     2.4281
  848.5000   -30.4040     9.6189   102.3227    10.0045    70.3142     9.2841     0.0090     0.1350     2.4289
  849.0000   -30.0972     9.6197   104.8936    10.0028    69.5655     9.2834     0.0070     0.1357     2.4327
  849.5000   -29.7427     9.6206   104.8784    10.0014    70.3256     9.2828     0.0062     0.1406     2.4306
  850.0000   -29.4833     9.6213   105.4964    10.0000    66.2651     9.2821     0.0062     0.1455     2.4145
  850.5000   -29.4802     9.6220   106.3679     9.9880    69.2842     9.2814     0.0046     0.1467     2.4130
  851.0000   -29.4768     9.6227   106.3526     9.9760    65.9767     9.2807     0.0046     0.1412     2.4179
  851.5000   -29.7779     9.6235   106.3374     9.9640    64.4764     9.2800     0.0061     0.1388     2.4477
  852.0000   -30.0791     9.6242   106.3222     9.9519    68.8441     9.2793     0.0205     0.1374     2.4038
  852.5000   -30.3802     9.6250   106.3070     9.9166    70.3544     9.2786     0.0493     0.1340     2.3923
  853.0000   -30.6814     9.6258   106.2911     9.8877    69.3044     9.2778     0.0691     0.1302     2.3900
  853.5000   -30.6772     9.6265   104.7568     9.8894    68.5376     9.2771     0.0737     0.1278     2.4293
  854.0000   -30.6744     9.6273   104.7416     9.8912    60.8803     9.2765     0.0836     0.1251     2.4421
  854.5000   -30.6716     9.6280   104.7264     9.8926    58.4749     9.3060     0.1086     0.1238     2.4474
  855.0000   -30.3344     9.5871   106.2283     9.8940    58.3275     9.3054     0.1198     0.1241     2.4473
  855.5000   -29.4498     9.4780   106.2144     9.8023    65.6039     9.3047     0.1136     0.1278     2.4473
  856.0000   -29.0050     9.4788   106.2006     9.7384    68.4285     9.3040     0.0973     0.1289     2.4473
  856.5000   -28.8354     9.4795   107.0606     9.6745    70.3905     9.3033     0.0804     0.1301     2.4472
  857.0000   -28.8326     9.4803   107.6900     9.7045    72.6528     9.3016     0.0674     0.1301     2.4472
  857.5000   -28.8298     9.4811   107.6748     9.7805    66.4834     9.2718     0.0581     0.1289     2.4471
  858.0000   -28.8267     9.4820   107.6596     9.8122    70.5550     9.2711     0.0499     0.1324     2.4303
  858.5000   -28.8237     9.4826   107.6444     9.6901    71.7641     9.2704     0.0451     0.1362     2.4304
  859.0000   -28.2128     9.4833   107.6292     9.5369    70.7141     9.2697     0.0427     0.1361     2.4319
  859.5000   -27.9053     9.4841   107.7823     9.4831    66.9503     9.2690     0.0411     0.1329     2.4379
  860.0000   -27.9025     9.4848   109.1213     9.5000    67.7116     9.2683     0.0411     0.1282     2.4532
  860.5000   -28.2037     9.4524   109.1033     9.5472    65.1556     9.2676     0.0485     0.1337     2.4590
  861.0000   -28.5714     9.3348   109.0864     9.5486    65.0082     9.2082     0.0610     0.1373     2.4391
  861.5000   -29.2300     9.3357   110.5899     9.5803    69.3814     9.1136     0.0595     0.1377     2.4373
  862.0000   -29.4103     9.3364   110.5775     9.5818    73.1867     9.0843     0.0468     0.1403     2.4361
  862.5000   -29.7112     9.3371   110.5623     9.5922    70.7453     9.0533     0.0240     0.1421     2.4247
  863.0000   -30.0122     9.2929   110.5471     9.6152    68.6422     9.0526     0.0102     0.1406     2.4268
  863.5000   -29.7052     9.1516   112.0492     9.5866    67.4416     9.0520     0.0119     0.1358     2.4420
  864.0000   -29.3982     9.0364   112.0353     9.5880    66.5281     9.1419     0.0296     0.1285     2.4465
  864.5000   -29.2563     9.0372   112.0213     9.5894    68.0536     9.3225     0.0471     0.1248     2.4335
  865.0000   -28.7837     9.0379   113.5271     9.5909    68.3591     9.3823     0.0516     0.1284     2.4298
  865.5000   -28.1730     9.0386   113.5106     9.5851    68.0611     9.3816     0.0436     0.1345     2.4313
  866.0000   -28.1702     9.0394   113.4954     9.5634    68.0664     9.3809     0.0372     0.1333     2.4297
  866.5000   -28.1175     9.0779   113.4783     9.5652    69.7696     9.3803     0.0331     0.1358     2.4282
  867.0000   -27.7569     9.1925   113.4643     9.5972    70.3339     9.3834     0.0300     0.1382     2.4281
  867.5000   -27.5532     9.1932   113.4498     9.6289    67.4778     9.4092     0.0252     0.1324     2.4281
  868.0000   -27.5497     9.3455   113.0496     9.6929    64.0182     9.4387     0.0222     0.1294     2.4356
  868.5000   -27.2430     9.3462   111.8997     9.8252    65.9804     9.4379     0.0207     0.1242     2.4401
  869.0000   -27.5583     9.3470   110.3620     9.9470    65.0820     9.4372     0.0207     0.1322     2.4410
  869.5000   -28.1492     9.4992   110.3481    10.1475    67.1947     9.4366     0.0191     0.1267     2.4536
  870.0000   -28.8754     9.6516   107.2946    10.7817    66.7471     9.4359     0.0403     0.1259     2.4732
  870.5000   -29.9660     9.8038   105.5396    11.4159    63.2366     9.4352     0.0729     0.1228     2.4726
  871.0000   -30.5711    10.1142   100.6940    11.8182    59.9796     9.4345     0.0790     0.1166     2.4495
  871.5000   -31.4801    10.9099    95.0859    12.1061    61.7911     9.4337     0.0845     0.1285     2.4383
  872.0000   -32.4214    12.1030    85.9552    12.8788    62.7209     9.4330     0.0964     0.1303     2.4428
