~VERSION INFORMATION
 VERS.                2.0:   CWLS LOG ASCII STANDARD - VERSION 2.0
 WRAP.                 NO:   ONE LINE PER DEPTH STEP
~WELL INFORMATION
#MNEM.UNIT      DATA TYPE    INFORMATION
#----------   ------------   ------------------------------
 STRT.F           80.0000:   START DEPTH
 STOP.F          930.0000:   STOP DEPTH
 STEP.F            0.5000:   STEP LENGTH
 NULL.          -999.2500:   NO VALUE
 COMP. U S NAVY-INTEX OIL:   COMPANY
 WELL. RES 3 TEAPOT DOM #56-S-2:   WELL
 FLD .             TEAPOT:   FIELD
 LOC .       S2 T38N R78W:   LOCATION
 CNTY.            NATRONA:   COUNTY
 STAT.            WYOMING:   STATE
 CTRY. UNITED STATES OF AMERICA:   COUNTRY
 SRVC.       Schlumberger:   SERVICE COMPANY
 DATE.        24-JUN-1962:   LOGDATE
 API .       490250641900:   API NUMBER
~CURVE INFORMATION
#MNEM.UNIT       API CODE    CURVE DESCRIPTION
#----------   ------------   ------------------------------
 DEPT.F                  :   
 ASN .OHMM   05 041 16 00:   AMPLIFIED SHORT NORMAL 16"
 ILD .OHMM   05 120 46 00:   INDUCTION LOG DEEP
 CILD.MMHO   05 110 46 00:   CONDUCTIVITY INDUCTION LOG DEEP
 SPR .MV     05 010 01 00:   SPONTANEOUS POTENTIAL FROM RES.
 GR  .GAPI   30 310 01 00:   GAMMA RAY
~PARAMETER INFORMATION
#MNEM.UNIT          VALUE    DESCRIPTION
#----------   ------------   ------------------------------
 PD  .                 KB:   PERMANENT DATUM
 LMF .                 KB:   LOG MEASURED FROM
 DMF .                 KB:   DRILLING MEASURED FROM
 EKB .F              5179:   KELLING BUSHING
 EGL .F              5174:   GROUND LEVEL
 DATE.        24-JUN-1962:   RUN DATE
 RUN .                  1:   RUN NUMBER
 DD  .F               942:   DEPTH DRILLER
 DL  .F               931:   DEPTH LOGGER
 BLI .F               930:   BOTTOM LOG INTERVAL
 TLI .F                80:   TOP LOG INTERVAL
 BS  .IN             6.75:   BIT SIZE
 BSD .F               942:   BIT SIZE AT DEPTH
 DFT .       OIL EMULSION:   DRILLING FLUID TYPE
 DFD .                9.9:   DRILLING FLUID DENSITY
 DFV .                 55:   DRILLING FLUID VISCOSITY
 DFL .                3.7:   DRILLING FLUID LOSS
 RMS .OHMM            4.2:   RESISTIVITY MUD SAMPLE
 MST .F                79:   MUD SAMPLE TEMPERATURE
 RMF .OHMM            3.7:   RESISTIVITY MUD FILTRATE SAMPLE
 MFST.F                79:   MUD FILTRATE SAMPLE TEMPERATURE
 RMC .OHMM            4.0:   RESISTIVITY MUD CAKE
 MCST.F                79:   MUD CAKE SAMPLE TEMPERATURE
 TCS .HRS               1:   TIME CURCULATED STOPPED
 LUN .               2503:   LOGGING UNIT NUMBER
 LUL .               CSPR:   LOGGING UNIT LOCATION
 ENGI.             DANNER:   RECORDING ENGINEER
 WITN.          JORGENSEN:   WITNESSED BY
 CLNT.            A2DTECH:   CLIENT CODE
 ORIG.           5" PRINT:   ORIGIN OF DATA
 UWI .       490250641900:   UNIQUE WELL ID
 DICO. A2D Technologies, Inc.:   DIGITIZING COMPANY
~OTHER INFORMATION
~A   DEPT        ASN        ILD      CILD       SPR         GR   
# ...
  263.0000     6.4243     6.9479   157.0623   -58.8881  -999.2500
  263.5000     6.6848     7.2477   152.5794   -58.4120  -999.2500
  264.0000     7.0529     7.3994   146.5973   -58.1285  -999.2500
  264.5000     6.9936     7.4759   144.3633   -58.2724  -999.2500
  265.0000     7.0244     7.5625   140.6301   -58.4159  -999.2500
  265.5000     7.4239     7.9415   139.8950   -59.0064  -999.2500
  266.0000     7.6975     8.0059   140.6598   -59.7493  -999.2500
  266.5000     7.3238     7.5574   142.1740   -58.6956  -999.2500
  267.0000     6.9939     7.3332   145.2025   -58.5401  -999.2500
  267.5000     6.9447     7.2597   149.8125   -59.1321  -999.2500
  268.0000     6.6926     7.1861   155.8317   -58.5283  -999.2500
  268.5000     6.6385     6.9627   160.3904   -58.3729  -999.2500
  269.0000     6.6089     6.9642   164.0931   -58.5164  -999.2500
  269.5000     6.5497     6.9657   165.5022   -58.6614  -999.2500
  270.0000     6.5203     6.9672   162.5217   -58.9545  -999.2500
  270.5000     6.4908     6.9687   161.0336   -59.2475  -999.2500
  271.0000     6.4762     7.0452   159.5493   -59.5405  -999.2500
  271.5000     6.5216     7.0467   157.3190   -59.6840  -999.2500
  272.0000     6.7014     7.1984   155.0850   -59.8276  -999.2500
  272.5000     6.8962     7.3500   152.8510   -59.6707  -999.2500
  273.0000     7.0611     7.5017   149.8674   -59.5153  -999.2500
  273.5000     7.1960     7.6533   142.3860   -59.5093  -999.2500
  274.0000     7.3609     7.8800   137.9031   -59.5034  -999.2500
  274.5000     7.4809     7.9566   132.6706   -59.4975  -999.2500
  275.0000     7.6159     8.1833   128.1878   -59.4915  -999.2500
  275.5000     7.7060     8.5602   125.2004   -59.6353  -999.2500
  276.0000     7.9755     8.6364   125.9687   -59.6291  -999.2500
  276.5000     7.9609     8.4877   128.2324   -59.6232  -999.2500
  277.0000     7.9615     8.3391   129.7465   -59.7668  -999.2500
  277.5000     7.9320     8.1904   132.0103   -59.7608  -999.2500
  278.0000     7.6784     8.0420   136.5229   -59.7549  -999.2500
  278.5000     7.4396     7.8184   141.0356   -59.7423  -999.2500
  279.0000     7.2458     7.5946   149.2963   -59.5934  -999.2500
  279.5000     6.9323     7.0706   154.5586   -59.5874  -999.2500
  280.0000     6.7384     6.9970   160.5705   -59.5616  -999.2500
  280.5000     6.4997     6.9985   160.5853   -59.2766  -999.2500
  281.0000     6.3954     7.0000   159.8501   -59.1211  -999.2500
  281.5000     6.4558     7.0766   159.1154   -58.9645  -999.2500
  282.0000     6.6804     7.1531   157.6315   -59.1095  -999.2500
  282.5000     6.8902     7.1596   156.1471   -59.4010  -999.2500
  283.0000     6.6514     7.2312   155.4124   -59.3951  -999.2500
  283.5000     6.6369     7.2327   153.1712   -59.5401  -999.2500
  284.0000     6.9662     7.4064   147.9158   -59.6837  -999.2500
  284.5000     7.0572     7.3729   147.9611   -59.6762  -999.2500
  285.0000     6.8475     7.0870   150.2249   -59.6703  -999.2500
  285.5000     6.5789     7.0134   153.4332   -59.5149  -999.2500
  286.0000     6.5495     6.9398   163.9885   -59.5090  -999.2500
  286.5000     6.5345     6.8666   166.0120   -59.5030  -999.2500
  287.0000     6.4589     6.7927   166.7795   -59.3476  -999.2500
  287.5000     6.3378     6.6440   167.5440   -59.3417  -999.2500
  288.0000     6.1295     6.6459   167.5589   -59.1863  -999.2500
  288.5000     6.0883     6.7225   168.3234   -59.1803  -999.2500
  289.0000     6.1405     6.7239   169.0879   -58.7260  -999.2500
  289.5000     6.3187     6.8005   169.1028   -58.5706  -999.2500
  290.0000     6.3887     6.8020   169.1177   -58.5646  -999.2500
  290.5000     6.3742     6.7284   169.8822   -58.5587  -999.2500
  291.0000     6.2850     6.5794   170.6467   -58.5528  -999.2500
  291.5000     6.1659     6.4307   172.1608   -58.6963  -999.2500
  292.0000     6.0318     6.3571   174.4246   -58.9893  -999.2500
  292.5000     5.9126     6.2836   175.1891   -59.7310  -999.2500
  293.0000     5.8234     6.2854   175.2040   -59.7248  -999.2500
  293.5000     5.7639     6.2869   175.2188   -59.7189  -999.2500
  294.0000     5.8093     6.4386   173.7307   -59.2645  -999.2500
  294.5000     5.9144     6.5151   172.9960   -58.5107  -999.2500
  295.0000     6.0793     6.5841   172.2613   -58.3558  -999.2500
  295.5000     6.1246     6.5864   170.7806   -58.3498  -999.2500
  296.0000     6.1399     6.4385   172.2947   -58.3438  -999.2500
  296.5000     6.1104     6.2906   175.3081   -58.3378  -999.2500
  297.0000     6.0661     6.0676   179.8208   -58.5042  -999.2500
  297.5000     5.8424     5.8446   185.0830   -58.6251  -999.2500
  298.0000     5.6335     5.6967   191.0949   -58.4682  -999.2500
  298.5000     5.4404     5.6239   196.3571   -58.4623  -999.2500
  299.0000     5.2458     5.5511   203.1187   -58.3068  -999.2500
  299.5000     5.0220     5.5533   208.3809   -58.1514  -999.2500
  300.0000     5.0225     5.5556   212.0594   -58.1598  -999.2500
  300.5000     5.0379     5.5578   211.7337   -58.3144  -999.2500
  301.0000     5.0078     5.5601   211.3786   -58.4427  -999.2500
  301.5000     5.0229     5.6374   210.6215   -58.8893  -999.2500
  302.0000     5.0380     5.6396   209.8643   -58.5888  -999.2500
  302.5000     5.0531     5.6419   205.3591   -58.5873  -999.2500
  303.0000     5.0831     5.7192   202.3530   -58.5858  -999.2500
  303.5000     5.1431     5.7214   200.8463   -58.5843  -999.2500
  304.0000     5.2030     5.7278   200.8388   -58.5829  -999.2500
  304.5000     5.2928     5.8010   200.0816   -58.5814  -999.2500
  305.0000     5.3378     5.8033   199.3245   -58.5799  -999.2500
  305.5000     5.3380     5.8055   197.8177   -58.5784  -999.2500
  306.0000     5.3381     5.8078   196.3109   -58.7264  -999.2500
  306.5000     5.3233     5.8101   194.8041   -58.7249  -999.2500
  307.0000     5.3384     5.8123   194.0470   -58.5739  -999.2500
  307.5000     5.3535     5.8146   191.7906   -58.5724  -999.2500
  308.0000     5.4284     5.8919   191.0334   -58.5709  -999.2500
  308.5000     5.5033     5.9778   189.5267   -59.3168  -999.2500
  309.0000     5.5782     6.1217   185.7710   -58.4185  -999.2500
  309.5000     5.5335     6.1990   182.7650   -58.4170  -999.2500
  310.0000     5.5486     6.2763   179.7590   -59.4618  -999.2500
  310.5000     5.6534     6.3536   174.5041   -59.6099  -999.2500
  311.0000     5.9375     6.3669   170.7484   -59.7579  -999.2500
  311.5000     5.9975     6.4447   169.9913   -59.9059  -999.2500
  312.0000     6.0425     6.5105   167.7349   -59.9043  -999.2500
  312.5000     6.0875     6.5253   166.9778   -60.0523  -999.2500
  313.0000     6.1026     6.5901   165.4710   -60.0508  -999.2500
  313.5000     6.1027     6.5788   166.2150   -60.0493  -999.2500
  314.0000     6.0431     6.4443   166.2056   -59.8983  -999.2500
  314.5000     5.9684     6.2964   169.9462   -59.8968  -999.2500
  315.0000     5.9686     5.9989   175.9357   -59.8953  -999.2500
  315.5000     5.9389     5.7760   182.6747   -59.8938  -999.2500
  316.0000     5.7298     5.4779   190.9131   -59.7429  -999.2500
  316.5000     5.5356     5.3295   203.6492   -59.5919  -999.2500
  317.0000     5.2069     5.1070   217.8846   -59.4409  -999.2500
  317.5000     4.9380     4.8835   229.5728   -59.2899  -999.2500
  318.0000     4.6867     4.7356   236.6120   -58.8400  -999.2500
  318.5000     4.3105     4.7384   235.8546   -58.6891  -999.2500
  319.0000     4.3555     4.9659   233.1173   -58.6876  -999.2500
  319.5000     4.6268     5.2684   226.6240   -58.8355  -999.2500
  320.0000     5.2078     5.5710   222.8889   -58.5351  -999.2500
  320.5000     5.3425     5.8735   215.9754   -58.5336  -999.2500
  321.0000     5.4622     6.1010   201.6035   -58.6816  -999.2500
  321.5000     5.8617     6.4036   189.0533   -59.2780  -999.2500
  322.0000     6.2398     6.6310   171.0352   -59.2765  -999.2500
  322.5000     6.3745     6.9336   161.4317   -59.2750  -999.2500
  323.0000     6.4942     7.1611   153.2480   -59.2735  -999.2500
  323.5000     6.6588     7.3885   148.0435   -59.4215  -999.2500
