~VERSION INFORMATION
 VERS.                2.0:   CWLS LOG ASCII STANDARD - VERSION 2.0
 WRAP.                 NO:   ONE LINE PER DEPTH STEP
~WELL INFORMATION
#MNEM.UNIT      DATA TYPE    INFORMATION
#----------   ------------   ------------------------------
 STRT.F           36.0000:   START DEPTH
 STOP.F         3160.0000:   STOP DEPTH
 STEP.F            0.5000:   STEP LENGTH
 NULL.          -999.2500:   NO VALUE
 COMP.    FENIX & SCISSON:   COMPANY
 WELL.        NPR-3 #28-3:   WELL
 FLD .             TEAPOT:   FIELD
 LOC .       S3 T38N R78W:   LOCATION
 CNTY.            NATRONA:   COUNTY
 STAT.            WYOMING:   STATE
 CTRY. UNITED STATES OF AMERICA:   COUNTRY
 SRVC.            Unknown:   SERVICE COMPANY
 DATE.        01-JUL-1978:   LOGDATE
 API .       490251066500:   API NUMBER
~CURVE INFORMATION
#MNEM.UNIT       API CODE    CURVE DESCRIPTION
#----------   ------------   ------------------------------
 DEPT.F                  :   
 ILD .OHMM   05 120 46 00:   INDUCTION LOG DEEP
 SN  .OHMM   05 040 16 00:   SHORT NORMAL 16"
 SPR .MV     05 010 01 00:   SPONTANEOUS POTENTIAL FROM RES.
 CALD.IN     45 280 60 00:   CALIPER FROM DENSITY LOG
 CORR.G/C3   45 356 01 00:   DENSITY CORRECTION
 DPHI.DEC    45 890 12 00:   DENSITY POROSITY SANDSTONE
 GRD .GAPI   45 310 01 00:   GAMMA RAY FROM DENSITY LOG
 RHOB.G/C3   45 350 01 00:   BULK DENSITY
 GR  .GAPI   30 310 01 00:   GAMMA RAY
~PARAMETER INFORMATION
#MNEM.UNIT          VALUE    DESCRIPTION
#----------   ------------   ------------------------------
 PD  .                 GL:   PERMANENT DATUM
 EPD .F              5264:   ELEVATION PERMANENT DATUM
 LMF .                 KB:   LOG MEASURED FROM
 DAPD.F                 4:   FEET ABOVE PERMANENT DATUM
 DMF .                 KB:   DRILLING MEASURED FROM
 EKB .F              5268:   KELLING BUSHING
 EGL .F              5264:   GROUND LEVEL
 DATE.        01-JUL-1978:   RUN DATE
 RUN .                  1:   RUN NUMBER
 DD  .F               630:   DEPTH DRILLER
 DL  .F               636:   DEPTH LOGGER
 BLI .F               630:   BOTTOM LOG INTERVAL
 TLI .F                50:   TOP LOG INTERVAL
 CS  .IN            8.625:   CASING SIZE
 CBD .F                40:   CASING BOTTOM DRILLER
 BS  .IN            7.875:   BIT SIZE
 BSD .F               630:   BIT SIZE AT DEPTH
 DFT .                KCL:   DRILLING FLUID TYPE
 DFD .                8.6:   DRILLING FLUID DENSITY
 DFV .                 32:   DRILLING FLUID VISCOSITY
 DFPH.                9.5:   DRILLING FLUID PH
 MSS .           FLOWLINE:   MUD SAMPLE SOURCE
 BHT .F                74:   BOTTOM HOLE TEMPERATURE
 TCS .HRS               1:   TIME CURCULATED STOPPED
 MRT .F                74:   MAXIMUM RECORDED TEMPERATURE
 LUN .               2958:   LOGGING UNIT NUMBER
 LUL .               CASP:   LOGGING UNIT LOCATION
 ENGI.             MILLER:   RECORDING ENGINEER
 WITN.           MCGINLEY:   WITNESSED BY
 CLNT.            A2DTECH:   CLIENT CODE
 ORIG.        2" 5" PRINT:   ORIGIN OF DATA
 UWI .       490251066500:   UNIQUE WELL ID
 DICO. A2D Technologies, Inc.:   DIGITIZING COMPANY
~OTHER INFORMATION
~A   DEPT      ILD         SN        SPR       CALD       CORR       DPHI         GRD      RHOB         GR   
# ...
  437.5000     6.2428     6.5074   -37.4251     7.5787     0.0731     0.1781    89.8289     2.4164  -999.2500
  438.0000     6.2849     6.3718   -37.1251     7.5801     0.0986     0.1909    89.5376     2.4010  -999.2500
  438.5000     6.3707     6.3267   -36.3837     7.5965     0.1226     0.1996    90.4471     2.3562  -999.2500
  439.0000     6.5924     6.5018   -36.0866     7.8072     0.0570     0.1685    95.6193     2.3637  -999.2500
  439.5000     7.1237     6.9651   -35.9408     7.4649     0.0510     0.1443    99.8869     2.4129  -999.2500
  440.0000     8.2759     7.6705   -35.6459     7.3607     0.0364     0.1190    96.3096     2.4861  -999.2500
  440.5000     9.3049     8.6237   -35.3499     7.2888     0.0127     0.1076    83.9132     2.5212  -999.2500
  441.0000     9.9679     9.1746   -35.2040     7.2304     0.0038     0.1174    81.9776     2.5011  -999.2500
  441.5000    10.2446     9.4292   -34.9080     7.1123     0.0009     0.1260    83.6345     2.4838  -999.2500
  442.0000    10.1713     9.4268   -34.4629     6.9344     0.0026     0.1305    84.6909     2.4671  -999.2500
  442.5000     9.9594     9.4243   -33.8666     6.8013     0.0027     0.1385    84.8505     2.4572  -999.2500
  443.0000     9.9568     9.5523   -33.4205     6.7429    -0.0002     0.1343    83.4559     2.4550  -999.2500
  443.5000    10.0927     9.6833   -32.9743     6.7594    -0.0078     0.1355    82.6286     2.4558  -999.2500
  444.0000    10.3728     9.9514   -32.5292     6.8372    -0.0134     0.1414    85.1824     2.4499  -999.2500
  444.5000    10.8308    10.2275   -32.0831     6.9420    -0.0162     0.1547    88.9294     2.4395  -999.2500
  445.0000    11.6587    10.5114   -31.4868     7.0182    -0.0161     0.1653    92.9754     2.4201  -999.2500
  445.5000    12.3181    11.0287   -30.5902     7.0645    -0.0130     0.1742    93.7304     2.4043  -999.2500
  446.0000    13.2873    11.2574   -29.3573     7.1855     0.0005     0.1870    89.1093     2.3875  -999.2500
  446.5000    14.1361    11.4111   -27.7470     7.3514     0.0171     0.2043    85.9407     2.3605  -999.2500
  447.0000    14.7537    11.4073   -26.7002     7.4126     0.0291     0.2139    83.0035     2.3434  -999.2500
  447.5000    15.2444    11.4043   -25.5033     7.4292     0.0428     0.2225    79.1272     2.3300  -999.2500
  448.0000    15.7750    11.4006   -24.6067     7.4454     0.0548     0.2323    70.6172     2.3107  -999.2500
  448.5000    15.9914    11.3976   -23.6842     7.4621     0.0579     0.2272    57.9218     2.3032  -999.2500
  449.0000    15.9861    11.3946   -22.8146     7.4188     0.0550     0.2172    45.5253     2.3107  -999.2500
  449.5000    15.9675    11.3916   -22.3674     7.1810     0.0536     0.2075    43.1438     2.3251  -999.2500
  450.0000    14.9104    11.3100   -22.3733     7.0779     0.0522     0.2003    43.9019     2.3359  -999.2500
  450.5000    12.9825    11.2299   -22.2289     7.1390     0.0493     0.2025    44.6566     2.3459  -999.2500
  451.0000    12.6253    11.2276   -22.2346     7.2898     0.0494     0.2068    45.8596     2.3475  -999.2500
  451.5000    12.9749    11.2249   -21.9400     7.4705     0.0479     0.2134    47.1276     2.3445  -999.2500
  452.0000    13.2431    11.2227   -21.7955     7.5166     0.0480     0.2220    50.9580     2.3207  -999.2500
  452.5000    13.3323    11.2205   -21.8027     7.5478     0.0481     0.2307    53.9548     2.3110  -999.2500
  453.0000    13.3279    11.2961   -21.9585     7.5791     0.0481     0.2342    54.1115     2.3029  -999.2500
  453.5000    13.4168    11.3721   -22.4147     7.5956     0.0497     0.2249    53.0724     2.2962  -999.2500
  454.0000    13.5198    11.4487   -22.8729     7.5969     0.0557     0.2094    51.2859     2.3279  -999.2500
  454.5000    13.7846    11.6052   -23.6287     7.5982     0.0662     0.1945    50.2468     2.3493  -999.2500
  455.0000    14.5642    11.8459   -24.3852     7.5995     0.0784     0.1815    50.1045     2.3642  -999.2500
  455.5000    15.3879    12.0916   -24.8413     7.5858     0.0723     0.1767    53.8505     2.3799  -999.2500
  456.0000    16.1822    12.5136   -25.1474     7.5722     0.0410     0.1747    57.1462     2.4106  -999.2500
  456.5000    17.1765    12.6858   -25.1532     7.5271     0.0262     0.1729    59.2461     2.4173  -999.2500
  457.0000    17.0537    12.6827   -25.0086     7.4406     0.0217     0.1711    58.9543     2.4039  -999.2500
  457.5000    16.9318    12.6802   -24.8642     7.4419     0.0203     0.1693    58.9616     2.3950  -999.2500
  458.0000    16.9274    12.6777   -24.7197     7.4432     0.0189     0.1675    58.9688     2.3966  -999.2500
  458.5000    17.1729    12.6746   -24.5766     7.3997     0.0159     0.1645    60.0502     2.4026  -999.2500
  459.0000    17.6346    12.6721   -24.4323     7.2960     0.0145     0.1615    62.4230     2.4160  -999.2500
  459.5000    18.1240    12.6696   -24.4394     7.3126     0.0176     0.1620    63.7755     2.4213  -999.2500
  460.0000    18.2449    12.6671   -24.2935     7.2989     0.0191     0.1734    61.8395     2.3982  -999.2500
  460.5000    18.2389    12.6646   -24.1491     7.3006     0.0222     0.1787    59.7541     2.3953  -999.2500
  461.0000    18.2163    12.6615   -24.0061     7.3168     0.0237     0.1981    57.3697     2.3781  -999.2500
  461.5000    18.1026    12.6590   -23.8631     7.3331     0.0252     0.2065    54.9853     2.3465  -999.2500
  462.0000    17.9732    12.6565   -23.8688     7.3344     0.0089     0.2052    54.2412     2.3402  -999.2500
  462.5000    17.5998    12.5669   -23.7229     7.3506     0.0105     0.2016    53.9534     2.3514  -999.2500
  463.0000    17.1156    12.5643   -23.7300     7.3669     0.0135     0.2025    55.1582     2.3537  -999.2500
  463.5000    16.6445    12.5613   -23.7357     7.3682     0.0136     0.2106    59.2013     2.3515  -999.2500
  464.0000    16.4108    12.4724   -23.7429     7.3845     0.0151     0.2201    65.9350     2.3291  -999.2500
  464.5000    16.2935    12.4699   -23.8987     7.3858     0.0137     0.2163    66.9885     2.3202  -999.2500
  465.0000    16.1771    12.5539   -24.2047     7.4021     0.0137     0.2013    63.5578     2.3367  -999.2500
  465.5000    16.1728    12.6378   -24.5107     7.4037     0.0138     0.1950    59.8271     2.3524  -999.2500
  466.0000    16.1675    12.6353   -25.1251     7.4050     0.0124     0.1908    60.4773     2.3606  -999.2500
  466.5000    16.3893    12.6329   -25.7248     7.4063     0.0094     0.1887    61.0402     2.3659  -999.2500
  467.0000    16.6129    12.6304   -26.1809     7.4076     0.0080     0.1964    61.4958     2.3658  -999.2500
  467.5000    16.7237    12.7154   -26.3368     7.3790     0.0081     0.1982    62.8483     2.3533  -999.2500
  468.0000    16.7182    12.7123   -26.3425     7.3504     0.0066     0.1976    64.6493     2.3504  -999.2500
  468.5000    16.7127    12.7098   -26.3483     7.3060     0.0082     0.1958    66.0018     2.3579  -999.2500
  469.0000    16.7083    12.7073   -26.5055     7.2636     0.0082     0.1948    66.0090     2.3594  -999.2500
  469.5000    16.7039    12.7930   -26.6613     7.2347     0.0098     0.1983    65.8667     2.3565  -999.2500
  470.0000    16.8164    12.7962   -26.6670     7.2211     0.0114     0.2011    64.6799     2.3520  -999.2500
  470.5000    16.8109    13.0550   -26.8229     7.2078     0.0129     0.1999    63.0429     2.3498  -999.2500
  471.0000    16.9219    13.0525   -26.8288     7.2091     0.0145     0.1945    62.4504     2.3554  -999.2500
  471.5000    17.0347    13.0499   -26.8357     7.2104     0.0145     0.1867    64.1037     2.3708  -999.2500
  472.0000    17.1495    13.0473   -26.8414     7.2266     0.0131     0.1810    68.2963     2.3791  -999.2500
  472.5000    17.2638    13.0447   -26.8472     7.2451     0.0116     0.1843    68.9014     2.3776  -999.2500
  473.0000    17.4983    13.0415   -26.8529     7.2893     0.0102     0.1887    67.4201     2.3724  -999.2500
  473.5000    17.4926    13.0390   -26.8600     7.3205     0.0103     0.1923    63.8354     2.3665  -999.2500
