~VERSION INFORMATION
 VERS.                2.0:   CWLS LOG ASCII STANDARD - VERSION 2.0
 WRAP.                 NO:   ONE LINE PER DEPTH STEP
~WELL INFORMATION
#MNEM.UNIT      DATA TYPE    INFORMATION
#----------   ------------   ------------------------------
 STRT.F          103.0000:   START DEPTH
 STOP.F          898.0000:   STOP DEPTH
 STEP.F            0.5000:   STEP LENGTH
 NULL.          -999.2500:   NO VALUE
 COMP. LAWRENCE/ALLISON INC:   COMPANY
 WELL. NPR 3 32-66 SX #2-2:   WELL
 FLD .             TEAPOT:   FIELD
 LOC .       S2 T38N R78W:   LOCATION
 CNTY.            NATRONA:   COUNTY
 STAT.            WYOMING:   STATE
 CTRY. UNITED STATES OF AMERICA:   COUNTRY
 SRVC.      Dresser Atlas:   SERVICE COMPANY
 DATE.        30-JAN-1986:   LOGDATE
 API .       490251106900:   API NUMBER
~CURVE INFORMATION
#MNEM.UNIT       API CODE    CURVE DESCRIPTION
#----------   ------------   ------------------------------
 DEPT.F                  :   
 RILD.OHMM   07 120 46 00:   INDUCTION LOG DEEP RESISTIVITY
 RILM.OHMM   07 120 44 00:   INDUCTION LOG MEDIUM RESISTIVITY
 CALD.IN     45 280 60 00:   CALIPER FROM DENSITY
 GRD .GAPI   45 310 01 00:   GAMMA RAY FROM DENSITY LOG
 CORR.G/C3   45 356 01 00:   DENSITY CORRECTION
 PORD.DEC    45 890 10 00:   POROSITY DENSITY LIMESTONE
 DEN .G/C3   45 350 01 00:   COMPENSATED BULK DENSITY
~PARAMETER INFORMATION
#MNEM.UNIT          VALUE    DESCRIPTION
#----------   ------------   ------------------------------
 PD  .                 GL:   PERMANENT DATUM
 EPD .F              5136:   ELEVATION PERMANENT DATUM
 LMF .                 GL:   LOG MEASURED FROM
 DMF .                 GL:   DRILLING MEASURED FROM
 EGL .F              5136:   GROUND LEVEL
 DATE.        30-JAN-1986:   RUN DATE
 RUN .                  1:   RUN NUMBER
 DD  .F               885:   DEPTH DRILLER
 DL  .F               902:   DEPTH LOGGER
 BLI .F               894:   BOTTOM LOG INTERVAL
 CS  .IN            8.625:   CASING SIZE
 CBD .F               130:   CASING BOTTOM DRILLER
 CBL .F               126:   CASING BOTTOM LOGGER
 BS  .IN             6.25:   BIT SIZE
 BSD .F               885:   BIT SIZE AT DEPTH
 DFT .                AIR:   DRILLING FLUID TYPE
 LUN .            HL-6264:   LOGGING UNIT NUMBER
 LUL .           GILLETTE:   LOGGING UNIT LOCATION
 ENGI.     P. M. FAHLSING:   RECORDING ENGINEER
 WITN.        LINDA FIVAS:   WITNESSED BY
 CLNT.            A2DTECH:   CLIENT CODE
 ORIG.           5" PRINT:   ORIGIN OF DATA
 UWI .       490251106900:   UNIQUE WELL ID
 DICO. A2D Technologies, Inc.:   DIGITIZING COMPANY
 R1  . POROSITY WITH LIMESTONE:   REMARKS 1
~OTHER INFORMATION
~A   DEPT     RILD       RILM       CALD        GRD       CORR       PORD        DEN   
# ...
  694.5000    24.2291    24.2096     7.3494   100.9009     0.0775     0.2526     2.2625
  695.0000    23.7459    23.4071     7.3494   108.1081     0.0685     0.2448     2.2859
  695.5000    23.4391    22.9415     7.3795   113.8138     0.0609     0.2276     2.3086
  696.0000    23.2970    22.9677     7.4096   117.7177     0.0594     0.2134     2.3222
  696.5000    23.3172    23.1484     7.5000   119.8198     0.0593     0.2303     2.3089
  697.0000    23.3364    23.0044     7.6205   118.9189     0.0578     0.2436     2.2713
  697.5000    23.1948    22.8717     7.7560   113.8138     0.0925     0.2762     2.2202
  698.0000    22.5803    21.9609     7.9518    92.4925     0.1378     0.2991     2.1959
  698.5000    21.5300    21.0589     8.0422    82.8829     0.2037     0.3109     2.1627
  699.0000    20.5285    20.2276     7.9217    87.6877     0.2751     0.3121     2.1551
  699.5000    19.5736    19.6927     7.6958    96.6967     0.2464     0.3075     2.1891
  700.0000    18.7679    18.7915     7.3025   106.3063     0.1423     0.2383     2.2405
  700.5000    18.1637    18.0392     7.2345   108.4084     0.0759     0.2275     2.3033
  701.0000    18.3035    18.0521     7.1667   106.7862     0.0563     0.2053     2.3563
  701.5000    18.5716    18.1904     7.1527   103.9039     0.0502     0.1765     2.4213
  702.0000    18.5845    18.2032     7.1524   104.5525     0.0487     0.1486     2.4803
  702.5000    18.5974    18.2160     7.1521   111.1111     0.0533     0.1135     2.5302
  703.0000    18.3545    18.3523     7.1518   118.0180     0.0624     0.0951     2.5370
  703.5000    18.2402    18.1158     7.1515   120.7207     0.0775     0.1033     2.5272
  704.0000    17.8783    18.0034     7.1662   120.7207     0.0986     0.1281     2.4984
  704.5000    17.5230    17.6456     7.1659   120.7207     0.1137     0.1700     2.4349
  705.0000    16.9386    17.1756     7.1656   120.4204     0.1077     0.1754     2.3864
  705.5000    16.8336    16.7182     7.1804   120.4204     0.0987     0.1778     2.3827
  706.0000    17.0804    16.7299     7.1801   120.1201     0.0866     0.1781     2.3819
  706.5000    17.2112    16.8763     7.1949   120.1201     0.0760     0.1851     2.3763
  707.0000    17.2233    17.1025     7.1946   119.5195     0.0655     0.1998     2.3472
  707.5000    17.2355    17.2333     7.2093   118.3183     0.0534     0.2155     2.3168
  708.0000    17.2452    17.2453     7.1940   115.0150     0.0474     0.2246     2.3032
  708.5000    17.2572    17.1383     7.1937   113.2132     0.0429     0.2249     2.3047
  709.0000    17.1497    17.1504     7.1934   114.1141     0.0354     0.2234     2.3062
  709.5000    16.9254    17.0440     7.1931   115.0150     0.0293     0.2222     2.3062
  710.0000    16.5895    16.8214     7.1928   115.3153     0.0233     0.2216     2.3062
  710.5000    16.4862    16.5988     7.1925   115.3153     0.0200     0.2216     2.3077
  711.0000    16.4982    16.4958     7.1922   115.3153     0.0080     0.2213     2.3107
  711.5000    16.5098    16.3935     7.2069   115.6156     0.0118     0.2198     2.3153
  712.0000    16.5215    16.4080     7.2066   115.3153     0.0294     0.2167     2.3183
  712.5000    16.5331    16.3033     7.1913   113.5135     0.0385     0.2179     2.3137
  713.0000    16.4277    16.3177     7.1909   111.0871     0.0415     0.2167     2.3152
  713.5000    16.3258    16.1046     7.1906   109.9099     0.0431     0.2128     2.3213
  714.0000    16.1155    16.1159     7.1903   109.8739     0.0370     0.2124     2.3228
  714.5000    15.9050    16.0131     7.1599   108.7087     0.0280     0.2149     2.3220
  715.0000    15.8036    15.9138     7.1596   107.5075     0.0250     0.2155     2.3160
  715.5000    15.7056    15.7060     7.1593   107.5075     0.0235     0.2155     2.3167
  716.0000    15.7170    15.6085     7.1590   108.7087     0.0235     0.2152     2.3197
  716.5000    15.6168    15.5115     7.1286   108.7087     0.0265     0.2137     2.3197
  717.0000    15.4153    15.3092     7.0982   108.7087     0.0326     0.2137     2.3197
  717.5000    15.3194    15.2115     7.0828   106.0060     0.0386     0.2137     2.3212
  718.0000    15.1191    14.9119     7.0825   107.8078     0.0387     0.2128     2.3242
  718.5000    14.9222    14.8168     7.0671   110.5105     0.0236     0.2112     2.3242
  719.0000    14.7247    14.5249     7.0367   111.7117     0.0266     0.2087     2.3272
  719.5000    14.4346    14.2363     7.0364   109.3093     0.0357     0.2045     2.3328
  720.0000    14.1478    14.0479     7.0211   107.5075     0.0417     0.1992     2.3426
  720.5000    13.7710    13.6761     7.0057   106.3063     0.0508     0.1995     2.3454
  721.0000    13.4974    13.4020     7.0054   106.3063     0.0554     0.2005     2.3423
  721.5000    13.2268    13.2270     7.0051   106.9069     0.0569     0.1998     2.3461
  722.0000    13.1448    13.1449     7.0048   109.6096     0.0448     0.1980     2.3491
  722.5000    13.2459    13.2459     7.0045   110.5105     0.0252     0.1962     2.3514
  723.0000    13.2551    13.2551     7.0042   109.3093     0.0237     0.1950     2.3529
  723.5000    13.2643    13.3565     6.9888   108.1081     0.0391     0.1947     2.3537
  724.0000    13.3658    13.4587     6.9734   106.9069     0.0603     0.1983     2.3514
  724.5000    13.4682    13.5618     6.9731   104.8048     0.0755     0.2065     2.3355
  725.0000    13.5713    13.7606     6.9728   101.5015     0.0829     0.2143     2.3226
  725.5000    13.8660    13.9623     6.9725    99.6757     0.0857     0.2134     2.3203
  726.0000    13.6849    13.8757     6.9421    99.0991     0.0902     0.2047     2.3362
  726.5000    13.3204    13.6000     6.9418   100.9729     0.0933     0.1974     2.3491
  727.0000    13.3298    13.4200     6.9415   103.3996     0.0918     0.1899     2.3634
  727.5000    13.3392    13.3368     6.9412   105.7057     0.0857     0.1851     2.3710
  728.0000    13.5348    13.6287     6.9561   107.2072     0.0782     0.1817     2.3748
  728.5000    14.0215    13.9246     6.9557   107.5075     0.0631     0.1799     2.3763
  729.0000    14.6267    14.7282     6.9403   106.0060     0.0541     0.1793     2.3785
  729.5000    15.1935    15.9051     6.9400   103.3033     0.0541     0.1766     2.3846
  730.0000    16.2784    18.4332     6.9397   100.4204     0.0632     0.1709     2.4012
  730.5000    17.0745    20.3122     6.9394    97.3009     0.0783     0.1516     2.4216
  731.0000    17.4374    20.7333     6.9391    92.4925     0.0934     0.1324     2.4572
  731.5000    17.5710    20.4596     6.9087    93.0931     0.0994     0.1115     2.5041
  732.0000    17.3415    19.2394     6.9084    96.3964     0.0964     0.0852     2.5489
  732.5000    16.9969    16.5323     6.9081   101.2012     0.0904     0.0738     2.5661
  733.0000    16.4300    16.0919     6.9078   105.7057     0.0814     0.0991     2.5502
  733.5000    15.6636    15.2354     6.9075   112.0120     0.0663     0.1395     2.4887
  734.0000    14.1281    14.1278     6.9072   118.9189     0.0512     0.1661     2.3933
  734.5000    12.6553    13.1008     6.9069   121.3213     0.0463     0.1715     2.4011
  735.0000    11.9817    12.0646     6.9066   118.9189     0.0754     0.1621     2.4125
  735.5000    11.5821    11.5018     6.9063   117.7177     0.0845     0.1579     2.4178
  736.0000    11.2736    11.2733     6.9060   117.1171     0.0694     0.1594     2.4125
  736.5000    11.1263    11.1260     6.9057   115.9159     0.0482     0.1643     2.4011
  737.0000    11.0554    11.0570     6.9054   113.8138     0.0346     0.1667     2.4011
  737.5000    11.0632    10.9126     6.9051   112.0120     0.0397     0.1649     2.4056
  738.0000    10.9187    10.9946     6.9048   112.0120     0.0609     0.1637     2.4087
  738.5000    10.9264    10.9261     6.9045   111.1111     0.0792     0.1618     2.4117
  739.0000    10.9341    10.9384     6.9193   110.4385     0.0936     0.1585     2.4154
  739.5000    11.0179    11.0175     6.9341   108.7087     0.0891     0.1567     2.4170
