~VERSION INFORMATION
 VERS.                2.0:   CWLS LOG ASCII STANDARD - VERSION 2.0
 WRAP.                 NO:   ONE LINE PER DEPTH STEP
~WELL INFORMATION
#MNEM.UNIT      DATA TYPE    INFORMATION
#----------   ------------   ------------------------------
 STRT.F           46.0000:   START DEPTH
 STOP.F         2100.0000:   STOP DEPTH
 STEP.F            0.5000:   STEP LENGTH
 NULL.          -999.2500:   NO VALUE
 COMP. LAWRENCE/ALLISON INC:   COMPANY
 WELL.    58-21 SX #10-10:   WELL
 FLD .             TEAPOT:   FIELD
 LOC .      S10 T38N R78W:   LOCATION
 CNTY.            NATRONA:   COUNTY
 STAT.            WYOMING:   STATE
 CTRY. UNITED STATES OF AMERICA:   COUNTRY
 SRVC.           Gearhart:   SERVICE COMPANY
 DATE.        06-JUL-1987:   LOGDATE
 API .       490251114400:   API NUMBER
~CURVE INFORMATION
#MNEM.UNIT       API CODE    CURVE DESCRIPTION
#----------   ------------   ------------------------------
 DEPT.F                  :   
 GR  .GAPI   81 310 01 00:   GAMMA RAY
 TGAS.UNITS  91 830 01 00:   TOTAL GAS FROM HOTWIRE
 ROP .MIN/FT 91 810 01 00:   RAT OF DRILLING PENETRATION
~PARAMETER INFORMATION
#MNEM.UNIT          VALUE    DESCRIPTION
#----------   ------------   ------------------------------
 PD  .                 GL:   PERMANENT DATUM
 EPD .F              5219:   ELEVATION PERMANENT DATUM
 LMF .                 KB:   LOG MEASURED FROM
 DAPD.F                 8:   FEET ABOVE PERMANENT DATUM
 DMF .                 KB:   DRILLING MEASURED FROM
 EKB .F              5227:   KELLING BUSHING
 EDF .F              5225:   DRILLING FLOOR
 EGL .F              5219:   GROUND LEVEL
 DATE.             7-6-87:   RUN DATE
 RUN .                  1:   RUN NUMBER
 DD  .F               610:   DEPTH DRILLER
 DL  .F             531.5:   DEPTH LOGGER
 BLI .F               526:   BOTTOM LOG INTERVAL
 TLI .F                50:   TOP LOG INTERVAL
 BS  .IN            7.875:   BIT SIZE
 BSD .F               610:   BIT SIZE AT DEPTH
 DFT .              WATER:   DRILLING FLUID TYPE
 LUN .               6084:   LOGGING UNIT NUMBER
 LUL .           GILLETTE:   LOGGING UNIT LOCATION
 ENGI.                COX:   RECORDING ENGINEER
 WITN.               LOWE:   WITNESSED BY
 CLNT.            A2DTECH:   CLIENT CODE
 ORIG.           5" PRINT:   ORIGIN OF DATA
 UWI .       490251114400:   UNIQUE WELL ID
 DICO. A2D Technologies, Inc.:   DIGITIZING COMPANY
~OTHER INFORMATION
~A   DEPT        GR      TGAS        ROP   
# ...
 1957.0000  -999.2500    34.8475     0.9812
 1957.5000  -999.2500    34.7971     0.9812
 1958.0000  -999.2500    34.7217     0.9812
 1958.5000  -999.2500    34.6455     0.9812
 1959.0000  -999.2500    34.5692     0.9812
 1959.5000  -999.2500    34.4930     0.9812
 1960.0000  -999.2500    34.4168     0.9812
 1960.5000  -999.2500    34.3406     0.9812
 1961.0000  -999.2500    34.2644     0.9812
 1961.5000  -999.2500    34.1882     0.9812
 1962.0000  -999.2500    34.1120     0.9812
 1962.5000  -999.2500    34.0338     0.9812
 1963.0000  -999.2500    33.9668     0.9812
 1963.5000  -999.2500    33.9158     0.9812
 1964.0000  -999.2500    35.0397     0.9812
 1964.5000  -999.2500    35.5367     0.9812
 1965.0000  -999.2500    36.0420     0.9812
 1965.5000  -999.2500    36.5666     0.9812
 1966.0000  -999.2500    37.0894     0.9812
 1966.5000  -999.2500    37.3461     0.9812
 1967.0000  -999.2500    37.6188     0.9812
 1967.5000  -999.2500    37.9150     0.9812
 1968.0000  -999.2500    38.2114     0.9812
 1968.5000  -999.2500    38.5073     0.9812
 1969.0000  -999.2500    38.8040     0.9812
 1969.5000  -999.2500    39.0996     0.9812
 1970.0000  -999.2500    39.3692     0.9812
 1970.5000  -999.2500    39.3819     0.9812
 1971.0000  -999.2500    39.4000     0.9812
 1971.5000  -999.2500    39.4192     0.9812
 1972.0000  -999.2500    39.4384     0.9812
 1972.5000  -999.2500    39.4576     0.9812
 1973.0000  -999.2500    39.4768     0.9812
 1973.5000  -999.2500    39.4960     0.9812
 1974.0000  -999.2500    39.5152     0.9812
 1974.5000  -999.2500    39.5344     0.9812
 1975.0000  -999.2500    39.5536     0.9812
 1975.5000  -999.2500    39.5728     0.9812
 1976.0000  -999.2500    39.5920     0.9812
 1976.5000  -999.2500    39.6112     0.9812
 1977.0000  -999.2500    39.6303     0.9812
 1977.5000  -999.2500    39.6496     0.9812
 1978.0000  -999.2500    39.6687     0.9812
 1978.5000  -999.2500    39.6879     0.9812
 1979.0000  -999.2500    39.7071     0.9812
 1979.5000  -999.2500    39.7263     0.9812
 1980.0000  -999.2500    39.7455     0.9812
 1980.5000  -999.2500    39.7647     0.9812
 1981.0000  -999.2500    39.7839     0.9812
 1981.5000  -999.2500    39.8031     0.9812
 1982.0000  -999.2500    39.8223     0.9812
 1982.5000  -999.2500    39.8412     0.9812
 1983.0000  -999.2500    39.8569     0.9812
 1983.5000  -999.2500    39.9879     0.9812
 1984.0000  -999.2500    40.1466     0.9812
 1984.5000  -999.2500    40.3060     0.9812
 1985.0000  -999.2500    40.4652     0.9812
 1985.5000  -999.2500    40.6244     0.9812
 1986.0000  -999.2500    40.7835     0.9812
 1986.5000  -999.2500    40.9427     0.9812
 1987.0000  -999.2500    41.1018     0.9812
 1987.5000  -999.2500    41.2610     0.9812
 1988.0000  -999.2500    41.4201     0.9812
 1988.5000  -999.2500    41.5793     0.9812
 1989.0000  -999.2500    41.7384     0.9812
 1989.5000  -999.2500    41.8976     0.9812
 1990.0000  -999.2500    42.0569     0.9812
 1990.5000  -999.2500    42.2175     0.9812
 1991.0000  -999.2500    42.3605     0.9812
 1991.5000  -999.2500    42.3531     0.9812
 1992.0000  -999.2500    41.8332     0.9812
 1992.5000  -999.2500    41.8582     0.9812
 1993.0000  -999.2500    41.8025     0.9812
 1993.5000  -999.2500    41.7062     0.9812
 1994.0000  -999.2500    41.6094     0.9812
 1994.5000  -999.2500    41.5125     0.9812
 1995.0000  -999.2500    41.4029     0.9812
 1995.5000  -999.2500    41.3485     0.9812
 1996.0000  -999.2500    42.1620     0.9812
 1996.5000  -999.2500    45.3408     0.9812
 1997.0000  -999.2500    52.4282     0.9812
 1997.5000  -999.2500    69.3658     0.9820
 1998.0000  -999.2500    93.8646     0.9829
 1998.5000  -999.2500    95.2337     0.9837
 1999.0000  -999.2500    82.2407     0.9846
 1999.5000  -999.2500    74.2551     0.9855
 2000.0000  -999.2500    71.6842     0.9863
 2000.5000  -999.2500    70.1185     0.9872
 2001.0000  -999.2500    68.9131     0.9880
 2001.5000  -999.2500    68.6257     0.9889
 2002.0000  -999.2500    68.2881     0.9897
 2002.5000  -999.2500    67.9461     0.9906
 2003.0000  -999.2500    67.5991     0.9915
 2003.5000  -999.2500    67.4842     0.9922
 2004.0000  -999.2500    66.1565     0.9931
 2004.5000  -999.2500    63.6475     0.9981
 2005.0000  -999.2500    61.0951     1.0334
 2005.5000  -999.2500    58.5770     1.0690
 2006.0000  -999.2500    56.0449     1.1047
 2006.5000  -999.2500    53.5343     1.1087
 2007.0000  -999.2500    52.4525     1.1108
 2007.5000  -999.2500    51.3615     1.1131
 2008.0000  -999.2500    50.2719     1.1154
 2008.5000  -999.2500    49.1810     1.1177
 2009.0000  -999.2500    48.0842     1.1185
 2009.5000  -999.2500    47.0135     1.1181
 2010.0000  -999.2500    45.9759     1.1177
 2010.5000  -999.2500    45.6174     1.1173
 2011.0000  -999.2500    45.3585     1.1169
 2011.5000  -999.2500    45.0781     1.1165
 2012.0000  -999.2500    44.4935     1.1161
 2012.5000  -999.2500    44.2596     1.1157
 2013.0000  -999.2500    44.0880     1.1153
 2013.5000  -999.2500    43.9112     1.1149
 2014.0000  -999.2500    43.7340     1.1145
 2014.5000  -999.2500    43.5601     1.1141
 2015.0000  -999.2500    43.2511     1.1137
 2015.5000  -999.2500    42.8659     1.1133
 2016.0000  -999.2500    42.7464     1.1129
 2016.5000  -999.2500    42.6477     1.1125
 2017.0000  -999.2500    42.5480     1.1121
 2017.5000  -999.2500    42.4474     1.1117
 2018.0000  -999.2500    42.3468     1.1113
 2018.5000  -999.2500    42.2463     1.1109
 2019.0000  -999.2500    42.1457     1.1105
 2019.5000  -999.2500    42.0451     1.1101
 2020.0000  -999.2500    41.9445     1.1097
 2020.5000  -999.2500    41.8439     1.1093
 2021.0000  -999.2500    41.7434     1.1089
 2021.5000  -999.2500    41.6422     1.1085
 2022.0000  -999.2500    41.5396     1.1081
 2022.5000  -999.2500    41.4494     1.1077
 2023.0000  -999.2500    41.6377     1.1073
 2023.5000  -999.2500    41.6896     1.1070
 2024.0000  -999.2500    40.8156     1.1064
 2024.5000  -999.2500    39.4305     1.0998
 2025.0000  -999.2500    37.5653     1.0689
 2025.5000  -999.2500    35.7331     1.0389
 2026.0000  -999.2500    33.8962     1.0088
 2026.5000  -999.2500    32.0595     0.9782
 2027.0000  -999.2500    30.2278     0.9558
 2027.5000  -999.2500    29.4122     0.9574
 2028.0000  -999.2500    28.4695     0.9588
 2028.5000  -999.2500    27.5484     0.9599
 2029.0000  -999.2500    26.6552     0.9611
 2029.5000  -999.2500    25.6665     0.9622
 2030.0000  -999.2500    25.3577     0.9633
 2030.5000  -999.2500    25.3580     0.9645
 2031.0000  -999.2500    25.3813     0.9656
 2031.5000  -999.2500    25.4037     0.9667
 2032.0000  -999.2500    25.4252     0.9679
 2032.5000  -999.2500    25.4466     0.9690
 2033.0000  -999.2500    25.4681     0.9701
 2033.5000  -999.2500    25.4896     0.9713
 2034.0000  -999.2500    25.5111     0.9724
 2034.5000  -999.2500    25.5326     0.9735
 2035.0000  -999.2500    25.5541     0.9747
 2035.5000  -999.2500    25.5756     0.9758
 2036.0000  -999.2500    25.5971     0.9769
 2036.5000  -999.2500    25.6186     0.9781
 2037.0000  -999.2500    25.6401     0.9792
 2037.5000  -999.2500    25.6616     0.9803
 2038.0000  -999.2500    25.6831     0.9815
 2038.5000  -999.2500    25.7045     0.9826
 2039.0000  -999.2500    25.7260     0.9837
 2039.5000  -999.2500    25.7475     0.9849
 2040.0000  -999.2500    25.7690     0.9860
 2040.5000  -999.2500    25.7905     0.9871
 2041.0000  -999.2500    25.8121     0.9883
 2041.5000  -999.2500    25.8216     0.9894
 2042.0000  -999.2500    25.8217     0.9905
 2042.5000  -999.2500    25.8217     0.9917
 2043.0000  -999.2500    25.8217     0.9928
 2043.5000  -999.2500    25.8216     0.9947
 2044.0000  -999.2500    25.8212     1.0008
 2044.5000  -999.2500    25.8215     1.0054
 2045.0000  -999.2500    25.8612     1.0389
 2045.5000  -999.2500    26.1150     1.0749
 2046.0000  -999.2500    26.3671     1.1117
 2046.5000  -999.2500    26.6188     1.1187
 2047.0000  -999.2500    26.8707     1.1188
 2047.5000  -999.2500    27.1214     1.1188
