~VERSION INFORMATION
 VERS.                2.0:   CWLS LOG ASCII STANDARD - VERSION 2.0
 WRAP.                 NO:   ONE LINE PER DEPTH STEP
~WELL INFORMATION
#MNEM.UNIT      DATA TYPE    INFORMATION
#----------   ------------   ------------------------------
 STRT.F          110.5000:   START DEPTH
 STOP.F         1944.0000:   STOP DEPTH
 STEP.F            0.5000:   STEP LENGTH
 NULL.          -999.2500:   NO VALUE
 COMP.    FENIX & SCISSON:   COMPANY
 WELL.   NPR 3 SHX #34-10:   WELL
 FLD .             TEAPOT:   FIELD
 LOC .      S10 T38N R78W:   LOCATION
 CNTY.            NATRONA:   COUNTY
 STAT.            WYOMING:   STATE
 CTRY. UNITED STATES OF AMERICA:   COUNTRY
 SRVC.            Unknown:   SERVICE COMPANY
 DATE.        14-APR-1978:   LOGDATE
 API .       490251061800:   API NUMBER
~CURVE INFORMATION
#MNEM.UNIT       API CODE    CURVE DESCRIPTION
#----------   ------------   ------------------------------
 DEPT.F                  :   
 ILD .OHMM   05 120 46 00:   INDUCTION LOG DEEP
 CILD.MMHO   05 110 00 00:   CONDUCTIVITY INDUCTION LOG
 NPHI.DEC    42 890 01 00:   NEUTRON POROSITY LIMESTONE
 GRD .GAPI   45 310 01 00:   GAMMA RAY FROM DENSITY LOG
~PARAMETER INFORMATION
#MNEM.UNIT          VALUE    DESCRIPTION
#----------   ------------   ------------------------------
 PD  .                 GL:   PERMANENT DATUM
 EPD .F              5244:   ELEVATION PERMANENT DATUM
 LMF .                 KB:   LOG MEASURED FROM
 DMF .                 KB:   DRILLING MEASURED FROM
 EKB .F              5252:   KELLING BUSHING
 EGL .F              5244:   GROUND LEVEL
 DATE.          4-14-1978:   RUN DATE
 RUN .                  1:   RUN NUMBER
 DD  .F              1953:   DEPTH DRILLER
 DL  .F              1950:   DEPTH LOGGER
 BLI .F              1944:   BOTTOM LOG INTERVAL
 TLI .F               715:   TOP LOG INTERVAL
 CS  .IN            9.625:   CASING SIZE
 CBD .F               708:   CASING BOTTOM DRILLER
 CBL .F               712:   CASING BOTTOM LOGGER
 BS  .IN             8.75:   BIT SIZE
 BSD .F              1953:   BIT SIZE AT DEPTH
 DFT .                OIL:   DRILLING FLUID TYPE
 TCS .HRS               5:   TIME CURCULATED STOPPED
 LUN .               2958:   LOGGING UNIT NUMBER
 LUL .               CASP:   LOGGING UNIT LOCATION
 ENGI.             MILLER:   RECORDING ENGINEER
 CLNT.            A2DTECH:   CLIENT CODE
 ORIG.           5" PRINT:   ORIGIN OF DATA
 UWI .       490251061800:   UNIQUE WELL ID
 DICO. A2D Technologies, Inc.:   DIGITIZING COMPANY
~OTHER INFORMATION
~A   DEPT      ILD       CILD       NPHI        GRD   
# ...
 1643.5000     9.5524   112.8532  -999.2500  -999.2500
 1644.0000     9.6023   113.0090  -999.2500  -999.2500
 1644.5000     9.6521   113.1649  -999.2500  -999.2500
 1645.0000     9.6940   113.3207  -999.2500  -999.2500
 1645.5000     9.7072   113.4765  -999.2500  -999.2500
 1646.0000     9.7209   113.6323  -999.2500  -999.2500
 1646.5000     9.7346   113.7882  -999.2500  -999.2500
 1647.0000     9.7483   113.9440  -999.2500  -999.2500
 1647.5000     9.7613   114.0998  -999.2500  -999.2500
 1648.0000     9.7396   114.2557  -999.2500  -999.2500
 1648.5000     9.6576   114.4115  -999.2500  -999.2500
 1649.0000     9.5765   114.5663  -999.2500  -999.2500
 1649.5000     9.4953   114.7232  -999.2500  -999.2500
 1650.0000     9.4141   114.8790  -999.2500  -999.2500
 1650.5000     9.3329   116.0995  -999.2500  -999.2500
 1651.0000     9.2517   117.7711  -999.2500  -999.2500
 1651.5000     9.1704   119.4428  -999.2500  -999.2500
 1652.0000     9.0894   121.1144  -999.2500  -999.2500
 1652.5000     9.0080   121.9045  -999.2500  -999.2500
 1653.0000     8.9596   121.8913  -999.2500  -999.2500
 1653.5000     8.9378   121.8910  -999.2500  -999.2500
 1654.0000     8.8447   121.8905  -999.2500  -999.2500
 1654.5000     8.7311   121.8905  -999.2500  -999.2500
 1655.0000     8.6168   121.8905  -999.2500  -999.2500
 1655.5000     8.5031   121.8905  -999.2500  -999.2500
 1656.0000     8.4100   121.8905  -999.2500  -999.2500
 1656.5000     8.4170   121.8905  -999.2500  -999.2500
 1657.0000     8.4221   121.8905  -999.2500  -999.2500
 1657.5000     8.4269   121.8905  -999.2500  -999.2500
 1658.0000     8.4317   121.8905  -999.2500  -999.2500
 1658.5000     8.4365   121.8905  -999.2500  -999.2500
 1659.0000     8.4413   121.8905  -999.2500  -999.2500
 1659.5000     8.4458   121.8905  -999.2500  -999.2500
 1660.0000     8.4488   120.6070  -999.2500  -999.2500
 1660.5000     8.5233   119.1025  -999.2500  -999.2500
 1661.0000     8.6069   117.5980  -999.2500  -999.2500
 1661.5000     8.6907   116.0935  -999.2500  -999.2500
 1662.0000     8.7743   114.5891  -999.2500  -999.2500
 1662.5000     8.8579   113.0846  -999.2500  -999.2500
 1663.0000     8.9415   112.3330  -999.2500  -999.2500
 1663.5000     9.0251   111.6643  -999.2500  -999.2500
 1664.0000     9.1088   110.9453  -999.2500  -999.2500
 1664.5000     9.1924   110.5900  -999.2500  -999.2500
 1665.0000     9.2754   110.1005  -999.2500  -999.2500
 1665.5000     9.3480   109.6116  -999.2500  -999.2500
 1666.0000     9.3969   109.1222  -999.2500  -999.2500
 1666.5000     9.4464   108.6329  -999.2500  -999.2500
 1667.0000     9.4957   108.1437  -999.2500  -999.2500
 1667.5000     9.5450   107.6544  -999.2500  -999.2500
 1668.0000     9.5943   107.1652  -999.2500  -999.2500
 1668.5000     9.6436   107.0133  -999.2500  -999.2500
 1669.0000     9.6930   107.0946  -999.2500  -999.2500
 1669.5000     9.7423   107.1759  -999.2500  -999.2500
 1670.0000     9.7920   107.2572  -999.2500  -999.2500
 1670.5000     9.8148   107.3385  -999.2500  -999.2500
 1671.0000     9.8228   107.4199  -999.2500  -999.2500
 1671.5000     9.8305   107.5012  -999.2500  -999.2500
 1672.0000     9.8383   107.5825  -999.2500  -999.2500
 1672.5000     9.8460   107.6638  -999.2500  -999.2500
 1673.0000     9.8538   107.7452  -999.2500  -999.2500
 1673.5000     9.8615   107.8265  -999.2500  -999.2500
 1674.0000     9.8692   107.9078  -999.2500  -999.2500
 1674.5000     9.8768   107.9891  -999.2500  -999.2500
 1675.0000     9.8849   108.0705  -999.2500  -999.2500
 1675.5000     9.9151   108.1518  -999.2500  -999.2500
 1676.0000    10.0013   108.2331  -999.2500  -999.2500
 1676.5000    10.0865   108.3144  -999.2500  -999.2500
 1677.0000    10.1720   108.3958  -999.2500  -999.2500
 1677.5000    10.2573   108.4771  -999.2500  -999.2500
 1678.0000    10.3314   108.5584  -999.2500  -999.2500
 1678.5000    10.3157   108.6397  -999.2500  -999.2500
 1679.0000    10.3015   108.7210  -999.2500  -999.2500
 1679.5000    10.3306   108.8024  -999.2500  -999.2500
 1680.0000    10.2539   108.8837  -999.2500  -999.2500
 1680.5000    10.1737   108.9650  -999.2500  -999.2500
 1681.0000    10.0944   109.0463  -999.2500  -999.2500
 1681.5000    10.0153   109.1277  -999.2500  -999.2500
 1682.0000     9.9368   109.2090  -999.2500  -999.2500
 1682.5000     9.9018   109.2903  -999.2500  -999.2500
 1683.0000     9.9319   109.3716  -999.2500  -999.2500
 1683.5000     9.9613   109.4529  -999.2500  -999.2500
 1684.0000     9.9908   109.5343  -999.2500  -999.2500
 1684.5000    10.0203   109.6156  -999.2500  -999.2500
 1685.0000    10.0498   109.6969  -999.2500  -999.2500
 1685.5000    10.0796   109.7782  -999.2500  -999.2500
 1686.0000    10.1085   109.8596  -999.2500  -999.2500
 1686.5000    10.1061   109.9409  -999.2500  -999.2500
 1687.0000    10.0009   111.4295  -999.2500  -999.2500
 1687.5000     9.9001   113.1012  -999.2500  -999.2500
 1688.0000     9.7994   114.9254  -999.2500  -999.2500
 1688.5000     9.6987   114.9779  -999.2500  -999.2500
 1689.0000     9.5979   115.0357  -999.2500  -999.2500
 1689.5000     9.4971   115.0935  -999.2500  -999.2500
 1690.0000     9.3976   115.1512  -999.2500  -999.2500
 1690.5000     9.3332   115.2090  -999.2500  -999.2500
 1691.0000     9.3451   115.2668  -999.2500  -999.2500
 1691.5000     9.3554   115.3246  -999.2500  -999.2500
 1692.0000     9.3664   115.3824  -999.2500  -999.2500
 1692.5000     9.3511   115.4401  -999.2500  -999.2500
 1693.0000     9.3181   115.4979  -999.2500  -999.2500
 1693.5000     9.2888   115.5557  -999.2500  -999.2500
 1694.0000     9.2451   115.6135  -999.2500  -999.2500
 1694.5000     9.1989   115.6713  -999.2500  -999.2500
 1695.0000     9.1528   115.7291  -999.2500  -999.2500
 1695.5000     9.1067   115.7868  -999.2500  -999.2500
 1696.0000     9.0606   115.8446  -999.2500  -999.2500
 1696.5000     9.0143   115.9024  -999.2500  -999.2500
 1697.0000     8.9726   115.9602  -999.2500  -999.2500
 1697.5000     8.9918   116.0180  -999.2500  -999.2500
 1698.0000     9.0123   116.0758  -999.2500  -999.2500
 1698.5000     9.0325   116.1335  -999.2500  -999.2500
 1699.0000     9.0527   116.1913  -999.2500  -999.2500
 1699.5000     9.0730   116.2491  -999.2500  -999.2500
 1700.0000     9.0879   116.3069  -999.2500  -999.2500
 1700.5000     9.0600   116.3647  -999.2500  -999.2500
 1701.0000     9.0315   116.4224  -999.2500  -999.2500
 1701.5000     9.0031   116.4802  -999.2500  -999.2500
 1702.0000     8.9748   116.5380  -999.2500  -999.2500
 1702.5000     8.9465   116.5958  -999.2500  -999.2500
 1703.0000     8.9181   116.6536  -999.2500  -999.2500
 1703.5000     8.8899   116.7114  -999.2500  -999.2500
 1704.0000     8.8611   116.7691  -999.2500  -999.2500
 1704.5000     8.8654   116.8269  -999.2500  -999.2500
 1705.0000     8.8871   116.8847  -999.2500  -999.2500
 1705.5000     8.9092   116.9026  -999.2500  -999.2500
 1706.0000     8.9313   116.8752  -999.2500  -999.2500
 1706.5000     8.9534   116.8478  -999.2500  -999.2500
 1707.0000     8.9755   116.8204  -999.2500  -999.2500
 1707.5000     8.9975   116.7930  -999.2500  -999.2500
 1708.0000     9.0196   116.7656  -999.2500  -999.2500
 1708.5000     9.0415   116.7382  -999.2500  -999.2500
 1709.0000     9.0812   116.7108  -999.2500  -999.2500
 1709.5000     9.1331   116.6834  -999.2500  -999.2500
 1710.0000     9.1852   116.6560  -999.2500  -999.2500
 1710.5000     9.2372   116.6286  -999.2500  -999.2500
 1711.0000     9.2893   116.6012  -999.2500  -999.2500
 1711.5000     9.3414   116.5738  -999.2500  -999.2500
 1712.0000     9.3939   116.5464  -999.2500  -999.2500
 1712.5000     9.4478   116.5190  -999.2500  -999.2500
 1713.0000     9.4370   116.4916  -999.2500  -999.2500
 1713.5000     9.4210   116.4642  -999.2500  -999.2500
 1714.0000     9.4052   116.4368  -999.2500  -999.2500
 1714.5000     9.3897   116.4094  -999.2500  -999.2500
 1715.0000     9.3741   116.3820  -999.2500  -999.2500
 1715.5000     9.3510   116.3547  -999.2500  -999.2500
 1716.0000     9.3259   116.3272  -999.2500  -999.2500
