~VERSION INFORMATION
 VERS.                2.0:   CWLS LOG ASCII STANDARD - VERSION 2.0
 WRAP.                 NO:   ONE LINE PER DEPTH STEP
~WELL INFORMATION
#MNEM.UNIT      DATA TYPE    INFORMATION
#----------   ------------   ------------------------------
 STRT.F            0.0000:   START DEPTH
 STOP.F         3139.0000:   STOP DEPTH
 STEP.F            0.5000:   STEP LENGTH
 NULL.          -999.2500:   NO VALUE
 COMP. BROWN JOHN E&C INC:   COMPANY
 WELL.       TX-10 #63-10:   WELL
 FLD .             TEAPOT:   FIELD
 LOC .      S10 T38N R78W:   LOCATION
 CNTY.            NATRONA:   COUNTY
 STAT.            WYOMING:   STATE
 CTRY. UNITED STATES OF AMERICA:   COUNTRY
 SRVC.       Schlumberger:   SERVICE COMPANY
 DATE.        05-OCT-1982:   LOGDATE
 API .       490251090100:   API NUMBER
~CURVE INFORMATION
#MNEM.UNIT       API CODE    CURVE DESCRIPTION
#----------   ------------   ------------------------------
 DEPT.F                  :   
 DPHI.DEC    45 890 12 00:   DENSITY POROSITY  SANDSTONE
 GRD .GAPI   45 310 01 00:   GAMMA RAY FROM DENSITY LOG
 NPHI.DEC    42 890 03 00:   NEUTRON POROSITY SANDSTONE
 CALD.IN     45 280 60 00:   CALIPER FROM DENSITY LOG
 CORR.G/C3   45 356 01 00:   DENSITY CORRECTION
 RHOB.G/C3   45 350 01 00:   BULK DENSITY
 ILD .OHMM   07 120 46 00:   INDUCTION LOG DEEP
 ILM .OHMM   07 120 44 00:   INDUCTION LOG MEDIUM
 SFLU.OHMM   07 220 01 00:   SPHERICALLY FOCUSED LOG UNAVERAGED RESISTIVITY
 SPR .MV     07 010 01 00:   SPONTANEOUS POTENTIAL
~PARAMETER INFORMATION
#MNEM.UNIT          VALUE    DESCRIPTION
#----------   ------------   ------------------------------
 PD  .                 GL:   PERMANENT DATUM
 EPD .F              5189:   ELEVATION PERMANENT DATUM
 LMF .                 KB:   LOG MEASURED FROM
 DAPD.F                10:   FEET ABOVE PERMANENT DATUM
 DMF .                 KB:   DRILLING MEASURED FROM
 EKB .F              5199:   KELLING BUSHING
 EGL .F              5189:   GROUND LEVEL
 DATE.        05-OCT-1982:   RUN DATE
 RUN .                  1:   RUN NUMBER
 DD  .F              3200:   DEPTH DRILLER
 DL  .F              3142:   DEPTH LOGGER
 BLI .F              3139:   BOTTOM LOG INTERVAL
 TLI .F               484:   TOP LOG INTERVAL
 CS  .IN            9.625:   CASING SIZE
 CBD .F               482:   CASING BOTTOM DRILLER
 CBL .F               484:   CASING BOTTOM LOGGER
 BS  .IN            7.875:   BIT SIZE
 BSD .F              3200:   BIT SIZE AT DEPTH
 DFT .        KCL/POLYMER:   DRILLING FLUID TYPE
 DFD .                8.6:   DRILLING FLUID DENSITY
 DFV .                 38:   DRILLING FLUID VISCOSITY
 DFPH.                8.5:   DRILLING FLUID PH
 DFL .                6.8:   DRILLING FLUID LOSS
 MSS .           MUD TANK:   MUD SAMPLE SOURCE
 RMS .OHMM            .40:   RESISTIVITY MUD SAMPLE
 MST .F                64:   MUD SAMPLE TEMPERATURE
 RMF .OHMM            .34:   RESISTIVITY MUD FILTRATE SAMPLE
 MFST.F                64:   MUD FILTRATE SAMPLE TEMPERATURE
 RMC .OHMM            .36:   RESISTIVITY MUD CAKE
 MCST.F                64:   MUD CAKE SAMPLE TEMPERATURE
 MFSS.               MEAS:   MUD FILTRATE SAMPLE SOURCE
 MCSS.               CALC:   MUD CAKE SAMPLE SOURCE
 RMB .OHMM             .2:   RESISTIVITY MUD AT BHT
 BHT .F               125:   BOTTOM HOLE TEMPERATURE
 TCS .HRS            2300:   TIME CURCULATED STOPPED
 TLAB.HRS            0500:   TIME LOGGER AT BOTTOM
 MRT .F               125:   MAXIMUM RECORDED TEMPERATURE
 LUN .               8043:   LOGGING UNIT NUMBER
 LUL .                GLT:   LOGGING UNIT LOCATION
 ENGI.            NEUFFER:   RECORDING ENGINEER
 WITN.             STRONG:   WITNESSED BY
 CLNT.            A2DTECH:   CLIENT CODE
 ORIG.           5" PRINT:   ORIGIN OF DATA
 UWI .       490251090100:   UNIQUE WELL ID
 DICO. A2D Technologies, Inc.:   DIGITIZING COMPANY
~OTHER INFORMATION
~A    DEPT    DPHI          GRD     NPHI       CALD       CORR       RHOB        ILD        ILM       SFLU        SPR   
# ...
 1340.0000     0.0414    98.1692     0.2858    11.1047     0.1354     2.5867     8.5549     7.4307     8.6028   -78.3789
 1340.5000     0.0473    98.4531     0.2876    11.1340     0.1293     2.5791     8.5549     7.3274     8.4833   -78.2385
 1341.0000     0.0505    98.4419     0.2908    11.1176     0.1293     2.5731     8.4960     7.2255     8.4822   -78.2402
 1341.5000     0.0549    98.1162     0.2982    11.1166     0.1292     2.5678     8.4376     7.3246     8.4227   -78.3936
 1342.0000     0.0614    96.0570     0.3014    11.1004     0.1269     2.5453     8.3219     7.4250     8.4216   -78.5474
 1342.5000     0.0788    94.2759     0.3082    11.0842     0.1185     2.5176     8.3219     7.5264     8.4789   -78.5488
 1343.0000     0.0859    93.9698     0.3135    11.0830     0.1094     2.5093     8.3219     7.5249     8.4776   -78.5502
 1343.5000     0.0900    96.3185     0.3144    11.0820     0.0957     2.5093     8.3219     7.5231     8.4765   -78.5520
 1344.0000     0.0891    99.5494     0.3100    11.0964     0.0714     2.5108     8.3219     7.5217     8.5342   -78.5534
 1344.5000     0.0870    98.3583     0.3038    11.0952     0.0638     2.5137     8.3836     7.4685     8.5919   -78.4025
 1345.0000     0.0853    93.9224     0.2932    11.0939     0.0622     2.5190     8.4376     7.4153     8.5908   -78.4043
 1345.5000     0.0835    90.9614     0.2858    11.1232     0.0667     2.5227     8.4960     7.4139     8.6493   -78.5580
 1346.0000     0.0811    88.5507     0.2814    11.1829     0.0793     2.5226     8.5549     7.3614     8.7080   -78.5594
 1346.5000     0.0854    87.9864     0.2956    11.2730     0.1380     2.5181     8.5549     7.3093     8.7067   -78.8648
 1347.0000     0.0903    88.5653     0.3005    11.3630     0.1486     2.5144     8.5549     7.3586     8.7056   -79.1705
 1347.5000     0.0859    90.0290     0.3094    11.3618     0.1667     2.5204     8.6142     7.3568     8.6443   -79.3239
 1348.0000     0.0611    90.9225     0.3163    11.3304     0.1902     2.5516     8.6142     7.4064     8.5836   -79.1733
 1348.5000     0.0592    91.1867     0.3191    11.2991     0.2532     2.5750     8.6142     7.4562     8.5825   -79.1748
 1349.0000     0.0903    90.2878     0.3165    11.2371     0.2455     2.5368     8.6738     7.6104     8.5223   -79.3281
 1349.5000     0.1115    89.6867     0.3115    11.2361     0.2197     2.4468     8.6738     7.7682     8.5803   -79.1776
 1350.0000     0.1433    89.6755     0.3068    11.2454     0.1567     2.4160     8.6738     7.8205     8.6384   -79.1793
 1350.5000     0.1253    89.9568     0.3032    11.2804     0.1255     2.4722     8.6738     7.6862     8.6373   -79.0072
 1351.0000     0.1018    90.8245     0.3053    11.2801     0.1392     2.5269     8.6446     7.5998     8.6314   -78.6944
 1351.5000     0.0726    91.1062     0.3077    11.2646     0.1369     2.5351     8.6018     7.4921     8.6271   -78.3817
 1352.0000     0.0720    89.0237     0.3083    11.2796     0.1276     2.5366     8.5589     7.4371     8.5643   -78.1459
 1352.5000     0.0708    87.5350     0.3034    11.2792     0.1247     2.5456     8.4810     7.3817     8.6211   -78.3052
 1353.0000     0.0656    86.6364     0.2953    11.2789     0.1375     2.5703     8.4199     7.4809     8.6168   -78.1606
 1353.5000     0.0502    86.6224     0.2965    11.3393     0.1443     2.5642     8.4755     7.4774     8.5540   -78.1697
 1354.0000     0.0717    86.9038     0.3103    11.3997     0.1230     2.5088     8.5313     7.5778     8.5506   -78.1770
 1354.5000     0.0998    88.3616     0.3258    11.4298     0.0669     2.4862     8.5278     7.5743     8.5464   -78.3363
 1355.0000     0.1072    90.1178     0.3384    11.4294     0.0562     2.4930     8.5250     7.5187     8.5435   -78.6475
 1355.5000     0.0922    89.8056     0.3393    11.3987     0.0683     2.5270     8.5221     7.4627     8.5396   -78.6550
 1356.0000     0.0772    87.4320     0.3396    11.3529     0.0835     2.5431     8.5193     7.4592     8.5362   -79.1199
 1356.5000     0.0710    86.2383     0.3352    11.3375     0.0705     2.5236     8.5165     7.4044     8.4741   -79.2792
 1357.0000     0.0795    86.5507     0.3281    11.3369     0.0584     2.5176     8.5136     7.3831     8.4706   -79.4385
 1357.5000     0.0840    89.4522     0.3202    11.3217     0.0614     2.5282     8.4516     7.3468     8.4082   -79.4458
 1358.0000     0.0818    90.9168     0.3169    11.3366     0.0750     2.5527     8.4488     7.3432     8.4053   -79.4531
 1358.5000     0.0637    91.4897     0.3190    11.3515     0.0810     2.5625     8.3879     7.2885     8.4015   -79.3084
 1359.0000     0.0575    91.1775     0.3161    11.3663     0.0841     2.5647     8.3851     7.2350     8.2829   -79.1656
 1359.5000     0.0546    91.1637     0.3093    11.3812     0.0795     2.5518     8.3823     7.1325     8.2669   -79.0191
 1360.0000     0.0625    91.1500     0.2995    11.3961     0.0741     2.5376     8.3219     7.1292     8.2193   -78.8744
 1360.5000     0.0702    91.7228     0.2905    11.4109     0.0771     2.5338     8.2612     7.1259     8.2092   -78.8835
 1361.0000     0.0735    92.5940     0.2860    11.4258     0.0809     2.5376     8.2585     7.2252     8.1554   -78.7386
 1361.5000     0.0693    94.3502     0.2828    11.4103     0.0885     2.5465     8.2558     7.3186     8.1522   -78.7462
 1362.0000     0.0658    94.6314     0.2875    11.3341     0.0831     2.5428     8.2530     7.4675     8.1282   -78.7553
 1362.5000     0.0685    91.6644     0.2920    11.2428     0.0785     2.5382     8.1935     7.5166     8.0339   -78.7626
 1363.0000     0.0726    91.0607     0.2943    11.2425     0.0785     2.5374     8.1908     7.4606     8.0307   -78.9219
 1363.5000     0.0705    92.8168     0.2941    11.2261     0.0877     2.5449     8.2441     7.3042     8.0267   -78.9292
 1364.0000     0.0620    96.0445     0.2938    11.2115     0.1004     2.5651     8.2414     7.1019     8.0505   -79.0885
 1364.5000     0.0550    95.4408     0.2970    11.2112     0.1126     2.5703     8.2387     7.0490     8.0768   -79.0958
 1365.0000     0.0603    92.7722     0.3022    11.2109     0.1080     2.5553     8.2360     7.0458     8.0728   -79.2553
 1365.5000     0.0683    92.4631     0.3115    11.2106     0.0942     2.5388     8.3072     7.0921     8.1255   -79.4162
 1366.0000     0.0748    92.7413     0.3144    11.1799     0.0844     2.5305     8.4089     7.2865     8.2986   -79.4235
 1366.5000     0.0783    93.6125     0.3106    11.1796     0.0775     2.5267     8.5247     7.4355     8.4619   -79.4308
 1367.0000     0.0789    93.8937     0.3139    11.1186     0.0767     2.5267     8.6921     7.5876     8.5770   -79.4381
 1367.5000     0.0792    94.1750     0.3153    11.0577     0.0790     2.5252     8.7677     7.6896     8.6929   -79.4454
 1368.0000     0.0804    94.1578     0.3062    11.0270     0.0835     2.5237     8.9296     7.6322     8.8104   -79.6191
 1368.5000     0.0825    94.7340     0.2954    11.0267     0.0949     2.5206     8.9259     7.5241     8.8060   -79.7640
 1369.0000     0.0816    94.7168     0.2841    10.9960     0.1108     2.5221     8.7928     7.4688     8.7341   -79.4673
 1369.5000     0.0745    94.7031     0.2830    10.9806     0.1207     2.5393     8.6763     7.4654     8.6774   -79.4765
 1370.0000     0.0642    93.2144     0.2962    11.0258     0.1251     2.5565     8.6735     7.5204     8.7349   -79.3318
 1370.5000     0.0560    91.1280     0.3028    11.0407     0.1243     2.5625     8.6706     7.5622     8.7920   -79.1869
 1371.0000     0.0631    89.9387     0.3136    11.0556     0.1182     2.5385     8.6677     7.5578     8.7876   -79.1945
 1371.5000     0.0769    88.7450     0.3066    11.0856     0.1098     2.5249     8.7249     7.5543     8.7841   -79.2036
 1372.0000     0.0814    87.2563     0.3036    11.1005     0.1030     2.5099     8.7824     7.6558     8.7805   -79.2109
 1372.5000     0.0865    86.6492     0.3066    11.1001     0.0893     2.5054     8.9008     7.7586     8.7763   -79.0644
 1373.0000     0.0917    86.3404     0.3022    11.0998     0.0862     2.5069     8.8979     7.6485     8.7728   -78.9215
