~VERSION INFORMATION
 VERS.                2.0:   CWLS LOG ASCII STANDARD - VERSION 2.0
 WRAP.                 NO:   ONE LINE PER DEPTH STEP
~WELL INFORMATION
#MNEM.UNIT      DATA TYPE    INFORMATION
#----------   ------------   ------------------------------
 STRT.F            2.5000:   START DEPTH
 STOP.F         1003.0000:   STOP DEPTH
 STEP.F            0.5000:   STEP LENGTH
 NULL.          -999.2500:   NO VALUE
 COMP. U S NAVY-INTEX OIL:   COMPANY
 WELL.   NPR #3 #87-SX-27:   WELL
 FLD .             TEAPOT:   FIELD
 LOC .      S27 T39N R78W:   LOCATION
 CNTY.            NATRONA:   COUNTY
 STAT.            WYOMING:   STATE
 CTRY. UNITED STATES OF AMERICA:   COUNTRY
 SRVC. Schlumberger Well Surveying Corp:   SERVICE COMPANY
 DATE.        13-AUG-1961:   LOGDATE
 API .       490250659000:   API NUMBER
~CURVE INFORMATION
#MNEM.UNIT       API CODE    CURVE DESCRIPTION
#----------   ------------   ------------------------------
 DEPT.F                  :   
 ASN .OHMM   05 041 16 00:   AMPLIFIER SHORT NORMAL
 SPR .MV     05 010 01 00:   SPONTANEOUS POTENSIAL
 CILD.MMHO   05 110 46 00:   CONDUCTIVITY INDUCTION LOG DEEP
 ILD .OHMM   05 120 46 00:   INDUCTION LOG DEEP
 GRN .MG/TON 35 310 30 00:   GAMMA RAY
 NEUT.NAPI   35 330 01 00:   NEUTRON
~PARAMETER INFORMATION
#MNEM.UNIT          VALUE    DESCRIPTION
#----------   ------------   ------------------------------
 PD  .                 GL:   PERMANENT DATUM
 EPD .F              5082:   ELEVATION PERMANENT DATUM
 LMF .                 KB:   LOG MEASURED FROM
 DAPD.F                 5:   FEET ABOVE PERMANENT DATUM
 DMF .                 KB:   DRILLING MEASURED FROM
 EKB .F              5087:   KELLING BUSHING
 EGL .F              5082:   GROUND LEVEL
 DATE.        13-AUG-1961:   RUN DATE
 RUN .                  1:   RUN NUMBER
 DD  .F              1000:   DEPTH DRILLER
 DL  .F              1003:   DEPTH LOGGER
 BLI .F              1002:   BOTTOM LOG INTERVAL
 TLI .F                90:   TOP LOG INTERVAL
 BS  .IN             6.75:   BIT SIZE
 BSD .F              1000:   BIT SIZE AT DEPTH
 DFT . OIL EMUL (12% OIL):   DRILLING FLUID TYPE
 DFD .                9.3:   DRILLING FLUID DENSITY
 DFV .                 60:   DRILLING FLUID VISCOSITY
 DFL .                  4:   DRILLING FLUID LOSS
 MSS .           FLOWLINE:   MUD SAMPLE SOURCE
 RMS .OHMM           1.29:   RESISTIVITY MUD SAMPLE
 MST .F                80:   MUD SAMPLE TEMPERATURE
 TCS .HRS               1:   TIME CURCULATED STOPPED
 LUN .               2523:   LOGGING UNIT NUMBER
 LUL .               CSPR:   LOGGING UNIT LOCATION
 ENGI.              SCOTT:   RECORDING ENGINEER
 WITN.          JORGENSEN:   WITNESSED BY
 CLNT.            A2DTECH:   CLIENT CODE
 ORIG.       2", 5" PRINT:   ORIGIN OF DATA
 UWI .       490250659000:   UNIQUE WELL ID
 DICO. A2D Technologies, Inc.:   DIGITIZING COMPANY
~OTHER INFORMATION
~A    DEPT     ASN        SPR       CILD        ILD          GRN     NEUT   
# ...
  314.5000     6.9091   -12.7150   159.3769     5.5614     5.8865   196.3297
  315.0000     6.9034   -12.4849   159.8223     5.5610     5.8420   203.6025
  315.5000     6.8789   -12.3357   160.8937     5.5606     5.9396   203.9821
  316.0000     6.8545   -12.3363   162.4024     5.5602     5.9107   191.4565
  316.5000     6.8300   -12.3371   162.4099     5.5508     5.7890   182.2015
  317.0000     6.8044   -12.4349   163.9196     5.4841     5.8193   179.7654
  317.5000     6.7492   -12.5738   164.6459     5.4085     5.9025   182.3461
  318.0000     6.6936   -12.9400   165.6106     5.3298     5.9244   200.3514
  318.5000     6.6394   -13.2580   168.4471     5.1065     5.8514   209.8084
  319.0000     6.5955   -13.7212   171.1311     4.9074     5.8105   211.7936
  319.5000     6.5091   -13.9933   177.6883     4.6540     5.3438   209.3915
  320.0000     6.3093   -13.9940   189.9900     4.3825     5.2859   192.3679
  320.5000     6.1039   -13.9792   201.8342     4.1653     5.3060   174.2695
  321.0000     5.7984   -13.6953   213.5288     3.8998     5.7509   166.7992
  321.5000     5.5572   -13.2825   222.1508     3.7097     5.8485   163.7593
  322.0000     5.3458   -13.0941   231.3614     3.4985     5.8484   169.8046
  322.5000     5.1986   -12.8491   240.5788     3.2963     5.8132   193.4867
  323.0000     5.0978   -12.7972   247.3047     3.1453     5.7109   205.1586
  323.5000     4.9751   -12.7981   254.6887     3.0636     5.7125   206.9351
  324.0000     4.8234   -12.7988   260.1212     2.9939     5.8748   205.4244
  324.5000     4.7298   -12.7996   263.1306     2.9665     6.0317   204.6137
  325.0000     4.5933   -12.8004   258.2581     2.9932     6.0515   207.6225
  325.5000     4.5234   -12.5803   240.6246     3.1163     5.8582   214.9631
  326.0000     4.7540   -12.3353   230.7457     3.3358     5.7212   223.6284
  326.5000     5.2292   -12.2020   221.1188     3.5192     5.6744   233.7855
  327.0000     5.6325   -12.2598   210.6783     3.8291     5.7683   265.7610
  327.5000     5.8765   -12.5063   196.5464     4.1660     5.8526   286.4620
  328.0000     6.3405   -12.7527   177.5982     4.5723     5.9229   291.9362
  328.5000     6.6064   -12.9993   167.8138     5.1653     5.9379   300.2112
  329.0000     6.7734   -13.2568   157.4551     5.8878     5.9373   306.8893
  329.5000     6.9414   -13.4077   149.0926     6.2277     5.6739   309.1463
  330.0000     7.0511   -13.5886   144.8448     6.4383     5.4754   283.4645
  330.5000     7.1227   -13.8597   141.5988     6.6096     5.4326   277.2130
  331.0000     7.1518   -14.0105   140.1065     6.8290     5.6998   277.1939
  331.5000     7.2022   -14.1614   138.6111     6.9281     5.8426   276.4082
  332.0000     7.3171   -14.3124   138.6188     7.0542     5.8922   274.6584
  332.5000     7.4680   -14.3131   137.1246     7.0538     5.9160   275.6830
  333.0000     7.6095   -14.3138   135.2678     7.1288     5.9315   282.4156
  333.5000     7.7228   -14.2160   132.6357     7.0531     5.9447   287.8446
  334.0000     7.7683   -13.9710   131.8669     7.0136     5.9602   288.4470
  334.5000     7.8130   -13.7155   131.1479     6.8897     5.9699   283.1050
  335.0000     7.7380   -13.2458   137.1631     6.7507     5.9897   280.8834
  335.5000     7.6466   -12.9357   139.3155     6.5335     5.9568   279.1374
  336.0000     7.5223   -12.6667   141.7818     6.3614     5.8810   276.2032
  336.5000     7.2878   -12.5959   146.1951     6.0718     5.8613   272.8290
  337.0000     7.1187   -12.5180   148.7288     5.8667     5.8904   266.2925
  337.5000     6.9426   -12.6690   153.7163     5.6194     5.8807   260.5761
  338.0000     6.6410   -12.7277   160.4302     5.3720     5.7103   256.7425
  338.5000     6.2975   -13.1279   168.7711     5.0493     5.7056   253.3174
  339.0000     5.9969   -13.6201   176.2618     4.7146     5.7341   240.6105
  339.5000     5.7944   -13.8731   184.6585     4.2865     5.8307   228.2289
  340.0000     5.5566   -14.0241   195.5458     3.7651     5.9060   222.1228
  340.5000     5.2914   -14.0248   219.8282     3.4333     5.9738   218.0755
  341.0000     5.1318   -13.9635   242.8454     3.2101     6.0504   215.1414
  341.5000     4.9086   -13.5759   248.4897     3.0471     6.1146   211.4252
  342.0000     4.6610   -13.3544   251.3827     2.9804     6.0791   207.8536
  342.5000     4.6217   -13.1268   247.8541     3.0102     5.9408   209.1059
  343.0000     4.5860   -13.1277   245.3904     3.1333     5.8985   228.6393
  343.5000     4.8309   -13.1869   239.0040     3.3557     5.8527   248.4915
  344.0000     5.2006   -13.2833   229.8899     3.4789     5.8853   259.1398
  344.5000     5.3971   -13.4302   216.8848     3.7315     6.0000   257.5776
  345.0000     5.4862   -13.4760   206.1314     3.9721     6.0334   254.9584
  345.5000     5.5810   -13.7320   194.8026     4.3121     5.9366   253.5960
  346.0000     5.6225   -13.7327   182.3732     4.6340     5.8644   264.9112
  346.5000     5.6376   -13.7335   178.6949     4.8626     5.8372   280.4927
  347.0000     5.6377   -13.7343   176.2436     5.0851     5.8263   285.5706
  347.5000     5.6378   -13.7350   174.8874     5.1600     5.8138   286.8047
  348.0000     5.6378   -13.7357   173.3934     5.1596     5.7993   288.5654
  348.5000     5.6229   -13.7366   174.9024     5.1532     5.7888   290.5132
  349.0000     5.5826   -13.5871   174.9099     5.0835     5.7760   291.7316
  349.5000     5.5031   -13.5878   176.4189     4.8784     5.7312   289.2548
  350.0000     5.3679   -13.5886   179.4298     4.6310     5.6683   261.1449
  350.5000     5.2206   -13.5893   184.9362     4.3837     5.5577   245.9816
  351.0000     5.0884   -13.5901   194.1093     3.9857     5.3488   237.5634
  351.5000     4.9327   -13.5908   204.9783     3.5757     5.2970   230.9807
  352.0000     4.7736   -13.5916   224.7039     2.9879     5.3314   217.1454
  352.5000     4.3602   -13.5924   270.4635     2.3701     5.3809   187.3902
  353.0000     4.0062   -13.5200   332.6288     1.8426     5.3950   173.2664
  353.5000     3.5448   -13.4436   379.4895     1.6194     5.4442   141.0406
  354.0000     3.1463   -13.4446   418.6793     1.4654     5.4893   128.1889
  354.5000     3.1071   -13.2355   447.2273     1.4649     5.4322   124.2976
  355.0000     3.1614   -13.1406   441.5792     1.4646     5.2706   134.8978
  355.5000     3.1615   -12.8957   428.7616     1.5425     5.2700   164.1883
  356.0000     3.2460   -12.6966   415.1044     1.6145     5.4755   191.6088
  356.5000     3.5158   -12.5473   388.1742     1.8129     5.4965   221.3707
  357.0000     4.0026   -12.6351   356.7124     2.1408     5.4123   247.0107
  357.5000     4.4190   -12.9142   308.3898     2.7428     5.3758   260.8610
  358.0000     4.6634   -13.3004   256.4261     3.3419     5.5264   262.5576
  358.5000     4.7235   -13.6749   226.0277     3.8716     5.6375   261.0697
  359.0000     4.7236   -14.0526   202.0883     3.9857     5.7843   258.4573
  359.5000     4.7237   -14.3537   194.4558     4.0215     5.8955   250.8781
  360.0000     4.7237   -14.3544   193.0931     4.0211     5.9332   244.2926
  360.5000     4.7589   -14.1995   200.8895     4.0207     5.9331   239.4090
  361.0000     4.7990   -14.0556   212.3650     3.9450     5.9330   236.7998
  361.5000     4.8093   -13.9060   217.1400     3.9446     5.9372   232.9738
  362.0000     4.7207   -13.7568   219.4744     3.8419     5.9479   221.1199
  362.5000     4.6190   -13.6699   220.7207     3.6427     5.9215   216.7357
  363.0000     4.5234   -13.5751   224.6705     3.4706     5.7928   214.2381
  363.5000     4.4390   -13.3086   230.4581     3.0727     5.6914   213.4637
  364.0000     4.3479   -13.1592   240.9014     2.8885     5.6994   213.4410
  364.5000     4.2215   -13.0097   283.2520     2.7285     5.7331   213.4171
  365.0000     4.0638   -12.8605   307.2824     2.4812     5.7138   215.9008
  365.5000     3.8670   -12.8611   325.4579     2.2097     5.5078   228.3582
  366.0000     3.7094   -12.8619   349.0392     2.0226     5.4026   233.0852
