~VERSION INFORMATION
 VERS.                2.0:   CWLS LOG ASCII STANDARD - VERSION 2.0
 WRAP.                 NO:   ONE LINE PER DEPTH STEP
~WELL INFORMATION
#MNEM.UNIT      DATA TYPE    INFORMATION
#----------   ------------   ------------------------------
 STRT.F           22.5000:   START DEPTH
 STOP.F          644.0000:   STOP DEPTH
 STEP.F            0.5000:   STEP LENGTH
 NULL.          -999.2500:   NO VALUE
 COMP.    FELIX & SCISION:   COMPANY
 WELL.     NPR #3 #14-S-2:   WELL
 FLD .             TEAPOT:   FIELD
 LOC .       S2 T38N R78W:   LOCATION
 CNTY.            NATRONA:   COUNTY
 STAT.            WYOMING:   STATE
 CTRY. UNITED STATES OF AMERICA:   COUNTRY
 SRVC.           BIRDWELL:   SERVICE COMPANY
 DATE.        18-JAN-1978:   LOGDATE
 API .       490251055600:   API NUMBER
~CURVE INFORMATION
#MNEM.UNIT       API CODE    CURVE DESCRIPTION
#----------   ------------   ------------------------------
 DEPT.F                  :   
 CALD.IN     45 280 60 00:   CALIPER FROM DENSITY LOG
 CORR.G/C3   45 356 01 00:   DENSITY CORRECTION
 DPHI.DEC    45 890 12 00:   DENSITY POROSITY SANDSTONE
 GRD .GAPI   45 310 01 00:   GAMMA RAY FROM DENSITY LOG
 RHOB.G/C3   45 350 01 00:   BULK DENSITY
 ILD .OHMM   05 120 46 00:   INDUCTION LOG DEEP
 SPR .MV     05 010 01 00:   SPONTANEOUS POTENTIAL FROM RES.
 SN  .OHMM   05 040 16 00:   SHORT NORMAL 16"
~PARAMETER INFORMATION
#MNEM.UNIT          VALUE    DESCRIPTION
#----------   ------------   ------------------------------
 PD  .                 GL:   PERMANENT DATUM
 EPD .F              5121:   ELEVATION PERMANENT DATUM
 LMF .                 KB:   LOG MEASURED FROM
 DAPD.F                 4:   FEET ABOVE PERMANENT DATUM
 DMF .                 KB:   DRILLING MEASURED FROM
 EKB .F              5126:   KELLING BUSHING
 EGL .F              5121:   GROUND LEVEL
 DATE.          1-18-1978:   RUN DATE
 RUN .                  1:   RUN NUMBER
 DD  .F               645:   DEPTH DRILLER
 DL  .F               648:   DEPTH LOGGER
 BLI .F               642:   BOTTOM LOG INTERVAL
 TLI .F                39:   TOP LOG INTERVAL
 CS  .IN            8.625:   CASING SIZE
 CBD .F                39:   CASING BOTTOM DRILLER
 BS  .IN            7.875:   BIT SIZE
 BSD .F               645:   BIT SIZE AT DEPTH
 DFT .                KCL:   DRILLING FLUID TYPE
 DFD .                8.8:   DRILLING FLUID DENSITY
 DFV .                 34:   DRILLING FLUID VISCOSITY
 DFPH.                9.5:   DRILLING FLUID PH
 DFL .                6.4:   DRILLING FLUID LOSS
 MSS .                PIT:   MUD SAMPLE SOURCE
 RMS .OHMM            .38:   RESISTIVITY MUD SAMPLE
 MST .F                43:   MUD SAMPLE TEMPERATURE
 RMF .OHMM            .26:   RESISTIVITY MUD FILTRATE SAMPLE
 MFST.F                70:   MUD FILTRATE SAMPLE TEMPERATURE
 RMC .OHMM            .42:   RESISTIVITY MUD CAKE
 MCST.F                70:   MUD CAKE SAMPLE TEMPERATURE
 MFSS.           MEASURED:   MUD FILTRATE SAMPLE SOURCE
 MCSS.           MEASURED:   MUD CAKE SAMPLE SOURCE
 RMB .OHMM            .24:   RESISTIVITY MUD AT BHT
 BHT .F                69:   BOTTOM HOLE TEMPERATURE
 TCS .HRS               2:   TIME CURCULATED STOPPED
 MRT .F                69:   MAXIMUM RECORDED TEMPERATURE
 LUN .               2958:   LOGGING UNIT NUMBER
 LUL .             CASPER:   LOGGING UNIT LOCATION
 ENGI.           REYNOLDS:   RECORDING ENGINEER
 WITN.         HARRINGTON:   WITNESSED BY
 CLNT.            A2DTECH:   CLIENT CODE
 ORIG.      2" , 5" PRINT:   ORIGIN OF DATA
 UWI .       490251055600:   UNIQUE WELL ID
 DICO. A2D Technologies, Inc.:   DIGITIZING COMPANY
~OTHER INFORMATION
~A   DEPT     CALD       CORR       DPHI         GRD      RHOB        ILD        SPR         SN   
# ...
  144.0000     7.6832     0.1137     0.1308    89.2531     2.4367     7.8267   -23.7324     6.7894
  144.5000     7.6697     0.1115     0.1344    90.6006     2.4330     7.9380   -23.7262     6.8383
  145.0000     7.6719     0.1069     0.1350    90.7594     2.4323     8.0509   -23.7191     6.9353
  145.5000     7.6736     0.1009     0.1356    90.3239     2.4278     8.0532   -23.5644     7.0336
  146.0000     7.6754     0.0972     0.1388    88.5511     2.4203     8.0554   -23.5585     7.1334
  146.5000     7.6771     0.0951     0.1445    86.7783     2.4083     8.1136   -23.5526     7.1353
  147.0000     7.6938     0.0966     0.1535    87.2343     2.3948     8.1158   -23.5467     7.1373
  147.5000     7.6955     0.0967     0.1571    87.6903     2.3903     8.1227   -23.3920     7.1393
  148.0000     7.7270     0.0997     0.1562    89.1864     2.3896     8.1767   -23.3862     7.1907
  148.5000     7.7585     0.1013     0.1541    90.9771     2.3920     8.1790   -23.5291     7.3436
  149.0000     7.7899     0.0998     0.1532    90.3952     2.3950     8.1817   -23.6720     7.4478
  149.5000     7.8066     0.0991     0.1528    90.2571     2.3958     8.1839   -23.6661     7.5534
  150.0000     7.8232     0.0977     0.1528    90.7149     2.3973     8.1862   -23.3626     7.6079
  150.5000     7.8547     0.0977     0.1531    92.2111     2.3996     8.0752   -23.2079     7.6635
  151.0000     7.8713     0.0969     0.1461    91.6270     2.4116     8.0780   -23.2020     7.7730
  151.5000     7.9052     0.0948     0.1415    87.1797     2.4207     8.0802   -23.1961     7.7759
  152.0000     7.9495     0.0873     0.1398    86.7416     2.4231     8.0824   -23.1902     7.7788
  152.5000     7.9661     0.0806     0.1401    87.4974     2.4200     8.1408   -22.8866     7.7817
  153.0000     7.9828     0.0783     0.1431    90.1823     2.4170     8.1431   -22.8807     7.7847
  153.5000     7.9994     0.0784     0.1427    90.7843     2.4171     8.1453   -22.8748     7.6801
  154.0000     7.9998     0.0777     0.1388    87.9740     2.4228     8.1476   -23.0179     7.6301
  154.5000     7.9999     0.0777     0.1364    87.2388     2.4277     8.1498   -23.0118     7.5290
  155.0000     7.9999     0.0770     0.1342    87.4002     2.4315     8.1520   -23.0059     7.3774
  155.5000     8.0000     0.0763     0.1339    87.5591     2.4352     8.1543   -23.0000     7.2789
  156.0000     8.0000     0.0771     0.1327    88.0151     2.4383     8.1565   -22.9940     7.2315
  156.5000     8.0000     0.0749     0.1312    87.8767     2.4391     8.1019   -23.1370     7.2343
  157.0000     8.0001     0.0742     0.1315    86.8470     2.4323     8.1047   -23.1310     7.2370
  157.5000     8.0001     0.0780     0.1326    82.2462     2.4293     8.1069   -23.1250     7.2398
  158.0000     8.0002     0.0810     0.1383    84.1754     2.4256     8.1655   -23.1190     7.2425
  158.5000     8.0002     0.0939     0.1419    89.8687     2.4181     8.1677   -23.1131     7.2453
  159.0000     8.0002     0.1022     0.1380    90.3061     2.4302     8.1700   -22.9572     7.1980
  159.5000     8.0003     0.1068     0.1311    90.6157     2.4377     8.2290   -22.9513     7.2014
  160.0000     8.0003     0.1099     0.1295    92.5576     2.4408     8.2313   -22.9453     7.2041
  160.5000     8.0003     0.1107     0.1286    93.0137     2.4438     8.2336   -22.9394     7.2068
  161.0000     8.0004     0.1092     0.1280    92.7268     2.4454     8.2358   -22.9335     7.2095
  161.5000     8.0004     0.1091     0.1286    93.0342     2.4429     8.2381   -23.0764     7.2122
  162.0000     8.0005     0.1108     0.1309    94.5278     2.4332     8.2404   -23.0705     7.2649
  162.5000     8.0005     0.1139     0.1330    93.0548     2.4311     8.2427   -23.0646     7.2676
  163.0000     8.0005     0.1177     0.1336    91.8764     2.4319     8.2449   -23.0587     7.3207
  163.5000     8.0006     0.1230     0.1330    90.9951     2.4365     8.2472   -23.0528     7.3235
  164.0000     8.0006     0.1231     0.1272    90.2624     2.4478     8.2495   -23.0469     7.3262
  164.5000     8.0006     0.1209     0.1245    89.6784     2.4493     8.2523   -22.8922     7.3290
  165.0000     8.0007     0.1216     0.1248    89.5375     2.4471     8.3119   -22.7375     7.3317
  165.5000     8.0007     0.1232     0.1248    90.7391     2.4486     8.3719   -22.2851     7.3345
  166.0000     8.0008     0.1232     0.1248    93.5725     2.4487     8.3742   -21.9816     7.4392
  166.5000     8.0008     0.1233     0.1247    94.9201     2.4495     8.3182   -21.9747     7.5455
  167.0000     8.0008     0.1233     0.1244    96.1191     2.4495     8.3789   -22.1191     7.7081
  167.5000     8.0009     0.1241     0.1241    98.5068     2.4488     8.4980   -22.1131     7.8706
  168.0000     8.0009     0.1242     0.1238    98.3566     2.4488     8.6788   -22.1071     7.9281
  168.5000     8.0009     0.1241     0.1234    94.4710     2.4488     8.8635   -22.0848     7.9861
  169.0000     8.0010     0.1235     0.1234    91.4434     2.4481     8.9275   -21.9464     7.9897
  169.5000     7.9276     0.1236     0.1231    87.6102     2.4491     8.9920   -21.7917     8.0481
  170.0000     7.8840     0.1229     0.1219    86.9683     2.4549     9.0570   -21.7845     8.2196
  170.5000     7.8404     0.1221     0.1197    88.0212     2.4565     9.0595   -21.7786     8.4529
  171.0000     7.8116     0.1214     0.1182    91.1519     2.4565     9.0620   -21.7727     8.6331
  171.5000     7.7829     0.1191     0.1183    93.6882     2.4558     9.0013   -21.7668     8.7564
  172.0000     7.7542     0.1110     0.1188    92.8069     2.4520     9.0044   -21.9112     8.8204
  172.5000     7.7403     0.0997     0.1203    90.2912     2.4476     9.0069   -21.7550     8.8237
  173.0000     7.7265     0.0967     0.1245    88.9642     2.4378     9.0093   -21.7491     8.8270
  173.5000     7.6977     0.0938     0.1350    87.3400     2.4258     9.0118   -21.4456     8.8303
  174.0000     7.6841     0.0915     0.1404    86.1616     2.4206     9.0769   -21.4396     8.8948
  174.5000     7.6852     0.0908     0.1425    84.6860     2.4146     9.1425   -21.2849     8.9598
  175.0000     7.6710     0.0916     0.1433    82.9132     2.4146     9.2726   -21.2790     9.0878
  175.5000     7.6723     0.0947     0.1433    81.1404     2.4161     9.4698   -21.4234     9.2176
  176.0000     7.6585     0.0940     0.1424    81.4479     2.4177     9.6713   -21.4160     9.4140
  176.5000     7.6446     0.0895     0.1418    82.9440     2.4123     9.8770   -21.4101     9.6147
  177.0000     7.6456     0.0903     0.1469    83.8458     2.3918    10.0175   -20.9578     9.8876
  177.5000     7.6467     0.0919     0.1580    83.5589     2.3829    10.2306   -20.2078    10.0406
  178.0000     7.6626     0.0942     0.1646    82.5291     2.3794    10.3762   -20.4995    10.3232
  178.5000     7.6636     0.0980     0.1646    81.4993     2.3832    10.6001   -20.6439    10.5469
  179.0000     7.6795     0.0988     0.1624    81.2124     2.3870    10.6790   -21.2318    10.7589
  179.5000     7.6805     0.0988     0.1591    82.7345     2.3953    10.8332   -21.5235    10.8375
  180.0000     7.7113     0.0981     0.1537    83.3135     2.3999    10.9137   -21.3688    10.9166
  180.5000     7.7570     0.0982     0.1485    83.4993     2.4059    10.9824   -21.2140    11.0726
  181.0000     7.7878     0.0974     0.1453    85.5651     2.4135    10.9095   -21.2081    11.0005
  181.5000     7.8203     0.0966     0.1421    88.3986     2.4180    10.8372   -21.3510    11.0046
  182.0000     7.8669     0.0923     0.1409    89.5976     2.4195    10.8409   -21.4939    10.9320
  182.5000     7.9102     0.0885     0.1412    90.3508     2.4211    10.6940   -21.6369    10.7871
  183.0000     7.9410     0.0856     0.1412    90.3611     2.4188    10.5498   -21.7798    10.6422
  183.5000     7.9866     0.0833     0.1415    88.2911     2.4189    10.3358   -21.9226    10.5002
  184.0000     7.9877     0.0819     0.1418    84.2895     2.4189    10.3393   -22.0655    10.2888
