~VERSION INFORMATION
 VERS.                2.0:   CWLS LOG ASCII STANDARD - VERSION 2.0
 WRAP.                 NO:   ONE LINE PER DEPTH STEP
~WELL INFORMATION
#MNEM.UNIT      DATA TYPE    INFORMATION
#----------   ------------   ------------------------------
 STRT.F           14.0000:   START DEPTH
 STOP.F          608.0000:   STOP DEPTH
 STEP.F            0.1000:   STEP LENGTH
 NULL.          -999.2500:   NO VALUE
 COMP. FENIX & SCISSON INC:   COMPANY
 WELL. NAVAL PETROLEUM RESERVE 3 S-15 #72-15:   WELL
 FLD .             TEAPOT:   FIELD
 LOC .      S15 T38N R78W:   LOCATION
 CNTY.            NATRONA:   COUNTY
 STAT.            WYOMING:   STATE
 CTRY. UNITED STATES OF AMERICA:   COUNTRY
 SRVC.           BIRDWELL:   SERVICE COMPANY
 DATE.        21-JUL-1978:   LOGDATE
 API .       490251067300:   API NUMBER
~CURVE INFORMATION
#MNEM.UNIT       API CODE    CURVE DESCRIPTION
#----------   ------------   ------------------------------
 DEPT.F                  :   
 ILD .OHMM   05 120 46 00:   INDUCTION LOG DEEP
 SN  .OHMM   05 040 16 00:   SHORT NORMAL 16"
 SPR .MV     05 010 01 00:   SPONTANEOUS POTENTIAL FROM RES.
 CALD.IN     45 280 60 00:   CALIPER FROM DENSITY LOG
 DPHI.DEC    45 890 12 00:   DENSITY POROSITY SANDSTONE
 DRHO.G/C3   45 356 01 00:   DENSITY CORRECTION
 GRD .GAPI   45 310 01 00:   GAMMA RAY FROM DENSITY LOG
 RHOB.G/C3   45 350 01 00:   BULK DENSITY
~PARAMETER INFORMATION
#MNEM.UNIT          VALUE    DESCRIPTION
#----------   ------------   ------------------------------
 PD  .                 GL:   PERMANENT DATUM
 EPD .F              5238:   ELEVATION PERMANENT DATUM
 LMF .                 KB:   LOG MEASURED FROM
 DAPD.F                 4:   FEET ABOVE PERMANENT DATUM
 DMF .                 KB:   DRILLING MEASURED FROM
 EKB .F              5242:   KELLING BUSHING
 EGL .F              5238:   GROUND LEVEL
 DATE.        21-JUL-1978:   RUN DATE
 RUN .                  1:   RUN NUMBER
 DD  .F               597:   DEPTH DRILLER
 DL  .F               615:   DEPTH LOGGER
 BLI .F               608:   BOTTOM LOG INTERVAL
 TLI .F                35:   TOP LOG INTERVAL
 CS  .IN            8.625:   CASING SIZE
 CBD .F                40:   CASING BOTTOM DRILLER
 CBL .F                35:   CASING BOTTOM LOGGER
 BS  .IN            7.875:   BIT SIZE
 BSD .F               597:   BIT SIZE AT DEPTH
 DFT .                KCL:   DRILLING FLUID TYPE
 DFD .                8.6:   DRILLING FLUID DENSITY
 DFV .                 33:   DRILLING FLUID VISCOSITY
 DFPH.                9.0:   DRILLING FLUID PH
 MSS .            MUD PIT:   MUD SAMPLE SOURCE
 MFSS.               MEAS:   MUD FILTRATE SAMPLE SOURCE
 MCSS.               MEAS:   MUD CAKE SAMPLE SOURCE
 BHT .F                74:   BOTTOM HOLE TEMPERATURE
 TCS .HRS               2:   TIME CURCULATED STOPPED
 MRT .F                74:   MAXIMUM RECORDED TEMPERATURE
 LUN .               2958:   LOGGING UNIT NUMBER
 LUL .             CASPER:   LOGGING UNIT LOCATION
 ENGI.             MILLER:   RECORDING ENGINEER
 WITN.           MCGINLEY:   WITNESSED BY
 CLNT.            A2DTECH:   CLIENT CODE
 ORIG.           5" PRINT:   ORIGIN OF DATA
 UWI .       490251067300:   UNIQUE WELL ID
 DICO. A2D Technologies, Inc.:   DIGITIZING COMPANY
~OTHER INFORMATION
~A   DEPT      ILD         SN        SPR       CALD       DPHI       DRHO         GRD      RHOB   
# ...
  224.6000     8.4690     8.8204   -18.4385     7.7245     0.1070     0.0522    95.4266     2.5019
  224.7000     8.4685     8.8202   -18.4390     7.7324     0.1061     0.0534    95.1786     2.5026
  224.8000     8.4679     8.8199   -18.4396     7.7418     0.1052     0.0547    94.8885     2.5032
  224.9000     8.4673     8.8197   -18.4402     7.7417     0.1046     0.0552    94.5798     2.5038
  225.0000     8.4667     8.8194   -18.4408     7.7417     0.1037     0.0558    94.2836     2.5044
  225.1000     8.4662     8.8192   -18.4414     7.7417     0.1029     0.0567    93.9873     2.5045
  225.2000     8.4656     8.8190   -18.4420     7.7416     0.1021     0.0577    93.6157     2.5048
  225.3000     8.4650     8.8187   -18.4426     7.7459     0.1014     0.0577    93.2250     2.5056
  225.4000     8.4644     8.8185   -18.4432     7.7575     0.1018     0.0577    92.9897     2.5068
  225.5000     8.4638     8.8182   -18.4438     7.7636     0.1023     0.0577    92.7416     2.5075
  225.6000     8.4632     8.8180   -18.4444     7.7698     0.1030     0.0582    92.4935     2.5080
  225.7000     8.4627     8.8177   -18.4450     7.7717     0.1039     0.0594    92.2454     2.5086
  225.8000     8.4621     8.8060   -18.4456     7.7717     0.1044     0.0607    91.9974     2.5090
  225.9000     8.4615     8.7810   -18.4056     7.7746     0.1049     0.0607    91.7112     2.5091
  226.0000     8.4609     8.7563   -18.3448     7.7867     0.1050     0.0615    91.6058     2.5097
  226.1000     8.4603     8.7561   -18.2975     7.7867     0.1048     0.0622    91.6360     2.5103
  226.2000     8.4597     8.7558   -18.2981     7.7965     0.1046     0.0624    91.8087     2.5109
  226.3000     8.4592     8.7556   -18.2987     7.8017     0.1043     0.0636    92.0322     2.5112
  226.4000     8.4586     8.7553   -18.2037     7.8017     0.1038     0.0636    92.1592     2.5114
  226.5000     8.4580     8.7551   -18.1499     7.8017     0.1038     0.0636    92.2775     2.5119
  226.6000     8.4574     8.7548   -18.1505     7.8016     0.1036     0.0636    92.4921     2.5113
  226.7000     8.4568     8.7546   -18.1511     7.8016     0.1034     0.0640    92.6090     2.5112
  226.8000     8.4562     8.7544   -18.1518     7.8016     0.1032     0.0651    92.6830     2.5112
  226.9000     8.4556     8.7541   -18.1523     7.8015     0.1032     0.0651    92.9191     2.5112
  227.0000     8.4550     8.7539   -18.1529     7.8015     0.1027     0.0661    93.0587     2.5112
  227.1000     8.4545     8.7536   -18.1535     7.8015     0.1026     0.0673    93.1644     2.5112
  227.2000     8.4539     8.7534   -18.1541     7.8014     0.1025     0.0681    93.2078     2.5117
  227.3000     8.4533     8.7336   -18.1530     7.8014     0.1022     0.0682    93.2589     2.5119
  227.4000     8.4527     8.7087   -18.0308     7.8014     0.1020     0.0696    93.3816     2.5119
  227.5000     8.4521     8.6924   -18.0060     7.8014     0.1020     0.0696    93.5068     2.5119
  227.6000     8.4516     8.6922   -18.0066     7.8013     0.1018     0.0696    93.5059     2.5119
  227.7000     8.4510     8.6919   -17.9639     7.8013     0.1016     0.0696    93.5050     2.5119
  227.8000     8.4504     8.7065   -17.8578     7.8013     0.1014     0.0695    93.5041     2.5119
  227.9000     8.4498     8.7227   -17.8585     7.8012     0.1014     0.0695    93.5032     2.5119
  228.0000     8.4492     8.7389   -17.8591     7.8012     0.1014     0.0695    93.5023     2.5119
  228.1000     8.4485     8.7512   -17.8597     7.8012     0.1014     0.0695    93.5012     2.5119
  228.2000     8.4481     8.7510   -17.8603     7.8011     0.1012     0.0695    93.5005     2.5119
  228.3000     8.4475     8.7507   -17.8609     7.8011     0.1011     0.0695    93.4725     2.5119
  228.4000     8.4469     8.7505   -17.8597     7.8011     0.1011     0.0695    93.4304     2.5119
  228.5000     8.4463     8.7502   -17.7989     7.8011     0.1008     0.0684    93.3883     2.5119
  228.6000     8.4457     8.7557   -17.7380     7.7989     0.1008     0.0672    93.3460     2.5119
  228.7000     8.4451     8.7720   -17.7133     7.7927     0.1006     0.0659    93.2836     2.5119
  228.8000     8.4446     8.7883   -17.7139     7.7859     0.1004     0.0647    93.2209     2.5119
  228.9000     8.4440     8.8046   -17.7145     7.7821     0.1002     0.0635    93.1925     2.5119
  229.0000     8.4434     8.8097   -17.7152     7.7780     0.1002     0.0611    93.1916     2.5119
  229.1000     8.4428     8.8095   -17.6588     7.7738     0.1002     0.0596    93.1907     2.5119
  229.2000     8.4422     8.8150   -17.5980     7.7706     0.1000     0.0584    93.1896     2.5119
  229.3000     8.4416     8.8397   -17.5670     7.7706     0.0999     0.0571    93.0785     2.5119
  229.4000     8.4698     8.8645   -17.5676     7.7706     0.0999     0.0559    92.9540     2.5119
  229.5000     8.4990     8.8827   -17.5682     7.7657     0.0999     0.0547    92.8854     2.5119
  229.6000     8.5059     8.8993   -17.5689     7.7595     0.0999     0.0535    92.8559     2.5119
  229.7000     8.5566     8.9158   -17.4682     7.7540     0.0999     0.0523    92.7314     2.5119
  229.8000     8.5561     8.9333   -17.4201     7.7498     0.0999     0.0511    92.6069     2.5118
  229.9000     8.5555     8.9584   -17.4207     7.7457     0.1001     0.0498    92.5801     2.5114
  230.0000     8.5549     8.9835   -17.4213     7.7415     0.1004     0.0484    92.5088     2.5107
  230.1000     8.5672     9.0087   -17.4219     7.7360     0.1008     0.0469    92.3843     2.5103
  230.2000     8.6130     9.0339   -17.4225     7.7298     0.1013     0.0451    92.2439     2.5102
  230.3000     8.6123     9.0572   -17.3344     7.7250     0.1022     0.0435    91.9731     2.5088
  230.4000     8.6318     9.0741   -17.2738     7.7249     0.1033     0.0423    91.8600     2.5078
  230.5000     8.6556     9.0910   -17.2744     7.7125     0.1046     0.0409    91.5656     2.5065
  230.6000     8.6702     9.1078   -17.2750     7.7098     0.1057     0.0398    91.1363     2.5048
  230.7000     8.6696     9.1296   -17.2757     7.7028     0.1068     0.0378    90.6715     2.5021
  230.8000     8.6690     9.1552   -17.2762     7.6904     0.1086     0.0354    90.2934     2.4983
  230.9000     8.6685     9.1778   -17.2768     7.6795     0.1102     0.0334    89.5543     2.4954
  231.0000     8.6795     9.1775   -17.2774     7.6795     0.1115     0.0334    89.1553     2.4932
  231.1000     8.6952     9.2122   -17.2780     7.6684     0.1124     0.0311    88.7324     2.4911
  231.2000     8.7110     9.2458   -17.2786     7.6560     0.1132     0.0295    88.4058     2.4887
  231.3000     8.7282     9.2652   -17.2792     7.6436     0.1139     0.0283    88.1578     2.4863
  231.4000     8.7858     9.2846   -17.2798     7.6312     0.1146     0.0268    87.8907     2.4856
  231.5000     8.7853     9.3040   -17.2804     7.6189     0.1153     0.0243    87.5475     2.4856
  231.6000     8.8144     9.3302   -17.2810     7.6189     0.1161     0.0232    87.2627     2.4859
  231.7000     8.8450     9.3563   -17.2816     7.6188     0.1168     0.0220    87.0743     2.4863
  231.8000     8.8520     9.3974   -17.2822     7.6188     0.1177     0.0207    86.9174     2.4863
  231.9000     8.9050     9.4324   -17.1777     7.6146     0.1187     0.0195    86.6745     2.4863
  232.0000     8.9044     9.4321   -17.1334     7.6022     0.1192     0.0183    86.5277     2.4868
  232.1000     8.9038     9.4318   -17.1340     7.5885     0.1189     0.0171    87.4402     2.4874
  232.2000     8.9032     9.4316   -17.1346     7.5885     0.1182     0.0159    88.6999     2.4878
  232.3000     8.9158     9.4313   -17.1352     7.5719     0.1180     0.0153    90.0113     2.4879
  232.4000     8.9656     9.4430   -17.1358     7.5582     0.1178     0.0153    91.3646     2.4885
  232.5000     9.0250     9.4695   -17.1364     7.5582     0.1177     0.0153    93.4615     2.4885
  232.6000     9.0454     9.4960   -17.1370     7.5581     0.1179     0.0153    93.5767     2.4881
