~VERSION INFORMATION
 VERS.                2.0:   CWLS LOG ASCII STANDARD - VERSION 2.0
 WRAP.                 NO:   ONE LINE PER DEPTH STEP
~WELL INFORMATION
#MNEM.UNIT      DATA TYPE    INFORMATION
#----------   ------------   ------------------------------
 STRT.F            8.0000:   START DEPTH
 STOP.F          664.0000:   STOP DEPTH
 STEP.F            0.5000:   STEP LENGTH
 NULL.          -999.2500:   NO VALUE
 COMP. LAWRENCE/ALLISON INC:   COMPANY
 WELL.    13-61 SX #11-11:   WELL
 FLD .             TEAPOT:   FIELD
 LOC .      S11 T38N R78W:   LOCATION
 CNTY.            NATRONA:   COUNTY
 STAT.            WYOMING:   STATE
 CTRY. UNITED STATES OF AMERICA:   COUNTRY
 SRVC.           Gearhart:   SERVICE COMPANY
 DATE.        22-JUN-1986:   LOGDATE
 API .       490251109700:   API NUMBER
~CURVE INFORMATION
#MNEM.UNIT       API CODE    CURVE DESCRIPTION
#----------   ------------   ------------------------------
 DEPT.F                  :   
 GRR .GAPI   07 310 01 00:   GAMMA RAY FROM RES. LOG.
 ILM .OHMM   07 120 44 00:   INDUCTION LOG MEDIUM
 ILD .OHMM   07 120 46 00:   INDUCTION LOG DEEP
~PARAMETER INFORMATION
#MNEM.UNIT          VALUE    DESCRIPTION
#----------   ------------   ------------------------------
 PD  .                 GL:   PERMANENT DATUM
 EPD .F              5154:   ELEVATION PERMANENT DATUM
 LMF .                 KB:   LOG MEASURED FROM
 DAPD.F                 5:   FEET ABOVE PERMANENT DATUM
 DMF .                 KB:   DRILLING MEASURED FROM
 EKB .F              5159:   KELLING BUSHING
 EGL .F              5154:   GROUND LEVEL
 DATE.            6-22-86:   RUN DATE
 RUN .                  1:   RUN NUMBER
 DD  .F               675:   DEPTH DRILLER
 DL  .F               673:   DEPTH LOGGER
 BLI .F               664:   BOTTOM LOG INTERVAL
 CS  .IN            8.625:   CASING SIZE
 CBD .F                44:   CASING BOTTOM DRILLER
 CBL .F                46:   CASING BOTTOM LOGGER
 BS  .IN            7.875:   BIT SIZE
 BSD .F               675:   BIT SIZE AT DEPTH
 DFT .                AIR:   DRILLING FLUID TYPE
 TCS .HRS            1830:   TIME CURCULATED STOPPED
 MRT .F                69:   MAXIMUM RECORDED TEMPERATURE
 LUN .               7609:   LOGGING UNIT NUMBER
 LUL .           GILLETTE:   LOGGING UNIT LOCATION
 ENGI.            WANGLER:   RECORDING ENGINEER
 WITN.              DAVIS:   WITNESSED BY
 CLNT.            A2DTECH:   CLIENT CODE
 ORIG.       2", 5" PRINT:   ORIGIN OF DATA
 UWI .       490251109700:   UNIQUE WELL ID
 DICO. A2D Technologies, Inc.:   DIGITIZING COMPANY
~OTHER INFORMATION
~A    DEPT      GRR       ILM        ILD   
# ...
  554.0000    98.1085     8.9636     8.5788
  554.5000    99.6657     8.4540     7.9082
  555.0000   103.3569     7.9100     7.2883
  555.5000   108.8343     7.4023     6.8429
  556.0000   112.0370     6.8538     6.4528
  556.5000   115.6378     6.3320     6.0850
  557.0000   123.1095     5.8499     5.8624
  557.5000   131.6671     5.5824     5.8316
  558.0000   136.7238     5.4600     5.9248
  558.5000   127.8091     5.4088     5.9901
  559.0000   113.2634     5.9038     6.3896
  559.5000   102.2997     6.3554     6.8650
  560.0000    99.1825     6.8386     7.3793
  560.5000    99.2368     7.3612     7.9326
  561.0000   100.1634     7.9221     8.5207
  561.5000   100.1714     8.5256     9.0494
  562.0000    97.0453     9.0489     9.4856
  562.5000    92.8807     9.4892     9.9442
  563.0000    91.3115     9.9697    10.2207
  563.5000    91.7866    10.0659    10.3236
  564.0000    93.0093    10.1673    10.4306
  564.5000    95.2039    10.2694    10.5389
  565.0000    97.3874    10.3960    10.6483
  565.5000    99.5846    10.6263    10.8402
  566.0000   100.2261    10.8608    11.0843
  566.5000    99.3345    11.1005    11.3340
  567.0000    98.4421    11.3455    11.5892
  567.5000    97.8949    11.5958    11.8503
  568.0000    99.9847    11.8517    12.1184
  568.5000   102.3633    12.1133    12.3012
  569.0000   104.1219    12.2919    12.4482
  569.5000   103.4980    12.3546    12.5969
  570.0000   100.9626    12.4177    12.7324
  570.5000    98.5089    12.4810    12.7716
  571.0000    96.0331    12.5447    12.8073
  571.5000    96.2193    12.6088    12.8439
  572.0000    97.2580    12.6731    12.8752
  572.5000    97.1940    12.7378    12.9175
  573.0000    94.8292    12.8028    12.9600
  573.5000    92.4957    12.8681    13.0025
  574.0000    91.2965    12.9338    13.0452
  574.5000    92.9759    12.9743    13.0887
  575.0000    96.0192    12.8309    13.0971
  575.5000    99.0474    12.7879    13.0969
  576.0000   101.6846    12.7582    13.0970
  576.5000   103.7354    12.7286    13.0977
  577.0000   104.8028    12.6992    13.0438
  577.5000   104.4299    12.6698    12.9805
  578.0000   102.6549    12.6406    12.9174
  578.5000   100.8707    12.6144    12.8546
  579.0000    99.0935    12.5528    12.7922
  579.5000    97.3403    12.4845    12.7300
  580.0000    96.8919    12.4162    12.6681
  580.5000    96.6232    12.3484    12.6132
  581.0000    96.3535    12.2808    12.4895
  581.5000    96.1005    12.1397    12.3181
  582.0000    96.7035    11.9723    12.1490
  582.5000    99.1739    11.8072    11.9823
  583.0000   101.5913    11.6444    11.8178
  583.5000   103.6635    11.4838    11.6556
  584.0000   104.4908    11.3254    11.4956
  584.5000   105.2950    11.1692    11.3378
  585.0000   107.6811    11.0151    11.1822
  585.5000   107.3102    10.8632    11.0287
  586.0000   104.8687    10.7134    10.8773
  586.5000   101.6776    10.5657    10.6929
  587.0000   104.2798    10.4199    10.5329
  587.5000   108.3230    10.2762    10.4670
  588.0000   108.1735    10.1999    10.4015
  588.5000   104.5448    10.1355    10.3365
  589.0000   104.0519    10.0715    10.2718
  589.5000   105.9977    10.0079    10.2076
  590.0000   108.6886     9.9447    10.1437
  590.5000   111.0108     9.8819    10.0803
  591.0000   112.2349     9.8195    10.0172
  591.5000   114.7637     9.7575     9.9545
  592.0000   117.4284     9.6922     9.8923
  592.5000   118.8280     9.5782     9.7757
  593.0000   116.7111     9.4585     9.6418
  593.5000   113.0125     9.3403     9.5097
  594.0000   110.0571     9.2236     9.3794
  594.5000   107.5863     9.1083     9.2507
  595.0000   105.1446     8.9945     9.1242
  595.5000   103.6184     8.8821     9.0197
  596.0000   105.5665     8.7711     8.8860
  596.5000   107.5433     8.6615     8.7543
  597.0000   108.2681     8.5532     8.6245
  597.5000   109.1284     8.4463     8.4967
  598.0000   112.6676     8.3408     8.3707
  598.5000   117.1996     8.2365     8.2475
  599.0000   121.0237     8.0494     8.1201
  599.5000   122.4978     7.8499     7.9934
  600.0000   119.6868     7.6546     7.8353
  600.5000   116.9157     7.4644     7.5996
  601.0000   117.2172     7.2790     7.3710
  601.5000   117.7694     7.0982     7.1844
  602.0000   116.1591     6.9219     7.0389
  602.5000   112.8347     6.7790     7.1298
  603.0000   111.4591     6.8850     7.2541
  603.5000   112.6554     7.1915     7.4941
  604.0000   116.2209     7.5172     7.8338
  604.5000   119.6057     7.8539     8.1890
  605.0000   120.6686     8.2113     8.5208
  605.5000   116.4252     8.5853     8.8379
  606.0000   112.0907     8.9763     9.1669
  606.5000   107.8290     9.3852     9.5081
  607.0000   107.5313     9.8126     9.8620
  607.5000   109.2569     9.9857    10.0751
  608.0000   111.0858    10.0107    10.1003
  608.5000   110.1652    10.0358    10.1256
  609.0000   108.4441    10.0639    10.1585
  609.5000   106.9713     9.9756    10.1051
  610.0000   109.1674     9.8763    10.0246
  610.5000   111.2208     9.7780     9.9455
  611.0000   111.9386     9.6922     9.8670
  611.5000   112.6905     9.6922     9.7838
  612.0000   114.0093     9.6924     9.7577
  612.5000   115.2147     9.6922     9.7221
  613.0000   112.5994     9.6922     9.6866
  613.5000   109.6556     9.6922     9.6513
  614.0000   108.1640     9.6928     9.6015
  614.5000   110.1740     9.6537     9.7838
  615.0000   111.3636     9.5886     9.5414
  615.5000   109.0363     9.5237     9.2469
  616.0000   106.2983     9.3658     9.2128
  616.5000   105.7551     9.1335     9.1792
  617.0000   108.6477     8.9091     9.0319
  617.5000   111.4326     8.7357     8.5111
  618.0000   113.0883     8.2113     8.0265
  618.5000   114.1739     7.7378     7.3246
  619.0000   113.2912     7.2917     6.6730
  619.5000   112.4604     6.9019     5.8912
  620.0000   111.9023     6.1325     5.1872
  620.5000   112.1524     5.4894     4.5674
  621.0000   113.3149     4.8771     4.0218
  621.5000   115.6019     4.2565     3.5382
  622.0000   118.9437     3.6716     3.1836
  622.5000   120.0679     3.1642     2.9604
  623.0000   117.0256     2.8267     2.6710
  623.5000   111.0813     2.6783     2.6829
  624.0000   105.1594     2.5979     2.7538
  624.5000   100.6453     2.6861     2.9128
  625.0000    98.2958     2.8617     3.0903
  625.5000    99.0576     3.0470     3.4138
  626.0000   103.1334     3.5573     3.9297
  626.5000   108.5164     4.1467     4.5252
  627.0000   112.2640     4.8339     5.2106
  627.5000   112.4071     5.6349     5.9990
  628.0000   108.6224     6.4331     6.9071
  628.5000   102.9504     7.2635     7.5782
  629.0000   100.5366     7.6631     7.8664
  629.5000   102.6409     8.0010     8.1656
  630.0000   108.0419     8.1728     8.3143
  630.5000   113.4265     8.2704     8.3937
  631.0000   115.8564     8.3378     8.4961
  631.5000   114.4469     8.3062     8.4799
  632.0000   112.9301     8.2780     8.4490
  632.5000   113.5996     8.2530     8.4168
  633.0000   115.9188     8.2333     8.4038
  633.5000   117.9479     8.2138     8.3906
  634.0000   117.4441     8.1943     8.3774
  634.5000   116.6629     8.1749     8.3641
  635.0000   115.6207     8.1555     8.3509
  635.5000   114.4737     8.1361     8.3376
  636.0000   112.8400     8.1167     8.3245
  636.5000   111.6068     8.1057     8.3113
  637.0000   114.9471     8.1255     8.2981
  637.5000   119.6330     8.1416     8.2850
  638.0000   123.6339     8.1577     8.2718
  638.5000   121.0576     8.1739     8.2592
  639.0000   115.5651     8.1914     8.2920
  639.5000   111.9184     8.2104     8.3289
  640.0000   113.0569     8.2294     8.3660
  640.5000   113.8427     8.2485     8.4034
  641.0000   113.4967     8.2677     8.4409
  641.5000   113.1504     8.2869     8.4786
  642.0000   113.1701     8.3061     8.4961
  642.5000   114.4383     8.3254     8.3797
  643.0000   118.4224     8.3378     8.2936
  643.5000   122.3853     8.1356     8.2083
  644.0000   123.9176     7.9897     8.1240
  644.5000   123.2819     7.8464     7.9777
