~VERSION INFORMATION
 VERS.                2.0:   CWLS LOG ASCII STANDARD - VERSION 2.0
 WRAP.                 NO:   ONE LINE PER DEPTH STEP
~WELL INFORMATION
#MNEM.UNIT      DATA TYPE    INFORMATION
#----------   ------------   ------------------------------
 STRT.F           10.0000:   START DEPTH
 STOP.F         2599.5000:   STOP DEPTH
 STEP.F            0.5000:   STEP LENGTH
 NULL.          -999.2500:   NO VALUE
 COMP. FENIX & SCISSON INC:   COMPANY
 WELL.   34-SHX-33 #34-33:   WELL
 FLD .             TEAPOT:   FIELD
 LOC .      S33 T39N R78W:   LOCATION
 CNTY.            NATRONA:   COUNTY
 STAT.            WYOMING:   STATE
 CTRY. UNITED STATES OF AMERICA:   COUNTRY
 SRVC.           BIRDWELL:   SERVICE COMPANY
 DATE.        20-FEB-1978:   LOGDATE
 API .       490251058400:   API NUMBER
~CURVE INFORMATION
#MNEM.UNIT       API CODE    CURVE DESCRIPTION
#----------   ------------   ------------------------------
 DEPT.F                  :   
 GR  .GAPI   30 310 01 00:   GAMMA RAY
 CALI.IN     70 280 01 00:   CALIPER
~PARAMETER INFORMATION
#MNEM.UNIT          VALUE    DESCRIPTION
#----------   ------------   ------------------------------
 PD  .                 GL:   PERMANENT DATUM
 EPD .F              5174:   ELEVATION PERMANENT DATUM
 LMF .                 KB:   LOG MEASURED FROM
 DAPD.F                10:   FEET ABOVE PERMANENT DATUM
 DMF .                 KB:   DRILLING MEASURED FROM
 EKB .F              5184:   KELLING BUSHING
 EGL .F              5174:   GROUND LEVEL
 DATE.            2-20-78:   RUN DATE
 RUN .                  1:   RUN NUMBER
 DD  .F              2590:   DEPTH DRILLER
 DL  .F              2600:   DEPTH LOGGER
 BLI .F              2600:   BOTTOM LOG INTERVAL
 CS  .IN            8.625:   CASING SIZE
 CBD .F               737:   CASING BOTTOM DRILLER
 BS  .IN            8.625:   BIT SIZE
 BSD .F              2590:   BIT SIZE AT DEPTH
 TCS .HRS               2:   TIME CURCULATED STOPPED
 LUL .             CASPER:   LOGGING UNIT LOCATION
 ENGI.             MILLER:   RECORDING ENGINEER
 WITN.           MCGINLEY:   WITNESSED BY
 CLNT.            A2DTECH:   CLIENT CODE
 ORIG.           5" PRINT:   ORIGIN OF DATA
 UWI .       490251058400:   UNIQUE WELL ID
 DICO. A2D Technologies, Inc.:   DIGITIZING COMPANY
~OTHER INFORMATION
~A   DEPT        GR      CALI   
   10.0000    23.5644  -999.2500
   10.5000    23.5644  -999.2500
   11.0000    23.5644  -999.2500
   11.5000    29.5049  -999.2500
   12.0000    28.9383  -999.2500
   12.5000    20.1721  -999.2500
   13.0000    22.8537  -999.2500
   13.5000    26.4802  -999.2500
   14.0000    30.1653  -999.2500
   14.5000    31.7150  -999.2500
   15.0000    32.3156  -999.2500
   15.5000    32.9476  -999.2500
   16.0000    33.5810  -999.2500
   16.5000    35.5603  -999.2500
   17.0000    38.7066  -999.2500
   17.5000    41.8620  -999.2500
   18.0000    45.0123  -999.2500
   18.5000    47.4462  -999.2500
   19.0000    45.4705  -999.2500
   19.5000    44.5689  -999.2500
   20.0000    45.6919  -999.2500
   20.5000    48.5149  -999.2500
   21.0000    54.4794  -999.2500
   21.5000    61.5448  -999.2500
   22.0000    68.6357  -999.2500
   22.5000    75.8080  -999.2500
   23.0000    79.4284  -999.2500
   23.5000    82.1580  -999.2500
   24.0000    88.1543  -999.2500
   24.5000   100.1797  -999.2500
   25.0000    98.3660  -999.2500
   25.5000    94.7395  -999.2500
   26.0000    92.6180  -999.2500
   26.5000    93.6398  -999.2500
   27.0000    93.1892  -999.2500
   27.5000    90.9567  -999.2500
   28.0000    91.3500  -999.2500
   28.5000    92.1526  -999.2500
   29.0000    91.9080  -999.2500
   29.5000    90.9961  -999.2500
   30.0000    90.0712  -999.2500
   30.5000    89.7066  -999.2500
   31.0000    89.6449  -999.2500
   31.5000    91.4505  -999.2500
   32.0000    93.6364  -999.2500
   32.5000    92.8962  -999.2500
   33.0000    90.4096  -999.2500
   33.5000    88.3994  -999.2500
   34.0000    87.1433  -999.2500
   34.5000    86.3500  -999.2500
   35.0000    87.3324  -999.2500
   35.5000    86.6634  -999.2500
   36.0000    87.4975  -999.2500
   36.5000    89.7418  -999.2500
   37.0000    91.9598  -999.2500
   37.5000    91.9638  -999.2500
   38.0000    88.9606  -999.2500
   38.5000    86.2458  -999.2500
   39.0000    88.9883  -999.2500
   39.5000    92.3290  -999.2500
   40.0000    92.1657  -999.2500
   40.5000    87.6739  -999.2500
   41.0000    85.6055  -999.2500
   41.5000    88.8538  -999.2500
   42.0000    91.9613  -999.2500
   42.5000    93.5716  -999.2500
   43.0000    93.4082  -999.2500
   43.5000    93.2748  -999.2500
   44.0000    94.1269  -999.2500
   44.5000    95.1175  -999.2500
   45.0000    96.1528  -999.2500
   45.5000    90.3822  -999.2500
   46.0000    81.7830  -999.2500
   46.5000    79.0464  -999.2500
   47.0000    78.1266  -999.2500
   47.5000    74.1430  -999.2500
   48.0000    68.7997  -999.2500
   48.5000    68.2211  -999.2500
   49.0000    74.9569  -999.2500
   49.5000    81.4737  -999.2500
   50.0000    84.2063  -999.2500
   50.5000    86.0473  -999.2500
   51.0000    87.4446  -999.2500
   51.5000    88.4067  -999.2500
   52.0000    87.7634  -999.2500
   52.5000    87.1710  -999.2500
   53.0000    87.4154  -999.2500
   53.5000    90.0130  -999.2500
   54.0000    91.5056  -999.2500
   54.5000    90.1824  -999.2500
   55.0000    89.2981  -999.2500
   55.5000    90.4781  -999.2500
   56.0000    93.4465  -999.2500
   56.5000    94.9893  -999.2500
   57.0000    95.7033  -999.2500
   57.5000    93.1180  -999.2500
   58.0000    89.3875  -999.2500
   58.5000    88.5516  -999.2500
   59.0000    87.5055  -999.2500
   59.5000    83.9647  -999.2500
   60.0000    80.4150  -999.2500
   60.5000    76.7851  -999.2500
   61.0000    79.0907  -999.2500
   61.5000    83.8390  -999.2500
   62.0000    87.4174  -999.2500
   62.5000    87.4667  -999.2500
   63.0000    87.6227  -999.2500
   63.5000    88.3678  -999.2500
   64.0000    91.5226  -999.2500
   64.5000    95.7941  -999.2500
   65.0000    93.1476  -999.2500
   65.5000    88.2207  -999.2500
   66.0000    83.1931  -999.2500
   66.5000    82.1844  -999.2500
   67.0000    83.0257  -999.2500
   67.5000    84.8333  -999.2500
   68.0000    85.3314  -999.2500
   68.5000    85.3549  -999.2500
   69.0000    85.3282  -999.2500
   69.5000    87.4082  -999.2500
   70.0000    90.7406  -999.2500
   70.5000    92.9002  -999.2500
   71.0000    92.5586  -999.2500
   71.5000    90.4255  -999.2500
   72.0000    88.2031  -999.2500
   72.5000    87.3625  -999.2500
   73.0000    86.5932  -999.2500
   73.5000    87.0041  -999.2500
   74.0000    90.7479  -999.2500
   74.5000    90.0625  -999.2500
   75.0000    88.6147  -999.2500
   75.5000    87.7836  -999.2500
   76.0000    90.6644  -999.2500
   76.5000    93.7447  -999.2500
   77.0000    93.9729  -999.2500
   77.5000    90.5020  -999.2500
   78.0000    87.3747  -999.2500
   78.5000    89.0493  -999.2500
   79.0000    88.3828  -999.2500
   79.5000    87.5293  -999.2500
   80.0000    87.9736  -999.2500
   80.5000    83.9677  -999.2500
   81.0000    80.4964  -999.2500
   81.5000    81.2572  -999.2500
   82.0000    85.3225  -999.2500
   82.5000    89.4845  -999.2500
   83.0000    89.1921  -999.2500
   83.5000    84.4455  -999.2500
   84.0000    81.4230  -999.2500
   84.5000    85.1749  -999.2500
   85.0000    90.7752  -999.2500
   85.5000    94.3758  -999.2500
   86.0000    92.2595  -999.2500
   86.5000    88.7677  -999.2500
   87.0000    85.2459  -999.2500
   87.5000    82.2566  -999.2500
   88.0000    80.6170  -999.2500
   88.5000    81.7031  -999.2500
   89.0000    82.3275  -999.2500
   89.5000    81.3102  -999.2500
   90.0000    80.3402  -999.2500
   90.5000    79.7938  -999.2500
   91.0000    79.8259  -999.2500
   91.5000    80.9674  -999.2500
   92.0000    86.8291  -999.2500
   92.5000    91.8770  -999.2500
   93.0000    91.5854  -999.2500
   93.5000    86.6580  -999.2500
   94.0000    83.7113  -999.2500
   94.5000    86.6398  -999.2500
   95.0000    86.4804  -999.2500
   95.5000    85.8472  -999.2500
   96.0000    88.4020  -999.2500
   96.5000    91.3361  -999.2500
   97.0000    93.8108  -999.2500
   97.5000    93.2087  -999.2500
   98.0000    93.1913  -999.2500
   98.5000    95.1578  -999.2500
   99.0000    95.8017  -999.2500
   99.5000    95.4087  -999.2500
  100.0000    92.1610  -999.2500
  100.5000    86.1771  -999.2500
  101.0000    80.2307  -999.2500
  101.5000    75.3487  -999.2500
  102.0000    76.5816  -999.2500
  102.5000    79.8545  -999.2500
  103.0000    82.9114  -999.2500
  103.5000    82.4804  -999.2500
  104.0000    81.6912  -999.2500
  104.5000    81.8411  -999.2500
  105.0000    84.1587  -999.2500
  105.5000    86.4982  -999.2500
  106.0000    86.2523  -999.2500
  106.5000    85.7874  -999.2500
  107.0000    87.8934  -999.2500
  107.5000    87.8165  -999.2500
  108.0000    84.6585  -999.2500
  108.5000    84.0067  -999.2500
  109.0000    83.6563  -999.2500
  109.5000    83.4677  -999.2500
  110.0000    83.5229  -999.2500
  110.5000    84.1428  -999.2500
  111.0000    85.0689  -999.2500
  111.5000    87.0794  -999.2500
  112.0000    88.8832  -999.2500
  112.5000    88.3185  -999.2500
  113.0000    87.6115  -999.2500
  113.5000    86.9262  -999.2500
  114.0000    88.3021  -999.2500
  114.5000    90.5048  -999.2500
  115.0000    89.7936  -999.2500
  115.5000    88.0211  -999.2500
  116.0000    87.0092  -999.2500
  116.5000    90.5704  -999.2500
  117.0000    95.7919  -999.2500
  117.5000    93.1976  -999.2500
  118.0000    88.2743  -999.2500
  118.5000    84.6767  -999.2500
  119.0000    83.9817  -999.2500
  119.5000    82.6135  -999.2500
  120.0000    81.0152  -999.2500
  120.5000    80.2071  -999.2500
  121.0000    80.2050  -999.2500
  121.5000    80.1432  -999.2500
  122.0000    83.1798  -999.2500
  122.5000    87.2527  -999.2500
  123.0000    84.8325  -999.2500
  123.5000    81.8773  -999.2500
  124.0000    82.1533  -999.2500
  124.5000    83.3453  -999.2500
  125.0000    84.5276  -999.2500
  125.5000    84.8585  -999.2500
  126.0000    86.2716  -999.2500
  126.5000    89.7935  -999.2500
  127.0000    93.2823  -999.2500
  127.5000    94.5122  -999.2500
  128.0000    90.0851  -999.2500
  128.5000    87.5903  -999.2500
  129.0000    86.8986  -999.2500
  129.5000    83.6755  -999.2500
  130.0000    79.9120  -999.2500
  130.5000    80.2012  -999.2500
  131.0000    84.1248  -999.2500
