~VERSION INFORMATION
 VERS.                2.0:   CWLS LOG ASCII STANDARD - VERSION 2.0
 WRAP.                 NO:   ONE LINE PER DEPTH STEP
~WELL INFORMATION
#MNEM.UNIT      DATA TYPE    INFORMATION
#----------   ------------   ------------------------------
 STRT.F            0.5000:   START DEPTH
 STOP.F         2271.5000:   STOP DEPTH
 STEP.F            0.5000:   STEP LENGTH
 NULL.          -999.2500:   NO VALUE
 COMP. BROWN JOHN E&C INC:   COMPANY
 WELL. NPR 3 STX-11 #27-11:   WELL
 FLD .             TEAPOT:   FIELD
 LOC .      S11 T38N R78W:   LOCATION
 CNTY.            NATRONA:   COUNTY
 STAT.            WYOMING:   STATE
 CTRY. UNITED STATES OF AMERICA:   COUNTRY
 SRVC.      Dresser Atlas:   SERVICE COMPANY
 DATE.        20-JAN-1993:   LOGDATE
 API .       490251108500:   API NUMBER
~CURVE INFORMATION
#MNEM.UNIT       API CODE    CURVE DESCRIPTION
#----------   ------------   ------------------------------
 DEPT.F                  :   
 ILD .OHMM   07 120 46 00:   INDUCTION LOG DEEP
 ILM .OHMM   07 120 44 00:   INDUCTION LOG MEDIUM
 GRR .GAPI   07 310 01 00:   GAMMA RAY FROM RES. LOG.
~PARAMETER INFORMATION
#MNEM.UNIT          VALUE    DESCRIPTION
#----------   ------------   ------------------------------
 PD  .                 GL:   PERMANENT DATUM
 EPD .F              5187:   ELEVATION PERMANENT DATUM
 LMF .                 KB:   LOG MEASURED FROM
 DAPD.F                12:   FEET ABOVE PERMANENT DATUM
 DMF .                 KB:   DRILLING MEASURED FROM
 EKB .F            5198.8:   KELLING BUSHING
 EDF .F            5197.8:   DRILLING FLOOR
 EGL .F              5187:   GROUND LEVEL
 DATE.            1-20-93:   RUN DATE
 RUN .                  1:   RUN NUMBER
 DD  .F              2279:   DEPTH DRILLER
 DL  .F              2279:   DEPTH LOGGER
 BLI .F              2271:   BOTTOM LOG INTERVAL
 TLI .F               692:   TOP LOG INTERVAL
 CS  .IN            8.625:   CASING SIZE
 CBD .F               689:   CASING BOTTOM DRILLER
 CBL .F               692:   CASING BOTTOM LOGGER
 BS  .IN            7.875:   BIT SIZE
 BSD .F              2279:   BIT SIZE AT DEPTH
 DFT .                OIL:   DRILLING FLUID TYPE
 BHT .F                92:   BOTTOM HOLE TEMPERATURE
 TCS .HRS               2:   TIME CURCULATED STOPPED
 MRT .F                92:   MAXIMUM RECORDED TEMPERATURE
 LUN .            HL-6274:   LOGGING UNIT NUMBER
 LUL .             CASPER:   LOGGING UNIT LOCATION
 ENGI.             RAUTIO:   RECORDING ENGINEER
 WITN.             STRONG:   WITNESSED BY
 CLNT.            A2DTECH:   CLIENT CODE
 ORIG.  2", 5", 20" PRINT:   ORIGIN OF DATA
 UWI .       490251108500:   UNIQUE WELL ID
 DICO. A2D Technologies, Inc.:   DIGITIZING COMPANY
~OTHER INFORMATION
~A    DEPT     ILD        ILM         GRR  
# ...
 1274.5000    13.3869    12.7830   124.1117
 1275.0000    13.4204    12.7832   121.9817
 1275.5000    13.4544    12.7832   121.1083
 1276.0000    13.4884    12.7832   121.3428
 1276.5000    13.5226    12.7832   121.7100
 1277.0000    13.5568    12.7832   121.0709
 1277.5000    13.5912    12.7832   118.3161
 1278.0000    13.6363    12.7832   115.5508
 1278.5000    13.5848    12.7834   113.5294
 1279.0000    13.5102    12.7837   117.8707
 1279.5000    13.4360    12.7832   121.5864
 1280.0000    13.2782    12.6794   120.6779
 1280.5000    12.9593    12.3746   119.9867
 1281.0000    12.6476    12.0772   121.5719
 1281.5000    12.3434    11.7868   123.5938
 1282.0000    12.0463    11.5035   126.7061
 1282.5000    11.7938    11.2731   129.7499
 1283.0000    11.5993    11.1138   131.6147
 1283.5000    11.4079    10.9573   130.5452
 1284.0000    11.2197    10.8028   128.4739
 1284.5000    11.0346    10.6504   126.4446
 1285.0000    10.8525    10.5002   128.4920
 1285.5000    10.6735    10.3521   131.4607
 1286.0000    10.4973    10.2061   133.9380
 1286.5000    10.3242    10.0622   131.0206
 1287.0000    10.1734     9.9204   127.9607
 1287.5000    10.0420     9.7804   126.2871
 1288.0000     9.9123     9.6398   127.2763
 1288.5000     9.7843     9.4965   128.8527
 1289.0000     9.6580     9.3554   129.5050
 1289.5000     9.5333     9.2163   129.5426
 1290.0000     9.4102     9.0794   128.2733
 1290.5000     9.3296     8.9914   126.4064
 1291.0000     9.2828     8.9423   124.7448
 1291.5000     9.2362     8.8947   125.5500
 1292.0000     9.1899     8.8471   127.2953
 1292.5000     9.1438     8.7998   129.6713
 1293.0000     9.0979     8.7526   133.8659
 1293.5000     9.0522     8.7058   138.1949
 1294.0000     9.0068     8.6592   139.9598
 1294.5000     8.9616     8.6128   133.9298
 1295.0000     8.9166     8.5667   128.1175
 1295.5000     8.8719     8.5208   128.2323
 1296.0000     8.8273     8.4752   130.3161
 1296.5000     8.7830     8.4339   132.0849
 1297.0000     8.7389     8.4093   132.6921
 1297.5000     8.6951     8.3847   133.3012
 1298.0000     8.6515     8.3602   134.7393
 1298.5000     8.6080     8.3358   136.5633
 1299.0000     8.5647     8.3116   137.5843
 1299.5000     8.5219     8.2883   135.8222
 1300.0000     8.4589     8.2279   133.3573
 1300.5000     8.3938     8.1646   130.8846
 1301.0000     8.3293     8.1018   128.6520
 1301.5000     8.2652     8.0395   127.2040
 1302.0000     8.2017     7.9777   125.7727
 1302.5000     8.1330     7.9109   130.4476
 1303.0000     8.1801     7.9567   136.8274
 1303.5000     8.2322     8.0073   143.1515
 1304.0000     8.2845     8.0583   147.6026
 1304.5000     8.3373     8.1096   144.0488
 1305.0000     8.3904     8.1613   138.7997
 1305.5000     8.4438     8.2132   134.7431
 1306.0000     8.4976     8.2655   133.7184
 1306.5000     8.5517     8.3181   132.6241
 1307.0000     8.6061     8.3711   131.5442
 1307.5000     8.6757     8.4385   130.4624
 1308.0000     8.6472     8.4155   129.1559
 1308.5000     8.6084     8.3841   126.5009
 1309.0000     8.5695     8.3525   126.0307
 1309.5000     8.5309     8.3211   126.2598
 1310.0000     8.4925     8.2899   125.7030
 1310.5000     8.4543     8.2587   124.8746
 1311.0000     8.4163     8.2277   125.0999
 1311.5000     8.3784     8.1968   128.2957
 1312.0000     8.3613     8.1660   131.6989
 1312.5000     8.3613     8.1354   135.2008
 1313.0000     8.3613     8.1048   136.2630
 1313.5000     8.3613     8.0744   132.8185
 1314.0000     8.3615     8.0440   129.0897
 1314.5000     8.3614     8.0138   125.8683
 1315.0000     8.3470     7.9837   129.1470
 1315.5000     8.2584     7.9536   132.8663
 1316.0000     8.1708     7.9239   136.0956
 1316.5000     8.1330     7.9106   133.0206
 1317.0000     8.1553     7.9326   129.1117
 1317.5000     8.1717     7.9486   128.9736
 1318.0000     8.1882     7.9646   130.7480
 1318.5000     8.2046     7.9806   130.8471
 1319.0000     8.2212     7.9967   128.1553
 1319.5000     8.2377     8.0127   127.5266
 1320.0000     8.2543     8.0289   126.8070
 1320.5000     8.2709     8.0450   125.0483
 1321.0000     8.2875     8.0612   124.3446
 1321.5000     8.3042     8.0774   126.5622
 1322.0000     8.3209     8.0937   127.2345
 1322.5000     8.3379     8.1100   126.8244
 1323.0000     8.3611     8.1327   126.3729
 1323.5000     8.3209     8.0802   127.8395
 1324.0000     8.2520     7.9906   131.6698
 1324.5000     8.1842     7.9022   134.8523
 1325.0000     8.1169     7.8148   133.2876
 1325.5000     8.0501     7.6951   131.4437
 1326.0000     7.9842     7.7150   130.3465
 1326.5000     7.9842     7.7485   131.0037
 1327.0000     7.9842     7.7822   133.7608
 1327.5000     7.9842     7.8160   136.5323
 1328.0000     7.9842     7.8500   137.5685
 1328.5000     7.9842     7.8840   131.8841
 1329.0000     7.9842     7.9108   125.5580
 1329.5000     7.9842     7.8908   122.0032
 1330.0000     7.9842     7.8741   122.5064
 1330.5000     7.9842     7.8575   123.4396
 1331.0000     7.9845     7.8409   123.1070
 1331.5000     7.9665     7.8176   123.6330
 1332.0000     7.9388     7.7840   131.0865
 1332.5000     7.9111     7.7509   138.6424
 1333.0000     7.8835     7.7179   145.1510
 1333.5000     7.8559     7.6850   144.6562
 1334.0000     7.8285     7.6523   138.7426
 1334.5000     7.8011     7.6197   132.8392
 1335.0000     7.7738     7.5872   131.4543
 1335.5000     7.7466     7.5549   132.3066
 1336.0000     7.7195     7.5227   135.1197
 1336.5000     7.6925     7.4907   140.6178
 1337.0000     7.6656     7.4588   143.0349
 1337.5000     7.6384     7.4160   136.6655
 1338.0000     7.6244     7.4491   130.3556
 1338.5000     7.6834     7.5003   130.9897
 1339.0000     7.7245     7.5519   132.7425
 1339.5000     7.7658     7.6038   134.4862
 1340.0000     7.8074     7.6560   134.9280
 1340.5000     7.8526     7.7067   133.7755
 1341.0000     7.9081     7.7524   132.6566
 1341.5000     7.9639     7.7983   131.9742
 1342.0000     8.0202     7.8444   133.5148
 1342.5000     8.0768     7.8909   134.4532
 1343.0000     8.1338     7.9376   134.6768
 1343.5000     8.1912     7.9846   135.8497
 1344.0000     8.2491     8.0318   137.1821
 1344.5000     8.3073     8.0794   135.8418
 1345.0000     8.3613     8.1272   133.3326
 1345.5000     8.4049     8.1753   128.5666
 1346.0000     8.4454     8.2237   124.1903
 1346.5000     8.4862     8.2724   121.4807
 1347.0000     8.5272     8.3214   123.1781
 1347.5000     8.5684     8.3706   125.4936
 1348.0000     8.6097     8.4202   130.3039
 1348.5000     8.6513     8.4701   135.3194
 1349.0000     8.6931     8.5203   136.1807
 1349.5000     8.7352     8.5706   131.3298
 1350.0000     8.7562     8.5960   126.7600
 1350.5000     8.7441     8.5363   124.0421
 1351.0000     8.7362     8.4968   126.2144
 1351.5000     8.7282     8.4573   126.1565
 1352.0000     8.7203     8.4179   125.9197
 1352.5000     8.7123     8.3613   125.6805
 1353.0000     8.7044     8.3734   125.5475
 1353.5000     8.6965     8.3956   126.7867
 1354.0000     8.6885     8.4180   132.9348
 1354.5000     8.6808     8.4404   134.9756
 1355.0000     8.6765     8.4629   131.2408
 1355.5000     8.7085     8.4854   127.9303
 1356.0000     8.7325     8.5080   125.9096
 1356.5000     8.7561     8.5170   123.8494
 1357.0000     8.6655     8.4182   123.2141
 1357.5000     8.5542     8.3209   123.4770
 1358.0000     8.4444     8.2247   125.9962
 1358.5000     8.3613     8.1330   128.4520
 1359.0000     8.4118     8.2067   130.3594
 1359.5000     8.4608     8.2786   129.9163
 1360.0000     8.5102     8.3511   129.0656
 1360.5000     8.5823     8.4277   128.0457
 1361.0000     8.6586     8.5049   127.0321
 1361.5000     8.7357     8.5830   126.1680
 1362.0000     8.8134     8.6620   125.6218
 1362.5000     8.8919     8.7416   126.6706
 1363.0000     8.9710     8.8219   131.0564
 1363.5000     9.0508     8.9030   135.8263
 1364.0000     9.1314     8.9849   139.2708
 1364.5000     9.2126     9.0674   136.3984
 1365.0000     9.2946     9.1508   131.5631
