~VERSION INFORMATION
 VERS.                2.0:   CWLS LOG ASCII STANDARD - VERSION 2.0
 WRAP.                 NO:   ONE LINE PER DEPTH STEP
~WELL INFORMATION
#MNEM.UNIT      DATA TYPE    INFORMATION
#----------   ------------   ------------------------------
 STRT.F           30.0000:   START DEPTH
 STOP.F         1178.5000:   STOP DEPTH
 STEP.F            0.5000:   STEP LENGTH
 NULL.          -999.2500:   NO VALUE
 COMP. FENIX & SCISSON INC:   COMPANY
 WELL.     64-S-14 #14-14:   WELL
 FLD .        TEAPOT DOME:   FIELD
 LOC .      S14 T38N R78W:   LOCATION
 CNTY.            NATRONA:   COUNTY
 STAT.            WYOMING:   STATE
 CTRY. UNITED STATES OF AMERICA:   COUNTRY
 SRVC.            Unknown:   SERVICE COMPANY
 DATE.        19-APR-1978:   LOGDATE
 API .       490251061400:   API NUMBER
~CURVE INFORMATION
#MNEM.UNIT       API CODE    CURVE DESCRIPTION
#----------   ------------   ------------------------------
 DEPT.F                  :   
 SPR .MV     05 010 01 00:   SPONTANEOUS POTENTIAL
 SN  .OHMM   05 040 16 00:   SHORT NORMAL 16'
 ILD .OHMM   05 120 46 00:   INDUCTION LOG DEEP
 CALD.IN     45 280 60 00:   CALIPER
 GRD .GAPI   45 310 01 00:   GAMMA RAY FROM DENSITY LOG
 RHOB.G/C3   45 350 01 00:   BULK DENSITY
 DPHI.DEC    45 890 12 00:   DENSITY POROSITY SANDSTONE
 CORR.G/C3   45 356 01 00:   DENSITY CORRECTION
~PARAMETER INFORMATION
#MNEM.UNIT          VALUE    DESCRIPTION
#----------   ------------   ------------------------------
 PD  .                 GL:   PERMANENT DATUM
 EPD .F              5235:   ELEVATION PERMANENT DATUM
 LMF .                 KB:   LOG MEASURED FROM
 DMF .                 KB:   DRILLING MEASURED FROM
 EKB .F              5299:   KELLING BUSHING
 EGL .F              5295:   GROUND LEVEL
 DATE.          4-19-1978:   RUN DATE
 RUN .                  1:   RUN NUMBER
 DD  .F              1180:   DEPTH DRILLER
 DL  .F              1182:   DEPTH LOGGER
 BLI .F              1176:   BOTTOM LOG INTERVAL
 TLI .F                50:   TOP LOG INTERVAL
 CS  .IN            8.625:   CASING SIZE
 CBD .F                40:   CASING BOTTOM DRILLER
 CBL .F                50:   CASING BOTTOM LOGGER
 BS  .IN            7.875:   BIT SIZE
 BSD .F              1180:   BIT SIZE AT DEPTH
 DFT .                KCL:   DRILLING FLUID TYPE
 DFD .                8.7:   DRILLING FLUID DENSITY
 DFV .                 33:   DRILLING FLUID VISCOSITY
 DFPH.               10.5:   DRILLING FLUID PH
 DFL .               12.3:   DRILLING FLUID LOSS
 MSS .            MUD PIT:   MUD SAMPLE SOURCE
 RMS .OHMM            .54:   RESISTIVITY MUD SAMPLE
 MST .F                62:   MUD SAMPLE TEMPERATURE
 RMF .OHMM            .65:   RESISTIVITY MUD FILTRATE SAMPLE
 MFST.F                60:   MUD FILTRATE SAMPLE TEMPERATURE
 RMC .OHMM            .35:   RESISTIVITY MUD CAKE
 MCST.F                60:   MUD CAKE SAMPLE TEMPERATURE
 MFSS.           MEASURED:   MUD FILTRATE SAMPLE SOURCE
 RMB .OHMM            .42:   RESISTIVITY MUD AT BHT
 BHT .F                80:   BOTTOM HOLE TEMPERATURE
 TCS .HRS               2:   TIME CURCULATED STOPPED
 MRT .F                80:   MAXIMUM RECORDED TEMPERATURE
 LUN .               2955:   LOGGING UNIT NUMBER
 LUL .               CASP:   LOGGING UNIT LOCATION
 ENGI.             MILLER:   RECORDING ENGINEER
 WITN.           MCGINLEY:   WITNESSED BY
 CLNT.            A2DTECH:   CLIENT CODE
 ORIG.      2" & 5" PRINT:   ORIGIN OF DATA
 UWI .       490251061400:   UNIQUE WELL ID
 DICO. A2D Technologies, Inc.:   DIGITIZING COMPANY
~OTHER INFORMATION
~A   DEPT      SPR         SN        ILD       CALD         GRD      RHOB       DPHI       CORR   
# ...
  759.0000   -42.3768     7.2791     6.9530     7.7824    86.8251     2.4983     0.1060     0.0966
  759.5000   -42.3750     7.3753     7.0450     7.6524    86.2738     2.5001     0.1068     0.0966
  760.0000   -42.3732     7.4729     7.1382     7.5487    86.1667     2.5016     0.1062     0.0966
  760.5000   -42.3715     7.5718     7.2326     7.4825    85.5958     2.5031     0.1056     0.0926
  761.0000   -42.3697     7.6719     7.3283     7.4169    84.1257     2.5026     0.1060     0.0770
  761.5000   -42.3680     7.7734     7.4252     7.3291    82.7661     2.4903     0.1150     0.0642
  762.0000   -42.3662     7.8762     7.5235     7.2270    84.1580     2.4718     0.1266     0.0554
  762.5000   -42.3645     7.9804     7.6230     7.1693    87.5321     2.4532     0.1382     0.0308
  763.0000   -42.3627     8.0860     7.7238     7.1203    86.5809     2.4347     0.1477     0.0284
  763.5000   -42.3610     8.1929     7.8257     7.0714    85.4684     2.4200     0.1465     0.0330
  764.0000   -42.3592     8.3013     7.9282     7.0231    85.4909     2.4237     0.1420     0.0388
  764.5000   -42.3575     8.4111     8.0319     7.0022    87.4199     2.4377     0.1365     0.0388
  765.0000   -42.3557     8.5262     8.1495     7.0514    88.5728     2.4479     0.1336     0.0364
  765.5000   -42.3540     8.5268     8.1467     7.2589    87.9235     2.4511     0.1339     0.0366
  766.0000   -42.3522     8.5469     8.1643     7.6592    84.0452     2.4495     0.1331     0.0438
  766.5000   -42.3505     8.5761     8.1920     7.9916    78.5856     2.4552     0.1282     0.0574
  767.0000   -42.3487     8.6052     8.2198     8.0339    77.8019     2.4570     0.1321     0.0663
  767.5000   -42.3470     8.6344     8.2479     8.0803    82.4048     2.4528     0.1348     0.0828
  768.0000   -42.3452     8.6637     8.2761     8.1283    84.7157     2.4495     0.1348     0.1296
  768.5000   -42.3434     8.6864     8.2971     8.1667    85.1316     2.4550     0.1248     0.1769
  769.0000   -42.3417     8.6128     8.2267     8.0612    85.2006     2.4796     0.1131     0.2033
  769.5000   -42.3400     8.5527     8.1695     7.8902    85.2550     2.5100     0.1049     0.1790
  770.0000   -42.3382     8.4931     8.1127     7.7195    84.8998     2.4906     0.1155     0.1491
  770.5000   -42.3364     8.4341     8.0563     7.5514    83.7796     2.4681     0.1243     0.1190
  771.0000   -42.3347     8.3754     8.0003     7.4554    82.6796     2.4654     0.1248     0.0890
  771.5000   -42.3329     8.3172     7.9447     7.4116    82.8149     2.4634     0.1274     0.0591
  772.0000   -42.3312     8.2594     7.8895     7.3092    85.5435     2.4492     0.1388     0.0334
  772.5000   -42.3294     8.2020     7.8346     7.1895    90.3453     2.4349     0.1408     0.0288
  773.0000   -42.3277     8.1449     7.7801     7.0715    91.0494     2.4344     0.1416     0.0286
  773.5000   -42.3259     8.0883     7.7261     6.9870    90.1147     2.4367     0.1404     0.0325
  774.0000   -42.3242     7.9987     7.6405     7.0019    89.7456     2.4477     0.1333     0.0364
  774.5000   -42.3224     8.0069     7.6483     7.2818    90.6627     2.4617     0.1253     0.0347
  775.0000   -42.3207     8.0273     7.6677     7.5906    93.5936     2.4706     0.1196     0.0263
  775.5000   -42.3189     8.0477     7.6873     7.8860    96.7793     2.4606     0.1253     0.0248
  776.0000   -42.3172     8.0682     7.7068     7.9819    99.9595     2.4481     0.1372     0.0462
  776.5000   -42.3154     8.0887     7.7264     8.0696   101.7127     2.4456     0.1350     0.0818
  777.0000   -42.3137     8.1093     7.7461     8.1501   101.7009     2.4488     0.1269     0.1174
  777.5000   -42.3119     8.1299     7.7658     8.1644   101.5974     2.4719     0.1170     0.1531
  778.0000   -42.3102     8.1467     7.7818     8.1384   100.4180     2.4966     0.1072     0.1819
  778.5000   -42.3084     8.0062     7.6477     8.0205    93.6194     2.5134     0.1016     0.1526
  779.0000   -42.3066     7.8667     7.5144     7.8548    86.2749     2.5000     0.1101     0.1223
  779.5000   -42.3049     7.7296     7.3834     7.6893    81.5987     2.4873     0.1201     0.1097
  780.0000   -42.3031     7.5947     7.2547     7.5245    81.6158     2.4746     0.1264     0.1033
  780.5000   -42.3014     7.4624     7.1282     7.4242    81.5937     2.4629     0.1258     0.0899
  781.0000   -42.2996     7.3778     7.0474     7.4146    81.3658     2.4613     0.1276     0.0770
  781.5000   -42.2979     7.3071     6.9799     7.3533    81.3559     2.4595     0.1282     0.0641
  782.0000   -42.2961     7.2371     6.9130     7.2717    82.2422     2.4571     0.1345     0.0469
  782.5000   -42.2944     7.1678     6.8467     7.1875    81.2456     2.4396     0.1469     0.0261
  783.0000   -42.2926     7.0991     6.7811     7.1355    80.0621     2.4211     0.1526     0.0225
  783.5000   -42.2909     7.0311     6.7159     7.1295    78.9329     2.4038     0.1569     0.0236
  784.0000   -42.2891     6.9637     6.6513     7.1295    79.5555     2.3989     0.1608     0.0294
  784.5000   -42.2874     6.9072     6.5984     7.1544    81.3000     2.4147     0.1513     0.0344
  785.0000   -42.2856     6.9079     6.5984     7.1941    82.2117     2.4246     0.1455     0.0365
  785.5000   -42.2839     6.8924     6.5837     7.2341    81.0027     2.4326     0.1408     0.0352
  786.0000   -42.2821     6.8723     6.5644     7.2739    79.3378     2.4406     0.1355     0.0306
  786.5000   -42.2804     6.8521     6.5452     7.3218    78.0967     2.4488     0.1324     0.0260
  787.0000   -42.2786     6.8321     6.5261     7.4225    77.6881     2.4517     0.1324     0.0214
  787.5000   -42.2769     6.8121     6.5070     7.5699    77.9351     2.4533     0.1314     0.0205
  788.0000   -42.2751     6.7921     6.4879     7.8108    78.1946     2.4521     0.1300     0.0204
  788.5000   -42.2733     6.7723     6.4689     7.9593    78.2914     2.4541     0.1316     0.0271
  789.0000   -42.2716     6.7524     6.4500     8.0476    78.1383     2.4583     0.1309     0.0286
  789.5000   -42.2698     6.7327     6.4311     8.1346    78.1883     2.4542     0.1359     0.0320
  790.0000   -42.2681     6.7130     6.4123     8.2214    80.4255     2.4463     0.1400     0.0506
  790.5000   -42.2663     6.6933     6.3935     8.2352    82.4860     2.4438     0.1327     0.0735
  791.0000   -42.2646     6.6737     6.3748     8.1717    82.7323     2.4530     0.1271     0.0968
  791.5000   -42.2628     6.6542     6.3562     8.0987    82.9187     2.4694     0.1200     0.1197
  792.0000   -42.2611     6.6347     6.3376     8.0241    83.3718     2.4863     0.1125     0.1234
  792.5000   -42.2593     6.6153     6.3190     7.9495    85.7240     2.4992     0.1060     0.1051
  793.0000   -42.2576     6.5895     6.2944     7.8749    88.2791     2.4876     0.1060     0.0828
  793.5000   -42.2558     6.5208     6.2288     7.8003    90.3579     2.4733     0.1236     0.0668
  794.0000   -42.2541     6.4529     6.1638     7.7258    90.2984     2.4689     0.1226     0.0652
  794.5000   -42.2523     6.3856     6.0996     7.6596    89.5364     2.4692     0.1228     0.0494
  795.0000   -42.2506     6.3190     6.0360     7.6176    86.9485     2.4658     0.1260     0.0311
  795.5000   -42.2488     6.2531     5.9731     7.5757    84.3126     2.4583     0.1309     0.0201
  796.0000   -42.2471     6.1879     5.9108     7.5335    84.2974     2.4508     0.1344     0.0189
  796.5000   -42.2453     6.1234     5.8492     7.4923    84.3731     2.4523     0.1314     0.0176
  797.0000   -42.2435     6.0596     5.7882     7.5253    83.4305     2.4531     0.1320     0.0169
  797.5000   -42.2418     5.9966     5.7278     7.5636    82.5778     2.4492     0.1338     0.0193
  798.0000   -42.2401     5.9656     5.6980     7.6016    83.0036     2.4503     0.1325     0.0217
  798.5000   -42.2383     5.9808     5.7133     7.6394    84.7536     2.4544     0.1312     0.0203
  799.0000   -42.2365     6.0109     5.7424     7.6776    85.9786     2.4525     0.1335     0.0170
