~VERSION INFORMATION
 VERS.                2.0:   CWLS LOG ASCII STANDARD - VERSION 2.0
 WRAP.                 NO:   ONE LINE PER DEPTH STEP
~WELL INFORMATION
#MNEM.UNIT      DATA TYPE    INFORMATION
#----------   ------------   ------------------------------
 STRT.F           82.0000:   START DEPTH
 STOP.F         1194.0000:   STOP DEPTH
 STEP.F            0.5000:   STEP LENGTH
 NULL.          -999.2500:   NO VALUE
 COMP.       INTEX OIL CO:   COMPANY
 WELL.   76S-11 NPR #3-11:   WELL
 FLD .             TEAPOT:   FIELD
 LOC .      S11 T38N R78W:   LOCATION
 CNTY.            NATRONA:   COUNTY
 STAT.            WYOMING:   STATE
 CTRY. UNITED STATES OF AMERICA:   COUNTRY
 SRVC.       Schlumberger:   SERVICE COMPANY
 DATE.        30-AUG-1966:   LOGDATE
 API .       490250972800:   API NUMBER
~CURVE INFORMATION
#MNEM.UNIT       API CODE    CURVE DESCRIPTION
#----------   ------------   ------------------------------
 DEPT.F                  :   
 SPR .MV     05 010 01 00:   SPONTANEOUS POTENTIAL FROM RES.
 CILD.MMHO   05 110 46 00:   CONDUCTIVITY INDUCTION LOG DEEP
 ILD .OHMM   05 120 46 00:   INDUCTION LOG DEEP
 ASN .OHMM   05 041 16 00:   AMPLIFIED SHORT NORMAL 16"
 CALD.IN     45 280 60 00:   CALIPER FROM DENSITY LOG
 CORR.G/C3   45 356 01 00:   DENSITY CORRECTION
 RHOB.G/C3   45 350 01 00:   BULK DENSITY
 DPHI.DEC    45 890 12 00:   DENSITY POROSITY SANDSTONE
 GRD .GAPI   45 310 01 00:   GAMMA RAY FROM DENSITY LOG
~PARAMETER INFORMATION
#MNEM.UNIT          VALUE    DESCRIPTION
#----------   ------------   ------------------------------
 PD  .                 GL:   PERMANENT DATUM
 EPD .F              5261:   ELEVATION PERMANENT DATUM
 LMF .                 KB:   LOG MEASURED FROM
 DAPD.F                 5:   FEET ABOVE PERMANENT DATUM
 DMF .                 KB:   DRILLING MEASURED FROM
 EKB .F              5266:   KELLING BUSHING
 EGL .F              5261:   GROUND LEVEL
 DATE.            8-30-66:   RUN DATE
 RUN .                  1:   RUN NUMBER
 DD  .F              1191:   DEPTH DRILLER
 DL  .F              1191:   DEPTH LOGGER
 BLI .F              1190:   BOTTOM LOG INTERVAL
 TLI .F                87:   TOP LOG INTERVAL
 CS  .IN            8.625:   CASING SIZE
 CBD .F                10:   CASING BOTTOM DRILLER
 BS  .IN             6.75:   BIT SIZE
 BSD .F              1191:   BIT SIZE AT DEPTH
 DFT .           CHEM-GEL:   DRILLING FLUID TYPE
 DFD .                9.8:   DRILLING FLUID DENSITY
 DFV .                 60:   DRILLING FLUID VISCOSITY
 MSS .         CIRCULATED:   MUD SAMPLE SOURCE
 RMS .OHMM            .76:   RESISTIVITY MUD SAMPLE
 MST .F                85:   MUD SAMPLE TEMPERATURE
 RMF .OHMM            .46:   RESISTIVITY MUD FILTRATE SAMPLE
 MFST.F                88:   MUD FILTRATE SAMPLE TEMPERATURE
 MFSS.                  M:   MUD FILTRATE SAMPLE SOURCE
 RMB .OHMM           .695:   RESISTIVITY MUD AT BHT
 BHT .F                93:   BOTTOM HOLE TEMPERATURE
 TCS .HRS               1:   TIME CURCULATED STOPPED
 MRT .F                93:   MAXIMUM RECORDED TEMPERATURE
 LUN .               3527:   LOGGING UNIT NUMBER
 LUL .               CSPR:   LOGGING UNIT LOCATION
 ENGI.               HAUG:   RECORDING ENGINEER
 WITN.                MAY:   WITNESSED BY
 CLNT.            A2DTECH:   CLIENT CODE
 ORIG. 2", 2.5", 5" PRINT:   ORIGIN OF DATA
 UWI .       490250972800:   UNIQUE WELL ID
 DICO. A2D Technologies, Inc.:   DIGITIZING COMPANY
~OTHER INFORMATION
~A   DEPT      SPR        CILD       ILD          ASN     CALD       CORR       RHOB       DPHI        GRD   
# ...
  520.0000   -51.5663   490.5190     1.5648     3.0276     7.2657     0.0817     2.2991     0.1986   106.8351
  520.5000   -50.8547   477.6547     1.6794     3.1100     7.2609     0.0925     2.2681     0.2262   106.8441
  521.0000   -50.9280   463.7675     1.8707     3.1013     7.2562     0.0806     2.2290     0.2539   102.4992
  521.5000   -51.3801   449.3613     1.9878     3.0903     7.2515     0.0706     2.2452     0.2570    98.3833
  522.0000   -51.7412   410.3952     2.3656     3.2622     7.2468     0.0524     2.2981     0.2294    96.6302
  522.5000   -51.9317   356.8663     2.7760     3.8415     7.2419     0.0599     2.3603     0.1905    97.8629
  523.0000   -51.8912   303.3373     3.1696     4.3514     7.2344     0.0815     2.4063     0.1622   100.6237
  523.5000   -51.9937   259.7485     3.5809     4.7821     7.2269     0.1034     2.4477     0.1339   103.2791
  524.0000   -52.1883   227.8909     3.9197     4.7321     7.2189     0.0954     2.4343     0.1316   106.1385
  524.5000   -52.2712   208.8434     3.9776     4.7121     7.2119     0.0921     2.4349     0.1300   107.6839
  525.0000   -52.0639   215.2717     4.0713     4.7303     7.2032     0.1052     2.4380     0.1332   105.9697
  525.5000   -51.8094   224.6926     4.1098     4.8354     7.2116     0.0948     2.4293     0.1364   104.4509
  526.0000   -51.7849   234.2836     3.9689     4.9327     7.2232     0.0596     2.4204     0.1402   103.2626
  526.5000   -52.0114   240.3811     3.8433     4.9404     7.2351     0.0143     2.3951     0.1529   104.2454
  527.0000   -52.2428   243.3438     3.7096     4.9335     7.2466     0.0201     2.3993     0.1593   103.7965
  527.5000   -52.1524   246.3142     3.5776     4.8518     7.2585     0.0389     2.4124     0.1452   103.2754
  528.0000   -51.7831   252.2754     3.4508     4.6998     7.2700     0.0215     2.3963     0.1524   103.7183
  528.5000   -51.5425   256.9860     3.3158     4.5653     7.2811     0.0263     2.4047     0.1587   104.1353
  529.0000   -51.5701   286.5551     3.1431     4.4166     7.2817     0.0392     2.4150     0.1461   104.5762
  529.5000   -51.6672   311.5750     2.9756     4.2316     7.2819     0.0406     2.4124     0.1480   106.0316
  530.0000   -51.6295   336.5950     2.8073     4.0361     7.2817     0.0361     2.4065     0.1500   107.4482
  530.5000   -51.2514   365.7685     2.6359     3.8469     7.2818     0.0347     2.3939     0.1562   107.1434
  531.0000   -51.1789   390.7186     2.4730     3.6506     7.2818     0.0380     2.3914     0.1613   106.4721
  531.5000   -51.4056   394.7106     2.2957     3.4523     7.2818     0.0404     2.3808     0.1665   107.6068
  532.0000   -51.6029   386.2013     2.2445     3.4054     7.2818     0.0432     2.3676     0.1738   109.1639
  532.5000   -51.6938   373.0173     2.2300     3.4140     7.2818     0.0462     2.3534     0.1823   110.9298
  533.0000   -51.5913   359.8659     2.4042     3.5817     7.2818     0.0550     2.3425     0.1892   110.6292
  533.5000   -51.5260   346.5580     2.7158     3.7288     7.2818     0.0640     2.3492     0.1915   108.0468
  534.0000   -51.6629   325.2278     2.9742     3.9996     7.2818     0.0677     2.3711     0.1765   104.4524
  534.5000   -51.8439   296.2724     3.2608     4.3603     7.2818     0.0589     2.4098     0.1560   100.7865
  535.0000   -52.0334   267.3638     3.5244     4.7500     7.2818     0.0478     2.4494     0.1260    98.6301
  535.5000   -52.0322   242.2912     3.8151     5.0166     7.2818     0.0366     2.4402     0.1300    97.5980
  536.0000   -51.7720   224.2458     4.0856     5.0899     7.2818     0.0288     2.4225     0.1418    99.1086
  536.5000   -51.8536   206.0878     4.3017     5.2030     7.2818     0.0360     2.4248     0.1394   100.5257
  537.0000   -51.9225   206.0878     4.4417     5.3004     7.2818     0.0418     2.4347     0.1335   102.4017
  537.5000   -51.9008   209.0818     4.1956     5.3614     7.2818     0.0242     2.4265     0.1300   101.9464
  538.0000   -51.9122   218.4602     3.9561     5.3581     7.2818     0.0037     2.4103     0.1443   101.3524
  538.5000   -51.9053   233.1271     3.7042     5.2525     7.2818     0.0077     2.3993     0.1537   100.7055
  539.0000   -51.9099   253.9920     3.4586     5.1208     7.2818     0.0167     2.4045     0.1537   101.8712
  539.5000   -51.9032   280.5096     3.2114     4.8966     7.2818     0.0253     2.4096     0.1476   104.3926
  540.0000   -51.8675   312.1557     2.9618     4.5546     7.2818     0.0353     2.4216     0.1425   107.6352
  540.5000   -51.8316   347.8044     2.7192     4.2202     7.2818     0.0353     2.4243     0.1387   110.7504
  541.0000   -51.7967   372.7545     2.4614     3.8867     7.2818     0.0333     2.4050     0.1615   113.3172
  541.5000   -51.7617   380.5674     2.2606     3.5695     7.2818     0.0251     2.3692     0.1755   115.2796
  542.0000   -51.7279   383.7325     2.2327     3.5099     7.2818     0.0175     2.3356     0.1930   117.5719
  542.5000   -51.6356   386.7266     2.3335     3.5652     7.2818     0.0246     2.3091     0.2104   117.4380
  543.0000   -51.3979   382.0808     2.5403     3.5460     7.2818     0.0368     2.2968     0.2168   116.0631
  543.5000   -51.3380   372.7545     2.7281     3.5609     7.2817     0.0378     2.2926     0.2231   112.7150
  544.0000   -51.6934   344.8540     2.9253     3.9288     7.2818     0.0360     2.3211     0.2207   108.3386
  544.5000   -52.0075   315.2569     3.1179     4.2321     7.2817     0.0336     2.3720     0.1844   104.0379
  545.0000   -52.2929   285.7214     3.3122     4.3224     7.2816     0.0311     2.4047     0.1529   103.4855
  545.5000   -52.2724   261.8279     3.5068     4.4519     7.2793     0.0240     2.3993     0.1521   103.0662
  546.0000   -51.8131   249.8392     3.6989     4.6097     7.2773     0.0165     2.3865     0.1600   102.7033
  546.5000   -51.8591   239.8885     3.8970     4.8155     7.2752     0.0127     2.3857     0.1647   103.2893
  547.0000   -52.1494   237.8609     4.0434     4.9477     7.2732     0.0274     2.3958     0.1548   106.2521
  547.5000   -52.4487   241.8036     4.0010     5.0547     7.2712     0.0418     2.4273     0.1450   109.6074
  548.0000   -52.1941   237.9330     3.8940     5.1072     7.2692     0.0496     2.4416     0.1331   111.9704
  548.5000   -51.5487   235.0299     3.7917     5.1056     7.2671     0.0423     2.4516     0.1323   111.9571
  549.0000   -51.6262   236.0279     3.6880     5.0464     7.2651     0.0308     2.4339     0.1323   109.6660
  549.5000   -51.7541   238.0240     3.5827     4.9251     7.2631     0.0316     2.4344     0.1331   106.7029
  550.0000   -51.9063   249.9324     3.4822     4.7557     7.2611     0.0338     2.4365     0.1355   103.7675
  550.5000   -51.8171   266.5374     3.3716     4.5932     7.2590     0.0351     2.4252     0.1387   103.0274
  551.0000   -51.5306   283.1424     3.2845     4.4271     7.2570     0.0181     2.4124     0.1418   102.2626
  551.5000   -51.2256   300.8982     3.1141     4.2626     7.2550     0.0237     2.4052     0.1537   101.8421
  552.0000   -51.1414   315.8184     2.8190     4.0978     7.2529     0.0160     2.3884     0.1635   102.2809
  552.5000   -51.3051   332.8343     2.5779     3.9323     7.2509     0.0073     2.3753     0.1702   103.8784
  553.0000   -51.2205   333.4331     2.4649     3.7691     7.2489     0.0145     2.3709     0.1726   105.0395
  553.5000   -51.0313   334.8304     2.4559     3.6571     7.2468     0.0309     2.3838     0.1655   105.0430
  554.0000   -50.8790   338.8224     2.4802     3.5507     7.2449     0.0477     2.3868     0.1631   103.9318
  554.5000   -50.6916   349.9563     2.4923     3.4552     7.2427     0.0577     2.3769     0.1647   101.8218
  555.0000   -50.9119   359.4062     2.5143     3.4437     7.2430     0.0555     2.3623     0.1738    99.7281
  555.5000   -51.2825   368.7625     2.5247     3.5317     7.2450     0.0289     2.3448     0.1876    97.5070
  556.0000   -51.1940   369.7605     2.5529     3.5298     7.2468     0.0151     2.3498     0.1892    97.3311
