~VERSION INFORMATION
 VERS.                2.0:   CWLS LOG ASCII STANDARD - VERSION 2.0
 WRAP.                 NO:   ONE LINE PER DEPTH STEP
~WELL INFORMATION
#MNEM.UNIT      DATA TYPE    INFORMATION
#----------   ------------   ------------------------------
 STRT.F           90.0000:   START DEPTH
 STOP.F          928.0000:   STOP DEPTH
 STEP.F            0.5000:   STEP LENGTH
 NULL.          -999.2500:   NO VALUE
 COMP.  UNITED STATE NAVY:   COMPANY
 WELL.      NPR 3 #58-S-2:   WELL
 FLD .             TEAPOT:   FIELD
 LOC .       S2 T38N R78W:   LOCATION
 CNTY.            NATRONA:   COUNTY
 STAT.            WYOMING:   STATE
 CTRY. UNITED STATES OF AMERICA:   COUNTRY
 SRVC.       Schlumberger:   SERVICE COMPANY
 DATE.        26-JUN-1962:   LOGDATE
 API .       490250639500:   API NUMBER
~CURVE INFORMATION
#MNEM.UNIT       API CODE    CURVE DESCRIPTION
#----------   ------------   ------------------------------
 DEPT.F                  :   
 ASN .OHMM   05 041 16 00:   AMPLIFIED SHORT NORMAL 16"
 ILD .OHMM   05 120 46 00:   INDUCTION LOG DEEP
 CILD.MMHO   05 110 46 00:   CONDUCTIVITY INDUCTION LOG DEEP
 SPR .MV     05 010 01 00:   SPONTANEOUS POTENTIAL FROM RES.
 GR  .GAPI   30 310 01 00:   GAMMA RAY
~PARAMETER INFORMATION
#MNEM.UNIT          VALUE    DESCRIPTION
#----------   ------------   ------------------------------
 PD  .                 KB:   PERMANENT DATUM
 EKB .F              5189:   KELLING BUSHING
 EGL .F              5184:   GROUND LEVEL
 DATE.        26-JUN-1962:   RUN DATE
 RUN .                  1:   RUN NUMBER
 DD  .F               925:   DEPTH DRILLER
 DL  .F               929:   DEPTH LOGGER
 BLI .F               928:   BOTTOM LOG INTERVAL
 TLI .F                90:   TOP LOG INTERVAL
 BS  .IN             6.75:   BIT SIZE
 BSD .F               925:   BIT SIZE AT DEPTH
 DFT .       OIL EMULSION:   DRILLING FLUID TYPE
 DFD .                 10:   DRILLING FLUID DENSITY
 DFV .                 50:   DRILLING FLUID VISCOSITY
 DFL .                3.7:   DRILLING FLUID LOSS
 RMS .OHMM            4.7:   RESISTIVITY MUD SAMPLE
 MST .F                83:   MUD SAMPLE TEMPERATURE
 RMF .OHMM            3.8:   RESISTIVITY MUD FILTRATE SAMPLE
 MFST.F                83:   MUD FILTRATE SAMPLE TEMPERATURE
 RMC .OHMM            4.4:   RESISTIVITY MUD CAKE
 MCST.F                83:   MUD CAKE SAMPLE TEMPERATURE
 TCS .HRS               1:   TIME CURCULATED STOPPED
 LUN .               2503:   LOGGING UNIT NUMBER
 LUL .               CSPR:   LOGGING UNIT LOCATION
 ENGI.             DANNER:   RECORDING ENGINEER
 WITN.          JORGENSEN:   WITNESSED BY
 CLNT.            A2DTECH:   CLIENT CODE
 ORIG.      2" & 5" PRINT:   ORIGIN OF DATA
 UWI .       490250639500:   UNIQUE WELL ID
 DICO. A2D Technologies, Inc.:   DIGITIZING COMPANY
~OTHER INFORMATION
~A   DEPT        ASN        ILD      CILD       SPR         GR   
# ...
  151.0000     6.0879     6.2250   178.9152   -53.4244  -999.2500
  151.5000     6.0583     6.2265   178.9003   -53.4188  -999.2500
  152.0000     6.1038     6.3029   178.8855   -53.2652  -999.2500
  152.5000     6.1042     6.3044   181.1263   -52.9622  -999.2500
  153.0000     6.0746     6.3808   180.3595   -52.8086  -999.2500
  153.5000     6.1201     6.3823   178.0891   -52.8042  -999.2500
  154.0000     6.3005     6.3838   175.0667   -52.7997  -999.2500
  154.5000     6.3459     6.3853   174.3000   -52.7953  -999.2500
  155.0000     6.3613     6.3121   177.2926   -52.6416  -999.2500
  155.5000     6.3168     6.1637   181.7890   -52.4880  -999.2500
  156.0000     5.6977     6.0898   184.7817   -52.4836  -999.2500
  156.5000     5.6130     5.8664   186.2707   -52.4791  -999.2500
  157.0000     5.9739     6.0182   187.7595   -52.4746  -999.2500
  157.5000     6.0637     5.9444   188.5590   -52.4702  -999.2500
  158.0000     5.7944     5.8709   189.9855   -52.6151  -999.2500
  158.5000     5.7497     5.7974   191.4744   -52.7600  -999.2500
  159.0000     5.7503     5.7992   192.9633   -52.9037  -999.2500
  159.5000     5.7507     5.7254   192.1928   -52.8993  -999.2500
  160.0000     5.7512     5.8022   192.1780   -52.8949  -999.2500
  160.5000     5.7666     5.9536   191.4112   -52.8904  -999.2500
  161.0000     5.8120     6.1050   188.3889   -52.8860  -999.2500
  161.5000     5.9324     6.1814   184.6146   -52.8816  -999.2500
  162.0000     6.0078     6.1829   180.8404   -52.7279  -999.2500
  162.5000     6.0233     6.1844   180.0736   -52.7231  -999.2500
  163.0000     5.9487     6.1859   181.5625   -53.0183  -999.2500
  163.5000     5.6044     6.1874   183.8033   -53.1632  -999.2500
  164.0000     5.4095     6.1889   186.0478   -53.3080  -999.2500
  164.5000     5.4919     6.1154   187.5367   -53.3025  -999.2500
  165.0000     5.7856     6.1172   189.7744   -53.2981  -999.2500
  165.5000     5.6512     6.0437   191.2627   -53.1444  -999.2500
  166.0000     5.6066     5.9702   193.5037   -53.1400  -999.2500
  166.5000     5.7870     5.8964   195.7443   -53.1356  -999.2500
  167.0000     5.8175     5.8982   196.4813   -52.9819  -999.2500
  167.5000     5.8028     5.8997   193.3960   -52.9775  -999.2500
  168.0000     5.6684     5.9762   190.2352   -52.8238  -999.2500
  168.5000     5.7138     6.1276   184.8825   -52.5209  -999.2500
  169.0000     5.9242     6.2040   181.3806   -52.3632  -999.2500
  169.5000     6.0745     6.2805   179.8620   -52.0642  -999.2500
  170.0000     5.8351     6.4319   178.3434   -52.0398  -999.2500
  170.5000     5.9105     6.4333   178.3285   -51.8781  -999.2500
  171.0000     6.0309     6.5098   178.3137   -51.7514  -999.2500
  171.5000     6.0626     6.5113   178.2988   -51.8973  -999.2500
  172.0000     6.0318     6.5127   178.2840   -52.0422  -999.2500
  172.5000     6.0772     6.5142   178.2691   -52.3352  -999.2500
  173.0000     6.1226     6.5157   179.0099   -52.4800  -999.2500
  173.5000     6.1554     6.4422   178.9913   -52.4756  -999.2500
  174.0000     6.1986     6.4441   178.9765   -52.4712  -999.2500
  174.5000     6.2139     6.2956   179.7172   -52.4667  -999.2500
  175.0000     6.1844     6.2971   180.4511   -52.4623  -999.2500
  175.5000     6.0200     6.2986   181.1879   -52.4579  -999.2500
  176.0000     5.9455     6.2247   183.4283   -52.4535  -999.2500
  176.5000     5.9158     6.2266   183.4135   -52.2998  -999.2500
  177.0000     6.0213     6.2281   183.3986   -52.1461  -999.2500
  177.5000     6.0967     6.2295   184.1357   -51.9925  -999.2500
  178.0000     6.0222     6.2310   184.1203   -51.9880  -999.2500
  178.5000     5.9177     6.2325   184.1052   -51.9836  -999.2500
  179.0000     5.7832     6.1590   184.8430   -51.9791  -999.2500
  179.5000     5.8886     6.2355   182.5688   -51.9746  -999.2500
  180.0000     6.1739     6.2369   181.0502   -51.9693  -999.2500
  180.5000     6.1745     6.2384   179.5315   -51.8156  -999.2500
  181.0000     6.1448     6.2399   179.5167   -51.9615  -999.2500
  181.5000     6.2386     6.2414   180.2574   -51.9560  -999.2500
  182.0000     6.3432     6.2428   180.2389   -51.9516  -999.2500
  182.5000     6.3861     6.3194   180.9759   -51.7979  -999.2500
  183.0000     6.3715     6.3209   181.7166   -51.7935  -999.2500
  183.5000     6.3271     6.3976   180.9462   -51.7891  -999.2500
  184.0000     6.2975     6.4740   177.1720   -51.7847  -999.2500
  184.5000     6.2679     6.7004   171.8939   -51.7802  -999.2500
  185.0000     6.4034     7.0017   164.3603   -51.6266  -999.2500
  185.5000     6.6887     7.3031   156.8266   -51.6222  -999.2500
  186.0000     7.2438     7.4545   153.8043   -51.7899  -999.2500
  186.5000     7.4091     7.6808   148.5262   -51.6126  -999.2500
  187.0000     7.2596     7.8322   142.4713   -51.1604  -999.2500
  187.5000     7.5900     7.7587   138.7218   -50.7093  -999.2500
  188.0000     7.7751     7.6853   138.7068   -51.7497  -999.2500
  188.5000     7.3960     7.6118   141.8369   -51.4457  -999.2500
  189.0000     7.3964     7.3884   146.9445   -51.1427  -999.2500
  189.5000     7.2897     7.2399   149.5343   -51.2887  -999.2500
  190.0000     7.1384     7.1664   154.4674   -51.5828  -999.2500
  190.5000     6.9781     7.0930   159.6819   -51.2787  -999.2500
  191.0000     6.9334     7.0944   164.9302   -51.2743  -999.2500
  191.5000     6.8890     7.0140   165.6710   -51.2699  -999.2500
  192.0000     6.8295     6.8725   164.9005   -51.4149  -999.2500
  192.5000     6.7698     6.9493   162.6300   -51.5596  -999.2500
  193.0000     6.7553     7.0258   160.3595   -51.5551  -999.2500
  193.5000     6.9057     7.1022   158.8409   -51.5507  -999.2500
  194.0000     7.1761     7.2536   157.3223   -51.3970  -999.2500
  194.5000     7.4014     7.4050   154.2999   -51.3925  -999.2500
  195.0000     7.4168     7.5564   151.1575   -51.2389  -999.2500
  195.5000     7.3872     7.7078   147.5534   -51.3838  -999.2500
  196.0000     7.5976     7.8592   143.7278   -51.2290  -999.2500
  196.5000     7.8229     7.9357   138.4498   -51.2246  -999.2500
  197.0000     7.9733     8.0871   132.4199   -51.2202  -999.2500
  197.5000     8.2006     8.1635   127.8938   -51.2158  -999.2500
  198.0000     8.4432     8.3149   126.3752   -51.0621  -999.2500
  198.5000     8.6216     8.3914   126.3603   -51.2080  -999.2500
  199.0000     8.6649     8.3928   126.3455   -51.6503  -999.2500
  199.5000     8.5454     8.3943   127.0827   -51.7962  -999.2500
  200.0000     8.3687     8.3208   129.3233   -51.7789  -999.2500
  200.5000     8.2213     8.0960   135.3488   -51.7004  -999.2500
  201.0000     8.0501     7.7961   141.3993   -51.6418  -999.2500
  201.5000     7.7801     7.4963   148.9019   -51.6418  -999.2500
  202.0000     7.4337     7.2714   154.8772   -51.3373  -999.2500
  202.5000     7.1667     7.1214   156.3161   -50.7389  -999.2500
  203.0000     7.0618     7.0465   156.3007   -50.4478  -999.2500
  203.5000     7.0025     7.0465   155.5339   -50.4478  -999.2500
  204.0000     7.0035     6.9715   154.7669   -50.5970  -999.2500
  204.5000     7.1246     6.9715   153.8871   -50.7597  -999.2500
  205.0000     7.1379     6.9715   152.4812   -51.0448  -999.2500
  205.5000     6.9860     7.0465   151.7143   -51.0211  -999.2500
  206.0000     6.9283     7.1214   151.6963   -50.9356  -999.2500
  206.5000     7.3209     7.2714   151.6813   -50.8501  -999.2500
  207.0000     7.3484     7.3463   152.4219   -50.7646  -999.2500
  207.5000     7.1956     7.1964   153.9070   -50.8955  -999.2500
  208.0000     7.0307     7.0465   160.6589   -51.2416  -999.2500
  208.5000     6.8790     6.8966   165.9071   -51.6418  -999.2500
  209.0000     6.7157     6.7466   170.4034   -51.7910  -999.2500
  209.5000     6.5957     6.5217   171.1440   -51.7910  -999.2500
  210.0000     6.5247     6.5217   171.1253   -51.9403  -999.2500
  210.5000     6.4949     6.4468   171.1104   -52.0896  -999.2500
  211.0000     6.4779     6.5217   172.5991   -52.0896  -999.2500
  211.5000     6.4479     6.5217   174.0917   -51.9403  -999.2500
