~VERSION INFORMATION
 VERS.                2.0:   CWLS LOG ASCII STANDARD - VERSION 2.0
 WRAP.                 NO:   ONE LINE PER DEPTH STEP
~WELL INFORMATION
#MNEM.UNIT      DATA TYPE    INFORMATION
#----------   ------------   ------------------------------
 STRT.F            1.0000:   START DEPTH
 STOP.F          478.0000:   STOP DEPTH
 STEP.F            0.1000:   STEP LENGTH
 NULL.          -999.2500:   NO VALUE
 COMP. LAWRENCE/ALLISON INC:   COMPANY
 WELL.     58-61 SX #58-3:   WELL
 FLD .             TEAPOT:   FIELD
 LOC .       S3 T38N R78W:   LOCATION
 CNTY.            NATRONA:   COUNTY
 STAT.            WYOMING:   STATE
 CTRY. UNITED STATES OF AMERICA:   COUNTRY
 SRVC.           Gearhart:   SERVICE COMPANY
 DATE.        08-JUL-1988:   LOGDATE
 API .       490251123400:   API NUMBER
~CURVE INFORMATION
#MNEM.UNIT       API CODE    CURVE DESCRIPTION
#----------   ------------   ------------------------------
 DEPT.F                  :   
 GRR .GAPI   07 310 01 00:   GAMMA RAY
 RILD.OHMM   07 120 46 00:   INDUCTION LOG DEEP RESISTIVITY
 RILM.OHMM   07 120 44 00:   INDUCTION LOG MEDIUM RESISTIVITY
~PARAMETER INFORMATION
#MNEM.UNIT          VALUE    DESCRIPTION
#----------   ------------   ------------------------------
 PD  .                 GL:   PERMANENT DATUM
 EPD .F              5184:   ELEVATION PERMANENT DATUM
 LMF .                 KB:   LOG MEASURED FROM
 DAPD.F                 5:   FEET ABOVE PERMANENT DATUM
 DMF .                 KB:   DRILLING MEASURED FROM
 EKB .F              5189:   KELLING BUSHING
 EGL .F              5184:   GROUND LEVEL
 DATE.        08-JUL-1988:   RUN DATE
 RUN .                  1:   RUN NUMBER
 DD  .F               485:   DEPTH DRILLER
 DL  .F               486:   DEPTH LOGGER
 BLI .F               478:   BOTTOM LOG INTERVAL
 CS  .IN            9.625:   CASING SIZE
 CBD .F                45:   CASING BOTTOM DRILLER
 CBL .F                44:   CASING BOTTOM LOGGER
 BS  .IN             8.75:   BIT SIZE
 BSD .F               485:   BIT SIZE AT DEPTH
 DFT .                AIR:   DRILLING FLUID TYPE
 TCS .HRS            2200:   TIME CURCULATED STOPPED
 TLAB.HRS            2315:   TIME LOGGER AT BOTTOM
 LUN .               7597:   LOGGING UNIT NUMBER
 LUL .           GILLETTE:   LOGGING UNIT LOCATION
 ENGI.           JOHNSTON:   RECORDING ENGINEER
 WITN.              FIVAS:   WITNESSED BY
 CLNT.            A2DTECH:   CLIENT CODE
 ORIG.           5" PRINT:   ORIGIN OF DATA
 UWI .       490251123400:   UNIQUE WELL ID
 DICO. A2D Technologies, Inc.:   DIGITIZING COMPANY
~OTHER INFORMATION
~A    DEPT     GRR       RILD       RILM   
# ...
  419.6000   133.5639     9.4147     9.1995
  419.7000   133.8303     9.3009     9.0457
  419.8000   134.0556     9.1590     8.8983
  419.9000   134.1396     9.0399     8.7822
  420.0000   133.7378     8.9185     8.6601
  420.1000   132.8102     8.7616     8.5155
  420.2000   132.0245     8.5511     8.3885
  420.3000   131.8048     8.3778     8.2832
  420.4000   131.4032     8.2226     8.0162
  420.5000   131.0218     8.0303     7.8321
  420.6000   130.8219     7.7712     7.6155
  420.7000   130.8257     7.5384     7.4181
  420.8000   130.8285     7.3856     7.2564
  420.9000   130.9935     7.2222     7.1150
  421.0000   131.4417     7.0783     7.0161
  421.1000   132.1729     6.9665     6.8989
  421.2000   132.9653     6.8823     6.7465
  421.3000   133.6357     6.8470     6.5226
  421.4000   134.3671     6.8087     6.2711
  421.5000   135.4020     6.7706     6.1270
  421.6000   136.7809     6.7390     5.9576
  421.7000   137.8364     6.7388     5.7927
  421.8000   139.6200     6.7388     5.6397
  421.9000   141.7273     6.7387     5.5661
  422.0000   143.6117     6.7386     5.5399
  422.1000   145.0712     6.7385     5.5087
  422.2000   146.6528     6.7384     5.4878
  422.3000   148.4358     6.7383     5.4875
  422.4000   149.7338     6.7382     5.4872
  422.5000   150.8092     6.7539     5.5126
  422.6000   151.9858     6.7853     5.5983
  422.7000   153.0412     6.7852     5.7138
  422.8000   153.7118     6.7851     5.8129
  422.9000   153.9575     6.8105     5.9662
  423.0000   153.9605     6.8326     6.0789
  423.1000   153.8827     6.8389     6.1957
  423.2000   153.3599     6.8804     6.3003
  423.3000   152.9176     6.9157     6.4064
  423.4000   152.2732     6.9545     6.5327
  423.5000   151.4466     6.9934     6.6248
  423.6000   150.4378     7.0392     6.6925
  423.7000   149.1262     7.1249     6.7424
  423.8000   147.3481     7.1985     6.8243
  423.9000   145.0854     7.2522     7.0043
  424.0000   142.8631     7.3100     7.1031
  424.1000   140.8429     7.3921     7.2470
  424.2000   138.2157     7.4822     7.3965
  424.3000   136.2157     7.5594     7.5247
  424.4000   134.8428     7.6733     7.7232
  424.5000   133.5711     7.7847     7.8690
  424.6000   131.9958     7.8797     8.0469
  424.7000   130.9471     8.0240     8.2129
  424.8000   129.8372     8.1068     8.3513
  424.9000   128.6263     8.2290     8.5159
  425.0000   127.5165     8.4081     8.5955
  425.1000   126.6293     8.6296     8.7494
  425.2000   126.1065     8.7877     8.9299
  425.3000   125.4417     8.9705     9.0804
  425.4000   125.0399     9.1392     9.2594
  425.5000   124.6989     9.3159     9.3460
  425.6000   124.2569     9.5173     9.4819
  425.7000   123.9972     9.6916     9.6419
  425.8000   123.7775     9.7917     9.7997
  425.9000   123.6995     9.9392     9.9279
  426.0000   123.6014    10.0599    10.0678
  426.1000   123.4016    10.1353    10.1707
  426.2000   123.4054    10.3210    10.2272
  426.3000   123.6308    10.3740    10.2793
  426.4000   123.7147    10.4321    10.2785
  426.5000   123.9202    10.5152    10.2781
  426.6000   124.4088    10.6234    10.2775
  426.7000   124.9380    10.6878    10.2769
  426.8000   125.8310    10.7427    10.2763
  426.9000   126.6433    10.8029    10.2757
  427.0000   127.3747    10.8634    10.3233
  427.1000   128.0657    10.9242    10.3468
  427.2000   128.5951    10.9905    10.3656
  427.3000   128.8205    10.9904    10.4183
  427.4000   129.2282    10.9902    10.4176
  427.5000   129.6156    11.0158    10.4659
  427.6000   129.8209    11.0775    10.4897
  427.7000   129.8242    11.1446    10.4891
  427.8000   129.6045    11.1445    10.4934
  427.9000   129.0410    11.1861    10.5615
  428.0000   128.4168    11.2225    10.6104
  428.1000   127.9343    11.2223    10.7045
  428.2000   127.4115    11.2221    10.7839
  428.3000   127.1917    11.2798    10.7883
  428.4000   126.7900    11.3006    10.8583
  428.5000   126.5099    11.3005    10.9598
  428.6000   126.5129    11.3109    11.0463
  428.7000   126.5162    11.3795    11.0869
  428.8000   126.7415    11.4380    11.0915
  428.9000   126.9873    11.4591    11.1634
  429.0000   127.2332    11.4858    11.2152
  429.1000   127.4791    11.5393    11.2775
  429.2000   127.7453    11.5391    11.3402
  429.3000   128.1933    11.5984    11.4032
  429.4000   128.5200    11.6198    11.4772
  429.5000   128.8669    11.6469    11.5304
  429.6000   129.3151    11.7121    11.5945
  429.7000   129.5814    11.7831    11.6589
  429.8000   129.3617    11.8437    11.7237
  429.9000   129.1219    11.9100    11.7997
  430.0000   128.7810    11.9487    11.8544
  430.1000   128.2578    11.9597    11.9203
  430.2000   127.4722    12.0323    11.9865
  430.3000   127.4750    12.0941    12.0531
  430.4000   127.4780    12.1619    12.1313
  430.5000   127.4810    12.2300    12.1875
  430.6000   127.4841    12.2870    12.2553
  430.7000   127.4874    12.2867    12.3234
  430.8000   127.4901    12.4136    12.3918
  430.9000   127.4932    12.5063    12.4722
  431.0000   127.5974    12.5763    12.5300
  431.1000   127.8433    12.6349    12.5997
  431.2000   128.1095    12.6347    12.6697
  431.3000   128.1123    12.6996    12.7401
  431.4000   128.2772    12.7707    12.8227
  431.5000   128.4219    12.8423    12.9426
  431.6000   128.4249    12.9141    13.0021
  431.7000   128.4282    12.9925    13.0258
  431.8000   127.9859    12.9923    13.0981
  431.9000   127.5033    13.0408    13.1831
  432.0000   126.9194    13.1138    13.3063
  432.1000   126.1536    13.1872    13.3675
  432.2000   125.1050    13.2672    13.3918
  432.3000   124.4401    13.3354    13.4662
  432.4000   123.8766    13.3601    13.5536
  432.5000   123.2929    13.3911    13.6164
  432.6000   122.5272    13.4661    13.6473
  432.7000   121.4782    13.5478    13.6721
  432.8000   120.1455    13.6174    13.7481
  432.9000   119.1774    13.6426    13.8373
  433.0000   118.5533    13.6743    13.8366
  433.1000   118.1113    13.7380    13.8358
  433.2000   117.8515    13.7378    13.8610
  433.3000   117.6318    13.8084    13.9380
  433.4000   117.5539    13.8339    14.0284
  433.5000   117.5569    13.8661    14.0277
  433.6000   117.5599    13.9307    14.0729
  433.7000   117.5632    13.9305    14.1511
  433.8000   117.5660    14.0020    14.2231
  433.9000   117.5690    14.0279    14.2221
  434.0000   117.6733    14.0606    14.2881
  434.1000   117.9595    14.1261    14.3206
  434.2000   118.4889    14.1258    14.3466
  434.3000   119.3818    14.1984    14.4196
  434.4000   120.0323    14.2780    14.4186
  434.5000   120.5209    14.3244    14.4854
  434.6000   121.0096    14.3376    14.5184
  434.7000   121.5389    14.4246    14.5175
  434.8000   121.9869    14.4244    14.5167
  434.9000   122.3136    14.4242    14.5158
  435.0000   122.5594    14.4577    14.5151
  435.1000   122.7648    14.5251    14.5619
  435.2000   122.7681    14.5248    14.6154
  435.3000   122.7709    14.4504    14.6146
  435.4000   122.6121    14.4232    14.6136
  435.5000   122.3723    14.3894    14.6130
  435.6000   122.0920    14.3222    14.6121
  435.7000   121.5693    14.3219    14.6113
  435.8000   121.5721    14.2485    14.6105
  435.9000   121.2514    14.1688    14.6096
  436.0000   120.7689    14.1223    14.6089
  436.1000   120.2863    14.1221    14.6081
  436.2000   119.7635    14.1219    14.6072
  436.3000   119.0987    14.1217    14.6064
  436.4000   118.5352    14.1215    14.6055
  436.5000   118.1538    14.1544    14.6048
  436.6000   117.9140    14.2203    14.6040
  436.7000   117.6543    14.2201    14.6031
  436.8000   117.8796    14.2931    14.6023
  436.9000   118.2873    14.3196    14.6014
  437.0000   118.7759    14.3529    14.6007
  437.1000   119.3454    14.4198    14.5999
  437.2000   120.4009    14.4195    14.5991
  437.3000   121.0712    14.4193    14.5982
  437.4000   121.6409    14.4731    14.5973
  437.5000   122.1296    14.5202    14.5966
  437.6000   122.6182    14.5200    14.5958
  437.7000   123.1474    14.5198    14.5950
