~VERSION INFORMATION
 VERS.                2.0:   CWLS LOG ASCII STANDARD - VERSION 2.0
 WRAP.                 NO:   ONE LINE PER DEPTH STEP
~WELL INFORMATION
#MNEM.UNIT      DATA TYPE    INFORMATION
#----------   ------------   ------------------------------
 STRT.F          110.5000:   START DEPTH
 STOP.F         1944.0000:   STOP DEPTH
 STEP.F            0.5000:   STEP LENGTH
 NULL.          -999.2500:   NO VALUE
 COMP.    FENIX & SCISSON:   COMPANY
 WELL.   NPR 3 SHX #34-10:   WELL
 FLD .             TEAPOT:   FIELD
 LOC .      S10 T38N R78W:   LOCATION
 CNTY.            NATRONA:   COUNTY
 STAT.            WYOMING:   STATE
 CTRY. UNITED STATES OF AMERICA:   COUNTRY
 SRVC.            Unknown:   SERVICE COMPANY
 DATE.        14-APR-1978:   LOGDATE
 API .       490251061800:   API NUMBER
~CURVE INFORMATION
#MNEM.UNIT       API CODE    CURVE DESCRIPTION
#----------   ------------   ------------------------------
 DEPT.F                  :   
 ILD .OHMM   05 120 46 00:   INDUCTION LOG DEEP
 CILD.MMHO   05 110 00 00:   CONDUCTIVITY INDUCTION LOG
 NPHI.DEC    42 890 01 00:   NEUTRON POROSITY LIMESTONE
 GRD .GAPI   45 310 01 00:   GAMMA RAY FROM DENSITY LOG
~PARAMETER INFORMATION
#MNEM.UNIT          VALUE    DESCRIPTION
#----------   ------------   ------------------------------
 PD  .                 GL:   PERMANENT DATUM
 EPD .F              5244:   ELEVATION PERMANENT DATUM
 LMF .                 KB:   LOG MEASURED FROM
 DMF .                 KB:   DRILLING MEASURED FROM
 EKB .F              5252:   KELLING BUSHING
 EGL .F              5244:   GROUND LEVEL
 DATE.          4-14-1978:   RUN DATE
 RUN .                  1:   RUN NUMBER
 DD  .F              1953:   DEPTH DRILLER
 DL  .F              1950:   DEPTH LOGGER
 BLI .F              1944:   BOTTOM LOG INTERVAL
 TLI .F               715:   TOP LOG INTERVAL
 CS  .IN            9.625:   CASING SIZE
 CBD .F               708:   CASING BOTTOM DRILLER
 CBL .F               712:   CASING BOTTOM LOGGER
 BS  .IN             8.75:   BIT SIZE
 BSD .F              1953:   BIT SIZE AT DEPTH
 DFT .                OIL:   DRILLING FLUID TYPE
 TCS .HRS               5:   TIME CURCULATED STOPPED
 LUN .               2958:   LOGGING UNIT NUMBER
 LUL .               CASP:   LOGGING UNIT LOCATION
 ENGI.             MILLER:   RECORDING ENGINEER
 CLNT.            A2DTECH:   CLIENT CODE
 ORIG.           5" PRINT:   ORIGIN OF DATA
 UWI .       490251061800:   UNIQUE WELL ID
 DICO. A2D Technologies, Inc.:   DIGITIZING COMPANY
~OTHER INFORMATION
~A   DEPT      ILD       CILD       NPHI        GRD   
# ...
 1132.5000    10.7444   102.5094  -999.2500  -999.2500
 1133.0000    10.7306   102.6569  -999.2500  -999.2500
 1133.5000    10.7322   102.8044  -999.2500  -999.2500
 1134.0000    10.7342   102.9519  -999.2500  -999.2500
 1134.5000    10.7360   103.0994  -999.2500  -999.2500
 1135.0000    10.7378   103.2469  -999.2500  -999.2500
 1135.5000    10.7395   103.3944  -999.2500  -999.2500
 1136.0000    10.7413   103.5419  -999.2500  -999.2500
 1136.5000    10.7430   103.6895  -999.2500  -999.2500
 1137.0000    10.7448   103.8370  -999.2500  -999.2500
 1137.5000    10.7466   103.9845  -999.2500  -999.2500
 1138.0000    10.7483   104.1320  -999.2500  -999.2500
 1138.5000    10.7501   104.2795  -999.2500  -999.2500
 1139.0000    10.7518   104.4270  -999.2500  -999.2500
 1139.5000    10.7536   104.5745  -999.2500  -999.2500
 1140.0000    10.7554   104.7220  -999.2500  -999.2500
 1140.5000    10.7571   104.8695  -999.2500  -999.2500
 1141.0000    10.7589   105.0170  -999.2500  -999.2500
 1141.5000    10.7606   105.1645  -999.2500  -999.2500
 1142.0000    10.7624   105.3120  -999.2500  -999.2500
 1142.5000    10.7642   105.4595  -999.2500  -999.2500
 1143.0000    10.7661   105.6070  -999.2500  -999.2500
 1143.5000    10.7679   105.7545  -999.2500  -999.2500
 1144.0000    10.7611   105.9012  -999.2500  -999.2500
 1144.5000    10.6964   106.1268  -999.2500  -999.2500
 1145.0000    10.6315   106.4168  -999.2500  -999.2500
 1145.5000    10.5668   106.7076  -999.2500  -999.2500
 1146.0000    10.5022   106.9980  -999.2500  -999.2500
 1146.5000    10.4375   107.2885  -999.2500  -999.2500
 1147.0000    10.3729   107.5790  -999.2500  -999.2500
 1147.5000    10.3082   107.8695  -999.2500  -999.2500
 1148.0000    10.2434   108.1600  -999.2500  -999.2500
 1148.5000    10.1788   108.4505  -999.2500  -999.2500
 1149.0000    10.1580   108.7410  -999.2500  -999.2500
 1149.5000    10.1445   109.0315  -999.2500  -999.2500
 1150.0000    10.1311   109.3220  -999.2500  -999.2500
 1150.5000    10.1176   109.6124  -999.2500  -999.2500
 1151.0000    10.1042   109.9029  -999.2500  -999.2500
 1151.5000    10.0894   110.1935  -999.2500  -999.2500
 1152.0000    10.0357   110.4839  -999.2500  -999.2500
 1152.5000     9.9789   110.7744  -999.2500  -999.2500
 1153.0000     9.9225   110.9273  -999.2500  -999.2500
 1153.5000     9.8904   110.8835  -999.2500  -999.2500
 1154.0000     9.8922   110.8398  -999.2500  -999.2500
 1154.5000     9.8936   110.7960  -999.2500  -999.2500
 1155.0000     9.8951   110.7523  -999.2500  -999.2500
 1155.5000     9.8966   110.7085  -999.2500  -999.2500
 1156.0000     9.8980   110.6648  -999.2500  -999.2500
 1156.5000     9.8995   110.6210  -999.2500  -999.2500
 1157.0000     9.9009   110.5773  -999.2500  -999.2500
 1157.5000     9.9024   110.5335  -999.2500  -999.2500
 1158.0000     9.9038   110.4898  -999.2500  -999.2500
 1158.5000     9.9053   110.4461  -999.2500  -999.2500
 1159.0000     9.9067   110.4023  -999.2500  -999.2500
 1159.5000     9.9082   110.3586  -999.2500  -999.2500
 1160.0000     9.9097   110.3148  -999.2500  -999.2500
 1160.5000     9.9111   110.2711  -999.2500  -999.2500
 1161.0000     9.9126   110.2273  -999.2500  -999.2500
 1161.5000     9.9140   110.1836  -999.2500  -999.2500
 1162.0000     9.9155   110.1398  -999.2500  -999.2500
 1162.5000     9.9169   110.0961  -999.2500  -999.2500
 1163.0000     9.9184   110.0523  -999.2500  -999.2500
 1163.5000     9.9199   110.0086  -999.2500  -999.2500
 1164.0000     9.9213   109.9648  -999.2500  -999.2500
 1164.5000     9.9228   109.9316  -999.2500  -999.2500
 1165.0000     9.9242   109.9035  -999.2500  -999.2500
 1165.5000     9.9257   109.8755  -999.2500  -999.2500
 1166.0000     9.9271   109.8475  -999.2500  -999.2500
 1166.5000     9.9286   109.8194  -999.2500  -999.2500
 1167.0000     9.9298   109.7914  -999.2500  -999.2500
 1167.5000     9.9218   109.7633  -999.2500  -999.2500
 1168.0000     9.9132   109.7353  -999.2500  -999.2500
 1168.5000     9.9047   109.7073  -999.2500  -999.2500
 1169.0000     9.8963   109.6792  -999.2500  -999.2500
 1169.5000     9.8953   109.6512  -999.2500  -999.2500
 1170.0000     9.9189   109.6232  -999.2500  -999.2500
 1170.5000     9.9416   109.5951  -999.2500  -999.2500
 1171.0000     9.9643   109.5671  -999.2500  -999.2500
 1171.5000     9.9869   109.5390  -999.2500  -999.2500
 1172.0000    10.0096   109.5110  -999.2500  -999.2500
 1172.5000    10.0322   109.4830  -999.2500  -999.2500
 1173.0000    10.0548   109.4549  -999.2500  -999.2500
 1173.5000    10.0775   109.4269  -999.2500  -999.2500
 1174.0000    10.1001   109.3989  -999.2500  -999.2500
 1174.5000    10.1231   109.3708  -999.2500  -999.2500
 1175.0000    10.1276   109.3428  -999.2500  -999.2500
 1175.5000    10.1246   109.3148  -999.2500  -999.2500
 1176.0000    10.1215   109.2867  -999.2500  -999.2500
 1176.5000    10.1183   109.2587  -999.2500  -999.2500
 1177.0000    10.1152   109.2306  -999.2500  -999.2500
 1177.5000    10.1120   109.2026  -999.2500  -999.2500
 1178.0000    10.1089   109.1746  -999.2500  -999.2500
 1178.5000    10.1058   109.1465  -999.2500  -999.2500
 1179.0000    10.1026   109.1185  -999.2500  -999.2500
 1179.5000    10.0995   109.0905  -999.2500  -999.2500
 1180.0000    10.0964   109.0624  -999.2500  -999.2500
 1180.5000    10.0932   109.0344  -999.2500  -999.2500
 1181.0000    10.0901   109.0063  -999.2500  -999.2500
 1181.5000    10.0870   108.9783  -999.2500  -999.2500
 1182.0000    10.0838   109.0286  -999.2500  -999.2500
 1182.5000    10.0807   109.4446  -999.2500  -999.2500
 1183.0000    10.0775   109.8605  -999.2500  -999.2500
 1183.5000    10.0744   110.2765  -999.2500  -999.2500
 1184.0000    10.0713   110.6924  -999.2500  -999.2500
 1184.5000    10.0681   111.1084  -999.2500  -999.2500
 1185.0000    10.0650   111.5244  -999.2500  -999.2500
 1185.5000    10.0619   111.9403  -999.2500  -999.2500
 1186.0000    10.0588   112.3562  -999.2500  -999.2500
 1186.5000    10.0559   112.7722  -999.2500  -999.2500
 1187.0000    10.0526   113.1882  -999.2500  -999.2500
 1187.5000    10.0319   113.6041  -999.2500  -999.2500
 1188.0000     9.9283   114.2431  -999.2500  -999.2500
 1188.5000     9.8262   115.6930  -999.2500  -999.2500
 1189.0000     9.7243   116.8056  -999.2500  -999.2500
 1189.5000     9.6224   117.8556  -999.2500  -999.2500
 1190.0000     9.5175   118.9055  -999.2500  -999.2500
 1190.5000     9.4185   119.9554  -999.2500  -999.2500
 1191.0000     9.3166   121.0053  -999.2500  -999.2500
 1191.5000     9.2148   121.8796  -999.2500  -999.2500
 1192.0000     9.1129   121.8090  -999.2500  -999.2500
 1192.5000     9.0110   121.7404  -999.2500  -999.2500
 1193.0000     8.9094   121.6698  -999.2500  -999.2500
 1193.5000     8.8033   121.5998  -999.2500  -999.2500
 1194.0000     8.7718   121.5299  -999.2500  -999.2500
 1194.5000     8.7708   121.4599  -999.2500  -999.2500
 1195.0000     8.7712   121.3900  -999.2500  -999.2500
 1195.5000     8.7712   121.3201  -999.2500  -999.2500
 1196.0000     8.7712   121.2501  -999.2500  -999.2500
 1196.5000     8.7712   121.1802  -999.2500  -999.2500
 1197.0000     8.7712   121.1102  -999.2500  -999.2500
 1197.5000     8.7712   121.0403  -999.2500  -999.2500
 1198.0000     8.7712   120.9704  -999.2500  -999.2500
 1198.5000     8.7712   120.9004  -999.2500  -999.2500
 1199.0000     8.7712   120.8305  -999.2500  -999.2500
 1199.5000     8.7712   120.7605  -999.2500  -999.2500
 1200.0000     8.7712   120.6906  -999.2500  -999.2500
 1200.5000     8.7711   120.6207  -999.2500  -999.2500
 1201.0000     8.7711   120.5507  -999.2500  -999.2500
 1201.5000     8.7717   120.4808  -999.2500  -999.2500
 1202.0000     8.8094   120.4108  -999.2500  -999.2500
 1202.5000     8.9175   120.3409  -999.2500  -999.2500
 1203.0000     9.0244   120.2710  -999.2500  -999.2500
 1203.5000     9.1325   120.2010  -999.2500  -999.2500
 1204.0000     9.1660   120.1311  -999.2500  -999.2500
 1204.5000     9.1599   120.0611  -999.2500  -999.2500
 1205.0000     9.1531   119.9912  -999.2500  -999.2500
