~VERSION INFORMATION
 VERS.                2.0:   CWLS LOG ASCII STANDARD - VERSION 2.0
 WRAP.                 NO:   ONE LINE PER DEPTH STEP
~WELL INFORMATION
#MNEM.UNIT      DATA TYPE    INFORMATION
#----------   ------------   ------------------------------
 STRT.F            0.0000:   START DEPTH
 STOP.F         1283.5000:   STOP DEPTH
 STEP.F            0.5000:   STEP LENGTH
 NULL.          -999.2500:   NO VALUE
 COMP.      U.S. NAVY NPR:   COMPANY
 WELL. NAVAL PETROLEUM RESERVE 3 ST-11 #88-11:   WELL
 FLD .             TEAPOT:   FIELD
 LOC .      S11 T38N R78W:   LOCATION
 CNTY.            NATRONA:   COUNTY
 STAT.            WYOMING:   STATE
 CTRY. UNITED STATES OF AMERICA:   COUNTRY
 SRVC.       Schlumberger:   SERVICE COMPANY
 DATE.        01-NOV-1958:   LOGDATE
 API .       490250632600:   API NUMBER
~CURVE INFORMATION
#MNEM.UNIT       API CODE    CURVE DESCRIPTION
#----------   ------------   ------------------------------
 DEPT.F                  :   
 GRN .GAPI   35 310 01 00:   GAMMA RAY
 NEUT.NAPI   35 330 01 00:   NEUTRON
 ASN .OHMM   01 041 16 00:   AMPLIFIED SHORT NORMAL
 LAT .OHMM   01 070 18 00:   LATERAL 18"
 LN  .OHMM   01 060 64 00:   LONG NORMAL 64"
 SPR .MV     01 010 01 00:   SPONTANEOUS POTENTIAL
 CALM.IN     15 280 01 00:   CALIPER FROM MICRO LOG
~PARAMETER INFORMATION
#MNEM.UNIT          VALUE    DESCRIPTION
#----------   ------------   ------------------------------
 LMF .                 KB:   LOG MEASURED FROM
 DMF .                 KB:   DRILLING MEASURED FROM
 EKB .F              5289:   KELLING BUSHING
 EGL .F              5279:   GROUND LEVEL
 DATE.        01-NOV-1958:   RUN DATE
 RUN .                  1:   RUN NUMBER
 DD  .F              1280:   DEPTH DRILLER
 DL  .F              1283:   DEPTH LOGGER
 BLI .F              1282:   BOTTOM LOG INTERVAL
 TLI .F               150:   TOP LOG INTERVAL
 CBD .F                45:   CASING BOTTOM DRILLER
 BS  .IN            7.875:   BIT SIZE
 BSD .F              1280:   BIT SIZE AT DEPTH
 DFT .                GEL:   DRILLING FLUID TYPE
 DFD .                9.1:   DRILLING FLUID DENSITY
 DFV .                 63:   DRILLING FLUID VISCOSITY
 DFL .                2.1:   DRILLING FLUID LOSS
 RMS .OHMM            2.4:   RESISTIVITY MUD SAMPLE
 MST .F                56:   MUD SAMPLE TEMPERATURE
 RMF .OHMM           1.45:   RESISTIVITY MUD FILTRATE SAMPLE
 MFST.F                79:   MUD FILTRATE SAMPLE TEMPERATURE
 RMC .OHMM            1.7:   RESISTIVITY MUD CAKE
 MCST.F                79:   MUD CAKE SAMPLE TEMPERATURE
 MFSS.               MEAS:   MUD FILTRATE SAMPLE SOURCE
 MCSS.               MEAS:   MUD CAKE SAMPLE SOURCE
 RMB .OHMM            1.6:   RESISTIVITY MUD AT BHT
 BHT .F                79:   BOTTOM HOLE TEMPERATURE
 TCS .HRS               1:   TIME CURCULATED STOPPED
 MRT .F                79:   MAXIMUM RECORDED TEMPERATURE
 LUN .               2544:   LOGGING UNIT NUMBER
 LUL .                 NC:   LOGGING UNIT LOCATION
 ENGI.            EARNEST:   RECORDING ENGINEER
 WITN.             MARTIN:   WITNESSED BY
 CLNT.            A2DTECH:   CLIENT CODE
 ORIG.         2.5" PRINT:   ORIGIN OF DATA
 UWI .       490250632600:   UNIQUE WELL ID
 DICO. A2D Technologies, Inc.:   DIGITIZING COMPANY
~OTHER INFORMATION
~A    DEPT       GRN     NEUT        ASN        LAT         LN        SPR       CALM   
# ...
 1228.5000     4.3659   306.4902    10.2677    10.2092     9.3224   -10.4745     7.8002
 1229.0000     4.1567   304.8757    10.1331    10.2120     9.1876   -10.8511     7.7999
 1229.5000     3.9363   290.1210    10.1345    10.2147     9.1892   -11.3982     7.7997
 1230.0000     4.0159   284.8749    10.0000    10.2174     9.1905   -11.8176     7.7994
 1230.5000     4.4556   290.0777     9.9891    10.1902     9.0559   -11.6735     7.7991
 1231.0000     4.5952   290.3570     9.8668    10.0866     9.0572   -11.5277     7.7989
 1231.5000     4.6548   275.8538     9.8497    10.0897     9.0586   -11.5195     7.7986
 1232.0000     4.6944   273.5931     9.7336    10.0924     9.0599   -11.3507     7.7983
 1232.5000     4.5513   279.5422     9.5991    10.0544     9.0612   -10.9544     7.7980
 1233.0000     4.2936   299.0241     9.6005     9.9185     9.0626   -10.9463     7.7978
 1233.5000     4.3696   302.0866     9.6019     9.8283     9.0640   -10.6647     7.7975
 1234.0000     4.9040   303.3601     9.7391     9.6952     9.0653   -10.6566     7.7972
 1234.5000     4.9924   301.5951     9.7405     9.6467     9.2026   -10.6485     7.7969
 1235.0000     4.8420   287.3900     9.7418     9.4288     9.2039   -10.6404     7.7966
 1235.5000     4.7845   277.6166     9.7432     9.3750     9.2053   -10.6323     7.8236
 1236.0000     4.5250   282.2205     9.7446     9.1630     9.2066   -10.6242     7.8233
 1236.5000     4.3132   296.8271     9.8818     9.0299     9.3440   -10.6161     7.7958
 1237.0000     4.0799   286.7997     9.8832     8.8967     9.4894   -10.8821     7.7956
 1237.5000     4.3667   280.0646     9.9411     8.8995     9.7659   -10.6000     7.7953
 1238.0000     4.2095   286.7564    10.0816     8.7663    10.0422   -10.8657     7.7950
 1238.5000     4.3891   285.9884    10.2948     8.6957    10.1828   -10.8574     7.7948
 1239.0000     4.4888   279.9960    10.4982     8.6359    10.3232   -10.8492     7.7945
 1239.5000     4.7684   276.9890    10.6386     8.5598    10.5997   -10.8410     7.7942
 1240.0000     4.8480   297.8649    10.9149     8.5054    10.8761   -10.8328     7.7940
 1240.5000     4.9276   309.9341    11.2667     8.5087    10.8199   -11.0986     7.7937
 1241.0000     4.8672   299.2148    11.6033     8.3750    10.5462   -11.1247     7.7934
 1241.5000     4.4824   277.4980    12.2054     8.5140    10.4450   -11.6717     7.7786
 1242.0000     4.3264   278.9188    12.6144     8.7885    10.3104   -12.5435     7.6841
 1242.5000     4.4060   292.7768    13.0233     9.4705    10.3119   -13.9194     7.6022
 1243.0000     4.2808   291.9089    13.4323    10.2884    10.4955   -15.0217     7.5748
 1243.5000     4.0788   292.7327    13.8412    11.2422    10.6854   -16.1244     7.5745
 1244.0000     3.9049   299.2281    14.2502    12.0601    10.9123   -16.7867     7.6286
 1244.5000     4.1621   294.6737    14.5233    12.4704    11.1331   -16.7772     7.6556
 1245.0000     4.2813   275.9935    14.7964    12.8807    11.2115   -16.4954     7.7097
 1245.5000     4.3432   263.2840    15.0694    12.4758    10.8756   -16.3787     7.7384
 1246.0000     4.4051   293.8623    15.2066    12.3424    10.4629   -16.2055     7.7671
 1246.5000     4.6827   307.2748    15.3439    12.3453    10.0500   -16.0724     7.8176
 1247.0000     4.5823   299.0434    15.3452    12.6197     9.5012   -15.5088     7.8446
 1247.5000     4.4219   310.9632    15.2106    13.7094     8.9524   -14.9453     7.7808
 1248.0000     4.2616   338.1075    15.0761    15.0708     8.6955   -14.3818     7.7352
 1248.5000     4.3812   343.0125    14.9416    16.2963     8.6971   -13.9760     7.7078
 1249.0000     4.5608   326.7228    14.8071    17.2501     8.8344   -13.6926     7.7075
 1249.5000     4.5404   310.1302    14.4008    17.6604     9.1076   -13.6845     7.6800
 1250.0000     4.3400   312.3475    13.9946    17.2554     9.5168   -13.6765     7.7069
 1250.5000     4.4996   298.8896    13.4430    16.0189    10.1979   -13.9432     7.7339
 1251.0000     4.3769   271.2003    12.8977    14.3642    10.8790   -14.4810     7.7608
 1251.5000     4.4290   261.8235    12.6399    10.6846    11.5601   -15.0210     7.7877
 1252.0000     4.6584   296.5768    12.6413     9.0816    12.1053   -14.3365     7.7874
 1252.5000     4.5467   291.3308    12.9302     8.5598    12.9224   -13.8694     7.8144
 1253.0000     4.4640   301.0116    13.1875     8.4239    13.4675   -13.3550     7.8141
 1253.5000     4.4173   340.5460    13.3469     8.2880    13.1969   -13.0741     7.8138
 1254.0000     4.5949   362.2691    13.4620     8.1521    12.5185   -13.9514     7.8135
 1254.5000     4.6768   366.6246    13.5992     8.0405    11.7042   -14.1522     7.8133
 1255.0000     4.6367   385.2615    13.6005     8.0706    10.8898   -14.0608     7.8130
 1255.5000     4.3355   389.7179    13.6019     8.5434    10.3473   -13.8611     7.7855
 1256.0000     4.2488   374.5196    13.4294     9.3696     9.8049   -13.7544     7.7853
 1256.5000     4.2801   363.5497    13.1146    10.3316     9.2624   -13.1909     7.7850
 1257.0000     4.1544   359.7963    12.7464    11.0216     8.8559   -12.6273     7.7847
 1257.5000     4.0340   355.0454    12.2894    11.7663     8.8595   -12.1869     7.8116
 1258.0000     4.0936   337.2126    11.9276    12.1794     9.0000   -11.9052     7.8114
 1258.5000     4.2532   327.8353    11.6540    12.0001     9.2764   -11.8970     7.8111
 1259.0000     4.2928   333.9327    11.3804    11.2283     9.5528   -12.0365     7.8108
 1259.5000     4.1093   356.6946    11.1671    10.5787     9.8442   -12.1541     7.8105
 1260.0000     4.0720   359.6584    11.1051     9.6195    10.2417   -12.1443     7.8103
 1260.5000     4.2134   379.0416    10.9674     8.6386    10.5181   -12.6833     7.8100
 1261.0000     4.6107   398.4248    10.7636     7.9566    10.7945   -12.6752     7.8369
 1261.5000     4.9472   408.1055    10.6291     7.6087    10.9350   -12.9419     7.8366
 1262.0000     4.8328   411.0692    10.6304     7.1358    11.0447   -12.9326     7.8364
 1262.5000     4.6167   420.7500    10.6318     6.9973    11.0121   -12.9245     7.8361
 1263.0000     4.5201   429.6844    10.6334     7.0000    10.8743   -12.9164     7.8358
 1263.5000     4.4680   404.2872    10.6348     7.2119    10.6006   -12.6348     7.8356
 1264.0000     4.3267   388.5923    10.6361     7.2772    10.3269   -12.6267     7.8353
 1264.5000     4.1483   399.8130    10.6374     7.4158    10.0996   -12.6186     7.8350
 1265.0000     4.2079   397.5022    10.6388     7.5549     9.9650   -12.3370     7.8347
 1265.5000     4.3676   390.7663    10.5043     7.6934     9.9136   -12.0553     7.8344
 1266.0000     4.6872   403.5268    10.5056     7.8320     9.8320   -12.3210     7.8614
 1266.5000     4.8868   411.4156    10.3709     8.1064     9.8334   -13.6805     7.8611
 1267.0000     4.8376   404.1246    10.3724     8.3809     9.8347   -13.6669     7.8608
 1267.5000     4.8467   401.1176    10.2379     8.6553     9.7002   -13.3769     7.8606
 1268.0000     4.5024   396.1719    10.2392     8.7939     9.7015   -13.0870     7.8603
 1268.5000     4.4852   405.5523    10.2406     9.0683     9.7029   -12.4632     7.8600
 1269.0000     4.5479   404.7843    10.2419     9.2068     9.7042   -11.3743     7.8598
 1269.5000     4.5644   398.7919    10.2433     9.3454     9.6795   -10.3486     7.8323
 1270.0000     4.2133   409.9654    10.2446     9.4840     9.5713   -11.5442     7.8320
 1270.5000     4.3501   421.1388    10.2460     9.4867     9.5726   -12.6465     7.8318
 1271.0000     4.3633   410.6669    10.2473     9.3535     9.5298   -13.1306     7.8315
 1271.5000     4.3253   412.2864    10.3845     9.2203     9.4391   -13.5997     7.8167
 1272.0000     4.0928   412.8640    10.3859     9.3589     9.4405   -13.5027     7.8037
 1272.5000     3.9490   412.3417    10.4348     9.3615     9.4420   -12.6656     7.8034
 1273.0000     4.0415   404.1578    10.5294     9.6360     9.4434   -12.1021     7.7760
 1273.5000     4.0479   381.4455    10.6748     9.7745     9.4447   -11.2650     7.7757
