~VERSION INFORMATION
 VERS.                2.0:   CWLS LOG ASCII STANDARD - VERSION 2.0
 WRAP.                 NO:   ONE LINE PER DEPTH STEP
~WELL INFORMATION
#MNEM.UNIT      DATA TYPE    INFORMATION
#----------   ------------   ------------------------------
 STRT.F            2.0000:   START DEPTH
 STOP.F          565.0000:   STOP DEPTH
 STEP.F            0.5000:   STEP LENGTH
 NULL.          -999.2500:   NO VALUE
 COMP.       F D SERV INC:   COMPANY
 WELL. NAVAL PETROLEUM RESERVE 3 SX-3 #86-2 SX3:   WELL
 FLD .             TEAPOT:   FIELD
 LOC .       S3 T38N R78W:   LOCATION
 CNTY.            NATRONA:   COUNTY
 STAT.            WYOMING:   STATE
 CTRY. UNITED STATES OF AMERICA:   COUNTRY
 SRVC.     Atlas Wireline:   SERVICE COMPANY
 DATE.        23-OCT-1992:   LOGDATE
 API .       490252255400:   API NUMBER
~CURVE INFORMATION
#MNEM.UNIT       API CODE    CURVE DESCRIPTION
#----------   ------------   ------------------------------
 DEPT.F                  :   
 GRR .GAPI   07 310 01 00:   GAMMA RAY
 RILD.OHMM   07 120 46 00:   INDUCTION LOG DEEP RESISTIVITY
 RILM.OHMM   07 120 44 00:   RESITIVITY LONG MEDIUM
~PARAMETER INFORMATION
#MNEM.UNIT          VALUE    DESCRIPTION
#----------   ------------   ------------------------------
 PD  .                 GL:   PERMANENT DATUM
 EPD .F              5153:   ELEVATION PERMANENT DATUM
 LMF .                 KB:   LOG MEASURED FROM
 DAPD.F                10:   FEET ABOVE PERMANENT DATUM
 DMF .                 KB:   DRILLING MEASURED FROM
 EKB .F              5153:   KELLING BUSHING
 EDF .F              5152:   DRILLING FLOOR
 EGL .F              5143:   GROUND LEVEL
 DATE.        23-OCT-1992:   RUN DATE
 RUN .                  1:   RUN NUMBER
 DD  .F               575:   DEPTH DRILLER
 DL  .F               574:   DEPTH LOGGER
 BLI .F               566:   BOTTOM LOG INTERVAL
 CS  .IN            8.625:   CASING SIZE
 CBD .F                94:   CASING BOTTOM DRILLER
 CBL .F                98:   CASING BOTTOM LOGGER
 BS  .IN            7.875:   BIT SIZE
 BSD .F               575:   BIT SIZE AT DEPTH
 DFT .           AIR FOAM:   DRILLING FLUID TYPE
 TCS .HRS               1:   TIME CURCULATED STOPPED
 MRT .F                70:   MAXIMUM RECORDED TEMPERATURE
 LUN .            HL-6274:   LOGGING UNIT NUMBER
 LUL .             CASPER:   LOGGING UNIT LOCATION
 ENGI.             RAUTIO:   RECORDING ENGINEER
 WITN.        GARY STRONG:   WITNESSED BY
 CLNT.            A2DTECH:   CLIENT CODE
 ORIG.           5" PRINT:   ORIGIN OF DATA
 UWI .       490252255400:   UNIQUE WELL ID
 DICO. A2D Technologies, Inc.:   DIGITIZING COMPANY
~OTHER INFORMATION
~A    DEPT      GRR      RILD       RILM   
# ...
  184.0000   119.8198    12.8756    13.1669
  184.5000   120.1201    12.8800    13.0770
  185.0000   120.4705    12.7943    13.0793
  185.5000   116.8168    12.7997    13.0810
  186.0000   113.5135    12.7156    12.9921
  186.5000   115.0150    12.5450    12.8145
  187.0000   117.7177    12.5494    12.4602
  187.5000   116.5165    12.2964    12.2944
  188.0000   113.2132    12.3006    12.0427
  188.5000   113.5135    12.2188    12.0443
  189.0000   113.5135    12.0558    11.9621
  189.5000   111.7117    11.8930    11.8812
  190.0000   111.1111    11.8149    11.8005
  190.5000   110.2102    11.8199    11.8021
  191.0000   111.7117    11.8239    11.8037
  191.5000   115.9159    11.8280    11.8054
  192.0000   117.7177    11.8326    11.8897
  192.5000   117.4174    11.8366    11.8085
  193.0000   117.1171    11.8406    11.7283
  193.5000   116.8168    11.8446    11.5683
  194.0000   116.2162    11.8486    11.4894
  194.5000   115.3003    11.6895    11.4113
  195.0000   114.1141    11.6128    11.4132
  195.5000   116.2162    11.5264    11.2572
  196.0000   117.7177    11.3042    11.1807
  196.5000   117.1171    11.3080    11.1048
  197.0000   115.0150    11.1553    11.0297
  197.5000   115.3153    11.0056    10.8036
  198.0000   117.1171    10.7085    10.5820
  198.5000   119.5195    10.4204    10.4373
  199.0000   123.5339    10.3511    10.2946
  199.5000   124.6499    10.2129    10.2247
  200.0000   123.8354    10.1460    10.2261
  200.5000   121.7058    10.2890    10.1566
  201.0000   118.2898    10.2193     9.9487
  201.5000   117.4003    10.2207     9.8811
  202.0000   117.4149    10.0778     9.8824
  202.5000   118.0254    10.0133     9.8838
  203.0000   118.3365    10.0150     9.9541
  203.5000   118.6476    10.0859    10.0249
  204.0000   118.9587    10.2991    10.2375
  204.5000   123.1620    10.5898    10.5290
  205.0000   124.6707    10.8135    10.7588
  205.5000   123.0958    10.8902    10.8361
  206.0000   103.7381    10.8164    10.7632
  206.5000   101.0552    10.8179    10.7654
  207.0000   101.6657    10.6706    10.6184
  207.5000   105.5696    10.5984    10.5470
  208.0000   118.7550    10.5270    10.2604
  208.5000   118.7904    10.3836    10.0507
  209.0000   117.5768    10.2418     9.7094
  209.5000   117.2931    10.0326     9.3781
  210.0000   117.6071     9.7602     8.9921
  210.5000   117.9182     9.4293     8.6931
  211.0000   118.8281     8.9843     8.4560
  211.5000   122.4327     8.5603     8.2836
  212.0000   124.2408     8.3276     8.1705
  212.5000   124.5519     8.2712     8.0594
  213.0000   123.9618     8.2153     8.0052
  213.5000   123.6767     8.2166     8.0072
  214.0000   124.2876     8.2749     8.0088
  214.5000   123.0779     8.3335     8.1793
  215.0000   121.2775     8.4509     8.2380
  215.5000   120.7299     8.5699     8.4134
  216.0000   121.6427     8.6906     8.4738
  216.5000   123.7502     8.7522     8.4759
  217.0000   126.1571     8.8754     8.5368
  217.5000   126.4682     8.9383     8.6581
  218.0000   125.2823     8.9396     8.7202
  218.5000   123.4976     9.0031     8.7828
  219.0000   122.3117     9.0669     8.9697
  219.5000   122.6228     9.1946     9.0972
  220.0000   122.2755     9.2598     9.2264
  220.5000   118.9102     9.4554     9.4885
  221.0000   117.2687     9.5886     9.6904
  221.5000   120.2774     9.5899     9.7601
  222.0000   121.4867     9.6579     9.6277
  222.5000   121.4984     9.5925     9.4962
  223.0000   122.1089     9.5202     9.3026
  223.5000   126.0128     9.2689     9.1761
  224.0000   128.1203     9.2061     8.9881
  224.5000   127.5329     9.0807     8.9281
  225.0000   126.3473     9.0820     8.9299
  225.5000   125.4608     9.0202     8.9317
  226.0000   125.4754     9.0217     8.9335
  226.5000   125.1877     9.0230     8.9977
  227.0000   123.9989     8.9619     8.9996
  227.5000   123.7112     8.9631     9.0018
  228.0000   123.4264     8.9025     9.0037
  228.5000   122.5370     8.9656     9.0055
  229.0000   122.8510     9.0294     9.0697
  229.5000   124.3597     9.0933     9.0087
  230.0000   124.3715     9.2214     9.0110
  230.5000   124.3832     9.2864     9.0129
  231.0000   125.0299     9.2236     8.9523
  231.5000   127.4035     9.0355     8.8921
  232.0000   128.0121     9.0367     8.8323
  232.5000   127.7046     9.0379     8.7729
  233.0000   125.1977     8.9739     8.7648
  233.5000   123.5591     8.7934     8.7766
  234.0000   123.2684     8.6140     8.7172
  234.5000   122.0855     8.4964     8.5338
  235.0000   120.6002     8.3231     8.3069
  235.5000   120.3095     8.2098     7.9144
  236.0000   121.2224     8.0420     7.5927
  236.5000   123.9287     7.8775     7.2840
  237.0000   121.9219     7.6636     7.0857
  237.5000   118.6186     7.4038     6.8451
  238.0000   116.8168     7.2005     6.6126
  238.5000   118.9189     6.8049     6.4326
  239.0000   123.4234     6.5842     6.4788
  239.5000   126.1261     6.6771     6.6166
  240.0000   127.6276     6.8656     6.7138
  240.5000   127.6276     7.0594     6.8535
  241.0000   127.9369     7.2086     7.0485
  241.5000   129.7605     7.4120     7.2487
  242.0000   130.0479     7.6212     7.4030
  242.5000   128.8644     7.7286     7.6663
  243.0000   126.7803     7.8919     7.8841
  243.5000   125.2950     8.1147     8.1646
  244.0000   125.0044     8.2389     8.3384
  244.5000   125.6178     8.3451     8.3401
  245.0000   125.6295     8.4042     8.3999
  245.5000   122.9466     8.4054     8.3435
  246.0000   120.5631     8.3482     8.2874
  246.5000   119.6766     8.2920     8.1180
  247.0000   120.9821     8.1226     7.9525
  247.5000   125.3916     8.0120     7.7360
  248.0000   127.7985     7.8483     7.5254
  248.5000   129.0078     7.7391     7.3205
  249.0000   129.0195     7.6213     7.1709
  249.5000   129.0312     7.3264     6.8794
  250.0000   128.4441     6.8371     6.5354
  250.5000   126.0606     6.3805     6.2600
  251.0000   125.4731     5.9958     5.8510
  251.5000   124.8864     5.3677     5.5746
  252.0000   124.6246     5.5192     5.2384
  252.5000   122.2122     5.5583     5.3109
  253.0000   121.0567     5.5591     5.5735
  253.5000   123.1662     5.5988     5.8491
  254.0000   127.6765     5.6773     6.2236
  254.5000   131.5863     5.8377     6.5784
  255.0000   131.5922     6.3444     6.8670
  255.5000   131.5980     6.5689     7.1931
  256.0000   131.3022     6.8961     7.4453
  256.5000   129.2074     7.2899     7.6532
  257.0000   125.9100     7.5477     7.8670
  257.5000   124.3944     7.8690     8.0311
  258.0000   124.1199     8.1474     8.1986
  258.5000   125.3284     8.3195     8.3697
  259.0000   127.4364     8.4453     8.4866
  259.5000   126.8402     8.6954     8.6120
  260.0000   125.9452     8.9200     8.7822
  260.5000   127.4540     8.9832     8.9037
  261.0000   131.6641     8.9844     8.9780
  261.5000   131.6699     9.0481     9.0265
  262.0000   131.0470     9.1122     9.0526
  262.5000   132.2823     9.1134     9.1506
  263.0000   134.0901     9.1780     9.0870
  263.5000   133.1949     9.3072     9.0864
  264.0000   132.9005     9.3732     9.1487
  264.5000   133.5084     9.3745     9.1480
  265.0000   132.6134     9.3760     9.2109
  265.5000   129.6163     9.3773     9.2101
  266.0000   125.1176     9.3786     9.2095
  266.5000   122.4208     9.3798     9.2089
  267.0000   122.1261     9.3811     9.2083
  267.5000   123.6337     9.3824     9.1443
  268.0000   125.1492     9.3836     9.0807
  268.5000   127.0211     9.3849     9.0175
  269.0000   131.1603     9.3862     8.8933
  269.5000   133.2683     9.3875     8.7707
  270.0000   133.8733     9.3890     8.7098
  270.5000   130.5773     9.3903     8.5307
  271.0000   129.0817     9.2624     8.4714
  271.5000   128.1866     9.0106     8.2972
  272.0000   127.5919     8.6450     8.1265
  272.5000   127.2973     8.1802     7.8992
  273.0000   128.2043     7.6870     7.4278
  273.5000   130.6286     6.8817     6.9798
  274.0000   131.5195     6.2035     6.4244
  274.5000   130.6243     5.8211     5.9132
