~VERSION INFORMATION
 VERS.                2.0:   CWLS LOG ASCII STANDARD - VERSION 2.0
 WRAP.                 NO:   ONE LINE PER DEPTH STEP
~WELL INFORMATION
#MNEM.UNIT      DATA TYPE    INFORMATION
#----------   ------------   ------------------------------
 STRT.F            0.0000:   START DEPTH
 STOP.F          964.0000:   STOP DEPTH
 STEP.F            0.5000:   STEP LENGTH
 NULL.          -999.2500:   NO VALUE
 COMP. LAWRENCE/ALLISON INC:   COMPANY
 WELL.  NPR 3 #58-16-SX-2:   WELL
 FLD .           NPR NO.3:   FIELD
 LOC .       S2 T38N R78W:   LOCATION
 CNTY.            NATRONA:   COUNTY
 STAT.            WYOMING:   STATE
 CTRY. UNITED STATES OF AMERICA:   COUNTRY
 SRVC.           Gearhart:   SERVICE COMPANY
 DATE.        07-MAY-1987:   LOGDATE
 API .       490251113700:   API NUMBER
~CURVE INFORMATION
#MNEM.UNIT       API CODE    CURVE DESCRIPTION
#----------   ------------   ------------------------------
 DEPT.F                  :   
 GRR .GAPI   07 310 01 00:   GAMMA RAY FROM RES. LOG.
 RILD.OHMM   07 120 46 00:   INDUCTION LOG DEEP RESISTIVITY
 RILM.OHMM   07 120 44 00:   INDUCTION LOG MEDIUM RESISTIVITY
~PARAMETER INFORMATION
#MNEM.UNIT          VALUE    DESCRIPTION
#----------   ------------   ------------------------------
 PD  .                 GL:   PERMANENT DATUM
 EPD .F              5173:   ELEVATION PERMANENT DATUM
 LMF .                 GL:   LOG MEASURED FROM
 DMF .                 GL:   DRILLING MEASURED FROM
 EGL .F              5173:   GROUND LEVEL
 DATE.           5-7-1987:   RUN DATE
 RUN .                  1:   RUN NUMBER
 DD  .F               971:   DEPTH DRILLER
 DL  .F               971:   DEPTH LOGGER
 BLI .F               963:   BOTTOM LOG INTERVAL
 TLI .F                37:   TOP LOG INTERVAL
 CS  .IN            8.625:   CASING SIZE
 CBD .F                44:   CASING BOTTOM DRILLER
 CBL .F                37:   CASING BOTTOM LOGGER
 BS  .IN            7.875:   BIT SIZE
 BSD .F               971:   BIT SIZE AT DEPTH
 TCS .HRS            2100:   TIME CURCULATED STOPPED
 TLAB.HRS            2338:   TIME LOGGER AT BOTTOM
 MRT .F                80:   MAXIMUM RECORDED TEMPERATURE
 LUN .               7597:   LOGGING UNIT NUMBER
 LUL .           GILLETTE:   LOGGING UNIT LOCATION
 ENGI.         WEATHERMON:   RECORDING ENGINEER
 WITN. STRONG/TAYLOR/LOWE:   WITNESSED BY
 CLNT.            A2DTECH:   CLIENT CODE
 ORIG.           5" PRINT:   ORIGIN OF DATA
 UWI .       490251113700:   UNIQUE WELL ID
 DICO. A2D Technologies, Inc.:   DIGITIZING COMPANY
~OTHER INFORMATION
~A    DEPT      GRR      RILD       RILM   
# ...
  819.0000    79.1401    17.9130    17.4874
  819.5000    81.9954    17.6881    17.3034
  820.0000    84.2973    17.4660    17.1118
  820.5000    84.2555    17.2467    16.7899
  821.0000    83.4248    17.0302    16.4556
  821.5000    83.7748    16.8164    16.1275
  822.0000    85.0346    16.6053    15.8063
  822.5000    86.2746    16.3968    15.4914
  823.0000    86.1821    16.1909    15.3779
  823.5000    86.0232    15.9876    15.3232
  824.0000    86.2032    15.8277    15.2686
  824.5000    86.9542    15.7339    15.2143
  825.0000    87.4009    15.6406    15.1601
  825.5000    86.4466    15.5479    15.1061
  826.0000    85.5122    15.4557    15.0523
  826.5000    84.5968    15.3641    14.9987
  827.0000    84.2849    15.2730    14.9162
  827.5000    86.5139    15.1825    14.7942
  828.0000    88.6816    15.0925    14.5615
  828.5000    90.8432    14.9890    14.3322
  829.0000    92.5143    15.0751    14.1616
  829.5000    92.6029    15.3453    14.2496
  830.0000    91.1065    15.8300    14.5703
  830.5000    89.0386    16.3301    15.6789
  831.0000    85.0765    16.8459    16.8718
  831.5000    81.4554    17.3781    18.1555
  832.0000    78.3035    17.7703    19.5369
  832.5000    75.2637    18.0008    20.4784
  833.0000    73.7836    18.2817    20.3213
  833.5000    74.1255    17.6272    20.1463
  834.0000    75.0600    16.7070    18.7411
  834.5000    77.0199    15.8434    16.9731
  835.0000    78.9644    15.0251    15.7793
  835.5000    80.9881    14.2487    15.0861
  836.0000    80.7467    13.7041    14.4234
  836.5000    79.8158    13.3438    13.7898
  837.0000    80.2558    13.1499    13.1652
  837.5000    81.8341    13.0059    12.5240
  838.0000    83.3982    12.8652    12.4004
  838.5000    83.1721    12.7257    12.2716
  839.0000    82.8358    12.5878    12.1441
  839.5000    82.5100    12.4513    12.0180
  840.0000    82.3373    12.3163    11.8932
  840.5000    82.9679    12.1828    11.7696
  841.0000    83.6892    12.0507    11.6474
  841.5000    84.8967    11.9396    11.5264
  842.0000    86.1126    11.9086    11.4382
  842.5000    86.4534    11.8778    11.3584
  843.0000    86.6159    11.8470    11.2793
  843.5000    86.8283    11.8163    11.2006
  844.0000    87.2770    11.7857    11.1224
  844.5000    86.8205    11.7552    11.0446
  845.0000    85.0858    11.7247    10.9713
  845.5000    83.5231    11.6943    11.0000
  846.0000    83.0558    11.6640    11.0287
  846.5000    83.7762    11.6338    11.0572
  847.0000    84.2675    11.6037    11.0856
  847.5000    84.1244    11.5738    11.1142
  848.0000    83.9964    11.5439    11.1428
  848.5000    83.8693    11.5142    11.1805
  849.0000    84.4022    11.4845    11.1657
  849.5000    85.1480    11.4549    11.1434
  850.0000    85.9063    11.4253    11.1213
  850.5000    86.7002    11.3959    11.0993
  851.0000    87.8231    11.3665    11.0758
  851.5000    89.0188    11.3372    11.0367
  852.0000    90.2260    11.3080    10.9943
  852.5000    90.5233    11.2788    10.9520
  853.0000    89.9914    11.2497    10.9100
  853.5000    89.9858    11.2207    10.8680
  854.0000    91.8158    11.1918    10.8261
  854.5000    94.3727    11.1629    10.7655
  855.0000    95.7153    11.1341    10.7706
  855.5000    97.0183    11.1054    10.7801
  856.0000    98.1338    11.0753    10.7895
  856.5000    97.5935    11.0892    10.7991
  857.0000    97.0366    11.1039    10.8086
  857.5000    97.9788    11.1185    10.8181
  858.0000    99.3869    11.1331    10.8276
  858.5000   100.6417    11.1478    10.8371
  859.0000   100.2181    11.1625    10.8467
  859.5000    98.9704    11.1795    10.8560
  860.0000    97.7662    11.1431    10.8666
  860.5000    97.4592    11.0951    10.8335
  861.0000    99.0968    11.0474    10.7894
  861.5000   100.6908    10.9998    10.7456
  862.0000   100.3002    10.9524    10.7019
  862.5000    96.8513    10.9053    10.6585
  863.0000    95.4495    10.8583    10.6152
  863.5000    96.5191    10.8116    10.5721
  864.0000    97.8279    10.7655    10.4689
  864.5000    99.1292    10.6370    10.3526
  865.0000   100.4268    10.5115    10.2376
  865.5000   101.7340    10.3875    10.1108
  866.0000   102.9948    10.2650     9.9678
  866.5000   102.2683    10.1439     9.8268
  867.0000   101.4203    10.0242     9.6879
  867.5000   100.5819     9.8901     9.5509
  868.0000    99.7456     9.7488     9.4158
  868.5000    99.7376     9.6096     9.2855
  869.0000   100.6867     9.4724     9.1604
  869.5000   101.6587     9.3371     9.0370
  870.0000   101.5173     9.2037     8.9153
  870.5000   101.1075     9.0822     8.7617
  871.0000   100.6895     8.5252     8.5194
  871.5000   100.9211     8.0101     8.2837
  872.0000   102.7740     7.5368     8.0546
  872.5000   104.6087     7.0930     7.8318
  873.0000   106.4507     6.6783     7.2550
  873.5000   109.0108     6.2878     6.5966
  874.0000   112.7755     5.9199     5.8206
  874.5000   116.5263     5.6038     5.1977
  875.0000   120.2698     5.5515     4.8468
  875.5000   124.0543     5.7352     4.6359
  876.0000   124.4298     5.8796     4.6373
  876.5000   118.9605     6.0277     5.2340
  877.0000   112.7990     6.2187     5.7392
  877.5000   107.8866     6.7861     6.3395
  878.0000   107.1975     7.4620     6.8045
  878.5000   108.5388     8.2096     7.3425
  879.0000   108.4712     9.0755     7.9306
  879.5000   106.8710     9.1731     8.3929
  880.0000   105.2784     9.2635     8.5547
  880.5000   104.6983     9.3596     8.7212
  881.0000   104.9749     9.4567     8.8911
  881.5000   105.3998     9.6265     9.0642
  882.0000   106.9178     9.7788     9.2407
  882.5000   108.6086     9.9191     9.4206
  883.0000   109.3817    10.0614     9.6107
  883.5000   108.8558    10.2057     9.7883
  884.0000   108.3517    10.3520     9.9759
  884.5000   108.0546    10.5005    10.1671
  885.0000   108.6055    10.6511    10.3659
  885.5000   108.0552    10.8039    10.4872
  886.0000   106.9608    10.9588    10.6124
  886.5000   105.9659    11.1160    10.7391
  887.0000   106.5662    11.2755    10.8673
  887.5000   107.1947    11.4372    10.9971
  888.0000   107.1356    11.6015    11.1283
  888.5000   106.2020    11.7674    11.2612
  889.0000   105.4935    11.8568    11.3447
  889.5000   105.5228    11.8938    11.4167
  890.0000   104.6603    11.9314    11.4892
  890.5000   103.4264    11.9692    11.5622
  891.0000   101.9889    12.0071    11.6356
  891.5000   100.5810    12.0452    11.7095
  892.0000    99.1835    12.0834    11.7218
  892.5000    98.1677    12.1217    11.7220
  893.0000    98.7620    12.1601    11.7219
  893.5000    99.3597    12.1737    11.7219
  894.0000    97.9300    12.1114    11.7162
  894.5000    96.2243    12.0682    11.6896
  895.0000    95.6343    12.0253    11.6638
  895.5000    98.6659    11.9826    11.6380
  896.0000   102.0382    11.9400    11.6124
  896.5000   105.0786    11.8975    11.5868
  897.0000   104.7009    11.8547    11.5612
  897.5000   102.4789    11.8337    11.5357
  898.0000   100.6264    11.9101    11.5103
  898.5000   102.4289    11.9481    11.3822
  899.0000   105.1494    11.7220    11.2092
  899.5000   106.7132    11.5178    11.0389
  900.0000   106.4895    11.3177    10.8712
  900.5000   106.3939    11.1320    10.7059
  901.0000   107.9101    10.9730    10.5445
  901.5000   110.2592    10.8162    10.4015
  902.0000   112.6616    10.6618    10.2828
  902.5000   113.3881    10.5095    10.1641
  903.0000   111.3832    10.3597    10.0468
  903.5000   108.8003    10.2115     9.9309
  904.0000   106.1024    10.0938     9.8163
  904.5000   106.6124     9.9879     9.7031
  905.0000   108.6519     9.8831     9.5911
  905.5000   110.7029     9.7942     9.4805
  906.0000   112.5028     9.8173     9.3294
  906.5000   111.5997     9.8376     9.1467
  907.0000   110.0738     9.8579     8.9951
  907.5000   109.0096     9.8831     9.0497
  908.0000   110.8915     9.7631     9.1072
  908.5000   113.1025     9.6625     9.1669
  909.0000   114.3745     9.5679     9.1109
  909.5000   113.5685     9.4737     9.0534
