~VERSION INFORMATION
 VERS.                2.0:   CWLS LOG ASCII STANDARD - VERSION 2.0
 WRAP.                 NO:   ONE LINE PER DEPTH STEP
~WELL INFORMATION
#MNEM.UNIT      DATA TYPE    INFORMATION
#----------   ------------   ------------------------------
 STRT.F           42.0000:   START DEPTH
 STOP.F         3145.0000:   STOP DEPTH
 STEP.F            0.5000:   STEP LENGTH
 NULL.          -999.2500:   NO VALUE
 COMP. LAWRENCE/ALLISON INC:   COMPANY
 WELL.      46 STX #34-34:   WELL
 FLD .             TEAPOT:   FIELD
 LOC .      S34 T39N R78W:   LOCATION
 CNTY.            NATRONA:   COUNTY
 STAT.            WYOMING:   STATE
 CTRY. UNITED STATES OF AMERICA:   COUNTRY
 SRVC.              Welex:   SERVICE COMPANY
 DATE.        01-MAY-1977:   LOGDATE
 API .       490251104800:   API NUMBER
~CURVE INFORMATION
#MNEM.UNIT       API CODE    CURVE DESCRIPTION
#----------   ------------   ------------------------------
 DEPT.F                  :   
 ILD .OHMM   07 120 46 00:   INDUCTION LOG DEEP
 ILM .OHMM   07 120 44 00:   INDUCTION LOG MEDIUM
 SGRD.OHMM   07 221 05 00:   SHALLOW SHORT GUARD RESISTIVITY
 SPR .MV     07 010 01 00:   SPONTANEOUS POTENTIAL
 GR  .GAPI   81 310 01 00:   GAMMA RAY
~PARAMETER INFORMATION
#MNEM.UNIT          VALUE    DESCRIPTION
#----------   ------------   ------------------------------
 PD  .                 GL:   PERMANENT DATUM
 EPD .F              5120:   ELEVATION PERMANENT DATUM
 LMF .                 GL:   LOG MEASURED FROM
 DMF .                 GL:   DRILLING MEASURED FROM
 EGL .F              5120:   GROUND LEVEL
 DATE.        01-MAY-1977:   RUN DATE
 RUN .                  1:   RUN NUMBER
 DD  .F               660:   DEPTH DRILLER
 DL  .F               661:   DEPTH LOGGER
 BLI .F               659:   BOTTOM LOG INTERVAL
 TLI .F                40:   TOP LOG INTERVAL
 CS  .IN            8.625:   CASING SIZE
 CBD .F                40:   CASING BOTTOM DRILLER
 CBL .F                42:   CASING BOTTOM LOGGER
 BS  .IN            7.875:   BIT SIZE
 BSD .F               660:   BIT SIZE AT DEPTH
 DFT .             KCLMUD:   DRILLING FLUID TYPE
 DFD .                8.7:   DRILLING FLUID DENSITY
 DFV .                 31:   DRILLING FLUID VISCOSITY
 DFPH.                  9:   DRILLING FLUID PH
 DFL .                  5:   DRILLING FLUID LOSS
 MSS .           FLOWLINE:   MUD SAMPLE SOURCE
 RMS .OHMM            .23:   RESISTIVITY MUD SAMPLE
 MST .F                62:   MUD SAMPLE TEMPERATURE
 RMF .OHMM            .17:   RESISTIVITY MUD FILTRATE SAMPLE
 MFST.F                62:   MUD FILTRATE SAMPLE TEMPERATURE
 RMC .OHMM            .32:   RESISTIVITY MUD CAKE
 MCST.F                62:   MUD CAKE SAMPLE TEMPERATURE
 MFSS.           MEASURED:   MUD FILTRATE SAMPLE SOURCE
 MCSS.           MEASURED:   MUD CAKE SAMPLE SOURCE
 RMB .OHMM             .2:   RESISTIVITY MUD AT BHT
 BHT .F                71:   BOTTOM HOLE TEMPERATURE
 TCS .HRS             1.5:   TIME CURCULATED STOPPED
 MRT .F                71:   MAXIMUM RECORDED TEMPERATURE
 LUL .             CASPER:   LOGGING UNIT LOCATION
 ENGI.          T. JOYNER:   RECORDING ENGINEER
 WITN.            R. LYON:   WITNESSED BY
 CLNT.            A2DTECH:   CLIENT CODE
 ORIG.        2" 5" PRINT:   ORIGIN OF DATA
 UWI .       490251104800:   UNIQUE WELL ID
 DICO. A2D Technologies, Inc.:   DIGITIZING COMPANY
~OTHER INFORMATION
~A   DEPT      ILD        ILM       SGRD        SPR         GR   
# ...
  347.0000     7.2331    11.0888    10.2358   -42.8269  -999.2500
  347.5000     7.5897    11.2367    10.5186   -42.8420  -999.2500
  348.0000     7.9089    11.3096    10.7345   -42.7016  -999.2500
  348.5000     8.2989    11.3812    10.8041   -42.7167  -999.2500
  349.0000     8.5881    11.4532    10.8751   -42.5762  -999.2500
  349.5000     8.8874    11.6060    11.0216   -42.5889  -999.2500
  350.0000     9.0158    11.7607    11.0161   -42.6009  -999.2500
  350.5000     9.1013    11.8911    11.0622   -42.6129  -999.2500
  351.0000     9.1887    12.0215    11.1567   -42.6248  -999.2500
  351.5000     9.2483    12.1520    11.2279   -42.6368  -999.2500
  352.0000     9.2436    12.2312    11.3000   -42.7982  -999.2500
  352.5000     9.2390    12.3086    11.5308   -42.8102  -999.2500
  353.0000     9.3635    12.2989    11.8485   -42.9718  -999.2500
  353.5000     9.4252    12.3787    12.0908   -42.9839  -999.2500
  354.0000     9.3543    12.3689    12.2545   -42.9969  -999.2500
  354.5000     9.3497    12.3611    12.4187   -43.0080  -999.2500
  355.0000     9.3451    12.4413    12.5834   -43.0201  -999.2500
  355.5000     9.2118    12.5201    12.5763   -43.0322  -999.2500
  356.0000     9.1437    12.5993    12.6585   -43.1937  -999.2500
  356.5000     8.8891    12.6791    12.6496   -43.2058  -999.2500
  357.0000     8.6417    12.6709    12.6425   -43.2179  -999.2500
  357.5000     8.4596    12.5740    12.5481   -43.2299  -999.2500
  358.0000     8.2813    12.3085    12.5410   -43.2420  -999.2500
  358.5000     8.2208    11.9640    12.3627   -43.2541  -999.2500
  359.0000     8.1510    11.6290    12.2705   -43.2662  -999.2500
  359.5000     8.0374    11.3035    12.1789   -43.2782  -999.2500
  360.0000     7.8707    10.9110    11.9989   -43.4398  -999.2500
  360.5000     7.6530    10.5322    11.7491   -43.6013  -999.2500
  361.0000     7.3395    10.0963    11.3439   -43.7629  -999.2500
  361.5000     6.9883     9.7457    10.8754   -44.2234  -999.2500
  362.0000     6.6078     9.4729    10.3543   -44.3849  -999.2500
  362.5000     6.2049     9.2077     9.9957   -44.8454  -999.2500
  363.0000     5.7464     8.8266     9.3207   -45.3289  -999.2500
  363.5000     5.1047     8.4612     8.6913   -45.9330  -999.2500
  364.0000     4.5663     7.9991     8.1608   -46.5371  -999.2500
  364.5000     3.9730     7.5623     7.5571   -46.9918  -999.2500
  365.0000     3.4091     7.0999     6.9498   -47.4439  -999.2500
  365.5000     2.6916     6.4832     6.3031   -47.9044  -999.2500
  366.0000     2.1698     5.9201     5.7167   -48.0659  -999.2500
  366.5000     1.8109     5.1854     5.1490   -48.2275  -999.2500
  367.0000     1.4803     4.5066     4.7024   -48.0897  -999.2500
  367.5000     1.3059     3.9039     4.4770   -48.1022  -999.2500
  368.0000     1.2434     3.3331     4.5370   -47.8153  -999.2500
  368.5000     1.2514     3.2720     4.6945   -47.5254  -999.2500
  369.0000     1.2684     3.6067     4.9940   -47.0921  -999.2500
  369.5000     1.3359     4.6558     5.3267   -46.6557  -999.2500
  370.0000     1.5023     5.3829     5.5463   -46.3658  -999.2500
  370.5000     1.7611     6.0532     6.0278   -45.7830  -999.2500
  371.0000     2.1807     6.8070     6.6743   -45.3466  -999.2500
  371.5000     2.6761     7.6017     7.6038   -45.0567  -999.2500
  372.0000     3.3164     8.1996     8.6100   -44.6204  -999.2500
  372.5000     4.0814     8.8446     9.2873   -44.4830  -999.2500
  373.0000     4.7850     9.3437     9.6765   -44.3456  -999.2500
  373.5000     5.3439     9.6675     9.8062   -44.2082  -999.2500
  374.0000     5.8048     9.9350     9.8703   -44.2233  -999.2500
  374.5000     6.0067     9.9271     9.7952   -44.3848  -999.2500
  375.0000     6.0876     9.7841     9.5881   -44.5464  -999.2500
  375.5000     6.1277     9.7103     9.4507   -44.5584  -999.2500
  376.0000     6.1239     9.6386     9.3153   -44.7175  -999.2500
  376.5000     6.0366     9.6996     9.4414   -44.7294  -999.2500
  377.0000     5.9094     9.7610     9.6332   -44.8909  -999.2500
  377.5000     5.7052     9.7533     9.8316   -45.2018  -999.2500
  378.0000     5.5080     9.6127     9.9619   -45.3632  -999.2500
  378.5000     5.2444     9.5284    10.0270   -45.6742  -999.2500
  379.0000     4.9247     9.1908     9.6785   -45.9852  -999.2500
  379.5000     4.5607     8.6275     9.1509   -46.1468  -999.2500
  380.0000     4.3610     7.5534     8.7499   -46.3083  -999.2500
  380.5000     4.0978     6.3195     8.3447   -46.4699  -999.2500
  381.0000     3.8505     6.4038     8.1710   -46.4819  -999.2500
  381.5000     3.6972     6.7184     8.1160   -46.1951  -999.2500
  382.0000     3.6698     7.0975     8.1680   -46.0546  -999.2500
  382.5000     3.6935     7.4980     8.2774   -45.7678  -999.2500
  383.0000     3.7694     7.9211     8.5055   -45.4839  -999.2500
  383.5000     3.9276     8.2527     8.8007   -45.1970  -999.2500
  384.0000     4.1496     8.5388     9.1695   -44.9071  -999.2500
  384.5000     4.4455     8.8962     9.5537   -44.6233  -999.2500
  385.0000     4.7295     9.2046     9.9541   -44.3364  -999.2500
  385.5000     5.1374     9.4577    10.2995   -44.1960  -999.2500
  386.0000     5.5419     9.7178    10.5833   -43.9091  -999.2500
  386.5000     5.8960     9.9161    10.8749   -43.7717  -999.2500
  387.0000     6.2293    10.1199    11.0206   -43.4848  -999.2500
  387.5000     6.5360    10.3263    11.1683   -43.2009  -999.2500
  388.0000     6.8577    10.5353    11.1620   -43.2130  -999.2500
  388.5000     7.0971    10.6019    11.1558   -43.2251  -999.2500
  389.0000     7.1430    10.5952    11.1495   -43.0847  -999.2500
  389.5000     7.1386    10.5885    10.9898   -43.0972  -999.2500
  390.0000     7.0368    10.5686    10.8323   -43.1091  -999.2500
  390.5000     6.8409    10.5034    10.7514   -43.1211  -999.2500
  391.0000     6.6353    10.4886    10.5859   -43.1330  -999.2500
  391.5000     6.2782    10.3457    10.4376   -43.2945  -999.2500
  392.0000     5.9024    10.2658    10.1497   -43.3066  -999.2500
  392.5000     5.5817     9.9803     9.8674   -43.4681  -999.2500
  393.0000     5.2803     9.7009     9.4643   -43.6297  -999.2500
  393.5000     4.9928     9.4294     9.0735   -43.7912  -999.2500
  394.0000     4.6884     9.1654     8.4608   -43.9528  -999.2500
  394.5000     4.3721     8.7252     8.1678   -44.1143  -999.2500
  395.0000     4.0771     7.9123     7.9399   -44.2759  -999.2500
  395.5000     3.8552     6.7406     7.9906   -44.4374  -999.2500
  396.0000     3.7479     5.8632     8.2679   -44.2970  -999.2500
  396.5000     3.8514     5.7797     8.7347   -44.0132  -999.2500
  397.0000     4.0410     7.1120     9.1641   -44.0252  -999.2500
  397.5000     4.2992     8.7528     9.6146   -43.7353  -999.2500
  398.0000     4.6057     9.4412     9.8795   -43.4485  -999.2500
  398.5000     4.9684     9.8365    10.0119   -43.3111  -999.2500
  399.0000     5.3969    10.0371    10.2166   -43.0242  -999.2500
  399.5000     5.8219    10.1726    10.4256   -42.7403  -999.2500
  400.0000     6.1799    10.2370    10.5080   -42.5777  -999.2500
  400.5000     6.5141    10.2063    10.6775   -42.3141  -999.2500
  401.0000     6.8183    10.1781    10.8524   -42.0505  -999.2500
  401.5000     6.9096    10.1508    10.8470   -41.7869  -999.2500
  402.0000     7.0509    10.2167    10.9931   -41.4525  -999.2500
  402.5000     7.0960    10.3544    11.0656   -41.4646  -999.2500
  403.0000     7.1424    10.3493    11.0587   -41.3273  -999.2500
  403.5000     7.1374    10.4163    10.9010   -41.3394  -999.2500
  404.0000     7.1334    10.4111    10.8204   -41.5009  -999.2500
  404.5000     7.0801    10.4785    10.8161   -41.6625  -999.2500
  405.0000     7.0272    10.4733    10.7362   -41.8241  -999.2500
  405.5000     6.9747    10.5424    10.7310   -41.8362  -999.2500
  406.0000     6.8748    10.6106    10.7257   -41.8483  -999.2500
  406.5000     6.8234    10.6041    10.7205   -41.8605  -999.2500
  407.0000     6.8196    10.6740    10.7152   -41.8726  -999.2500
  407.5000     6.8158    10.6674    10.7100   -41.7352  -999.2500
