~VERSION INFORMATION
 VERS.                2.0:   CWLS LOG ASCII STANDARD - VERSION 2.0
 WRAP.                 NO:   ONE LINE PER DEPTH STEP
~WELL INFORMATION
#MNEM.UNIT      DATA TYPE    INFORMATION
#----------   ------------   ------------------------------
 STRT.F            0.0000:   START DEPTH
 STOP.F          547.0000:   STOP DEPTH
 STEP.F            0.1000:   STEP LENGTH
 NULL.          -999.2500:   NO VALUE
 COMP.       F D SERV INC:   COMPANY
 WELL.    87-5 SX 3 #87-3:   WELL
 FLD .             TEAPOT:   FIELD
 LOC .       S3 T38N R78W:   LOCATION
 CNTY.            NATRONA:   COUNTY
 STAT.            WYOMING:   STATE
 CTRY. UNITED STATES OF AMERICA:   COUNTRY
 SRVC.     Atlas Wireline:   SERVICE COMPANY
 DATE.        31-OCT-1992:   LOGDATE
 API .       490252254800:   API NUMBER
~CURVE INFORMATION
#MNEM.UNIT       API CODE    CURVE DESCRIPTION
#----------   ------------   ------------------------------
 DEPT.F                  :   
 GRR .GAPI   07 310 01 00:   GAMMA RAY
 RILD.OHMM   07 120 46 00:   INDUCTION LOG DEEP RESISTIVITY
 RILM.OHMM   07 120 44 00:   INDUCTION LOG MEDIUM RESISTIVITY
~PARAMETER INFORMATION
#MNEM.UNIT          VALUE    DESCRIPTION
#----------   ------------   ------------------------------
 PD  .                 GL:   PERMANENT DATUM
 EPD .F              5119:   ELEVATION PERMANENT DATUM
 LMF .                 KB:   LOG MEASURED FROM
 DAPD.F                10:   FEET ABOVE PERMANENT DATUM
 DMF .                 KB:   DRILLING MEASURED FROM
 EKB .F              5129:   KELLING BUSHING
 EDF .F              5128:   DRILLING FLOOR
 EGL .F              5119:   GROUND LEVEL
 DATE.        31-OCT-1992:   RUN DATE
 RUN .                  1:   RUN NUMBER
 DD  .F               568:   DEPTH DRILLER
 DL  .F               555:   DEPTH LOGGER
 BLI .F               547:   BOTTOM LOG INTERVAL
 TLI .F                71:   TOP LOG INTERVAL
 CS  .IN            8.625:   CASING SIZE
 CBD .F                70:   CASING BOTTOM DRILLER
 CBL .F                71:   CASING BOTTOM LOGGER
 BS  .IN            7.875:   BIT SIZE
 BSD .F               568:   BIT SIZE AT DEPTH
 DFT .           AIR FOAM:   DRILLING FLUID TYPE
 TCS .HRS               2:   TIME CURCULATED STOPPED
 MRT .F                64:   MAXIMUM RECORDED TEMPERATURE
 LUN .            HL-6274:   LOGGING UNIT NUMBER
 LUL .             CASPER:   LOGGING UNIT LOCATION
 ENGI.        P.RASHUSSEN:   RECORDING ENGINEER
 WITN.     BRUCE ANDERSON:   WITNESSED BY
 CLNT.            A2DTECH:   CLIENT CODE
 ORIG.           5" PRINT:   ORIGIN OF DATA
 UWI .       490252254800:   UNIQUE WELL ID
 DICO. A2D Technologies, Inc.:   DIGITIZING COMPANY
~OTHER INFORMATION
~A    DEPT      GRR      RILD       RILM   
# ...
  473.2000   110.6978    13.0737    13.2930
  473.3000   110.0771    13.1648    13.2930
  473.4000   109.6247    13.1645    13.2930
  473.5000   109.3677    13.1642    13.2930
  473.6000   109.1642    13.1945    13.2930
  473.7000   109.1599    13.2557    13.2930
  473.8000   109.1549    13.2552    13.2930
  473.9000   109.1514    13.2548    13.2930
  474.0000   109.1472    13.2545    13.3539
  474.1000   109.2459    13.2541    13.3861
  474.2000   109.4422    13.2847    13.3861
  474.3000   109.4380    13.3462    13.3861
  474.4000   109.7364    13.3458    13.3861
  474.5000   109.5296    13.4388    13.3091
  474.6000   109.2727    13.4385    13.2930
  474.7000   109.0157    13.4381    13.2930
  474.8000   108.7587    13.4066    13.2930
  474.9000   108.5017    13.3285    13.2930
  475.0000   108.2448    13.2508    13.2930
  475.1000   108.1900    13.2504    13.2930
  475.2000   108.0344    13.2501    13.2930
  475.3000   107.7774    13.2497    13.2930
  475.4000   107.5205    13.2493    13.2617
  475.5000   107.2625    13.2336    13.2005
  475.6000   107.0065    13.1565    13.2005
  475.7000   106.9505    13.1561    13.2005
  475.8000   106.7961    13.0947    13.1383
  475.9000   106.6385    13.0639    13.1086
  476.0000   106.5857    13.0635    13.1086
  476.1000   106.3265    13.0480    13.0921
  476.2000   106.3223    12.9720    13.0174
  476.3000   106.3181    12.9716    13.0174
  476.4000   106.3138    12.9111    13.0174
  476.5000   106.2114    12.8807    12.9703
  476.6000   106.0018    12.8803    12.9268
  476.7000   105.9975    12.8800    12.9268
  476.8000   105.9933    12.8796    12.9247
  476.9000   105.9891    12.8046    12.8369
  477.0000   105.8371    12.7301    12.8369
  477.1000   105.6771    12.6559    12.8369
  477.2000   105.6728    12.5822    12.8369
  477.3000   105.6685    12.5234    12.8193
  477.4000   105.6643    12.5230    12.7476
  477.5000   105.4629    12.5227    12.7476
  477.6000   105.3524    12.5223    12.6853
  477.7000   105.3481    12.5220    12.6116
  477.8000   105.3888    12.5216    12.5708
  477.9000   105.6430    12.5068    12.5708
  478.0000   106.1325    12.4339    12.5673
  478.1000   106.8297    12.4334    12.4833
  478.2000   107.4383    12.4332    12.4833
  478.3000   107.8450    12.3896    12.4833
  478.4000   108.1371    12.3460    12.4833
  478.5000   108.6524    12.3314    12.4833
  478.6000   109.1395    12.2595    12.4791
  478.7000   109.2510    12.2591    12.3964
  478.8000   109.2467    12.2020    12.3964
  478.9000   109.3358    12.1732    12.3964
  479.0000   109.5424    12.1729    12.3631
  479.1000   109.5373    12.1725    12.3102
  479.2000   109.2889    12.1722    12.3054
  479.3000   109.2255    12.1719    12.2245
  479.4000   109.2212    12.1715    12.2245
  479.5000   109.1250    12.1712    12.2245
  479.6000   108.8680    12.1426    12.1909
  479.7000   108.6014    12.0859    12.1395
  479.8000   108.3541    12.0855    12.1395
  479.9000   108.0971    12.0851    12.1395
  480.0000   107.9818    12.0289    12.1395
  480.1000   107.9775    12.0005    12.1395
  480.2000   108.0534    11.9724    12.1054
  480.3000   108.5758    11.9164    12.0550
  480.4000   109.2977    11.9161    12.0550
  480.5000   109.8604    11.8328    12.0550
  480.6000   110.3616    11.8326    12.0550
  480.7000   110.8627    11.8322    12.0550
  480.8000   111.3638    11.8319    12.0550
  480.9000   111.8887    11.8316    12.0550
  481.0000   112.6070    11.8312    12.0550
  481.1000   112.9809    11.7486    12.0550
  481.2000   113.5077    11.7483    12.0550
  481.3000   113.9964    11.7071    12.0550
  481.4000   113.9921    11.6660    12.0550
  481.5000   113.9876    11.6521    12.0550
  481.6000   113.9836    11.5842    12.0550
  481.7000   113.9794    11.5839    12.0550
  481.8000   113.9751    11.5299    12.0550
  481.9000   113.9709    11.5027    12.0550
  482.0000   113.9666    11.5024    12.0550
  482.1000   113.9621    11.5021    12.0550
  482.2000   113.9581    11.5017    12.0550
  482.3000   113.9539    11.5819    12.0550
  482.4000   113.9496    11.5816    12.0550
  482.5000   114.0314    11.5813    12.0550
  482.6000   114.2452    11.5810    12.0550
  482.7000   114.2401    11.5807    12.0550
  482.8000   114.4733    11.5803    12.0550
  482.9000   114.7217    11.5799    12.0550
  483.0000   114.8346    11.5797    11.9901
  483.1000   114.9152    11.5794    11.9711
  483.2000   115.1302    11.5790    11.9711
  483.3000   115.1251    11.5787    11.9711
  483.4000   115.1211    11.5784    11.9618
  483.5000   115.3020    11.5781    11.8878
  483.6000   115.5505    11.6318    11.8878
  483.7000   115.7153    11.6585    11.8878
  483.8000   115.6455    11.6854    11.8878
  483.9000   115.0995    11.7395    11.8878
  484.0000   114.3915    11.7391    11.8978
  484.1000   113.4452    11.7388    11.9711
  484.2000   112.6963    11.7933    11.9711
  484.3000   112.1042    11.8203    11.9711
  484.4000   111.4051    11.8476    11.9711
  484.5000   111.1287    11.9025    11.9711
  484.6000   110.4243    11.9021    11.9711
  484.7000   110.0273    11.9018    11.9711
  484.8000   109.7704    11.9014    11.9711
  484.9000   109.7567    11.9011    11.9711
  485.0000   110.3185    11.9285    11.9711
  485.1000   111.4066    11.9838    11.9711
  485.2000   112.0995    11.9834    11.9711
  485.3000   113.0348    11.9831    11.9711
  485.4000   113.9107    12.0387    11.9711
  485.5000   114.5847    12.0663    11.9711
  485.6000   115.0859    12.0660    11.9711
  485.7000   115.6300    12.0657    11.9711
  485.8000   115.8571    12.0653    11.9832
  485.9000   116.2859    12.0650    12.0550
  486.0000   116.7870    12.0647    12.0550
  486.1000   117.2881    12.0643    12.0006
  486.2000   117.7893    12.0640    11.9309
  486.3000   118.3359    12.0636    11.8878
  486.4000   118.1022    12.0633    11.8752
  486.5000   117.8452    12.0629    11.8051
  486.6000   117.4601    12.0626    11.8051
  486.7000   117.0278    12.0204    11.8051
  486.8000   116.7976    11.9781    11.8051
  486.9000   116.7929    11.9639    11.8051
  487.0000   116.7891    11.8941    11.8051
  487.1000   116.7848    11.8110    11.8051
  487.2000   116.9077    11.8108    11.8051
  487.3000   117.0798    11.8104    11.7505
  487.4000   117.1010    11.8101    11.7229
  487.5000   117.3744    11.8098    11.7229
  487.6000   117.5980    11.8095    11.7229
  487.7000   118.1997    11.7407    11.7229
  487.8000   118.7018    11.7267    11.7229
  487.9000   119.1004    11.7264    11.6681
  488.0000   119.8058    11.7260    11.6414
  488.1000   120.0803    11.7121    11.6137
  488.2000   120.3027    11.6439    11.5462
  488.3000   120.3757    11.5761    11.4799
  488.4000   120.2468    11.5086    11.4799
  488.5000   120.0637    11.4815    11.4000
  488.6000   120.0364    11.4812    11.4000
  488.7000   119.7513    11.4676    11.4546
  488.8000   119.0725    11.4007    11.4386
  488.9000   118.6586    11.4004    11.4000
  489.0000   118.4016    11.4001    11.4000
  489.1000   118.2173    11.3602    11.4000
  489.2000   118.1912    11.2940    11.4000
  489.3000   117.9048    11.2412    11.4000
  489.4000   117.9011    11.2409    11.4000
  489.5000   117.8968    11.1623    11.4000
  489.6000   118.0148    11.1621    11.4000
  489.7000   118.2632    11.1618    11.4000
  489.8000   118.4914    11.1615    11.4000
  489.9000   118.4863    11.1611    11.4000
  490.0000   118.7051    11.1608    11.3577
  490.1000   118.9536    11.1605    11.3207
  490.2000   119.2021    11.1602    11.3047
  490.3000   119.4505    11.1599    11.2419
  490.4000   119.6798    11.1596    11.2419
  490.5000   119.6747    11.1593    11.1866
  490.6000   119.6710    11.1590    11.1637
  490.7000   119.6668    11.1587    11.1637
  490.8000   119.6625    11.1583    11.1637
  490.9000   119.6583    11.1580    11.1602
  491.0000   119.6357    11.1319    11.0860
  491.1000   119.3457    11.0798    11.0860
  491.2000   119.1219    11.0795    11.0860
  491.3000   118.6955    11.0150    11.0860
