~VERSION INFORMATION
 VERS.                2.0:   CWLS LOG ASCII STANDARD - VERSION 2.0
 WRAP.                 NO:   ONE LINE PER DEPTH STEP
~WELL INFORMATION
#MNEM.UNIT      DATA TYPE    INFORMATION
#----------   ------------   ------------------------------
 STRT.F           30.0000:   START DEPTH
 STOP.F          602.0000:   STOP DEPTH
 STEP.F            0.5000:   STEP LENGTH
 NULL.          -999.2500:   NO VALUE
 COMP. FENIX & SCISSON U.S NAVY:   COMPANY
 WELL.   S-3 NPR #3 #51-3:   WELL
 FLD .             TEAPOT:   FIELD
 LOC .       S3 T38N R78W:   LOCATION
 CNTY.            NATRONA:   COUNTY
 STAT.            WYOMING:   STATE
 CTRY. UNITED STATES OF AMERICA:   COUNTRY
 SRVC.              Welex:   SERVICE COMPANY
 DATE.        08-MAR-1977:   LOGDATE
 API .       490251030800:   API NUMBER
~CURVE INFORMATION
#MNEM.UNIT       API CODE    CURVE DESCRIPTION
#----------   ------------   ------------------------------
 DEPT.F                  :   
 SPR .MV     07 010 01 00:   SPONTANEOUS POTENTIAL
 ILD .OHMM   07 120 46 00:   INDUCTION LOG DEEP
 ILM .OHMM   07 120 44 00:   INDUCTION LOG MEDIUM
 SGRD.OHMM   07 221 05 00:   SHALLOW SHORT GUARD RESISTIVITY
 CALD.IN     45 280 60 00:   CALIPER FROM DENSITY LOG
 CORR.G/C3   45 356 01 00:   DENSITY CORRECTION
 RHOB.G/C3   45 350 01 00:   BULK DENSITY
 DPHI.DEC    45 890 12 00:   DENSITY POROSITY SANDSTONE
 GRD .GAPI   45 310 01 00:   GAMMA RAY FROM DENSITY LOG
~PARAMETER INFORMATION
#MNEM.UNIT          VALUE    DESCRIPTION
#----------   ------------   ------------------------------
 PD  .                 GL:   PERMANENT DATUM
 EPD .F              5140:   ELEVATION PERMANENT DATUM
 LMF .                 GL:   LOG MEASURED FROM
 DAPD.F                  :   FEET ABOVE PERMANENT DATUM
 DMF .                 GL:   DRILLING MEASURED FROM
 EKB .F                  :   KELLING BUSHING
 EDF .F                  :   DRILLING FLOOR
 EGL .F              5140:   GROUND LEVEL
 DATE.             3-8-77:   RUN DATE
 RUN .                  1:   RUN NUMBER
 DD  .F               611:   DEPTH DRILLER
 DL  .F               555:   DEPTH LOGGER
 BLI .F               553:   BOTTOM LOG INTERVAL
 TLI .F                40:   TOP LOG INTERVAL
 CS  .IN            8.625:   CASING SIZE
 CBD .F                40:   CASING BOTTOM DRILLER
 CBL .F                40:   CASING BOTTOM LOGGER
 BS  .IN            7.875:   BIT SIZE
 BSD .F               611:   BIT SIZE AT DEPTH
 DFT .           CHEM GEL:   DRILLING FLUID TYPE
 DFD .                8.6:   DRILLING FLUID DENSITY
 DFV .                 42:   DRILLING FLUID VISCOSITY
 DFPH.                  8:   DRILLING FLUID PH
 DFL .                3.2:   DRILLING FLUID LOSS
 MSS .           FLOWLINE:   MUD SAMPLE SOURCE
 RMS .OHMM           1.49:   RESISTIVITY MUD SAMPLE
 MST .F                48:   MUD SAMPLE TEMPERATURE
 RMF .OHMM           1.07:   RESISTIVITY MUD FILTRATE SAMPLE
 MFST.F                48:   MUD FILTRATE SAMPLE TEMPERATURE
 RMC .OHMM           2.34:   RESISTIVITY MUD CAKE
 MCST.F                48:   MUD CAKE SAMPLE TEMPERATURE
 MFSS.           MEASURED:   MUD FILTRATE SAMPLE SOURCE
 MCSS.           MEASURED:   MUD CAKE SAMPLE SOURCE
 RMB .OHMM           1.19:   RESISTIVITY MUD AT BHT
 BHT .F                60:   BOTTOM HOLE TEMPERATURE
 TCS .HRS               2:   TIME CURCULATED STOPPED
 TLAB.HRS                :   TIME LOGGER AT BOTTOM
 MRT .F                60:   MAXIMUM RECORDED TEMPERATURE
 LUN .               0716:   LOGGING UNIT NUMBER
 LUL .             VERNAL:   LOGGING UNIT LOCATION
 ENGI.           CALLAHAN:   RECORDING ENGINEER
 WITN.         STUEBINGER:   WITNESSED BY
 CLNT.            A2DTECH:   CLIENT CODE
 ORIG.       2", 5" PRINT:   ORIGIN OF DATA
 UWI .       490251030800:   UNIQUE WELL ID
 DICO. A2D Technologies, Inc.:   DIGITIZING COMPANY
 OS  .                   :   OTHER SERVICES
 PWI .                   :   PRIMARY WELL IDENTIFIER
 R1  .                   :   REMARKS 1
 R2  .                   :   REMARKS 2
 LSRV.                   :   LOG MNEMONIC
~OTHER INFORMATION
~A   DEPT      SPR        ILD        ILM       SGRD       CALD       CORR       RHOB       DPHI        GRD   
# ...
  395.0000   -38.9191    10.2161    11.3020    14.5335     7.4715     0.0922     2.4715     0.1190   111.0994
  395.5000   -39.3811    10.5690    11.3711    14.5249     7.4112     0.0831     2.4542     0.1268   105.4564
  396.0000   -39.0923    10.8587    11.5200    14.1175     7.3958     0.0876     2.4384     0.1280   104.0310
  396.5000   -39.5571    11.1545    11.7538    13.8190     7.4103     0.1086     2.4564     0.1241   100.4210
  397.0000   -40.3194    11.3811    12.1596    13.8108     7.4399     0.0956     2.4512     0.1223    97.2627
  397.5000   -40.9315    11.5341    12.4065    13.9951     7.4860     0.0845     2.4128     0.1386    94.4057
  398.0000   -41.2433    12.0135    13.1950    14.2806     7.5586     0.1085     2.4241     0.1437    90.6450
  398.5000   -40.9545    12.7860    14.8765    14.3814     7.5882     0.1025     2.4248     0.1368    85.3783
  399.0000   -40.5185    13.5881    16.9025    17.1933     7.6475     0.1040     2.4044     0.1434    75.7442
  399.5000   -40.0795    14.3527    17.9768    21.5948     7.6772     0.1145     2.3940     0.1545    70.3269
  400.0000   -39.7879    15.0839    19.9028    29.8372     7.6917     0.1129     2.3896     0.1747    64.9096
  400.5000   -40.0976    16.0133    21.3438    39.4074     7.7055     0.0903     2.3436     0.1864    64.3043
  401.0000   -40.5570    16.7984    23.6639    32.4422     7.7198     0.0737     2.3150     0.2017    67.3128
  401.5000   -40.5643    17.8678    23.4864    30.4674     7.7489     0.0541     2.3000     0.2060    69.8701
  402.0000   -40.4196    18.6146    22.8314    29.4166     7.7628     0.0405     2.3263     0.2023    71.9757
  402.5000   -40.2767    19.1287    23.7848    28.5994     7.7919     0.0662     2.3331     0.1921    72.1235
  403.0000   -40.1339    19.6510    24.9501    27.4224     7.8060     0.0428     2.3117     0.1991    71.0632
  403.5000   -39.9910    19.9129    25.8163    25.9322     7.8349     0.0193     2.3052     0.2084    70.4603
  404.0000   -40.0002    19.8895    26.7246    25.5634     7.8340     0.0177     2.3187     0.2027    70.9092
  404.5000   -40.1577    19.6146    27.0610    27.1363     7.8331     0.0192     2.3081     0.2054    71.9605
  405.0000   -40.1652    19.3306    26.1208    32.7661     7.8323     0.0251     2.3171     0.2012    72.8612
  405.5000   -40.1740    19.0531    25.7461    32.9821     7.8165     0.0342     2.3228     0.1901    74.5150
  406.0000   -40.1814    19.0415    25.7305    29.3017     7.8306     0.0431     2.3682     0.1766    75.7289
  406.5000   -40.1887    18.7681    25.7148    28.8884     7.8447     0.0431     2.3870     0.1648    76.9181
  407.0000   -40.1959    18.6273    25.6992    30.0961     7.8588     0.0370     2.4005     0.1531    77.6682
  407.5000   -40.2033    18.4875    25.6836    32.6885     7.8577     0.0355     2.4118     0.1423    78.4183
  408.0000   -40.2106    18.4762    26.0257    35.0158     7.8568     0.0369     2.4125     0.1456    79.7716
  408.5000   -40.0676    18.4649    26.0099    31.7653     7.8710     0.0384     2.3809     0.1525    77.0572
  409.0000   -40.0750    18.4537    25.9938    28.8165     7.8699     0.0368     2.3907     0.1607    75.6807
  409.5000   -39.7820    18.4422    25.9776    29.2045     7.8541     0.0232     2.3704     0.1589    74.6410
  410.0000   -39.7911    18.5593    26.3203    29.5978     7.8684     0.0081     2.3493     0.1780    72.8309
  410.5000   -39.7984    18.6741    26.6708    29.6147     7.8673     0.0216     2.3630     0.1721    71.3220
  411.0000   -39.9559    18.7952    27.2138    30.8206     7.8664     0.0414     2.3809     0.1673    70.7167
  411.5000   -40.1133    18.9143    28.3502    35.3822     7.8656     0.0366     2.3824     0.1610    70.5632
  412.0000   -40.1206    19.2967    29.7392    36.8702     7.8645     0.0245     2.3590     0.1601    71.0241
  412.5000   -40.1279    19.4219    31.4128    32.9875     7.8487     0.0576     2.3470     0.1812    72.3639
  413.0000   -40.2854    19.6808    32.7253    39.7461     7.8478     0.0621     2.3424     0.1911    74.0176
  413.5000   -40.4429    20.0787    32.4792    49.9271     7.8470     0.0425     2.3154     0.2007    76.5750
  414.0000   -40.4244    20.4878    31.1305    44.6694     7.8311     0.0579     2.3304     0.1962    80.0360
  414.5000   -40.3073    21.0503    30.2416    37.5505     7.8302     0.0650     2.3560     0.1773    83.3463
  415.0000   -40.1644    21.0371    29.6263    32.9054     7.8292     0.0498     2.3657     0.1675    84.7139
  415.5000   -40.0216    20.8764    29.0000    32.4199     7.8283     0.0649     2.3837     0.1589    83.1892
  416.0000   -40.0307    20.5767    27.6120    30.8878     7.8275     0.0631     2.3860     0.1610    82.2827
  416.5000   -40.0380    20.2813    26.8418    33.7815     7.8266     0.0693     2.3852     0.1580    84.6895
  417.0000   -40.0453    19.9902    26.4568    30.0119     7.8257     0.0602     2.3897     0.1620    85.2897
  417.5000   -40.2028    19.7032    26.4407    28.5782     7.8247     0.0466     2.3935     0.1584    84.2244
  418.0000   -40.2102    19.1533    26.4247    29.3670     7.8238     0.0556     2.3746     0.1662    85.8072
  418.5000   -40.2192    19.1416    26.7766    32.7924     7.8230     0.0525     2.3855     0.1569    86.9370
  419.0000   -40.0745    19.1299    26.9462    33.4689     7.7922     0.0524     2.3882     0.1629    83.6201
  419.5000   -39.9317    19.1183    27.3242    30.5693     7.7763     0.0525     2.3844     0.1578    84.5208
  420.0000   -40.0909    19.1065    27.4780    30.3476     7.7605     0.0449     2.3716     0.1599    86.9276
  420.5000   -40.0982    18.9628    26.5233    34.3559     7.7145     0.0298     2.3610     0.1669    88.8825
  421.0000   -40.1055    18.5592    25.4292    31.6013     7.7136     0.0147     2.3635     0.1737    88.8795
  421.5000   -39.9625    18.1666    24.2121    28.4228     7.7128     0.0056     2.3753     0.1752    88.7254
  422.0000   -39.8198    17.9058    23.3744    26.2894     7.7119     0.0176     2.3678     0.1677    88.4213
  422.5000   -39.6770    17.6487    22.8803    25.1066     7.7260     0.0070     2.3670     0.1701    88.1172
  423.0000   -39.5341    17.2753    22.7087    25.0947     7.7701     0.0040     2.3865     0.1636    87.6625
  423.5000   -39.3931    17.0273    22.6949    24.9097     7.7842     0.0340     2.3987     0.1518    87.2078
  424.0000   -39.4004    16.8995    22.8387    25.0738     7.7831     0.0325     2.3963     0.1566    86.9036
  424.5000   -39.5579    16.7727    22.8247    25.2361     7.7823     0.0174     2.3857     0.1612    86.4483
  425.0000   -40.1658    16.7625    22.9692    24.8742     7.7814     0.0098     2.3774     0.1645    85.9936
  425.5000   -40.3232    16.8687    22.7935    24.3512     7.7957     0.0263     2.3865     0.1566    85.8401
  426.0000   -39.8801    16.9756    22.7796    24.3397     7.8096     0.0278     2.4023     0.1549    85.8372
  426.5000   -39.7372    17.0831    22.9274    24.3281     7.8237     0.0142     2.3744     0.1675    85.8343
  427.0000   -40.2132    17.0701    22.9099    24.6557     7.8227     0.0066     2.3661     0.1708    85.8307
  427.5000   -40.6546    17.2977    23.0585    25.3712     7.8218     0.0097     2.3518     0.1780    86.1291
  428.0000   -40.6619    17.2871    23.0410    26.2133     7.8209     0.0291     2.3691     0.1714    86.5780
  428.5000   -40.5172    17.3993    23.1874    26.5663     7.8201     0.0260     2.3781     0.1642    87.1775
  429.0000   -40.3743    17.5095    23.6589    26.9240     7.8190     0.0154     2.3683     0.1747    88.0782
  429.5000   -40.3835    17.4962    23.6445    27.2898     7.8181     0.0154     2.3563     0.1801    89.1386
  430.0000   -40.3908    17.7296    23.9811    26.5285     7.8173     0.0154     2.3600     0.1714    90.1801
  430.5000   -40.2479    17.9657    24.2785    25.2612     7.8164     0.0274     2.3668     0.1717    90.9303
  431.0000   -40.2553    18.2052    24.5982    25.4247     7.8156     0.0213     2.3607     0.1739    92.2828
