~VERSION INFORMATION
 VERS.                2.0:   CWLS LOG ASCII STANDARD - VERSION 2.0
 WRAP.                 NO:   ONE LINE PER DEPTH STEP
~WELL INFORMATION
#MNEM.UNIT      DATA TYPE    INFORMATION
#----------   ------------   ------------------------------
 STRT.F           40.0000:   START DEPTH
 STOP.F          459.0000:   STOP DEPTH
 STEP.F            0.5000:   STEP LENGTH
 NULL.          -999.2500:   NO VALUE
 COMP. BROWN JOHN E&C INC:   COMPANY
 WELL. NPR 3 63-34  X 10 #63-10:   WELL
 FLD .             TEAPOT:   FIELD
 LOC .      S10 T38N R78W:   LOCATION
 CNTY.            NATRONA:   COUNTY
 STAT.            WYOMING:   STATE
 CTRY. UNITED STATES OF AMERICA:   COUNTRY
 SRVC.       Schlumberger:   SERVICE COMPANY
 DATE.        25-SEP-1990:   LOGDATE
 API .       490251132100:   API NUMBER
~CURVE INFORMATION
#MNEM.UNIT       API CODE    CURVE DESCRIPTION
#----------   ------------   ------------------------------
 DEPT.F                  :   
 GRR .GAPI   07 310 01 00:   GAMMA RAY FROM RES. LOG.
 ILD .OHMM   07 120 46 00:   INDUCTION LOG DEEP
 ILM .OHMM   07 120 44 00:   INDUCTION LOG MEDIUM
~PARAMETER INFORMATION
#MNEM.UNIT          VALUE    DESCRIPTION
#----------   ------------   ------------------------------
 PD  .                 GL:   PERMANENT DATUM
 EPD .F              5178:   ELEVATION PERMANENT DATUM
 LMF .                 KB:   LOG MEASURED FROM
 DAPD.F                10:   FEET ABOVE PERMANENT DATUM
 DMF .                 KB:   DRILLING MEASURED FROM
 EKB .F              5188:   KELLING BUSHING
 EDF .F              5187:   DRILLING FLOOR
 EGL .F              5178:   GROUND LEVEL
 DATE.          9-25-1990:   RUN DATE
 RUN .                  1:   RUN NUMBER
 DD  .F               464:   DEPTH DRILLER
 DL  .F               465:   DEPTH LOGGER
 BLI .F               459:   BOTTOM LOG INTERVAL
 TLI .F                40:   TOP LOG INTERVAL
 CS  .IN            8.625:   CASING SIZE
 CBD .F                48:   CASING BOTTOM DRILLER
 CBL .F                46:   CASING BOTTOM LOGGER
 BS  .IN            7.875:   BIT SIZE
 BSD .F               464:   BIT SIZE AT DEPTH
 DFT .                AIR:   DRILLING FLUID TYPE
 TLAB.HRS            2200:   TIME LOGGER AT BOTTOM
 LUN .               5882:   LOGGING UNIT NUMBER
 LUL .               CODY:   LOGGING UNIT LOCATION
 ENGI.             FISHER:   RECORDING ENGINEER
 WITN.             STRONG:   WITNESSED BY
 CLNT.            A2DTECH:   CLIENT CODE
 ORIG.       2", 5" PRINT:   ORIGIN OF DATA
 UWI .       490251132100:   UNIQUE WELL ID
 DICO. A2D Technologies, Inc.:   DIGITIZING COMPANY
~OTHER INFORMATION
~A   DEPT       GRR       ILD        ILM   
# ...
  313.0000    91.6336    21.5401    20.6481
  313.5000    91.8437    22.2237    21.7875
  314.0000    91.3440    22.6416    22.9898
  314.5000    88.7291    22.5569    24.3930
  315.0000    87.3471    22.4869    23.3864
  315.5000    87.7697    22.2882    22.0315
  316.0000    88.7127    21.5106    20.7552
  316.5000    90.1425    20.7601    19.8626
  317.0000    91.5576    20.0358    19.1173
  317.5000    92.9779    19.3237    18.4376
  318.0000    93.5603    18.6621    17.7859
  318.5000    92.2763    18.0110    17.3615
  319.0000    92.1980    17.4281    17.1894
  319.5000    94.3255    16.9545    17.0197
  320.0000    97.2012    17.0898    16.8509
  320.5000   100.3668    17.2651    16.6838
  321.0000   101.0902    17.4338    16.5184
  321.5000   100.7561    17.0755    16.3546
  322.0000    99.9083    16.8106    16.1924
  322.5000    99.0891    16.4360    16.0319
  323.0000    98.4346    16.0380    15.8796
  323.5000    98.9003    16.0930    15.7869
  324.0000    99.5508    16.1566    15.6946
  324.5000   100.5066    16.1864    15.6029
  325.0000   100.8130    15.7227    15.5118
  325.5000   100.8266    15.5335    15.4236
  326.0000    99.7142    15.3525    15.2296
  326.5000    95.9895    15.1805    15.0380
  327.0000    95.1737    15.0252    14.8488
  327.5000    96.5055    14.9721    14.6620
  328.0000    98.3430    14.9234    14.4755
  328.5000   103.1611    14.8762    14.4755
  329.0000   106.4587    14.8336    14.3412
  329.5000   107.6514    14.7910    14.4755
  330.0000   106.9358    14.7478    14.5520
  330.5000   104.7896    14.9851    14.6913
  331.0000   103.8538    15.2310    14.8320
  331.5000   103.0053    15.4810    14.9739
  332.0000   101.3367    15.5958    15.1173
  332.5000   100.1562    15.5958    15.2622
  333.0000   101.2695    15.5958    15.4081
  333.5000   103.0352    15.5958    15.5556
  334.0000   104.7677    15.4845    15.5958
  334.5000   106.4633    15.2796    15.1464
  335.0000   107.6833    15.0775    14.8212
  335.5000   108.2385    14.8780    14.5031
  336.0000   108.7664    14.5756    14.1917
  336.5000   109.5415    14.3412    13.8870
  337.0000   110.3948    13.9940    13.5889
  337.5000   110.3043    13.7362    13.2972
  338.0000   110.1782    13.5688    12.9403
  338.5000   110.7047    13.4337    12.8188
  339.0000   110.8679    13.4339    12.8195
  339.5000   108.4789    13.4356    12.8228
  340.0000   106.0502    13.8842    13.1937
  340.5000   106.0802    14.4021    13.6176
  341.0000   106.7178    15.4840    14.0461
  341.5000   105.4629    17.0373    14.4755
  342.0000    99.5444    18.7471    17.2898
  342.5000    91.3858    20.6262    20.3808
  343.0000    83.3143    22.6407    24.0245
  343.5000    76.9205    25.0285    27.1468
  344.0000    78.0072    27.5471    29.1550
  344.5000    80.1384    29.9201    31.3715
  345.0000    81.6836    32.4976    32.5629
  345.5000    82.8712    33.4860    32.3346
  346.0000    84.3415    32.8612    32.0612
  346.5000    85.9081    32.4361    31.7901
  347.0000    85.6878    32.2608    31.5213
  347.5000    84.7008    32.2608    31.3715
  348.0000    83.6533    32.2608    32.4931
  348.5000    82.2579    32.2608    33.1754
  349.0000    82.8253    32.0029    31.8724
  349.5000    83.4437    31.6698    30.7799
  350.0000    84.1028    31.3715    29.8734
  350.5000    84.7669    31.6665    29.6656
  351.0000    85.2450    31.3904    29.9743
  351.5000    85.4715    30.9126    30.2236
  352.0000    84.9684    30.4477    29.9890
  352.5000    83.4782    30.2186    29.7200
  353.0000    83.6374    30.1538    29.4515
  353.5000    83.7841    30.0306    29.1857
  354.0000    83.8160    29.9015    28.9225
  354.5000    84.8946    29.7555    28.5741
  355.0000    86.7755    29.4727    28.1951
  355.5000    89.7043    28.9723    27.8203
  356.0000    93.1423    28.4804    27.2714
  356.5000    96.0088    27.9969    27.2660
  357.0000    95.7929    27.7293    26.7754
  357.5000    95.6658    27.6276    26.5270
  358.0000    96.1161    27.5345    26.7598
  358.5000    98.2971    27.8246    27.2534
  359.0000    95.9032    28.2360    27.7601
  359.5000    91.7417    28.6535    28.2780
  360.0000    87.3165    29.1155    28.8477
  360.5000    84.4966    28.8765    28.5654
  361.0000    84.9313    28.6062    28.2565
  361.5000    87.4953    28.3402    27.9510
  362.0000    90.7343    28.0524    27.6487
  362.5000    93.2837    27.8756    27.3498
  363.0000    93.5365    27.6563    27.0540
  363.5000    93.5322    27.3025    26.7615
  364.0000    93.5774    26.9532    26.4722
  364.5000    94.7051    26.6084    26.1859
  365.0000    95.8439    26.4511    25.9028
  365.5000    96.8914    26.3517    25.5366
  366.0000    97.4998    26.2810    25.0846
  366.5000    96.6442    25.3587    24.6214
  367.0000    95.2463    24.5450    24.1501
  367.5000    93.8016    23.7574    23.5452
  368.0000    93.1437    22.9950    22.9554
  368.5000    95.1878    22.2226    22.3804
  369.0000    98.0288    22.0165    21.8198
  369.5000   100.9882    21.7489    20.9653
  370.0000   103.8025    21.3100    19.8715
  370.5000   106.1019    20.6971    19.7463
  371.0000   105.8387    20.2064    19.5592
  371.5000   104.5424    19.8155    19.2271
  372.0000   101.1720    19.3216    18.9007
  372.5000    98.1733    19.0688    18.5812
  373.0000    97.4996    18.7910    18.4207
  373.5000    96.9488    18.7277    18.3678
  374.0000    96.5276    18.6646    18.3129
  374.5000    96.8547    18.6017    18.2582
  375.0000    98.0040    18.5391    18.2036
  375.5000    99.1494    18.4768    18.1491
  376.0000    98.6925    18.4443    18.0948
  376.5000    97.8036    18.4441    18.0407
  377.0000    97.1653    18.3982    17.9867
  377.5000    98.9207    18.1597    17.9355
  378.0000   100.8692    17.9244    17.5941
  378.5000   102.0251    17.6793    17.2743
  379.0000   101.0968    17.4066    16.9602
  379.5000    98.2349    17.1412    16.6519
  380.0000    95.5762    16.8773    16.3484
  380.5000    97.0762    16.6194    16.0393
  381.0000    99.6187    16.2746    15.7743
  381.5000   102.2431    15.9369    15.5035
  382.0000   103.7199    15.6062    15.2367
  382.5000   102.4647    15.4204    14.9745
  383.0000   101.4926    15.2063    14.7160
  383.5000   101.2168    14.9952    14.4742
  384.0000   100.9384    14.8720    14.4755
  384.5000   100.6526    14.8236    14.4755
  385.0000   100.4488    14.7753    14.4755
  385.5000   101.5443    14.7478    14.4755
  386.0000   102.9020    14.7477    14.4755
  386.5000   104.2346    14.7478    14.4755
  387.0000   104.0195    14.7482    14.4755
  387.5000   103.6333    14.7697    14.4755
  388.0000   103.6374    14.7915    14.4755
  388.5000   103.6448    14.8135    14.4755
  389.0000   103.5920    14.8355    14.4756
  389.5000   102.4268    14.8575    14.4761
  390.0000   101.3152    14.8847    14.4176
  390.5000   100.8936    14.8282    14.3509
  391.0000   102.4863    14.7478    14.2840
  391.5000   104.4622    14.6678    14.2176
  392.0000   103.0643    14.6110    14.0558
  392.5000   102.0895    14.3203    13.8803
  393.0000   106.6832    14.0600    13.7066
  393.5000   107.5956    13.8165    13.5352
  394.0000   104.9887    13.7241    13.3658
  394.5000   102.0520    13.6195    13.1992
  395.0000   102.5356    13.5149    13.0639
  395.5000   103.0749    13.4356    13.0641
  396.0000   102.2453    13.4043    13.0652
  396.5000   101.6792    13.3389    13.0652
  397.0000   104.6347    13.2842    13.0775
  397.5000   106.4905    13.2381    12.9288
  398.0000   107.4782    13.1919    12.9324
  398.5000   108.4431    13.1458    12.9074
  399.0000   108.1131    13.1000    12.8934
  399.5000   107.7046    13.0649    12.8795
  400.0000   107.2653    13.0651    12.8655
  400.5000   108.6608    13.0652    12.8515
  401.0000   110.6046    13.0652    12.8294
  401.5000   112.5756    13.0651    12.8313
  402.0000   113.6367    13.0661    12.9440
  402.5000   113.9926    12.9806    12.8279
  403.0000   114.4981    12.8825    12.7174
  403.5000   115.7337    12.7845    12.6080
