~VERSION INFORMATION
 VERS.                2.0:   CWLS LOG ASCII STANDARD - VERSION 2.0
 WRAP.                 NO:   ONE LINE PER DEPTH STEP
~WELL INFORMATION
#MNEM.UNIT      DATA TYPE    INFORMATION
#----------   ------------   ------------------------------
 STRT.F           95.0000:   START DEPTH
 STOP.F          922.0000:   STOP DEPTH
 STEP.F            0.5000:   STEP LENGTH
 NULL.          -999.2500:   NO VALUE
 COMP.          U.S. NAVY:   COMPANY
 WELL. RES 3 TEAPOT DOM #57S-11:   WELL
 FLD .             TEAPOT:   FIELD
 LOC .      S11 T38N R78W:   LOCATION
 CNTY.            NATRONA:   COUNTY
 STAT.            WYOMING:   STATE
 CTRY. UNITED STATES OF AMERICA:   COUNTRY
 SRVC.       Schlumberger:   SERVICE COMPANY
 DATE.        02-AUG-1961:   LOGDATE
 API .       490250632800:   API NUMBER
~CURVE INFORMATION
#MNEM.UNIT       API CODE    CURVE DESCRIPTION
#----------   ------------   ------------------------------
 DEPT.F                  :   
 GR  .GAPI   30 310 01 00:   GAMMA RAY
 SPR .MV     05 010 01 00:   SPONTANEOUS POTENTIAL FROM RES.
 CILD.MMHO   05 110 46 00:   CONDUCTIVITY INDUCTION LOG DEEP
 ASN .OHMM   05 041 16 00:   AMPLIFIED SHORT NORMAL 16"
 ILD .OHMM   05 120 46 00:   INDUCTION LOG DEEP
~PARAMETER INFORMATION
#MNEM.UNIT          VALUE    DESCRIPTION
#----------   ------------   ------------------------------
 PD  .                 GL:   PERMANENT DATUM
 EPD .F              5213:   ELEVATION PERMANENT DATUM
 LMF .                 KB:   LOG MEASURED FROM
 DAPD.F                 6:   FEET ABOVE PERMANENT DATUM
 DMF .                 KB:   DRILLING MEASURED FROM
 EKB .F              5219:   KELLING BUSHING
 EGL .F              5213:   GROUND LEVEL
 DATE.             8-2-61:   RUN DATE
 RUN .                  1:   RUN NUMBER
 DD  .F               920:   DEPTH DRILLER
 DL  .F               921:   DEPTH LOGGER
 BLI .F               920:   BOTTOM LOG INTERVAL
 TLI .F               100:   TOP LOG INTERVAL
 BS  .IN             6.75:   BIT SIZE
 BSD .F               920:   BIT SIZE AT DEPTH
 DFT .       OIL EMULSION:   DRILLING FLUID TYPE
 DFD .                9.2:   DRILLING FLUID DENSITY
 DFV .                 55:   DRILLING FLUID VISCOSITY
 MFSS.                  M:   MUD FILTRATE SAMPLE SOURCE
 MCSS.                  M:   MUD CAKE SAMPLE SOURCE
 RMB .OHMM            .75:   RESISTIVITY MUD AT BHT
 BHT .F                80:   BOTTOM HOLE TEMPERATURE
 TCS .HRS               1:   TIME CURCULATED STOPPED
 MRT .F                80:   MAXIMUM RECORDED TEMPERATURE
 LUN .               2552:   LOGGING UNIT NUMBER
 LUL .                RIV:   LOGGING UNIT LOCATION
 ENGI.             RANDLE:   RECORDING ENGINEER
 WITN.          VORGENSEN:   WITNESSED BY
 CLNT.            A2DTECH:   CLIENT CODE
 ORIG.       2", 5" PRINT:   ORIGIN OF DATA
 UWI .       490250632800:   UNIQUE WELL ID
 DICO. A2D Technologies, Inc.:   DIGITIZING COMPANY
~OTHER INFORMATION
~A   DEPT       GR        SPR       CILD        ASN        ILD   
# ...
  644.0000  -999.2500   -42.2987   126.4402     9.2743     7.5455
  644.5000  -999.2500   -42.3001   127.5326     9.1837     7.4452
  645.0000  -999.2500   -42.3000   128.9330     9.1019     7.3409
  645.5000  -999.2500   -42.3004   130.4791     9.0558     7.2023
  646.0000  -999.2500   -42.3007   131.8957     8.9798     6.9923
  646.5000  -999.2500   -42.3005   135.2997     8.9116     6.9134
  647.0000  -999.2500   -42.3016   137.3435     8.8440     6.8580
  647.5000  -999.2500   -42.2926   138.0977     8.8120     6.7956
  648.0000  -999.2500   -42.1622   138.9352     8.7767     6.7355
  648.5000  -999.2500   -42.0001   139.0830     8.7167     6.6777
  649.0000  -999.2500   -41.8411   139.2585     8.6763     6.6927
  649.5000  -999.2500   -41.6859   139.4397     8.6443     6.7288
  650.0000  -999.2500   -41.5199   139.6215     8.6474     6.7495
  650.5000  -999.2500   -41.3759   139.7953     8.6715     6.8485
  651.0000  -999.2500   -41.1827   139.9198     8.5536     6.8986
  651.5000  -999.2500   -41.1936   139.3920     8.4525     6.9167
  652.0000  -999.2500   -41.5471   138.8111     8.4118     6.9449
  652.5000  -999.2500   -41.8621   138.2301     8.4086     6.9704
  653.0000  -999.2500   -41.9082   137.6491     8.4460     6.9551
  653.5000  -999.2500   -41.8960   137.0681     8.4561     6.9266
  654.0000  -999.2500   -41.9048   136.9107     8.4456     6.8970
  654.5000  -999.2500   -41.9280   138.2507     8.4186     6.8805
  655.0000  -999.2500   -41.9548   139.2578     8.3955     6.8026
  655.5000  -999.2500   -41.9796   140.2648     8.2903     6.6506
  656.0000  -999.2500   -42.0042   142.3600     8.0342     6.5129
  656.5000  -999.2500   -42.0301   146.5066     7.9663     6.3698
  657.0000  -999.2500   -42.0536   150.6531     7.8926     6.2271
  657.5000  -999.2500   -42.0833   154.9649     7.8284     6.0893
  658.0000  -999.2500   -42.0783   159.7994     7.7230     5.9405
  658.5000  -999.2500   -41.8293   163.6476     7.5879     5.6846
  659.0000  -999.2500   -41.6473   166.5847     7.4463     5.6084
  659.5000  -999.2500   -41.5387   169.0070     7.3378     5.5580
  660.0000  -999.2500   -41.4149   171.2262     7.2688     5.4970
  660.5000  -999.2500   -41.2926   171.7498     7.2886     5.4479
  661.0000  -999.2500   -41.1805   171.2921     7.3383     5.3796
  661.5000  -999.2500   -40.8503   170.6199     7.3763     5.4313
  662.0000  -999.2500   -40.0653   169.6128     7.4547     5.5784
  662.5000  -999.2500   -39.6652   167.8801     7.5097     5.7029
  663.0000  -999.2500   -39.7122   165.0188     7.5400     5.8388
  663.5000  -999.2500   -39.6939   162.1607     7.5868     5.9633
  664.0000  -999.2500   -39.8096   159.9083     7.7064     6.0627
  664.5000  -999.2500   -39.9449   155.7285     7.8415     6.1801
  665.0000  -999.2500   -40.0830   152.2897     7.9485     6.3225
  665.5000  -999.2500   -40.2225   148.8594     8.0943     6.4617
  666.0000  -999.2500   -40.3845   145.6386     8.2287     6.6016
  666.5000  -999.2500   -40.5913   142.6937     8.3540     6.7424
  667.0000  -999.2500   -40.7800   139.7414     8.4775     6.8806
  667.5000  -999.2500   -41.0084   136.8971     8.5591     7.0222
  668.0000  -999.2500   -41.0472   136.1418     8.5928     7.0809
  668.5000  -999.2500   -40.8720   135.4125     8.6405     7.1054
  669.0000  -999.2500   -40.7199   134.8665     8.6673     7.1376
  669.5000  -999.2500   -40.7779   133.9290     8.6579     7.1641
  670.0000  -999.2500   -41.0526   133.0816     8.6727     7.1947
  670.5000  -999.2500   -40.9199   132.1931     8.7082     7.2211
  671.0000  -999.2500   -40.5750   131.8957     8.7803     7.2546
  671.5000  -999.2500   -40.2528   132.6058     8.8203     7.2696
  672.0000  -999.2500   -40.0947   134.1163     8.8469     7.2535
  672.5000  -999.2500   -40.1691   135.0385     8.8517     7.2400
  673.0000  -999.2500   -40.2035   135.3182     8.8239     7.2267
  673.5000  -999.2500   -40.2588   135.5979     8.7420     7.2107
  674.0000  -999.2500   -40.3026   135.9077     8.6236     7.2013
  674.5000  -999.2500   -40.3526   135.0756     8.5054     7.1784
  675.0000  -999.2500   -40.3998   134.1432     8.3969     7.2232
  675.5000  -999.2500   -40.4492   133.2107     8.3117     7.3101
  676.0000  -999.2500   -40.4897   132.2783     8.3018     7.3248
  676.5000  -999.2500   -40.3955   131.3459     8.2585     7.3773
  677.0000  -999.2500   -40.2759   131.3240     8.1804     7.2546
  677.5000  -999.2500   -40.1539   133.0993     8.0515     7.0310
  678.0000  -999.2500   -40.0937   136.8391     7.9079     6.8501
  678.5000  -999.2500   -40.1066   140.8665     7.6747     6.6434
  679.0000  -999.2500   -40.0809   147.0473     7.3265     6.3104
  679.5000  -999.2500   -39.9174   152.7535     7.0839     5.9734
  680.0000  -999.2500   -39.7526   169.7980     6.7767     5.5958
  680.5000  -999.2500   -39.5900   186.8677     6.2364     5.1879
  681.0000  -999.2500   -39.4272   213.4600     5.8366     4.5951
  681.5000  -999.2500   -39.2634   247.0902     5.3268     3.7910
  682.0000  -999.2500   -39.1015   277.3320     4.8350     3.0985
  682.5000  -999.2500   -38.9222   352.9589     4.0838     2.6993
  683.0000  -999.2500   -38.9248   400.7021     3.7762     2.3917
  683.5000  -999.2500   -38.9745   455.8676     3.4685     2.2732
  684.0000  -999.2500   -39.0132   480.9428     3.2714     2.1928
  684.5000  -999.2500   -39.0558   485.9579     3.1561     2.0816
  685.0000  -999.2500   -39.1040   486.9609     3.1315     2.1184
  685.5000  -999.2500   -39.2067   482.6171     3.1628     2.2774
  686.0000  -999.2500   -39.3169   449.6742     3.2230     2.3981
  686.5000  -999.2500   -39.4905   389.7689     3.7976     2.8089
  687.0000  -999.2500   -39.6525   349.3815     4.2263     3.3077
  687.5000  -999.2500   -39.8120   298.2368     4.5586     3.7757
  688.0000  -999.2500   -39.9763   255.7965     5.0190     4.1370
  688.5000  -999.2500   -40.1007   214.3648     5.6192     4.6912
  689.0000  -999.2500   -40.0835   197.2264     6.0036     5.0523
  689.5000  -999.2500   -39.9513   184.0522     6.0504     5.1451
  690.0000  -999.2500   -39.8198   173.0191     6.0411     5.2382
  690.5000  -999.2500   -39.7153   172.0161     6.1127     5.3366
  691.0000  -999.2500   -39.6507   176.0281     6.2001     5.3583
  691.5000  -999.2500   -39.5260   179.0371     6.2959     5.1949
  692.0000  -999.2500   -39.4046   188.6290     6.2996     5.0292
  692.5000  -999.2500   -39.2839   197.9245     6.1993     4.8541
  693.0000  -999.2500   -39.1581   213.1394     6.0657     4.6686
  693.5000  -999.2500   -39.0452   219.5186     5.8863     4.4125
  694.0000  -999.2500   -38.8761   228.3350     5.5663     4.2111
  694.5000  -999.2500   -38.5370   240.2207     5.4074     4.0936
  695.0000  -999.2500   -38.5710   247.0125     5.3079     3.9631
  695.5000  -999.2500   -38.6754   251.2538     5.2380     3.9730
  696.0000  -999.2500   -38.7639   246.2387     5.3663     4.1357
  696.5000  -999.2500   -38.8610   236.3992     5.5873     4.3752
  697.0000  -999.2500   -38.9516   227.1815     5.7547     4.5322
  697.5000  -999.2500   -39.0487   215.4129     5.8994     4.7259
  698.0000  -999.2500   -39.1372   201.9860     6.2898     5.0320
  698.5000  -999.2500   -39.2437   188.5590     6.6386     5.2943
  699.0000  -999.2500   -39.3059   176.3799     6.9802     5.5777
  699.5000  -999.2500   -39.2992   167.2436     7.2950     5.8467
  700.0000    57.0140   -39.3006   158.1073     7.5408     6.1292
  700.5000    58.6047   -39.3033   149.9498     7.8390     6.3697
  701.0000    59.4188   -39.2957   145.3912     7.9806     6.6163
  701.5000    60.4459   -39.3126   141.3477     8.1040     6.8776
  702.0000    63.6289   -39.2538   137.7966     8.1200     6.9784
  702.5000    62.3355   -39.0717   137.7453     8.0997     6.9229
  703.0000    58.9662   -38.9554   139.5680     8.0539     6.8994
  703.5000    54.9578   -38.8145   142.6797     7.9969     6.7831
  704.0000    56.7001   -38.6889   146.7052     7.8902     6.5001
  704.5000    56.7123   -38.5553   149.3380     7.7308     6.3296
