~VERSION INFORMATION
 VERS.                2.0:   CWLS LOG ASCII STANDARD - VERSION 2.0
 WRAP.                 NO:   ONE LINE PER DEPTH STEP
~WELL INFORMATION
#MNEM.UNIT      DATA TYPE    INFORMATION
#----------   ------------   ------------------------------
 STRT.F           34.0000:   START DEPTH
 STOP.F          534.0000:   STOP DEPTH
 STEP.F            0.5000:   STEP LENGTH
 NULL.          -999.2500:   NO VALUE
 COMP.    FENIX & SCISSON:   COMPANY
 WELL.      33 SX 3 #33-3:   WELL
 FLD .             TEAPOT:   FIELD
 LOC .       S3 T38N R78W:   LOCATION
 CNTY.            NATRONA:   COUNTY
 STAT.            WYOMING:   STATE
 CTRY. UNITED STATES OF AMERICA:   COUNTRY
 SRVC.       Schlumberger:   SERVICE COMPANY
 DATE.        23-FEB-1977:   LOGDATE
 API .       490251028500:   API NUMBER
~CURVE INFORMATION
#MNEM.UNIT       API CODE    CURVE DESCRIPTION
#----------   ------------   ------------------------------
 DEPT.F                  :   
 SPR .MV     07 010 01 00:   SPONTANEOUS POTENTIAL
 LL8 .OHMM   07 220 08 00:   LATEROLOG-8 RES.
 ILD .OHMM   07 120 46 00:   INDUCTION LOG DEEP
 ILM .OHMM   07 120 44 00:   INDUCTION LOG MEDIUM
 CALD.IN     45 280 60 00:   CALIPER
 GRD .GAPI   45 310 01 00:   GAMMA RAY FROM DENSITY LOG
 RHOB.G/C3   45 350 01 00:   BULK DENSITY
 DPOR.DEC    45 890 12 00:   DENSITY POROSITY SANDSTONE
 CORR.G/C3   45 356 01 00:   DENSITY CORRECTION
~PARAMETER INFORMATION
#MNEM.UNIT          VALUE    DESCRIPTION
#----------   ------------   ------------------------------
 PD  .                 GL:   PERMANENT DATUM
 EPD .F              5170:   ELEVATION PERMANENT DATUM
 LMF .                 KB:   LOG MEASURED FROM
 DAPD.F                 5:   FEET ABOVE PERMANENT DATUM
 DMF .                 KB:   DRILLING MEASURED FROM
 EKB .F              5175:   KELLING BUSHING
 EGL .F              5170:   GROUND LEVEL
 DATE.            2-23-77:   RUN DATE
 RUN .                  1:   RUN NUMBER
 DD  .F               550:   DEPTH DRILLER
 DL  .F               535:   DEPTH LOGGER
 BLI .F               525:   BOTTOM LOG INTERVAL
 TLI .F                47:   TOP LOG INTERVAL
 CS  .IN            8.625:   CASING SIZE
 CBD .F                40:   CASING BOTTOM DRILLER
 CBL .F                47:   CASING BOTTOM LOGGER
 BS  .IN            7.875:   BIT SIZE
 BSD .F               550:   BIT SIZE AT DEPTH
 DFT .                KCL:   DRILLING FLUID TYPE
 DFD .                  9:   DRILLING FLUID DENSITY
 DFV .                 36:   DRILLING FLUID VISCOSITY
 MSS .            MUDTANK:   MUD SAMPLE SOURCE
 RMS .OHMM           .255:   RESISTIVITY MUD SAMPLE
 MST .F                74:   MUD SAMPLE TEMPERATURE
 RMF .OHMM           .246:   RESISTIVITY MUD FILTRATE SAMPLE
 MFST.F                74:   MUD FILTRATE SAMPLE TEMPERATURE
 RMC .OHMM            .38:   RESISTIVITY MUD CAKE
 MCST.F                74:   MUD CAKE SAMPLE TEMPERATURE
 MFSS.                  M:   MUD FILTRATE SAMPLE SOURCE
 MCSS.                  C:   MUD CAKE SAMPLE SOURCE
 RMB .OHMM            .34:   RESISTIVITY MUD AT BHT
 BHT .F                55:   BOTTOM HOLE TEMPERATURE
 TCS .HRS            0600:   TIME CURCULATED STOPPED
 TLAB.HRS            0730:   TIME LOGGER AT BOTTOM
 MRT .F                55:   MAXIMUM RECORDED TEMPERATURE
 LUN .               5642:   LOGGING UNIT NUMBER
 LUL .               CSPR:   LOGGING UNIT LOCATION
 ENGI.                FIX:   RECORDING ENGINEER
 WITN.         STUEBINGER:   WITNESSED BY
 CLNT.            A2DTECH:   CLIENT CODE
 ORIG.       2", 5" PRINT:   ORIGIN OF DATA
 UWI .       490251028500:   UNIQUE WELL ID
 DICO. A2D Technologies, Inc.:   DIGITIZING COMPANY
~OTHER INFORMATION
~A   DEPT      SPR        LL8        ILD        ILM       CALD         GRD      RHOB       DPOR       CORR   
# ...
  326.0000   -11.3376    23.2875    21.3558    26.7475     8.7136    79.4382     2.3862     0.1660     0.0464
  326.5000   -11.2803    22.7553    21.0815    26.7475     8.7137    80.7494     2.3900     0.1611     0.0552
  327.0000   -11.1033    22.6537    20.8108    26.6517     8.7137    80.5022     2.3793     0.1631     0.0433
  327.5000   -10.9222    22.6962    20.5435    26.4180     8.7137    79.9071     2.3719     0.1688     0.0402
  328.0000   -10.7413    22.7663    20.2797    26.1864     8.7137    79.2897     2.3541     0.1796     0.0513
  328.5000   -10.5597    22.8365    20.0192    25.9568     8.7157    79.9599     2.3360     0.1920     0.0231
  329.0000   -10.3757    22.8637    19.7621    25.6739     8.7198    82.5577     2.3367     0.1916     0.0232
  329.5000   -10.2397    21.9971    19.5083    25.1962     8.7239    85.1097     2.3429     0.1896     0.0133
  330.0000   -10.7134    21.3088    19.2578    24.7273     8.7280    86.6438     2.3600     0.1837     0.0259
  330.5000   -11.1898    20.6525    19.0104    24.2672     8.7323    83.3799     2.3781     0.1698     0.0369
  331.0000   -11.1882    20.6587    18.7663    23.8156     8.7294    80.5580     2.3928     0.1577     0.0388
  331.5000   -11.1325    20.9007    18.5253    23.3724     8.7201    79.0708     2.3881     0.1633     0.0450
  332.0000   -11.0806    21.0451    18.2873    22.8637     8.7108    80.1138     2.3907     0.1593     0.0438
  332.5000   -11.0278    20.6259    17.9861    22.8889     8.7015    81.3256     2.3844     0.1640     0.0500
  333.0000   -11.2262    20.0893    17.8209    22.9478     8.6922    80.9508     2.3778     0.1705     0.0392
  333.5000   -11.6499    20.0873    17.8209    23.0068     8.6830    80.1009     2.3842     0.1520     0.0312
  334.0000   -12.0863    20.4795    17.6572    23.0660     8.6747    79.2421     2.4042     0.1372     0.0496
  334.5000   -12.2557    21.0414    17.9346    24.4683     8.6602    78.6692     2.3900     0.1680     0.0308
  335.0000   -12.3385    20.9320    18.3790    24.3895     8.6437    79.9574     2.3530     0.1858     0.0350
  335.5000   -12.4170    20.7619    18.8443    27.1958     8.5951    79.2896     2.3278     0.1961     0.0274
  336.0000   -12.4959    20.5932    19.2031    30.7052     8.4999    79.1479     2.3136     0.2061     0.0153
  336.5000   -12.5751    20.4342    19.5292    31.2910     8.4051    81.2252     2.3268     0.1993     0.0446
  337.0000   -12.7151    20.3028    19.2466    26.8365     8.3105    84.3896     2.3048     0.2113     0.0355
  337.5000   -12.8802    20.1724    18.9998    23.7235     8.2170    87.6555     2.3309     0.2009     0.0508
  338.0000   -13.0454    20.0427    18.7603    21.4333     8.1775    89.9989     2.3631     0.1779     0.0693
  338.5000   -13.2109    19.9138    18.5251    21.0215     8.2252    85.9217     2.3743     0.1685     0.0823
  339.0000   -13.3768    19.7858    18.2929    20.7537     8.3034    81.7445     2.3779     0.1698     0.0764
  339.5000   -13.5388    19.6585    18.0637    20.5005     8.3825    77.3812     2.3718     0.1731     0.0602
  340.0000   -13.9867    19.5321    17.8374    20.4659     8.4619    76.3151     2.3624     0.1766     0.0409
  340.5000   -14.3734    19.3628    17.6138    20.5522     8.5170    77.7161     2.3547     0.1809     0.0294
  341.0000   -14.2855    19.3769    17.3931    20.6822     8.5318    79.4395     2.3522     0.1829     0.0287
  341.5000   -14.2022    19.4304    17.1752    20.8130     8.5489    80.9612     2.3495     0.1849     0.0147
  342.0000   -14.3578    19.4834    17.0173    20.9447     8.5662    80.4427     2.3530     0.1833     0.0111
  342.5000   -14.6018    19.5467    16.8609    21.0414     8.5833    79.9087     2.3548     0.1797     0.0205
  343.0000   -15.0961    19.5472    16.5526    21.2365     8.5953    79.9224     2.3483     0.1897     0.0132
  343.5000   -15.5707    19.1490    16.2553    21.2365     8.5992    80.3613     2.3422     0.1901     0.0161
  344.0000   -16.0390    18.7903    16.0903    20.6992     8.6033    81.8281     2.3491     0.1807     0.0080
  344.5000   -16.3959    18.4377    15.9270    19.6122     8.6075    83.3352     2.3986     0.1549     0.0362
  345.0000   -16.4612    18.0911    15.7654    18.6625     8.6116    84.3156     2.3900     0.1605     0.0176
  345.5000   -16.5318    17.7510    15.6054    18.4911     8.6145    84.4436     2.3728     0.1721     0.0082
  346.0000   -16.6028    17.4177    15.4470    18.3212     8.6105    81.7224     2.3860     0.1605     0.0241
  346.5000   -16.6734    17.0904    15.2903    18.2685     8.6053    79.6500     2.3869     0.1628     0.0281
  347.0000   -16.7442    16.8609    15.1351    18.2036     8.6000    80.7870     2.3834     0.1670     0.0193
  347.5000   -16.8150    16.9504    14.9815    18.1411     8.5956    82.2806     2.3796     0.1681     0.0095
  348.0000   -16.8857    17.0331    14.8295    18.0791     8.5555    83.4033     2.3769     0.1649     0.0183
  348.5000   -16.9565    17.1162    14.6790    18.0173     8.5020    83.6963     2.3832     0.1665     0.0184
  349.0000   -17.0273    17.1750    14.5300    17.9628     8.4746    84.2548     2.3902     0.1658     0.0224
  349.5000   -17.0981    16.9563    14.3826    17.8842     8.4591    84.5579     2.3971     0.1594     0.0253
  350.0000   -17.1688    16.7894    14.2366    17.8059     8.4583    83.1562     2.4037     0.1531     0.0185
  350.5000   -17.2393    16.5758    14.0921    17.7279     8.4658    80.9222     2.3978     0.1513     0.0331
  351.0000   -17.3109    16.1429    14.0191    17.6572     8.4731    79.0412     2.3840     0.1616     0.0222
  351.5000   -17.4002    15.7214    14.0237    16.4005     8.4802    79.8845     2.3757     0.1701     0.0112
  352.0000   -17.5508    15.3108    13.7864    16.4471     8.4874    80.3650     2.3941     0.1608     0.0364
  352.5000   -17.6981    14.9110    13.6867    16.5158     8.4961    79.3455     2.4257     0.1440     0.0645
  353.0000   -17.8481    14.5463    13.5889    16.7061     8.4406    81.1379     2.4465     0.1295     0.0957
  353.5000   -18.0657    14.7700    13.4926    16.5575     8.3648    83.0210     2.4222     0.1327     0.0827
  354.0000   -18.5219    14.9813    13.3969    16.3357     8.2891    82.9846     2.4207     0.1485     0.0955
  354.5000   -18.9461    15.1957    13.3019    16.1168     8.2358    82.0237     2.4185     0.1396     0.1127
  355.0000   -19.1025    15.3793    13.2075    15.9527     8.2356    81.9595     2.3990     0.1465     0.0971
  355.5000   -19.2477    15.1481    13.1138    15.9527     8.2031    83.2537     2.4109     0.1560     0.0884
  356.0000   -19.3936    14.9701    13.0209    15.7931     8.0970    83.8817     2.4362     0.1320     0.1005
  356.5000   -19.5394    14.7932    12.9285    15.6036     8.1162    86.5153     2.4545     0.1224     0.0891
  357.0000   -19.6872    14.6183    12.8368    15.4164     8.1432    90.2198     2.4315     0.1341     0.0682
  357.5000   -19.7095    14.4455    12.7832    15.2333     8.1713    93.3289     2.4065     0.1480     0.0547
  358.0000   -19.6584    14.2803    12.7832    15.2333     8.1427    94.3495     2.3745     0.1693     0.0413
  358.5000   -19.6066    14.3785    12.8514    15.2835     8.0966    89.6467     2.3848     0.1609     0.0326
  359.0000   -19.5546    14.8817    13.0232    15.3336     8.0486    85.4210     2.4038     0.1517     0.0498
  359.5000   -19.5026    15.2333    13.1972    15.4648     8.0386    85.1971     2.4232     0.1424     0.0660
  360.0000   -19.4504    15.5261    13.3736    15.9560     8.0658    85.7307     2.4356     0.1355     0.0783
  360.5000   -19.3969    15.8289    13.5524    16.4629     8.1637    85.1103     2.4459     0.1278     0.0749
  361.0000   -19.3510    16.1375    13.7335    16.9859     8.2579    83.3390     2.4518     0.1253     0.0883
  361.5000   -19.5637    16.5526    13.9171    17.6572     8.3505    83.9000     2.4468     0.1330     0.0651
  362.0000   -19.7928    16.2893    14.1031    17.3286     8.3766    82.6930     2.4425     0.1344     0.0469
