~VERSION INFORMATION
 VERS.                2.0:   CWLS LOG ASCII STANDARD - VERSION 2.0
 WRAP.                 NO:   ONE LINE PER DEPTH STEP
~WELL INFORMATION
#MNEM.UNIT      DATA TYPE    INFORMATION
#----------   ------------   ------------------------------
 STRT.F           71.5000:   START DEPTH
 STOP.F          820.0000:   STOP DEPTH
 STEP.F            0.5000:   STEP LENGTH
 NULL.          -999.2500:   NO VALUE
 COMP. U S NAVY/INTEX OIL CO:   COMPANY
 WELL. RES 3 TEAPOT DOME #72-S-34:   WELL
 FLD .             TEAPOT:   FIELD
 LOC .      S34 T39N R78W:   LOCATION
 CNTY.            NATRONA:   COUNTY
 STAT.            WYOMING:   STATE
 CTRY. UNITED STATES OF AMERICA:   COUNTRY
 SRVC.       Schlumberger:   SERVICE COMPANY
 DATE.        20-FEB-1961:   LOGDATE
 API .       490250655700:   API NUMBER
~CURVE INFORMATION
#MNEM.UNIT       API CODE    CURVE DESCRIPTION
#----------   ------------   ------------------------------
 DEPT.F                  :   
 GR  .GAPI   30 310 01 00:   GAMMA RAY
 SPR .MV     05 010 01 00:   SPONTANEOUS POTENTIAL FROM RES.
 ILD .OHMM   05 120 46 00:   INDUCTION LOG DEEP
 ASN .OHMM   05 041 16 00:   AMPLIFIED SHORT NORMAL 16"
 CILD.MMHO   05 110 46 00:   CONDUCTIVITY INDUCTION LOG DEEP
~PARAMETER INFORMATION
#MNEM.UNIT          VALUE    DESCRIPTION
#----------   ------------   ------------------------------
 LMF .                 KB:   LOG MEASURED FROM
 DMF .                 KB:   DRILLING MEASURED FROM
 EKB .F              5071:   KELLING BUSHING
 EGL .F              5057:   GROUND LEVEL
 DATE.          2-20-1961:   RUN DATE
 RUN .                  1:   RUN NUMBER
 DD  .F               820:   DEPTH DRILLER
 DL  .F               820:   DEPTH LOGGER
 BLI .F               819:   BOTTOM LOG INTERVAL
 TLI .F                80:   TOP LOG INTERVAL
 CBD .F                12:   CASING BOTTOM DRILLER
 BS  .IN            7.875:   BIT SIZE
 BSD .F               820:   BIT SIZE AT DEPTH
 DFT .       GEL-OIL EMUL:   DRILLING FLUID TYPE
 DFD .                9.3:   DRILLING FLUID DENSITY
 DFV .                 48:   DRILLING FLUID VISCOSITY
 DFPH.                8.5:   DRILLING FLUID PH
 DFL .                 16:   DRILLING FLUID LOSS
 MSS .           FLOWLINE:   MUD SAMPLE SOURCE
 RMS .OHMM            .82:   RESISTIVITY MUD SAMPLE
 MST .F                70:   MUD SAMPLE TEMPERATURE
 RMF .OHMM            .45:   RESISTIVITY MUD FILTRATE SAMPLE
 MFST.F                72:   MUD FILTRATE SAMPLE TEMPERATURE
 RMC .OHMM            1.4:   RESISTIVITY MUD CAKE
 MCST.F                78:   MUD CAKE SAMPLE TEMPERATURE
 RMB .OHMM            .73:   RESISTIVITY MUD AT BHT
 BHT .F                78:   BOTTOM HOLE TEMPERATURE
 TCS .HRS               1:   TIME CURCULATED STOPPED
 MRT .F                78:   MAXIMUM RECORDED TEMPERATURE
 LUN .               2523:   LOGGING UNIT NUMBER
 LUL .              CSPR.:   LOGGING UNIT LOCATION
 ENGI.             KNOBEL:   RECORDING ENGINEER
 WITN.          JORGENSEN:   WITNESSED BY
 CLNT.            A2DTECH:   CLIENT CODE
 ORIG.      2" & 5" PRINT:   ORIGIN OF DATA
 UWI .       490250655700:   UNIQUE WELL ID
 DICO. A2D Technologies, Inc.:   DIGITIZING COMPANY
~OTHER INFORMATION
~A   DEPT       GR        SPR          ILD      ASN       CILD   
# ...
  681.5000    29.0639   -18.9892    17.1870    17.8500    62.2510
  682.0000    31.3644   -18.8238    17.2182    17.7449    62.2510
  682.5000    34.3632   -18.6765    17.0744    17.6401    62.4019
  683.0000    33.2232   -18.7391    16.9280    17.5611    62.5486
  683.5000    33.9858   -18.8105    16.7832    17.5173    62.6954
  684.0000    33.2561   -18.8732    16.6376    17.4731    62.8422
  684.5000    33.4522   -18.8740    16.5727    17.4293    62.9889
  685.0000    35.3062   -18.8732    16.5545    17.3850    63.1357
  685.5000    37.1370   -18.8739    16.5353    17.3412    63.2470
  686.0000    38.3648   -18.8733    16.5173    17.2969    63.1336
  686.5000    36.6541   -18.8739    16.4981    17.3812    62.8777
  687.0000    38.0902   -18.8734    16.4850    17.5357    62.6218
  687.5000    38.0426   -18.8738    16.6672    17.6907    62.3659
  688.0000    37.5144   -18.8784    16.8145    17.8453    62.1100
  688.5000    36.4621   -18.8885    16.9817    18.0002    61.8541
  689.0000    32.6240   -18.8982    16.9823    18.1769    61.5982
  689.5000    30.4097   -18.9082    16.9817    18.3256    61.3423
  690.0000    31.1151   -18.9179    17.2545    18.4989    60.5360
  690.5000    29.7427   -18.9279    17.5714    18.6725    59.4444
  691.0000    28.5664   -18.9378    17.9266    18.8458    58.3528
  691.5000    30.7717   -18.9478    18.3003    19.0689    57.2613
  692.0000    33.5020   -18.9577    18.6745    19.4291    56.1697
  692.5000    36.1845   -18.9676    18.8505    19.7892    55.0781
  693.0000    39.0431   -18.9774    18.7675    20.1497    54.2829
  693.5000    37.9162   -18.9874    18.6843    20.3667    55.3016
  694.0000    40.4691   -18.9971    18.6012    20.1229    56.4694
  694.5000    38.7755   -19.0071    18.5180    19.6079    57.6373
  695.0000    37.2929   -19.0168    18.2359    19.0945    58.8052
  695.5000    39.5349   -19.0269    17.7371    18.5794    59.9731
  696.0000    40.7112   -19.0364    17.2386    18.0658    61.1410
  696.5000    42.1354   -19.0467    16.8061    17.5506    62.3088
  697.0000    45.4411   -19.0561    16.5403    17.0822    63.4767
  697.5000    49.2207   -19.0665    16.2741    17.0450    64.6446
  698.0000    47.1751   -19.1353    16.0860    17.0124    65.2390
  698.5000    43.2101   -19.2647    16.0858    16.9782    65.2390
  699.0000    41.9242   -19.3929    16.0862    16.9456    65.2390
  699.5000    44.0394   -19.5223    16.0860    16.9115    65.2390
  700.0000    42.3963   -19.6635    16.0297    16.8788    65.2390
  700.5000    42.7404   -19.6342    15.9777    16.8449    65.2390
  701.0000    42.7406   -19.6004    15.9263    16.8120    65.2390
  701.5000    41.6382   -19.5676    15.8743    16.7783    65.2390
  702.0000    42.4611   -19.5340    15.8229    16.7450    65.2390
  702.5000    44.0488   -19.5010    15.7710    16.7115    65.2390
  703.0000    43.2350   -19.4676    15.7198    16.6784    65.2390
  703.5000    45.0148   -19.4344    15.6678    16.6452    66.2351
  704.0000    47.9518   -19.4011    15.6165    16.6115    66.3867
  704.5000    51.4596   -19.3677    15.5747    16.5788    66.5608
  705.0000    42.9229   -19.3346    15.5456    16.5450    66.7348
  705.5000    42.0924   -19.3011    15.5153    16.5129    66.9089
  706.0000    41.4753   -19.2690    15.4866    16.4783    67.0829
  706.5000    38.4837   -19.3648    15.4561    16.4465    67.2569
  707.0000    40.4155   -19.4587    15.4276    16.4115    67.4310
  707.5000    42.6982   -19.5519    15.3969    16.3883    67.6050
  708.0000    41.5544   -19.6457    15.3680    16.5908    67.7791
  708.5000    43.0613   -19.7389    15.3368    16.7590    67.9531
  709.0000    46.6729   -19.8326    15.3077    16.9206    68.1271
  709.5000    44.8054   -19.9258    15.3799    17.0892    68.2271
  710.0000    44.4964   -20.0195    15.5885    17.3889    67.2924
  710.5000    47.2990   -20.0277    16.2554    17.8864    66.5293
  711.0000    48.2048   -19.9740    16.9095    18.3825    64.4484
  711.5000    44.1971   -19.9201    17.5641    19.1607    61.5407
  712.0000    41.3625   -19.8663    18.2173    20.3456    58.6330
  712.5000    42.7831   -19.8124    18.8729    21.5305    55.7254
  713.0000    40.8451   -19.7586    19.5000    22.9582    52.8177
  713.5000    38.9273   -19.7047    20.1316    23.3745    49.3028
  714.0000    38.3546   -19.6510    20.7580    23.8981    47.3108
  714.5000    42.7449   -19.5972    21.3903    24.4216    47.4473
  715.0000    45.7399   -19.5435    22.1550    24.9502    47.8017
  715.5000    42.5201   -19.4897    21.7598    24.9502    48.1559
  716.0000    39.7210   -19.4360    20.8330    24.8506    49.3028
  716.5000    46.1538   -19.3821    19.6970    24.6514    52.4677
  717.0000    54.1854   -19.3286    18.6588    23.2313    55.6422
  717.5000    52.3811   -19.2688    17.8131    21.5098    58.8167
  718.0000    51.4358   -19.1542    16.9594    19.7884    61.9912
  718.5000    52.9199   -19.0249    16.1136    18.2855    65.1657
  719.0000    50.7353   -18.8960    15.3866    17.1835    68.6392
  719.5000    53.6035   -18.7667    14.6988    16.4442    72.6693
  720.0000    56.4100   -18.6377    14.0939    16.0068    76.6994
  720.5000    46.0568   -18.5083    13.4990    15.5691    80.1793
  721.0000    43.5945   -18.3794    13.3969    15.1897    80.1793
  721.5000    48.5428   -18.2814    13.3995    14.9736    80.1793
  722.0000    50.4122   -18.2818    13.4144    14.7830    80.1793
  722.5000    48.4528   -18.2814    13.4317    14.6594    80.1793
  723.0000    47.5397   -18.2819    13.4451    14.5975    80.1793
  723.5000    46.4681   -18.2814    13.4613    14.5354    80.1793
  724.0000    49.0834   -18.2819    13.4747    14.4735    80.1793
  724.5000    51.7176   -18.4957    13.4904    14.4114    80.1793
  725.0000    53.8871   -18.7605    13.4786    14.3493    80.1793
  725.5000    52.2651   -19.0243    13.4186    14.2872    80.1793
  726.0000    51.2555   -19.2891    13.3574    14.2254    80.1793
  726.5000    51.8361   -19.5529    13.2971    14.1632    80.3645
  727.0000    47.2230   -19.7182    13.2362    14.0940    80.6326
  727.5000    55.5731   -19.8103    13.1757    14.0870    80.9007
  728.0000    59.6203   -19.9032    13.1151    14.0793    81.1688
  728.5000    57.3404   -19.9954    13.0545    14.0714    81.4370
  729.0000    60.8237   -20.0882    12.9982    14.0637    81.7051
  729.5000    64.1148   -20.1806    12.9729    14.0559    81.9732
  730.0000    62.8171   -20.2732    12.9494    14.0481    82.1713
  730.5000    57.9314   -20.3658    12.9257    14.0403    82.1713
  731.0000    53.6236   -20.4583    12.9021    14.0326    82.1713
  731.5000    53.5913   -20.5511    12.8785    14.0248    82.1713
  732.0000    54.1777   -20.6512    12.8548    14.0170    82.1713
  732.5000    53.2597   -20.7899    12.8313    14.0093    82.1713
  733.0000    53.2653   -20.9405    12.8075    14.0014    82.1713
  733.5000    52.1776   -21.0921    12.8532    13.9940    82.1713
  734.0000    50.4134   -21.2425    12.9384    14.0221    82.1713
  734.5000    47.2021   -21.3944    13.0241    14.0500    82.1713
  735.0000    44.9757   -21.4414    13.1092    14.0771    82.1713
  735.5000    47.7323   -21.2447    13.1950    14.1051    81.3617
  736.0000    51.4383   -21.1056    13.2961    14.1321    80.5681
  736.5000    52.0477   -20.9779    13.2544    14.1601    79.7745
  737.0000    48.3742   -20.8482    13.1852    14.1926    78.9809
  737.5000    47.6712   -20.7206    13.1167    14.1083    78.1872
  738.0000    50.5817   -20.5908    13.0475    14.0024    78.1872
  738.5000    50.5461   -20.4632    12.9790    13.8974    79.0803
  739.0000    50.8984   -20.3334    12.9100    13.7915    80.2033
  739.5000    53.1245   -20.2059    12.8413    13.6864    81.3264
  740.0000    53.0367   -20.0760    12.7530    13.5808    82.4494
  740.5000    50.9099   -19.9485    12.6334    13.4757    83.5725
  741.0000    55.2770   -19.8186    12.5142    13.3701    84.6956
  741.5000    57.2909   -19.6653    12.3943    13.2649    85.8184
  742.0000    57.9804   -19.7642    12.2756    13.1771    86.9398
