~VERSION INFORMATION
 VERS.                2.0:   CWLS LOG ASCII STANDARD - VERSION 2.0
 WRAP.                 NO:   ONE LINE PER DEPTH STEP
~WELL INFORMATION
#MNEM.UNIT      DATA TYPE    INFORMATION
#----------   ------------   ------------------------------
 STRT.F            0.0000:   START DEPTH
 STOP.F          437.0000:   STOP DEPTH
 STEP.F            0.5000:   STEP LENGTH
 NULL.          -999.2500:   NO VALUE
 COMP. BROWN JOHN E&C INC:   COMPANY
 WELL. NPR 3 SX-10 #64-1-10:   WELL
 FLD .             TEAPOT:   FIELD
 LOC .      S10 T38N R78W:   LOCATION
 CNTY.            NATRONA:   COUNTY
 STAT.            WYOMING:   STATE
 CTRY. UNITED STATES OF AMERICA:   COUNTRY
 SRVC.     Atlas Wireline:   SERVICE COMPANY
 DATE.        29-APR-1991:   LOGDATE
 API .       490251133600:   API NUMBER
~CURVE INFORMATION
#MNEM.UNIT       API CODE    CURVE DESCRIPTION
#----------   ------------   ------------------------------
 DEPT.F                  :   
 GRR .GAPI   07 310 01 00:   GAMMA RAY
 RILD.OHMM   07 120 46 00:   INDUCTION LOG DEEP RESISTIVITY
 RILM.OHMM   07 120 44 00:   INDUCTION LOG MEDIUM RESISTIVITY
~PARAMETER INFORMATION
#MNEM.UNIT          VALUE    DESCRIPTION
#----------   ------------   ------------------------------
 EPD .F              5185:   ELEVATION PERMANENT DATUM
 LMF .                 KB:   LOG MEASURED FROM
 DAPD.F                 5:   FEET ABOVE PERMANENT DATUM
 DMF .                 KB:   DRILLING MEASURED FROM
 EKB .F              5190:   KELLING BUSHING
 EGL .F              5185:   GROUND LEVEL
 DATE.        29-APR-1991:   RUN DATE
 RUN .                  1:   RUN NUMBER
 DD  .F               440:   DEPTH DRILLER
 DL  .F               439:   DEPTH LOGGER
 BLI .F               437:   BOTTOM LOG INTERVAL
 CS  .IN            8.625:   CASING SIZE
 CBD .F                44:   CASING BOTTOM DRILLER
 CBL .F                44:   CASING BOTTOM LOGGER
 BS  .IN            7.875:   BIT SIZE
 BSD .F               440:   BIT SIZE AT DEPTH
 DFT .                AIR:   DRILLING FLUID TYPE
 LUN .           HL- 6272:   LOGGING UNIT NUMBER
 LUL .             CASPER:   LOGGING UNIT LOCATION
 ENGI.            KINNETT:   RECORDING ENGINEER
 WITN.             STRONG:   WITNESSED BY
 CLNT.            A2DTECH:   CLIENT CODE
 ORIG.           5" PRINT:   ORIGIN OF DATA
 UWI .       490251133600:   UNIQUE WELL ID
 DICO. A2D Technologies, Inc.:   DIGITIZING COMPANY
~OTHER INFORMATION
~A    DEPT      GRR      RILD       RILM   
# ...
  182.0000   153.1631     6.4687     6.2999
  182.5000   153.6378     6.1523     5.9453
  183.0000   151.1366     5.8514     5.6096
  183.5000   145.4144     5.5653     5.2975
  184.0000   144.2811     5.2931     5.1148
  184.5000   149.5900     5.1438     5.0049
  185.0000   151.9076     5.1441     5.0398
  185.5000   149.8607     5.1815     5.2598
  186.0000   147.8138     5.2568     5.5685
  186.5000   145.7669     5.3715     5.8533
  187.0000   143.4902     5.5707     6.1969
  187.5000   141.9028     5.9044     6.4674
  188.0000   140.2882     6.2581     6.7982
  188.5000   136.7986     6.6330     7.0950
  189.0000   135.7620     7.1081     7.3519
  189.5000   138.7236     7.4746     7.5638
  190.0000   146.8341     7.6928     7.7263
  190.5000   154.2036     7.7487     7.8364
  191.0000   156.7508     7.8050     7.8907
  191.5000   155.8525     7.8056     7.8889
  192.0000   152.1976     7.8623     7.8872
  192.5000   150.2652     7.9195     7.8856
  193.0000   150.0207     7.9200     7.8839
  193.5000   149.2728     7.8639     7.8822
  194.0000   146.7664     7.8083     7.8805
  194.5000   146.5567     7.8089     7.8226
  195.0000   147.0371     7.8094     7.8206
  195.5000   147.7467     7.7542     7.7632
  196.0000   148.4623     7.7547     7.7616
  196.5000   148.9362     7.7553     7.7599
  197.0000   146.5524     7.7004     7.8144
  197.5000   143.0047     7.7009     7.8123
  198.0000   143.6052     7.7015     7.8107
  198.5000   145.8072     7.7020     7.8090
  199.0000   146.7466     7.7582     7.8074
  199.5000   146.9916     7.7587     7.8057
  200.0000   146.3230     7.7594     7.8040
  200.5000   147.2753     7.7005     7.7473
  201.0000   147.3025     7.5339     7.4206
  201.5000   148.4082     7.1112     6.9071
  202.0000   154.9374     6.6643     6.3833
  202.5000   154.9647     6.2904     6.0706
  203.0000   151.7760     5.9802     5.8984
  203.5000   150.1885     5.8508     5.8556
  204.0000   158.0326     5.8070     5.8547
  204.5000   165.1809     5.7634     5.8959
  205.0000   159.9248     5.5984     5.8951
  205.5000   148.4620     5.4773     5.9366
  206.0000   139.5375     5.3205     5.5655
  206.5000   140.7132     5.2053     5.2531
  207.0000   146.7129     5.0915     5.0697
  207.5000   154.3206     5.0184     5.0328
  208.0000   153.6587     5.0165     5.0321
  208.5000   149.7809     5.0576     5.1773
  209.0000   148.6585     5.1585     5.4816
  209.5000   146.8492     5.1943     5.8454
  210.0000   144.1199     5.3054     6.1448
  210.5000   140.9312     5.6163     6.5060
  211.0000   141.4426     6.2971     6.7421
  211.5000   145.1548     7.0099     6.8876
  212.0000   144.7812     7.1093     6.9859
  212.5000   140.1225     7.1062     7.0351
  213.0000   137.8515     6.9028     6.9837
  213.5000   139.7233     6.4689     6.6893
  214.0000   141.1288     5.9760     6.1820
  214.5000   140.2372     5.5604     5.6320
  215.0000   140.2644     5.2862     5.3561
  215.5000   141.8996     5.1348     5.2416
  216.0000   147.2102     5.0599     5.2034
  216.5000   155.7389     5.0220     5.2062
  217.0000   153.9285     5.0202     5.2825
  217.5000   148.4382     5.0184     5.4292
  218.0000   143.1762     5.1307     5.5861
  218.5000   146.6121     5.3634     5.8723
  219.0000   149.1008     5.8695     6.3979
  219.5000   147.9642     6.3492     6.8226
  220.0000   143.8819     6.7702     7.1209
  220.5000   140.7059     7.0654     7.3267
  221.0000   139.7958     7.3208     7.5384
  221.5000   139.1123     7.5855     7.7012
  222.0000   137.7491     7.8035     7.8669
  222.5000   136.6124     7.9135     8.0365
  223.0000   139.1011     8.0257     8.1515
  223.5000   140.4569     8.0806     8.2086
  224.0000   134.7885     8.1359     8.2664
  224.5000   130.2530     8.1908     8.2652
  225.0000   136.3671     8.2470     8.3234
  225.5000   139.5355     8.2439     8.3820
  226.0000   136.7368     8.3004     8.3808
  226.5000   133.6367     8.3571     8.3796
  227.0000   134.1162     8.3542     8.3781
  227.5000   134.3091     8.3511     8.3769
  228.0000   131.1322     8.4084     8.3758
  228.5000   130.9028     8.4053     8.4350
  229.0000   134.9767     8.4629     8.4941
  229.5000   137.6919     8.5208     8.5539
  230.0000   139.2743     8.5791     8.6760
  230.5000   140.8567     8.7000     8.8630
  231.0000   142.2124     8.8218     8.9895
  231.5000   142.8894     8.9461     9.1181
  232.0000   140.3922     9.0081     9.1823
  232.5000   138.3492     8.4412     9.0502
  233.0000   136.3062     7.1548     7.4590
  233.5000   133.8100     6.3312     6.1038
  234.0000   133.5806     6.0190     5.3653
  234.5000   139.6938     5.8888     5.2126
  235.0000   147.3936     5.8446     5.2926
  235.5000   154.4144     5.8425     5.7809
  236.0000   150.3438     5.8825     6.2922
  236.5000   143.7573     5.9654     6.8382
  237.0000   134.9167     6.1398     7.5039
  237.5000   130.3813     6.6942     8.2343
  238.0000   127.6585     7.4184     8.9075
  238.5000   126.9750     8.5224     9.6356
  239.0000   128.5573     9.6977    10.2752
  239.5000   131.9524    10.1206    10.4971
  240.0000   134.6677    10.3380    10.5710
  240.5000   132.8512    10.3335    10.6454
  241.0000   133.5424    10.4791    10.7204
  241.5000   135.3814    10.7803    10.7958
  242.0000   136.2388    11.3314    11.1074
  242.5000   134.6862    12.1698    12.3643
  243.0000   127.6201    13.2590    14.4705
  243.5000   112.6617    14.9733    17.6786
  244.0000    96.5703    17.6528    21.4689
  244.5000    80.7055    20.5154    25.3508
  245.0000    67.5598    23.5027    29.2749
  245.5000    60.3053    26.3516    32.8278
  246.0000    55.5432    28.9169    34.8659
  246.5000    54.1800    30.3952    33.3946
  247.0000    54.1762    30.8235    32.4476
  247.5000    57.5713    30.5921    31.5275
  248.0000    65.7246    30.3336    30.8535
  248.5000    74.1046    29.8802    30.4107
  249.0000    81.3516    29.4806    30.1896
  249.5000    85.1998    29.2595    29.9701
  250.0000    84.9695    28.8589    29.9655
  250.5000    82.0201    28.6258    29.9613
  251.0000    79.2973    29.0374    29.9571
  251.5000    80.4265    29.2449    30.3847
  252.0000    82.0089    29.4533    31.0397
  252.5000    82.2319    29.4507    31.4827
  253.0000    82.2280    29.2382    31.4783
  253.5000    81.5445    29.2361    31.9278
  254.0000    81.0876    29.2341    32.3833
  254.5000    82.8965    29.8679    32.8455
  255.0000    83.7991    30.5300    33.7946
  255.5000    82.4132    31.1770    33.0476
  256.0000    77.2206    31.1743    32.3249
  256.5000    72.6481    30.7281    31.4462
  257.0000    73.5715    30.7259    31.2176
  257.5000    79.3188    30.5042    31.8906
  258.0000    84.6066    30.7216    32.3469
  258.5000    87.1379    31.3877    33.2804
  259.0000    87.1516    32.0687    34.9851
  259.5000    85.7628    32.7634    36.2545
  260.0000    82.4657    33.4738    37.3021
  260.5000    79.8054    33.9552    37.8358
  261.0000    80.2695    34.4433    37.8292
  261.5000    81.6533    34.9385    37.2863
  262.0000    81.4281    35.2110    36.7513
  262.5000    81.2018    35.4384    36.7460
  263.0000    82.5857    35.1820    36.7408
  263.5000    84.4279    34.9280    36.7345
  264.0000    84.8918    34.4281    36.9931
  264.5000    81.2210    34.6735    36.9879
  265.0000    79.8462    34.9213    36.9827
  265.5000    83.5272    34.9182    37.2444
  266.0000    89.0447    35.1671    36.9723
  266.5000    89.2790    34.9133    36.1819
  267.0000    88.3647    34.4136    35.1559
  267.5000    85.8424    33.1988    33.9154
  268.0000    85.8101    32.4897    32.4854
  268.5000    93.2022    31.5581    30.8938
  269.0000    97.3538    30.6734    29.5912
  269.5000    98.4947    29.8033    28.5340
  270.0000    93.9821    28.9582    27.7110
  270.5000    91.5697    28.5437    27.1436
  271.0000    92.9963    28.1352    26.9462
  271.5000    95.0682    27.7325    26.7503
  272.0000    93.2350    27.3355    26.3665
  272.5000    90.0237    27.1382    26.3628
