~VERSION INFORMATION
 VERS.                2.0:   CWLS LOG ASCII STANDARD - VERSION 2.0
 WRAP.                 NO:   ONE LINE PER DEPTH STEP
~WELL INFORMATION
#MNEM.UNIT      DATA TYPE    INFORMATION
#----------   ------------   ------------------------------
 STRT.F           80.0000:   START DEPTH
 STOP.F          964.0000:   STOP DEPTH
 STEP.F            0.5000:   STEP LENGTH
 NULL.          -999.2500:   NO VALUE
 COMP. U S NAVY-INTEX OIL:   COMPANY
 WELL. N.P.R. #3` #57-S-2:   WELL
 FLD .        TEAPOT DOME:   FIELD
 LOC .       S2 T38N R78W:   LOCATION
 CNTY.            NATRONA:   COUNTY
 STAT.            WYOMING:   STATE
 CTRY. UNITED STATES OF AMERICA:   COUNTRY
 SRVC.       Schlumberger:   SERVICE COMPANY
 DATE.        04-AUG-1961:   LOGDATE
 API .       490250640500:   API NUMBER
~CURVE INFORMATION
#MNEM.UNIT       API CODE    CURVE DESCRIPTION
#----------   ------------   ------------------------------
 DEPT.F                  :   
 GR  .GAPI   30 310 01 00:   GAMMA RAY
 ASN .OHMM   05 041 16 00:   AMPLIFIED SHORT NORMAL 16"
 CILD.MMHO   05 110 46 00:   CONDUCTIVITY INDUCTION LOG DEEP
 ILD .OHMM   05 120 46 00:   INDUCTION LOG DEEP
 SPR .MV     05 010 01 00:   SPONTANEOUS POTENTIAL FROM RES.
~PARAMETER INFORMATION
#MNEM.UNIT          VALUE    DESCRIPTION
#----------   ------------   ------------------------------
 LMF .                 KB:   LOG MEASURED FROM
 DMF .                 KB:   DRILLING MEASURED FROM
 EKB .F              5205:   KELLING BUSHING
 EGL .F              5200:   GROUND LEVEL
 DATE.        04-AUG-1961:   RUN DATE
 RUN .                  1:   RUN NUMBER
 DD  .F               965:   DEPTH DRILLER
 DL  .F               965:   DEPTH LOGGER
 BLI .F               954:   BOTTOM LOG INTERVAL
 TLI .F               150:   TOP LOG INTERVAL
 BS  .IN             6.75:   BIT SIZE
 BSD .F               965:   BIT SIZE AT DEPTH
 DFT .       OIL EMULSION:   DRILLING FLUID TYPE
 DFD .                9.4:   DRILLING FLUID DENSITY
 DFV .                 65:   DRILLING FLUID VISCOSITY
 MSS .           FLOWLINE:   MUD SAMPLE SOURCE
 RMS .OHMM            1.0:   RESISTIVITY MUD SAMPLE
 MST .F                80:   MUD SAMPLE TEMPERATURE
 TCS .HRS               1:   TIME CURCULATED STOPPED
 LUN .               2544:   LOGGING UNIT NUMBER
 LUL .                 NC:   LOGGING UNIT LOCATION
 ENGI.            EARNEST:   RECORDING ENGINEER
 WITN.          JORGENSEN:   WITNESSED BY
 CLNT.            A2DTECH:   CLIENT CODE
 ORIG.        2" 5" PRINT:   ORIGIN OF DATA
 UWI .       490250640500:   UNIQUE WELL ID
 DICO. A2D Technologies, Inc.:   DIGITIZING COMPANY
~OTHER INFORMATION
~A   DEPT       GR        ASN       CILD        ILD        SPR   
# ...
  873.0000    33.3918    11.3943    98.2579    11.3368   -60.3790
  873.5000    35.7846    11.3943    98.2432    11.3376   -60.2283
  874.0000    38.0980    11.3193    98.2285    11.2635   -59.9283
  874.5000    35.1298    11.2444    99.7167    11.2555   -59.6283
  875.0000    35.1412    11.1694    99.6983    11.1901   -59.4776
  875.5000    31.2853    11.1694    99.6836    11.1162   -59.1776
  876.0000    26.6866    11.1694   101.1718    11.1169   -59.1761
  876.5000    30.8545    11.0945   101.1534    11.0426   -59.1746
  877.0000    32.7937    11.0945   101.1387    11.0435   -59.3221
  877.5000    32.9497    11.0195   101.1240    11.0443   -59.4702
  878.0000    35.1860    11.0195   101.1093    10.9700   -59.6180
  878.5000    38.1653    10.8696   101.0945    10.9709   -59.7654
  879.0000    40.1044    10.8696   101.0795    10.9716   -59.7640
  879.5000    40.8548    10.8696   101.0615    10.9724   -59.7625
  880.0000    43.0911    10.7946   101.0468    10.9731   -60.0599
  880.5000    40.8698    10.7946   101.0321    10.9739   -60.3569
  881.0000    40.1325    10.7946   102.5203    10.9746   -60.3551
  881.5000    42.3706    10.7946   104.0048    10.9004   -60.2044
  882.0000    39.1092    10.7946   103.9864    10.7515   -60.0536
  882.5000    40.8997    10.7946   103.9717    10.6774   -59.9029
  883.0000    42.8388    10.7946   103.9570    10.7530   -59.6029
  883.5000    44.7761    10.7946   103.9423    10.7537   -59.3030
  884.0000    42.8538    10.7946   102.4283    10.7545   -59.0030
  884.5000    38.5522    10.7946   100.9144    10.8301   -58.8522
  885.0000    35.7346    10.8696   100.8996    10.8433   -59.0000
  885.5000    37.9709    10.8696   100.8846    10.9066   -58.9985
  886.0000    34.7113    10.8696   100.8666    10.9073   -59.1463
  886.5000    33.5283    10.8696   100.8519    10.9081   -59.5926
  887.0000    39.1840    10.7946   100.8372    10.9088   -59.4415
  887.5000    43.2033    10.7196   100.8224    10.8347   -59.1415
  888.0000    46.3312    10.6447   100.8077    10.7604   -59.4389
  888.5000    47.6759    10.4925   102.2959    10.6863   -59.7356
  889.0000    49.1693    10.3791   103.7781    10.4627   -59.8834
  889.5000    51.7028    10.2699   103.7621    10.3884   -60.1804
  890.0000    53.6109    10.1949   103.7474    10.3142   -60.4778
  890.5000    53.5192    10.1199   105.2324    10.2401   -60.3267
  891.0000    47.8779    10.1199   105.2172    10.2411   -60.0268
  891.5000    44.7891    10.0450   105.2024    10.2418   -59.5775
  892.0000    46.3659    10.1199   105.1874    10.3174   -59.1283
  892.5000    49.6953    10.1199   106.6723    10.3181   -58.8283
  893.0000    47.8542    10.1949   106.6540    10.3189   -58.2298
  893.5000    43.5884    10.2699   108.1422    10.3196   -57.7806
  894.0000    42.7043    10.2699   109.6267    10.2455   -57.3313
  894.5000    42.8604    10.2699   109.6083    10.2463   -57.1806
  895.0000    44.3538    10.4198   108.0944    10.1721   -57.0299
  895.5000    47.1844    10.4948   109.5789    10.1730   -57.0284
  896.0000    45.2603    10.6447   109.5642    10.1738   -56.7281
  896.5000    41.6358    10.7946   109.5495    10.1745   -56.7266
  897.0000    41.4119    10.8696   111.0345    10.1753   -57.0240
  897.5000    36.0702    11.0195   111.0193    10.0261   -57.3207
  898.0000    38.3065    11.1694   109.5052     9.8023   -57.6181
  898.5000    35.9366    11.4066   106.4918    10.1775   -58.5118
  899.0000    31.6350    11.7691   103.4783    10.7770   -59.4062
  899.5000    33.5741    12.0690    98.9628    11.5263   -59.1058
  900.0000    35.2161    12.6687    95.2797    12.1191   -58.9367
  900.5000    33.1433    13.2684    87.0443    12.5055   -58.8060
  901.0000    35.2310    13.9430    79.3986    13.4731   -58.8060
  901.5000    37.9131    15.2174    73.3720    14.5210   -58.9552
  902.0000    37.0291    16.5483    67.3454    16.4671   -58.9552
  902.5000    33.1714    17.6919    61.3188    17.5249   -59.1045
  903.0000    36.0039    18.9064    55.2923    20.1395   -59.4030
  903.5000    37.1982    20.2059    49.2654    21.8832   -59.8507
  904.0000    34.8283    21.5904    47.7361    22.6796   -60.5970
  904.5000    35.5787    22.3402    46.2069    22.6796   -59.5522
  905.0000    32.3191    22.4903    46.1710    22.6796   -58.7960
  905.5000    29.5034    22.1906    47.6407    22.4551   -57.8950
  906.0000    31.1454    21.7409    49.1177    21.4072   -57.1383
  906.5000    34.4218    21.1414    52.0792    19.9102   -57.0149
  907.0000    37.9954    20.4669    56.5474    19.3114   -58.3582
  907.5000    41.1232    19.7924    61.0229    18.4880   -58.9552
  908.0000    44.3996    19.2678    63.9919    17.5898   -59.1045
  908.5000    44.9996    18.8181    66.9608    16.9910   -59.1045
  909.0000    43.0754    18.5184    68.8956    16.3922   -58.8060
  909.5000    44.9139    18.0688    69.9001    15.8638   -58.3582
  910.0000    43.9325    17.6942    71.3697    15.5488   -58.0597
  910.5000    39.0545    17.3895    72.8394    15.1198   -57.6119
  911.0000    36.0386    16.9998    72.8024    14.8204   -57.1642
  911.5000    32.2659    16.4952    75.7713    14.5958   -56.7164
  912.0000    33.9198    16.2705    75.7417    14.5210   -56.4179
  912.5000    35.9955    16.1207    75.7121    14.5210   -56.8781
  913.0000    36.1754    16.0459    74.1829    14.4461   -57.3134
  913.5000    35.8301    15.9710    72.6537    14.3713   -56.7164
  914.0000    37.9496    15.8962    69.6252    14.8204   -56.4179
  914.5000    36.7684    15.8964    66.5909    15.5689   -56.7164
  915.0000    33.3583    15.9715    62.0635    16.6168   -57.1642
  915.5000    33.5144    16.1216    60.5347    17.0659   -57.7612
  916.0000    35.1564    16.0468    62.0044    16.6886   -57.9104
  916.5000    34.5676    15.9720    66.4799    15.8553   -57.3134
  917.0000    35.7657    15.8222    69.4488    15.4072   -56.8657
  917.5000    36.9600    15.5225    72.4103    15.1946   -56.4179
  918.0000    36.6703    15.2228    72.3808    15.1946   -56.1194
  918.5000    38.1655    15.0630    73.8578    15.2695   -55.9701
  919.0000    38.7655    14.9232    75.3201    15.1946   -56.1194
  919.5000    36.9899    14.8485    75.2905    15.0449   -56.1100
  920.0000    38.7823    14.7736    75.2609    14.8204   -55.8010
  920.5000    36.5610    14.7738    75.2313    14.5210   -55.2239
  921.0000    34.6368    14.7739    76.7010    14.0719   -54.9254
  921.5000    37.4675    14.6991    78.1709    13.7725   -54.6269
  922.0000    32.4229    14.3245    78.1409    13.4731   -54.3284
  922.5000    29.3101    14.0247    79.7103    13.1737   -54.3284
  923.0000    26.0486    13.8000    82.7589    13.0210   -54.3284
  923.5000    27.2448    13.5003    87.0478    12.7909   -54.1791
  924.0000    28.8520    13.2756    91.5085    12.5749   -54.3284
  924.5000  -999.2500    13.1258    92.9856    12.4251   -54.3284
  925.0000  -999.2500    13.0510    92.9486    12.3503   -54.7761
  925.5000  -999.2500    12.9762    92.9190    12.2754   -55.3731
  926.0000  -999.2500    12.8913    94.3961    12.2006   -55.6716
  926.5000  -999.2500    12.6766    95.8583    12.1257   -55.3731
  927.0000  -999.2500    12.6018    95.8287    12.1257   -55.2239
  927.5000  -999.2500    12.5270    95.7991    11.9012   -55.3731
  928.0000  -999.2500    12.3772    94.2703    11.7515   -55.5224
  928.5000  -999.2500    12.3024    94.7726    11.6766   -55.6716
  929.0000  -999.2500    12.2276    95.7178    11.6766   -55.2239
  929.5000  -999.2500    12.0778    94.1815    11.7515   -54.9254
  930.0000  -999.2500    11.9280    94.1519    11.7515   -54.6269
  930.5000  -999.2500    11.7783    94.1224    11.8263   -54.3284
  931.0000  -999.2500    11.7034    94.0928    11.6766   -54.1791
  931.5000  -999.2500    11.7036    94.0229    11.7515   -54.0299
  932.0000  -999.2500    11.7038    92.5337    11.6766   -54.1791
  932.5000  -999.2500    11.6289    94.0040    11.6018   -54.3284
  933.0000  -999.2500    11.6291    95.4736    11.4521   -54.6269
  933.5000  -999.2500    11.5443    95.4367    11.3772   -54.7761
