~VERSION INFORMATION
 VERS.                2.0:   CWLS LOG ASCII STANDARD - VERSION 2.0
 WRAP.                 NO:   ONE LINE PER DEPTH STEP
~WELL INFORMATION
#MNEM.UNIT      DATA TYPE    INFORMATION
#----------   ------------   ------------------------------
 STRT.F           42.0000:   START DEPTH
 STOP.F         3145.0000:   STOP DEPTH
 STEP.F            0.5000:   STEP LENGTH
 NULL.          -999.2500:   NO VALUE
 COMP. LAWRENCE/ALLISON INC:   COMPANY
 WELL.      46 STX #34-34:   WELL
 FLD .             TEAPOT:   FIELD
 LOC .      S34 T39N R78W:   LOCATION
 CNTY.            NATRONA:   COUNTY
 STAT.            WYOMING:   STATE
 CTRY. UNITED STATES OF AMERICA:   COUNTRY
 SRVC.              Welex:   SERVICE COMPANY
 DATE.        01-MAY-1977:   LOGDATE
 API .       490251104800:   API NUMBER
~CURVE INFORMATION
#MNEM.UNIT       API CODE    CURVE DESCRIPTION
#----------   ------------   ------------------------------
 DEPT.F                  :   
 ILD .OHMM   07 120 46 00:   INDUCTION LOG DEEP
 ILM .OHMM   07 120 44 00:   INDUCTION LOG MEDIUM
 SGRD.OHMM   07 221 05 00:   SHALLOW SHORT GUARD RESISTIVITY
 SPR .MV     07 010 01 00:   SPONTANEOUS POTENTIAL
 GR  .GAPI   81 310 01 00:   GAMMA RAY
~PARAMETER INFORMATION
#MNEM.UNIT          VALUE    DESCRIPTION
#----------   ------------   ------------------------------
 PD  .                 GL:   PERMANENT DATUM
 EPD .F              5120:   ELEVATION PERMANENT DATUM
 LMF .                 GL:   LOG MEASURED FROM
 DMF .                 GL:   DRILLING MEASURED FROM
 EGL .F              5120:   GROUND LEVEL
 DATE.        01-MAY-1977:   RUN DATE
 RUN .                  1:   RUN NUMBER
 DD  .F               660:   DEPTH DRILLER
 DL  .F               661:   DEPTH LOGGER
 BLI .F               659:   BOTTOM LOG INTERVAL
 TLI .F                40:   TOP LOG INTERVAL
 CS  .IN            8.625:   CASING SIZE
 CBD .F                40:   CASING BOTTOM DRILLER
 CBL .F                42:   CASING BOTTOM LOGGER
 BS  .IN            7.875:   BIT SIZE
 BSD .F               660:   BIT SIZE AT DEPTH
 DFT .             KCLMUD:   DRILLING FLUID TYPE
 DFD .                8.7:   DRILLING FLUID DENSITY
 DFV .                 31:   DRILLING FLUID VISCOSITY
 DFPH.                  9:   DRILLING FLUID PH
 DFL .                  5:   DRILLING FLUID LOSS
 MSS .           FLOWLINE:   MUD SAMPLE SOURCE
 RMS .OHMM            .23:   RESISTIVITY MUD SAMPLE
 MST .F                62:   MUD SAMPLE TEMPERATURE
 RMF .OHMM            .17:   RESISTIVITY MUD FILTRATE SAMPLE
 MFST.F                62:   MUD FILTRATE SAMPLE TEMPERATURE
 RMC .OHMM            .32:   RESISTIVITY MUD CAKE
 MCST.F                62:   MUD CAKE SAMPLE TEMPERATURE
 MFSS.           MEASURED:   MUD FILTRATE SAMPLE SOURCE
 MCSS.           MEASURED:   MUD CAKE SAMPLE SOURCE
 RMB .OHMM             .2:   RESISTIVITY MUD AT BHT
 BHT .F                71:   BOTTOM HOLE TEMPERATURE
 TCS .HRS             1.5:   TIME CURCULATED STOPPED
 MRT .F                71:   MAXIMUM RECORDED TEMPERATURE
 LUL .             CASPER:   LOGGING UNIT LOCATION
 ENGI.          T. JOYNER:   RECORDING ENGINEER
 WITN.            R. LYON:   WITNESSED BY
 CLNT.            A2DTECH:   CLIENT CODE
 ORIG.        2" 5" PRINT:   ORIGIN OF DATA
 UWI .       490251104800:   UNIQUE WELL ID
 DICO. A2D Technologies, Inc.:   DIGITIZING COMPANY
~OTHER INFORMATION
~A   DEPT      ILD        ILM       SGRD        SPR         GR   
# ...
  469.0000    26.1591    27.1129    33.2198   -21.2676  -999.2500
  469.5000    25.6097    26.9122    28.1111   -21.2766  -999.2500
  470.0000    25.1789    26.8991    25.8542   -21.2857  -999.2500
  470.5000    24.3474    26.7000    25.4900   -21.4442  -999.2500
  471.0000    23.6747    26.3191    27.4984   -21.6027  -999.2500
  471.5000    23.1808    25.9437    28.8558   -21.9106  -999.2500
  472.0000    22.6784    25.3967    29.2503   -22.2186  -999.2500
  472.5000    22.2084    24.8612    27.0865   -22.5266  -999.2500
  473.0000    21.6095    24.3371    26.3342   -22.6851  -999.2500
  473.5000    21.0212    23.6592    27.8265   -22.9931  -999.2500
  474.0000    20.8672    23.1603    27.2271   -23.3011  -999.2500
  474.5000    20.5712    22.8299    25.9235   -23.3101  -999.2500
  475.0000    20.4205    22.5043    24.6822   -23.3191  -999.2500
  475.5000    20.2709    22.3377    23.1763   -23.3282  -999.2500
  476.0000    20.1224    22.3268    22.5516   -23.4867  -999.2500
  476.5000    20.1139    22.4719    22.5427   -23.4957  -999.2500
  477.0000    19.9666    22.7772    23.3417   -23.5047  -999.2500
  477.5000    19.8203    22.9247    24.1571   -23.3643  -999.2500
  478.0000    19.6751    23.2310    24.4709   -23.3733  -999.2500
  478.5000    19.6668    23.3842    24.4448   -23.3823  -999.2500
  479.0000    19.6586    23.5356    24.1138   -23.2396  -999.2500
  479.5000    19.6504    23.6880    23.9373   -23.2509  -999.2500
  480.0000    19.7793    23.8414    23.9276   -23.1105  -999.2500
  480.5000    19.7706    24.1599    24.0848   -23.1181  -999.2500
  481.0000    20.0384    24.1481    24.2631   -23.1285  -999.2500
  481.5000    20.1715    24.4767    24.9152   -22.9858  -999.2500
  482.0000    20.3034    24.4618    25.2532   -22.8454  -999.2500
  482.5000    20.5784    23.7805    25.4431   -22.8567  -999.2500
  483.0000    20.7129    22.9582    25.3828   -22.8657  -999.2500
  483.5000    20.9913    22.7883    24.6769   -23.0242  -999.2500
  484.0000    21.4236    22.9386    23.9905   -23.3583  -999.2500
  484.5000    22.0171    23.0871    23.5123   -23.6383  -999.2500
  485.0000    22.7844    23.2366    24.5878   -23.9462  -999.2500
  485.5000    23.9079    23.2225    26.9346   -24.1046  -999.2500
  486.0000    25.2613    22.8912    29.4705   -24.1256  -999.2500
  486.5000    26.3237    22.7218    37.3927   -24.2720  -999.2500
  487.0000    26.6830    22.5536    43.0329   -24.4305  -999.2500
  487.5000    25.2296    22.0781    42.2127   -24.4395  -999.2500
  488.0000    23.6930    21.7632    29.4778   -24.2990  -999.2500
  488.5000    21.4917    21.4527    23.2720   -24.4575  -999.2500
  489.0000    19.6305    21.1466    21.5526   -24.4665  -999.2500
  489.5000    18.4350    20.8450    21.0999   -24.4756  -999.2500
  490.0000    18.0478    20.8348    21.0914   -24.4846  -999.2500
  490.5000    17.9156    20.5376    21.2319   -24.6431  -999.2500
  491.0000    17.9081    20.2446    21.2211   -24.6521  -999.2500
  491.5000    17.7769    19.8178    21.2126   -24.8106  -999.2500
  492.0000    17.6466    19.5351    20.9117   -24.8197  -999.2500
  492.5000    17.3963    19.1232    20.7586   -24.6770  -999.2500
  493.0000    17.1495    18.8504    20.6067   -24.6883  -999.2500
  493.5000    16.9061    18.4529    20.3144   -24.6973  -999.2500
  494.0000    16.6663    18.1897    20.1658   -24.7063  -999.2500
  494.5000    16.4298    18.0551    20.0182   -24.7153  -999.2500
  495.0000    16.1757    17.7975    19.5978   -24.5726  -999.2500
  495.5000    16.0794    17.5436    19.4543   -24.4329  -999.2500
  496.0000    15.9617    17.2934    19.4465   -24.4435  -999.2500
  496.5000    15.8448    17.1654    19.3042   -24.3008  -999.2500
  497.0000    15.7287    17.1570    19.1629   -24.3121  -999.2500
  497.5000    15.7113    17.0301    19.1552   -24.3211  -999.2500
  498.0000    15.6070    17.0218    19.2808   -24.3301  -999.2500
  498.5000    15.6005    17.0135    19.4092   -24.3391  -999.2500
  499.0000    15.5940    17.1257    19.3994   -24.4976  -999.2500
  499.5000    15.5875    17.2366    19.3915   -24.6562  -999.2500
  500.0000    15.5810    17.3482    19.5207   -24.8216  -999.2500
  500.5000    15.5224    17.3365    19.3072   -24.9310  -999.2500
  501.0000    15.4575    17.3237    19.2977   -25.0405  -999.2500
  501.5000    15.5575    17.3335    19.1353   -25.1499  -999.2500
  502.0000    15.5498    17.4250    19.0153   -25.2594  -999.2500
  502.5000    15.6523    17.6573    19.0060   -25.4490  -999.2500
  503.0000    15.8631    17.8929    19.1290   -25.6061  -999.2500
  503.5000    15.9657    18.1314    19.1196   -25.9126  -999.2500
  504.0000    16.0689    18.3732    19.2435   -26.2191  -999.2500
  504.5000    16.1728    18.3616    19.3680   -26.3762  -999.2500
  505.0000    16.1869    18.3499    19.3580   -26.8322  -999.2500
  505.5000    16.2693    18.3383    19.4855   -26.9893  -999.2500
  506.0000    16.1487    18.4572    19.3390   -27.1464  -999.2500
  506.5000    16.1342    18.4426    19.1958   -27.3034  -999.2500
  507.0000    16.0216    18.4309    19.1864   -27.4589  -999.2500
  507.5000    15.9030    18.4192    19.1769   -27.4813  -999.2500
  508.0000    15.8952    18.4075    19.1675   -27.6293  -999.2500
  508.5000    15.8874    18.5269    19.0257   -27.9298  -999.2500
  509.0000    15.6609    18.6441    19.1510   -28.0868  -999.2500
  509.5000    15.6532    18.6313    19.1392   -28.0944  -999.2500
  510.0000    15.6455    18.6201    19.2653   -28.2515  -999.2500
  510.5000    15.6378    18.4798    19.3898   -28.5580  -999.2500
  511.0000    15.5221    18.5969    19.5267   -28.7151  -999.2500
  511.5000    15.4073    18.4566    19.6413   -28.8722  -999.2500
  512.0000    15.3997    18.4449    19.6316   -29.0292  -999.2500
  512.5000    15.2857    18.4332    19.6220   -29.1863  -999.2500
  513.0000    15.1726    18.2941    19.4767   -29.3434  -999.2500
  513.5000    14.9563    18.1560    19.1990   -29.3510  -999.2500
  514.0000    14.8456    18.1445    19.0569   -29.5080  -999.2500
  514.5000    14.5328    18.0076    18.7851   -29.6651  -999.2500
  515.0000    14.4253    17.8717    18.5173   -29.8206  -999.2500
  515.5000    14.1213    17.7368    18.2532   -29.9776  -999.2500
  516.0000    14.0014    17.7256    17.9929   -29.9851  -999.2500
  516.5000    13.7229    17.5918    17.7363   -30.1420  -999.2500
  517.0000    13.6214    17.5807    17.4834   -30.1496  -999.2500
  517.5000    13.5207    17.4480    17.4747   -30.3066  -999.2500
  518.0000    13.4207    17.3186    17.3454   -30.4637  -999.2500
  518.5000    13.3214    17.1881    17.2171   -30.6214  -999.2500
  519.0000    13.3149    17.0585    17.0914   -30.7778  -999.2500
  519.5000    13.3083    17.0278    16.9650   -31.0844  -999.2500
  520.0000    13.3018    16.9375    16.8396   -31.2414  -999.2500
  520.5000    13.2034    16.8472    16.7151   -31.2490  -999.2500
  521.0000    13.2888    16.7570    16.5914   -31.4061  -999.2500
  521.5000    13.2822    16.6534    16.5832   -31.4137  -999.2500
  522.0000    13.2757    16.5277    16.5751   -31.5707  -999.2500
  522.5000    13.4545    16.6323    16.5669   -31.5783  -999.2500
  523.0000    13.6358    16.7402    16.6740   -31.5859  -999.2500
  523.5000    13.8194    16.8461    16.6658   -31.4421  -999.2500
  524.0000    14.1030    16.9526    16.7735   -31.4499  -999.2500
  524.5000    14.3942    16.9417    16.7652   -31.3078  -999.2500
  525.0000    14.3854    16.9311    16.8757   -31.3154  -999.2500
  525.5000    14.3783    16.9204    16.9848   -31.1734  -999.2500
  526.0000    14.3713    16.9097    17.2114   -30.8819  -999.2500
  526.5000    14.3656    16.7821    17.3248   -30.7399  -999.2500
  527.0000    14.3587    16.7714    17.4368   -30.5965  -999.2500
  527.5000    14.3517    16.6449    17.5495   -30.4546  -999.2500
  528.0000    14.2456    16.5193    17.5405   -30.6135  -999.2500
  528.5000    14.1403    16.3946    17.5320   -30.7706  -999.2500
  529.0000    13.9386    16.2709    17.5235   -30.9277  -999.2500
  529.5000    13.8355    16.0364    17.3939   -31.3837  -999.2500
