~VERSION INFORMATION
 VERS.                2.0:   CWLS LOG ASCII STANDARD - VERSION 2.0
 WRAP.                 NO:   ONE LINE PER DEPTH STEP
~WELL INFORMATION
#MNEM.UNIT      DATA TYPE    INFORMATION
#----------   ------------   ------------------------------
 STRT.F           16.0000:   START DEPTH
 STOP.F         2438.0000:   STOP DEPTH
 STEP.F            0.5000:   STEP LENGTH
 NULL.          -999.2500:   NO VALUE
 COMP. FENIX & SCISSON INC:   COMPANY
 WELL.      15 SHX #27-27:   WELL
 FLD .             TEAPOT:   FIELD
 LOC .      S27 T39N R78W:   LOCATION
 CNTY.            NATRONA:   COUNTY
 STAT.            WYOMING:   STATE
 CTRY. UNITED STATES OF AMERICA:   COUNTRY
 SRVC.            Unknown:   SERVICE COMPANY
 DATE.        09-JUN-1978:   LOGDATE
 API .       490251064100:   API NUMBER
~CURVE INFORMATION
#MNEM.UNIT       API CODE    CURVE DESCRIPTION
#----------   ------------   ------------------------------
 DEPT.F                  :   
 CALD.IN     45 280 60 00:   CALIPER FROM DENSITY LOG
 GRD .GAPI   45 310 01 00:   GAMMA RAY FROM DENSITY LOG
 CORR.G/C3   45 356 01 00:   DENSITY CORRECTION
 RHOB.G/C3   45 350 01 00:   BULK DENSITY
 DPHI.DEC    45 890 10 00:   DENSITY POROSITY LIMESTONE
~PARAMETER INFORMATION
#MNEM.UNIT          VALUE    DESCRIPTION
#----------   ------------   ------------------------------
 PD  .                 GL:   PERMANENT DATUM
 EPD .F              5062:   ELEVATION PERMANENT DATUM
 LMF .                 KB:   LOG MEASURED FROM
 DAPD.F                10:   FEET ABOVE PERMANENT DATUM
 DMF .                 KB:   DRILLING MEASURED FROM
 EKB .F              5072:   KELLING BUSHING
 EGL .F              5062:   GROUND LEVEL
 DATE.        09-JUN-1978:   RUN DATE
 RUN .                  1:   RUN NUMBER
 DD  .F              2450:   DEPTH DRILLER
 DL  .F              2445:   DEPTH LOGGER
 BLI .F              2438:   BOTTOM LOG INTERVAL
 TLI .F                10:   TOP LOG INTERVAL
 CS  .IN            9.625:   CASING SIZE
 CBD .F               688:   CASING BOTTOM DRILLER
 CBL .F               694:   CASING BOTTOM LOGGER
 BS  .IN             8.75:   BIT SIZE
 BSD .F              2450:   BIT SIZE AT DEPTH
 DFT .           AIR MIST:   DRILLING FLUID TYPE
 TCS .HRS               1:   TIME CURCULATED STOPPED
 LUN .               2958:   LOGGING UNIT NUMBER
 LUL .                CPR:   LOGGING UNIT LOCATION
 ENGI.             MILLER:   RECORDING ENGINEER
 WITN.           MCGINLEY:   WITNESSED BY
 CLNT.            A2DTECH:   CLIENT CODE
 ORIG.           5" PRINT:   ORIGIN OF DATA
 UWI .       490251064100:   UNIQUE WELL ID
 DICO. A2D Technologies, Inc.:   DIGITIZING COMPANY
~OTHER INFORMATION
~A   DEPT     CALD         GRD      CORR       RHOB       DPHI   
# ...
 1236.0000     9.5586    71.2277  -999.2500     2.5549    -0.0061
 1236.5000     9.4987    70.6267  -999.2500     2.5526    -0.0024
 1237.0000     9.4538    70.0224  -999.2500     2.5489     0.0056
 1237.5000     9.4864    70.6537  -999.2500     2.5466    -0.0043
 1238.0000     9.5339    77.2724  -999.2500     2.5513    -0.0053
 1238.5000     9.5967    79.2828  -999.2500     2.5545     0.0015
 1239.0000     9.6289    80.2274  -999.2500     2.5507     0.0110
 1239.5000     9.6457    80.8464  -999.2500     2.5400     0.0199
 1240.0000     9.6779    80.0946  -999.2500     2.5270     0.0131
 1240.5000     9.6948    77.4967  -999.2500     2.5317     0.0134
 1241.0000     9.6966    76.5886  -999.2500     2.5325     0.0127
 1241.5000     9.6981    76.4451  -999.2500     2.5334     0.0047
 1242.0000     9.6996    77.2300  -999.2500     2.5365     0.0028
 1242.5000     9.6854    76.9362  -999.2500     2.5482     0.0015
 1243.0000     9.6873    72.4950  -999.2500     2.5513    -0.0016
 1243.5000     9.6888    69.1291  -999.2500     2.5522    -0.0031
 1244.0000     9.6903    73.9086  -999.2500     2.5492    -0.0016
 1244.5000     9.6918    76.2254  -999.2500     2.5431     0.0110
 1245.0000     9.6933    71.3234  -999.2500     2.5408     0.0057
 1245.5000     9.6948    67.3430  -999.2500     2.5463     0.0017
 1246.0000     9.6809    66.5851  -999.2500     2.5455     0.0076
 1246.5000     9.6671    68.7525  -999.2500     2.5380     0.0136
 1247.0000     9.6383    69.3770  -999.2500     2.5204     0.0238
 1247.5000     9.6087    68.3152  -999.2500     2.5127     0.0256
 1248.0000     9.5492    68.1782  -999.2500     2.5128     0.0234
 1248.5000     9.4890    71.1364  -999.2500     2.5221     0.0163
 1249.0000     9.4602    74.0818  -999.2500     2.5284     0.0132
 1249.5000     9.4463    74.8275  -999.2500     2.5307     0.0107
 1250.0000     9.5399    74.0607  -999.2500     2.5324     0.0106
 1250.5000     9.5104    69.9394  -999.2500     2.5355     0.0116
 1251.0000     9.5737    65.8069  -999.2500     2.5294     0.0183
 1251.5000     9.4985    61.8281  -999.2500     2.5210     0.0238
 1252.0000     9.5000    61.8738  -999.2500     2.5188     0.0247
 1252.5000     9.5172    64.2645  -999.2500     2.5181     0.0250
 1253.0000     9.5493    72.6295  -999.2500     2.5197     0.0218
 1253.5000     9.5968    79.0961  -999.2500     2.5244     0.0212
 1254.0000     9.6443    80.6434  -999.2500     2.5237     0.0211
 1254.5000     9.6918    78.2044  -999.2500     2.5238     0.0211
 1255.0000     9.7393    73.3039  -999.2500     2.5278     0.0143
 1255.5000     9.7715    67.9425  -999.2500     2.5395     0.0010
 1256.0000     9.7730    67.8034  -999.2500     2.5433     0.0020
 1256.5000     9.7745    69.9694  -999.2500     2.5434     0.0077
 1257.0000     9.7764    70.7527  -999.2500     2.5412     0.0138
 1257.5000     9.7778    70.6138  -999.2500     2.5328     0.0224
 1258.0000     9.7793    70.9398  -999.2500     2.5220     0.0079
 1258.5000     9.7808    72.3372  -999.2500     2.5314     0.0048
 1259.0000     9.7823    73.7347  -999.2500     2.5476    -0.0026
 1259.5000     9.7685    74.0532  -999.2500     2.5569    -0.0082
 1260.0000     9.7086    73.6073  -999.2500     2.5484    -0.0011
 1260.5000     9.6474    74.0869  -999.2500     2.5437     0.0090
 1261.0000     9.5712    74.4532  -999.2500     2.5395     0.0039
 1261.5000     9.5137    74.7338  -999.2500     2.5411     0.0034
 1262.0000     9.4845    74.9024  -999.2500     2.5527     0.0126
 1262.5000     9.7164    75.6854  -999.2500     2.5351     0.0107
 1263.0000     9.7639    78.4654  -999.2500     2.5259     0.0119
 1263.5000     9.7041    83.2423  -999.2500     2.5221     0.0174
 1264.0000     9.5982    79.7243  -999.2500     2.5214     0.0223
 1264.5000     9.7071    77.4351  -999.2500     2.5230     0.0180
 1265.0000     9.7393    78.2181  -999.2500     2.5255     0.0149
 1265.5000     9.6184    78.5407  -999.2500     2.5294     0.0130
 1266.0000     9.6506    78.2518  -999.2500     2.5318     0.0110
 1266.5000     9.7287    77.4988  -999.2500     2.5403     0.0080
 1267.0000     9.9450    77.6674  -999.2500     2.5558     0.0021
 1267.5000     9.9004    80.1401  -999.2500     2.5651    -0.0078
 1268.0000     9.7789    82.6129  -999.2500     2.5667    -0.0125
 1268.5000     9.7961    81.3990  -999.2500     2.5614    -0.0026
 1269.0000     9.9203    77.5737  -999.2500     2.5492     0.0050
 1269.5000     9.9678    76.5131  -999.2500     2.5446     0.0062
 1270.0000     9.9389    76.3748  -999.2500     2.5456     0.0050
 1270.5000     9.8791    73.5483  -999.2500     2.5463     0.0003
 1271.0000     9.8499    72.7181  -999.2500     2.5448    -0.0003
 1271.5000     9.7900    74.5802  -999.2500     2.5441     0.0071
 1272.0000     9.7302    77.0529  -999.2500     2.5512     0.0082
 1272.5000     9.6857    75.8390  -999.2500     2.5551    -0.0054
 1273.0000     9.6565    75.0822  -999.2500     2.5559    -0.0023
 1273.5000     9.6580    78.0196  -999.2500     2.5260     0.0152
 1274.0000     9.6595    78.9525  -999.2500     2.5243     0.0229
 1274.5000     9.6613    72.9804  -999.2500     2.5300     0.0102
 1275.0000     9.6628    70.3840  -999.2500     2.5300     0.0154
 1275.5000     9.6486    70.2454  -999.2500     2.5186     0.0212
 1276.0000     9.6348    77.6374  -999.2500     2.5117     0.0302
 1276.5000     9.6366    80.7246  -999.2500     2.5049     0.0347
 1277.0000     9.6381    77.6674  -999.2500     2.5003     0.0270
 1277.5000     9.6396    75.9927  -999.2500     2.5158     0.0236
 1278.0000     9.6873    79.0798  -999.2500     2.5251     0.0232
 1278.5000     9.7500    79.7093  -999.2500     2.5252     0.0210
 1279.0000     9.7825    77.2665  -999.2500     2.5276     0.0130
 1279.5000     9.8147    73.5948  -999.2500     2.5339     0.0102
 1280.0000     9.8315    72.5346  -999.2500     2.5370     0.0064
 1280.5000     9.8483    72.3959  -999.2500     2.5348     0.0073
 1281.0000     9.8498    77.7910  -999.2500     2.5294     0.0156
 1281.5000     9.8356    78.7277  -999.2500     2.5249     0.0130
 1282.0000     9.8375    83.9654  -999.2500     2.5334     0.0075
 1282.5000     9.8390    84.7447  -999.2500     2.5335     0.0146
 1283.0000     9.8229    83.9916  -999.2500     2.5344     0.0121
 1283.5000     9.7806    85.0856  -999.2500     2.5383     0.0074
 1284.0000     9.7667    85.7113  -999.2500     2.5422     0.0043
 1284.5000     9.7686    84.0403  -999.2500     2.5407     0.0055
 1285.0000     9.7701    75.4531  -999.2500     2.5339     0.0138
 1285.5000     9.7716    70.4146  -999.2500     2.5409     0.0061
 1286.0000     9.7731    67.6490  -999.2500     2.5433     0.0057
 1286.5000     9.7899    75.9627  -999.2500     2.5341     0.0163
 1287.0000     9.8851    76.4348  -999.2500     2.5280     0.0134
 1287.5000    10.0435    75.2209  -999.2500     2.5266     0.0155
 1288.0000    10.1015    78.9262  -999.2500     2.5290     0.0167
 1288.5000    10.0873    79.5557  -999.2500     2.5344     0.0102
 1289.0000    10.1045    78.0345  -999.2500     2.5423     0.0055
 1289.5000    10.1213    76.3747  -999.2500     2.5455     0.0033
 1290.0000    10.0768    76.9893  -999.2500     2.5478     0.0045
 1290.5000     9.9863    74.6697  -999.2500     2.5479     0.0039
 1291.0000     9.9111    73.7972  -999.2500     2.5479    -0.0005
 1291.5000     9.8512    73.9658  -999.2500     2.5418     0.0011
 1292.0000     9.8220    74.7488  -999.2500     2.5442     0.0032
 1292.5000     9.8546    75.5318  -999.2500     2.5474    -0.0012
 1293.0000     9.9174    75.2396  -999.2500     2.5475     0.0019
 1293.5000     9.9649    72.9504  -999.2500     2.5452     0.0061
 1294.0000     9.9814    68.9716  -999.2500     2.5316     0.0209
 1294.5000     9.9522    71.1371  -999.2500     2.5076     0.0286
 1295.0000     9.9387    80.2150  -999.2500     2.5139     0.0258
 1295.5000     9.8942    82.0734  -999.2500     2.5132     0.0276
 1296.0000     9.8497    81.3240  -999.2500     2.5002     0.0346
 1296.5000     9.8208    78.4204  -999.2500     2.5049     0.0287
