~VERSION INFORMATION
 VERS.                2.0:   CWLS LOG ASCII STANDARD - VERSION 2.0
 WRAP.                 NO:   ONE LINE PER DEPTH STEP
~WELL INFORMATION
#MNEM.UNIT      DATA TYPE    INFORMATION
#----------   ------------   ------------------------------
 STRT.F           84.0000:   START DEPTH
 STOP.F          849.5000:   STOP DEPTH
 STEP.F            0.5000:   STEP LENGTH
 NULL.          -999.2500:   NO VALUE
 COMP. U S NAVY/INTEX OIL CO:   COMPANY
 WELL.     NPR 3 #81-S-34:   WELL
 FLD .        TEAPOT DOME:   FIELD
 LOC .      S34 T39N R78W:   LOCATION
 CNTY.            NATRONA:   COUNTY
 STAT.            WYOMING:   STATE
 CTRY. UNITED STATES OF AMERICA:   COUNTRY
 SRVC.       Schlumberger:   SERVICE COMPANY
 DATE.        29-JUL-1963:   LOGDATE
 API .       490250656700:   API NUMBER
~CURVE INFORMATION
#MNEM.UNIT       API CODE    CURVE DESCRIPTION
#----------   ------------   ------------------------------
 DEPT.F                  :   
 CALS.IN     60 280 50 00:   CALIPER FROM SONIC LOG
 DT  .US/F   60 520 33 00:   INTERVAL TRANSIT TIME
 SPR .MV     05 010 01 00:   SPONTANEOUS POTENTIAL FROM RES.
 ILD .OHMM   05 120 46 00:   INDUCTION LOG DEEP
 ASN .OHMM   05 041 16 00:   AMPLIFIED SHORT NORMAL 16"
 CILD.MMHO   05 110 46 00:   CONDUCTIVITY INDUCTION LOG DEEP
 GR  .GAPI   30 310 01 00:   GAMMA RAY FROM RES.
~PARAMETER INFORMATION
#MNEM.UNIT          VALUE    DESCRIPTION
#----------   ------------   ------------------------------
 PD  .                 GL:   PERMANENT DATUM
 EPD .F              5067:   ELEVATION PERMANENT DATUM
 LMF .                 KB:   LOG MEASURED FROM
 DAPD.F                 5:   FEET ABOVE PERMANENT DATUM
 DMF .                 KB:   DRILLING MEASURED FROM
 EKB .F              5072:   KELLING BUSHING
 EGL .F              5067:   GROUND LEVEL
 DATE.          7-29-1963:   RUN DATE
 RUN .                  1:   RUN NUMBER
 DD  .F               850:   DEPTH DRILLER
 DL  .F               850:   DEPTH LOGGER
 BLI .F               849:   BOTTOM LOG INTERVAL
 TLI .F                90:   TOP LOG INTERVAL
 CS  .IN            8.625:   CASING SIZE
 CBD .F                10:   CASING BOTTOM DRILLER
 BS  .IN            7.875:   BIT SIZE
 BSD .F               850:   BIT SIZE AT DEPTH
 DFT .            GEL-OIL:   DRILLING FLUID TYPE
 DFD .                9.4:   DRILLING FLUID DENSITY
 DFV .                 40:   DRILLING FLUID VISCOSITY
 DFPH.                  9:   DRILLING FLUID PH
 DFL .                8.4:   DRILLING FLUID LOSS
 MSS .           FLOWLINE:   MUD SAMPLE SOURCE
 RMS .OHMM           3.08:   RESISTIVITY MUD SAMPLE
 MST .F                79:   MUD SAMPLE TEMPERATURE
 RMF .OHMM           2.39:   RESISTIVITY MUD FILTRATE SAMPLE
 MFST.F                79:   MUD FILTRATE SAMPLE TEMPERATURE
 RMC .OHMM           3.29:   RESISTIVITY MUD CAKE
 MCST.F                79:   MUD CAKE SAMPLE TEMPERATURE
 MFSS.                 MP:   MUD FILTRATE SAMPLE SOURCE
 MCSS.                 MP:   MUD CAKE SAMPLE SOURCE
 TCS .HRS               1:   TIME CURCULATED STOPPED
 LUN .               4507:   LOGGING UNIT NUMBER
 LUL .              CSPR.:   LOGGING UNIT LOCATION
 ENGI.             KNOBEL:   RECORDING ENGINEER
 WITN.          JORGENSON:   WITNESSED BY
 CLNT.            A2DTECH:   CLIENT CODE
 ORIG.           5" PRINT:   ORIGIN OF DATA
 UWI .       490250656700:   UNIQUE WELL ID
 DICO. A2D Technologies, Inc.:   DIGITIZING COMPANY
~OTHER INFORMATION
~A   DEPT     CALS         DT        SPR        ILD        ASN       CILD         GR   
# ...
  266.0000     7.8953   122.2444   -37.1453     3.0232     3.8275   342.1996  -999.2500
  266.5000     7.8847   122.9582   -36.8696     2.9799     3.5954   344.9751  -999.2500
  267.0000     7.8741   122.1060   -36.6162     2.9816     3.7074   345.3734  -999.2500
  267.5000     7.8636   121.1155   -36.5176     2.9791     3.8301   345.4093  -999.2500
  268.0000     7.8531   119.6215   -36.4583     3.0973     3.7456   335.8375  -999.2500
  268.5000     7.8426   117.7540   -36.6869     3.3814     3.6969   315.9154  -999.2500
  269.0000     7.8367   115.2888   -36.9140     3.6964     4.0877   288.6744  -999.2500
  269.5000     7.8549   114.4920   -37.1402     4.0121     4.3160   258.8912  -999.2500
  270.0000     7.8811   115.3760   -37.3663     4.3281     4.4371   245.2929  -999.2500
  270.5000     7.8922   114.6912   -37.5926     4.6176     4.5539   231.6946  -999.2500
  271.0000     7.8769   114.2430   -37.8201     4.6955     4.6986   226.0403  -999.2500
  271.5000     7.8619   113.0129   -37.9814     4.7404     4.8419   224.7013  -999.2500
  272.0000     7.8567   111.4691   -38.0921     4.7853     4.9733   223.9166  -999.2500
  272.5000     7.8630   110.5412   -37.9417     4.8297     5.0540   223.4716  -999.2500
  273.0000     7.8781   110.2092   -37.7567     4.8395     5.0531   224.0470  -999.2500
  273.5000     7.8939   110.8352   -37.4760     4.7159     5.0188   226.0216  -999.2500
  274.0000     7.8759   111.8435   -37.3968     4.5961     4.9685   229.8187  -999.2500
  274.5000     7.8520   113.5186   -37.3239     4.4765     4.8483   233.6158  -999.2500
  275.0000     7.8369   114.8780   -37.2623     4.3561     4.6890   238.6681  -999.2500
  275.5000     7.8419   115.0398   -37.1849     4.2417     4.5188   245.5718  -999.2500
  276.0000     7.8478   114.5916   -36.9790     4.0965     4.3331   257.8507  -999.2500
  276.5000     7.8539   113.6081   -36.8484     3.8629     4.1863   273.9292  -999.2500
  277.0000     7.8460   112.2759   -36.8387     3.6267     4.2017   289.9898  -999.2500
  277.5000     7.8285   112.6494   -36.3983     3.3953     4.2318   306.2643  -999.2500
  278.0000     7.8171   114.1019   -35.9096     3.2632     4.0810   322.5562  -999.2500
  278.5000     7.8175   116.7132   -35.8684     3.2960     3.8145   321.5478  -999.2500
  279.0000     7.8178   117.4768   -35.9519     3.2957     3.6985   321.8663  -999.2500
  279.5000     7.8590   118.2404   -36.0393     3.2956     3.7325   325.7612  -999.2500
  280.0000     7.9324   118.5757   -36.1246     3.2934     3.6954   332.3745  -999.2500
  280.5000     7.9410   117.1276   -36.2033     3.2327     3.4859   340.1412  -999.2500
  281.0000     7.8218   115.5187   -36.5291     3.1300     3.4001   345.7113  -999.2500
  281.5000     7.8436   114.3924   -36.8366     3.0625     3.4911   348.7246  -999.2500
  282.0000     7.8748   118.8745   -36.7168     2.9955     3.5392   351.5127  -999.2500
  282.5000     7.8726   120.0697   -36.5898     2.9276     3.3823   359.5057  -999.2500
  283.0000     7.8580   122.8088   -36.4646     2.8388     3.2262   381.9456  -999.2500
  283.5000     7.8440   124.7759   -36.3399     2.6619     3.0856   409.8588  -999.2500
  284.0000     7.8369   127.4336   -36.2152     2.4896     2.9964   438.3368  -999.2500
  284.5000     7.8374   126.9945   -36.0905     2.3502     2.9069   466.8148  -999.2500
  285.0000     7.8492   128.2419   -35.9657     2.3532     2.8179   492.1548  -999.2500
  285.5000     7.8523   129.3749   -35.8410     2.3529     2.7277   487.3431  -999.2500
  286.0000     7.8474   130.2291   -35.7160     2.4118     2.7079   463.4414  -999.2500
  286.5000     7.8423   127.2618   -35.5912     2.5098     2.8578   435.6618  -999.2500
  287.0000     7.8373   124.5642   -35.4692     2.6083     2.9955   411.7273  -999.2500
  287.5000     7.8324   122.9997   -35.4706     2.7074     3.0372   386.6248  -999.2500
  288.0000     7.8274   119.0986   -35.7241     2.8591     3.1073   354.7737  -999.2500
  288.5000     7.8224   115.9362   -35.9731     3.1196     3.4180   321.3532  -999.2500
  289.0000     7.8175   114.7908   -36.2228     3.3786     3.7535   292.7824  -999.2500
  289.5000     7.8125   116.2219   -36.4721     3.6384     3.9390   274.4770  -999.2500
  290.0000     7.8075   116.6887   -36.7225     3.8988     4.0001   267.1722  -999.2500
  290.5000     7.8025   117.1669   -36.8941     4.1201     3.9962   264.1213  -999.2500
  291.0000     7.7978   117.6401   -36.9919     3.9280     3.9816   275.3371  -999.2500
  291.5000     7.7976   117.8953   -37.0713     3.7361     3.9688   285.7547  -999.2500
  292.0000     7.7976   118.0611   -36.8569     3.5463     3.8758   296.0636  -999.2500
  292.5000     7.7976   118.4322   -36.6764     3.3568     3.7978   305.9623  -999.2500
  293.0000     7.7951   119.2817   -36.4187     3.1674     3.7251   325.2267  -999.2500
  293.5000     7.7910   120.1312   -36.2261     2.9779     3.6528   343.5648  -999.2500
  294.0000     7.7869   121.0657   -36.4249     2.7879     3.5827   361.9029  -999.2500
  294.5000     7.7827   122.1414   -36.4215     2.5945     3.4771   380.2410  -999.2500
  295.0000     7.7786   123.3366   -36.1337     2.6060     3.4138   398.8842  -999.2500
  295.5000     7.7744   124.6514   -35.8369     2.6590     3.3493   418.9140  -999.2500
  296.0000     7.7703   127.0418   -35.5565     2.7131     3.2855   417.0632  -999.2500
  296.5000     7.7661   127.9382   -35.3654     2.7666     3.2263   404.9807  -999.2500
  297.0000     7.7620   125.9462   -35.1699     2.8195     3.2623   390.9414  -999.2500
  297.5000     7.7584   123.3875   -34.9786     2.8783     3.3968   372.9317  -999.2500
  298.0000     7.7580   121.4535   -35.0900     3.0969     3.4713   353.6326  -999.2500
  298.5000     7.7566   118.0965   -35.3451     3.3301     3.5419   330.6206  -999.2500
  299.0000     7.7908   115.3434   -35.8703     3.5632     3.7219   304.3863  -999.2500
  299.5000     7.8381   113.0976   -36.4036     3.7960     4.1675   278.1520  -999.2500
  300.0000     7.8849   114.3098   -36.5337     4.0289     4.5106   256.5735  -999.2500
  300.5000     7.9264   114.9900   -36.6412     4.2618     4.6775   239.5578  -999.2500
  301.0000     7.9155   113.8944   -36.7504     4.4918     4.8174   223.8882  -999.2500
  301.5000     7.8896   114.7980   -36.8439     4.6801     4.9619   219.3873  -999.2500
  302.0000     7.8650   114.2878   -36.7835     4.7526     5.0464   215.4204  -999.2500
  302.5000     7.8407   112.9264   -36.7249     4.8279     5.1525   209.9493  -999.2500
  303.0000     7.8369   111.0159   -36.6662     4.9854     5.3500   203.2863  -999.2500
  303.5000     7.8365   109.8805   -36.6644     5.2192     5.6288   196.1297  -999.2500
  304.0000     7.8492   108.6155   -36.7116     5.4525     5.9085   189.9258  -999.2500
  304.5000     7.8640   107.1115   -36.7595     5.6866     6.1930   183.2427  -999.2500
  305.0000     7.8764   106.1255   -36.8072     5.9197     6.3841   177.6151  -999.2500
  305.5000     7.8639   105.3214   -36.8282     6.1304     6.5765   173.9447  -999.2500
  306.0000     7.8512   105.9891   -36.6771     6.1660     6.7029   171.6109  -999.2500
  306.5000     7.8385   106.6631   -36.5265     6.2062     6.7696   170.7681  -999.2500
  307.0000     7.8259   107.2906   -36.3755     6.1998     6.7681   173.0185  -999.2500
  307.5000     7.8170   107.6864   -36.2286     6.1577     6.7680   175.2690  -999.2500
  308.0000     7.8175   108.0870   -36.2868     6.1152     6.7407   176.4960  -999.2500
  308.5000     7.8376   108.5159   -36.3572     6.0725     6.6936   176.9247  -999.2500
  309.0000     7.8598   108.5159   -36.4325     6.0300     6.6628   177.3533  -999.2500
  309.5000     7.8748   108.3037   -36.6346     5.9873     6.6631   177.7820  -999.2500
  310.0000     7.8667   107.6145   -36.8401     5.9450     6.6621   178.2107  -999.2500
  310.5000     7.8592   108.0179   -36.8490     5.9091     6.7091   178.6393  -999.2500
  311.0000     7.8518   107.2803   -36.8479     5.9072     6.7662   179.0680  -999.2500
