~VERSION INFORMATION
 VERS.                2.0:   CWLS LOG ASCII STANDARD - VERSION 2.0
 WRAP.                 NO:   ONE LINE PER DEPTH STEP
~WELL INFORMATION
#MNEM.UNIT      DATA TYPE    INFORMATION
#----------   ------------   ------------------------------
 STRT.F           34.0000:   START DEPTH
 STOP.F          614.0000:   STOP DEPTH
 STEP.F            0.5000:   STEP LENGTH
 NULL.          -999.2500:   NO VALUE
 COMP. FENIX & SCISSON INC:   COMPANY
 WELL.      71-SX-3 #71-3:   WELL
 FLD .             TEAPOT:   FIELD
 LOC .       S3 T38N R78W:   LOCATION
 CNTY.            NATRONA:   COUNTY
 STAT.            WYOMING:   STATE
 CTRY. UNITED STATES OF AMERICA:   COUNTRY
 SRVC.              Welex:   SERVICE COMPANY
 DATE.        10-MAR-1977:   LOGDATE
 API .       490251028900:   API NUMBER
~CURVE INFORMATION
#MNEM.UNIT       API CODE    CURVE DESCRIPTION
#----------   ------------   ------------------------------
 DEPT.F                  :   
 CALD.IN     45 280 60 00:   CALIPER
 GRD .GAPI   45 310 01 00:   GAMMA RAY FROM DENSITY LOG
 RHOB.G/C3   45 350 01 00:   BULK DENSITY
 DPHI.DEC    45 890 12 00:   DENSITY POROSITY SANDSTONE
 CORR.G/C3   45 356 01 00:   DENSITY CORRECTION
 SGRD.OHMM   07 220 05 00:   SHALLOW RESISTIVITY
 ILD .OHMM   07 120 46 00:   INDUCTION LOG DEEP
 ILM .OHMM   07 120 44 00:   INDUCTION LOG MEDIUM
 SPR .MV     07 010 01 00:   SPONTANEOUS POTENTIAL
~PARAMETER INFORMATION
#MNEM.UNIT          VALUE    DESCRIPTION
#----------   ------------   ------------------------------
 PD  .                 GL:   PERMANENT DATUM
 EPD .F              5117:   ELEVATION PERMANENT DATUM
 LMF .                 GL:   LOG MEASURED FROM
 DMF .                 GL:   DRILLING MEASURED FROM
 EGL .F              5117:   GROUND LEVEL
 DATE.          3-10-1977:   RUN DATE
 RUN .                  1:   RUN NUMBER
 DD  .F               630:   DEPTH DRILLER
 DL  .F               619:   DEPTH LOGGER
 BLI .F               617:   BOTTOM LOG INTERVAL
 TLI .F                34:   TOP LOG INTERVAL
 CS  .IN            8.625:   CASING SIZE
 CBD .F                40:   CASING BOTTOM DRILLER
 CBL .F                41:   CASING BOTTOM LOGGER
 BS  .IN            7.875:   BIT SIZE
 BSD .F               630:   BIT SIZE AT DEPTH
 DFT .            KCL MUD:   DRILLING FLUID TYPE
 DFD .                  9:   DRILLING FLUID DENSITY
 DFV .                 33:   DRILLING FLUID VISCOSITY
 MSS .            MUD PIT:   MUD SAMPLE SOURCE
 RMS .OHMM           2.33:   RESISTIVITY MUD SAMPLE
 MST .F                57:   MUD SAMPLE TEMPERATURE
 RMF .OHMM           1.83:   RESISTIVITY MUD FILTRATE SAMPLE
 MFST.F                57:   MUD FILTRATE SAMPLE TEMPERATURE
 RMC .OHMM           2.53:   RESISTIVITY MUD CAKE
 MCST.F                57:   MUD CAKE SAMPLE TEMPERATURE
 MFSS.           FANN KIT:   MUD FILTRATE SAMPLE SOURCE
 MCSS.           FANN KIT:   MUD CAKE SAMPLE SOURCE
 RMB .OHMM            2.1:   RESISTIVITY MUD AT BHT
 BHT .F                63:   BOTTOM HOLE TEMPERATURE
 TCS .HRS             1.5:   TIME CURCULATED STOPPED
 MRT .F                63:   MAXIMUM RECORDED TEMPERATURE
 LUN .               8611:   LOGGING UNIT NUMBER
 LUL .           GILLETTE:   LOGGING UNIT LOCATION
 ENGI.               DOAK:   RECORDING ENGINEER
 WITN.              BURKE:   WITNESSED BY
 CLNT.            A2DTECH:   CLIENT CODE
 ORIG.       2", 5" PRINT:   ORIGIN OF DATA
 UWI .       490251028900:   UNIQUE WELL ID
 DICO. A2D Technologies, Inc.:   DIGITIZING COMPANY
~OTHER INFORMATION
~A   DEPT     CALD        GRD       RHOB       DPHI       CORR       SGRD        ILD        ILM        SPR   
# ...
  253.0000     7.9462    73.0065     2.4244     0.1357     0.0653     9.7100     7.7667     8.8662   -42.0204
  253.5000     7.9359    75.3762     2.4201     0.1391     0.0652     9.8211     7.6555     8.6697   -41.6225
  254.0000     7.9257    73.4547     2.4130     0.1435     0.0626     9.9005     7.5199     8.5216   -41.2342
  254.5000     7.9154    71.7191     2.4059     0.1480     0.0601     9.7591     7.3867     8.3760   -41.5454
  255.0000     7.9052    74.1942     2.3987     0.1524     0.0576     9.6039     7.2429     8.2329   -41.9538
  255.5000     7.8946    77.0020     2.3955     0.1536     0.0551     9.4516     7.2055     8.1622   -42.0902
  256.0000     7.8563    79.5407     2.3965     0.1533     0.0526     9.3018     7.1766     8.3712   -41.9218
  256.5000     7.8145    77.0392     2.4067     0.1455     0.0530     9.1141     7.1914     8.5461   -41.8107
  257.0000     7.8023    73.5478     2.4167     0.1383     0.0553     9.2256     7.2029     8.4407   -42.5664
  257.5000     7.8197    74.4588     2.4219     0.1366     0.0575     9.3512     7.2143     8.3251   -42.9929
  258.0000     7.8372    76.3244     2.4236     0.1349     0.0598     9.4784     7.2257     8.2111   -43.3481
  258.5000     7.8547    74.2971     2.4321     0.1323     0.0620     9.5427     7.2372     8.0875   -43.2058
  259.0000     7.8719    70.7540     2.4407     0.1275     0.0643     9.4531     7.2486     8.1918   -43.0564
  259.5000     7.8582    69.4052     2.4494     0.1228     0.0657     9.3848     7.2601     8.3083   -42.9102
  260.0000     7.8268    72.4623     2.4535     0.1217     0.0652     9.3169     7.2717     8.3908   -42.7643
  260.5000     7.7955    76.3336     2.4427     0.1256     0.0646     9.2832     7.2835     8.3109   -42.6097
  261.0000     7.7642    79.8103     2.4306     0.1294     0.0639     9.6467     7.3026     8.2231   -42.6992
  261.5000     7.7328    79.2912     2.4185     0.1358     0.0623     9.9359     7.3014     8.1622   -42.8939
  262.0000     7.7014    76.3560     2.4064     0.1434     0.0550    10.0838     7.2283     8.2548   -43.0914
  262.5000     7.6730    73.4917     2.3942     0.1509     0.0477     9.5427     7.1938     8.3904   -43.2888
  263.0000     7.6967    73.1946     2.3875     0.1578     0.0404     9.7540     7.0992     8.2434   -43.4887
  263.5000     7.7301    74.6737     2.3845     0.1591     0.0340    10.0820     6.9474     7.9571   -43.5276
  264.0000     7.7635    76.3347     2.3944     0.1550     0.0371     9.3472     6.7989     7.6536   -43.4868
  264.5000     7.7970    77.9940     2.4082     0.1473     0.0406     8.7823     6.6534     7.3942   -43.4448
  265.0000     7.8303    79.6717     2.4219     0.1395     0.0441     8.4457     6.5111     7.2863   -43.4026
  265.5000     7.8501    80.1139     2.4321     0.1325     0.0480     8.1195     6.3717     7.2529   -43.3606
  266.0000     7.8683    78.0255     2.4290     0.1325     0.0464     7.6536     6.1951     7.2196   -43.3187
  266.5000     7.8865    75.4706     2.4226     0.1341     0.0447     7.7866     6.2117     7.1766   -43.2767
  267.0000     7.9047    72.9087     2.4249     0.1355     0.0431     8.3568     6.2356     7.2160   -43.2348
  267.5000     7.9172    70.3294     2.4267     0.1342     0.0419     9.1982     6.2595     7.2954   -43.1929
  268.0000     7.9238    68.8980     2.4298     0.1326     0.0425     8.9549     6.2835     7.3757   -43.1503
  268.5000     7.9305    71.3767     2.4332     0.1310     0.0430     8.7017     6.3076     7.4568   -43.1067
  269.0000     7.9289    75.1850     2.4318     0.1301     0.0435     8.5304     6.3318     7.5142   -43.0629
  269.5000     7.9188    79.0226     2.4254     0.1341     0.0431     8.3108     6.3561     7.4558   -43.0191
  270.0000     7.9088    82.8348     2.4191     0.1385     0.0401     8.6089     6.3805     7.4113   -42.9753
  270.5000     7.8988    85.4715     2.4151     0.1422     0.0371     9.0355     6.4050     7.3670   -42.9314
  271.0000     7.8956    84.4682     2.4204     0.1390     0.0342     8.7802     6.4271     7.3098   -42.8877
  271.5000     7.8994    83.5267     2.4257     0.1357     0.0369     8.3876     6.4804     7.3693   -42.8440
  272.0000     7.9031    84.0811     2.4309     0.1324     0.0412     8.5274     6.5292     7.4898   -42.8000
  272.5000     7.9068    86.4384     2.4345     0.1299     0.0455     8.7247     6.5784     7.6123   -42.7436
  273.0000     7.9107    88.1820     2.4339     0.1293     0.0498     8.9480     6.6279     7.7249   -42.6377
  273.5000     7.9136    89.6743     2.4349     0.1286     0.0540     9.0411     6.6778     7.4470   -42.5319
  274.0000     7.8753    90.9321     2.4399     0.1279     0.0583     9.1455     6.7281     7.5456   -42.4261
  274.5000     7.8323    91.7428     2.4516     0.1231     0.0626     9.2512     6.7788     7.7446   -42.3214
  275.0000     7.7893    91.1599     2.4642     0.1184     0.0668     9.3581     6.8299     8.0135   -42.2152
  275.5000     7.7462    90.5332     2.4561     0.1204     0.0690     9.4554     6.8813     7.9811   -42.2740
  276.0000     7.7037    89.8699     2.4427     0.1264     0.0657     9.3117     6.9176     7.9166   -42.4360
  276.5000     7.6828    91.6214     2.4298     0.1323     0.0625     9.1141     6.8998     7.8527   -42.5994
  277.0000     7.7310    94.2998     2.4216     0.1380     0.0593     9.2710     6.8862     7.7956   -42.7643
  277.5000     7.8064    96.9740     2.4169     0.1405     0.0561     9.3935     6.8726     7.8203   -42.9308
  278.0000     7.8734    96.3572     2.4174     0.1405     0.0543     9.4554     6.8590     7.8428   -42.9627
  278.5000     7.8324    92.2486     2.4233     0.1363     0.0587     9.1610     6.8454     7.8676   -42.9632
  279.0000     7.7485    92.9747     2.4280     0.1333     0.0613     8.9408     6.8319     7.7006   -42.9631
  279.5000     7.6649    94.6136     2.4287     0.1330     0.0588     8.7047     6.8184     7.4454   -42.9761
  280.0000     7.5814    93.5600     2.4257     0.1332     0.0564     8.6250     6.8050     7.5603   -43.0524
  280.5000     7.4968    89.7826     2.4216     0.1360     0.0540     8.8359     6.7915     7.7956   -43.1284
  281.0000     7.5448    85.9992     2.4174     0.1388     0.0516     9.0784     6.7781     7.9402   -43.2044
  281.5000     7.6877    86.1941     2.4137     0.1411     0.0499     9.4534     6.7647     7.8061   -43.2809
  282.0000     7.8326    88.6186     2.4178     0.1393     0.0499     9.3276     6.7514     7.6598   -43.3552
  282.5000     7.8698    91.0329     2.4223     0.1370     0.0499     9.0821     6.7380     7.5162   -43.3306
  283.0000     7.8632    88.5482     2.4269     0.1346     0.0499     8.9015     6.7247     7.4454   -43.3010
  283.5000     7.8559    84.7377     2.4315     0.1322     0.0499     9.0552     6.7115     7.5835   -43.2719
  284.0000     7.8487    82.1697     2.4352     0.1302     0.0499     9.1145     6.6982     7.7245   -43.2428
  284.5000     7.8415    83.5822     2.4312     0.1313     0.0499     8.6250     6.6850     7.6517   -43.2136
  285.0000     7.8344    85.3509     2.4272     0.1339     0.0499     8.7735     6.6719     7.5081   -43.1844
  285.5000     7.8272    83.8931     2.4231     0.1365     0.0499     8.8895     6.6364     7.3672   -43.1612
  286.0000     7.8200    84.8195     2.4190     0.1391     0.0517     8.9480     6.5917     7.2426   -43.2500
  286.5000     7.8137    86.0770     2.4203     0.1382     0.0553     8.7047     6.5472     7.2687   -43.3441
  287.0000     7.8177    85.7987     2.4226     0.1365     0.0590     8.4679     6.5031     7.3060   -43.4383
  287.5000     7.8322    84.9342     2.4246     0.1353     0.0626     8.4907     6.4593     7.3434   -43.5371
  288.0000     7.8466    84.4387     2.4192     0.1371     0.0658     8.5232     6.4158     7.3773   -43.4541
  288.5000     7.8611    85.6909     2.4130     0.1422     0.0653     8.5461     6.3683     7.3165   -43.3209
  289.0000     7.8735    86.9483     2.4083     0.1455     0.0648     8.4699     6.2703     7.2496   -43.1857
