~VERSION INFORMATION
 VERS.                2.0:   CWLS LOG ASCII STANDARD - VERSION 2.0
 WRAP.                 NO:   ONE LINE PER DEPTH STEP
~WELL INFORMATION
#MNEM.UNIT      DATA TYPE    INFORMATION
#----------   ------------   ------------------------------
 STRT.F           38.0000:   START DEPTH
 STOP.F          890.0000:   STOP DEPTH
 STEP.F            0.5000:   STEP LENGTH
 NULL.          -999.2500:   NO VALUE
 COMP. FENIX & SCISSON INC:   COMPANY
 WELL.       43 SX #14-14:   WELL
 FLD .             TEAPOT:   FIELD
 LOC .      S14 T38N R78W:   LOCATION
 CNTY.            NATRONA:   COUNTY
 STAT.            WYOMING:   STATE
 CTRY. UNITED STATES OF AMERICA:   COUNTRY
 SRVC.            Unknown:   SERVICE COMPANY
 DATE.        28-APR-1978:   LOGDATE
 API .       490251063600:   API NUMBER
~CURVE INFORMATION
#MNEM.UNIT       API CODE    CURVE DESCRIPTION
#----------   ------------   ------------------------------
 DEPT.F                  :   
 SPR .MV     05 010 01 00:   SPONTANEOUS POTENTIAL FROM RES.
 SN  .OHMM   05 040 16 00:   SHORT NORMAL 16"
 ILD .OHMM   05 120 46 00:   INDUCTION LOG DEEP
 CILD.MMHO   05 110 46 00:   CONDUCTIVITY INDUCTION LOG DEEP
 CALD.IN     45 280 60 00:   CALIPER FROM DENSITY LOG
 GRD .GAPI   45 310 01 00:   GAMMA RAY FROM DENSITY LOG
 CORR.G/C3   45 356 01 00:   DENSITY CORRECTION
 DPHI.DEC    45 890 12 00:   DENSITY POROSITY SANDSTONE
 DEN .G/C3   45 350 01 00:   COMPENSATED BULK DENSTIY
~PARAMETER INFORMATION
#MNEM.UNIT          VALUE    DESCRIPTION
#----------   ------------   ------------------------------
 PD  .                 GL:   PERMANENT DATUM
 EPD .F              5217:   ELEVATION PERMANENT DATUM
 LMF .                 KB:   LOG MEASURED FROM
 DMF .                 KB:   DRILLING MEASURED FROM
 EKB .F              5221:   KELLING BUSHING
 EGL .F              5217:   GROUND LEVEL
 DATE.        28-APR-1978:   RUN DATE
 RUN .                  1:   RUN NUMBER
 DD  .F               890:   DEPTH DRILLER
 DL  .F               890:   DEPTH LOGGER
 BLI .F               884:   BOTTOM LOG INTERVAL
 TLI .F                40:   TOP LOG INTERVAL
 CS  .IN            8.625:   CASING SIZE
 CBD .F                40:   CASING BOTTOM DRILLER
 CBL .F                40:   CASING BOTTOM LOGGER
 BS  .IN            7.875:   BIT SIZE
 BSD .F               890:   BIT SIZE AT DEPTH
 DFT .                KCL:   DRILLING FLUID TYPE
 DFD .                8.7:   DRILLING FLUID DENSITY
 DFV .                 34:   DRILLING FLUID VISCOSITY
 DFL .                4.8:   DRILLING FLUID LOSS
 MSS .            MUD PIT:   MUD SAMPLE SOURCE
 RMS .OHMM             .4:   RESISTIVITY MUD SAMPLE
 MST .F                56:   MUD SAMPLE TEMPERATURE
 RMF .OHMM            .38:   RESISTIVITY MUD FILTRATE SAMPLE
 MFST.F                64:   MUD FILTRATE SAMPLE TEMPERATURE
 RMC .OHMM              1:   RESISTIVITY MUD CAKE
 MCST.F                66:   MUD CAKE SAMPLE TEMPERATURE
 MFSS.               MEAS:   MUD FILTRATE SAMPLE SOURCE
 RMB .OHMM             .3:   RESISTIVITY MUD AT BHT
 BHT .F                74:   BOTTOM HOLE TEMPERATURE
 TCS .HRS            0100:   TIME CURCULATED STOPPED
 MRT .F                74:   MAXIMUM RECORDED TEMPERATURE
 LUN .               2958:   LOGGING UNIT NUMBER
 LUL .               CASP:   LOGGING UNIT LOCATION
 ENGI.             MILLER:   RECORDING ENGINEER
 WITN.           MCGINLEY:   WITNESSED BY
 CLNT.            A2DTECH:   CLIENT CODE
 ORIG.           5" PRINT:   ORIGIN OF DATA
 UWI .       490251063600:   UNIQUE WELL ID
 DICO. A2D Technologies, Inc.:   DIGITIZING COMPANY
~OTHER INFORMATION
~A   DEPT      SPR         SN        ILD       CILD       CALD        GRD       CORR       DPHI        DEN   
# ...
  293.5000   -28.2661    13.2454    17.4933    44.3087     7.9065    69.2421     0.0997     0.1521     2.3640
  294.0000   -28.4101    13.3425    17.7450    44.2415     7.8771    68.9495     0.1012     0.1087     2.4234
  294.5000   -28.5525    13.3481    18.0002    44.9401     7.9379    69.1086     0.0684     0.1099     2.4573
  295.0000   -28.8433    13.3536    18.1336    45.6219     8.0434    69.1159     0.0475     0.1159     2.4541
  295.5000   -29.1341    13.3591    18.1423    46.3037     8.1040    69.2732     0.0417     0.1293     2.4334
  296.0000   -29.2765    13.3646    18.0263    46.2197     8.0900    69.4304     0.0388     0.1467     2.3981
  296.5000   -29.2691    13.3701    18.0350    46.9183     8.0907    69.8876     0.0389     0.1464     2.3823
  297.0000   -29.2631    13.2824    18.0437    46.8342     8.0763    69.9110     0.0390     0.1422     2.3877
  297.5000   -29.4056    13.1966    17.6826    46.7670     8.1071    70.0539     0.0391     0.1452     2.3997
  298.0000   -29.3996    13.1113    17.4487    46.6997     8.1528    70.2112     0.0393     0.1481     2.3998
  298.5000   -29.3937    12.8496    17.2179    47.3815     8.1984    71.5678     0.0394     0.1625     2.3765
  299.0000   -29.3877    12.7666    17.1078    48.0802     8.2740    73.3743     0.0410     0.1604     2.3585
  299.5000   -29.3818    12.6841    17.1161    49.5111     8.3196    73.2317     0.0426     0.1517     2.3526
  300.0000   -29.3963    12.6758    16.7854    51.0422     8.3503    73.6882     0.0422     0.1483     2.3797
  300.5000   -29.6230    12.6021    16.3765    52.2478     8.3531    73.5514     0.0398     0.1462     2.3835
  301.0000   -29.9610    12.5273    15.8896    53.8022     8.3679    73.4179     0.0385     0.1444     2.3859
  301.5000   -30.2533    12.3617    15.3582    55.9643     8.3391    73.5809     0.0386     0.1444     2.3874
  302.0000   -30.5467    12.2827    14.9475    58.1605     8.2654    74.4936     0.0387     0.1402     2.3875
  302.5000   -30.6906    12.1205    14.5477    58.9513     8.1917    74.6567     0.0373     0.1368     2.3891
  303.0000   -30.6850    12.0429    14.5547    60.3545     8.1181    74.6699     0.0390     0.1377     2.3921
  303.5000   -30.6805    11.9659    14.5410    61.0088     8.0743    74.5298     0.0391     0.1374     2.4102
  304.0000   -31.1211    11.8081    14.3675    62.3827     8.0006    74.0964     0.0392     0.1347     2.4081
  304.5000   -31.7101    11.6506    14.1775    63.0637     7.9569    74.2595     0.0393     0.1266     2.4121
  305.0000   -32.2991    11.4981    13.5722    63.7453     7.9266    74.7326     0.0394     0.1256     2.4165
  305.5000   -32.8893    11.1139    12.8852    66.6730     7.8547    75.7396     0.0395     0.1214     2.4196
  306.0000   -33.6255    10.5954    10.4813    75.8953     7.7661    81.6485     0.0397     0.1127     2.4377
  306.5000   -34.5113     9.8944     9.8550    84.4469     7.6924    82.1115     0.0398     0.1112     2.4467
  307.0000   -35.3970     9.1763     9.0764    94.1785     7.6935    82.1246     0.0399     0.1076     2.4445
  307.5000   -36.0063     8.5103     8.3593   109.8408     7.7097    81.9878     0.0400     0.1060     2.4559
  308.0000   -37.0205     7.7845     7.8918   120.2597     7.7108    82.0010     0.0402     0.1147     2.4614
  308.5000   -37.6106     7.1207     7.4504   129.9295     7.6970    82.0141     0.0403     0.1180     2.4395
  309.0000   -37.6050     6.9295     7.0940   135.8539     7.6982    81.8771     0.0419     0.1189     2.4373
  309.5000   -37.6005     6.8853     6.9512   141.0293     7.7144    81.8906     0.0465     0.1185     2.4358
  310.0000   -37.4477     6.8413     6.9554   140.9613     7.7158    81.9040     0.0530     0.1171     2.4329
  310.5000   -37.4432     6.8454     6.9588   141.6593     7.7319    81.7668     0.0647     0.1149     2.4435
  311.0000   -37.4388     6.8488     6.9622   141.5880     7.7331    81.0336     0.0484     0.1086     2.4662
  311.5000   -37.4343     6.8521     6.9656   140.7715     7.7492    80.4471     0.0425     0.1002     2.4685
  312.0000   -37.4298     6.8554     6.9202   140.7041     7.7654    80.1571     0.0351     0.0996     2.4655
  312.5000   -37.4254     6.8587     6.8768   140.6367     7.7665    80.1735     0.0337     0.1002     2.4626
  313.0000   -37.4209     6.8621     6.8801   139.8202     7.7827    80.7864     0.0308     0.1064     2.4657
  313.5000   -37.4164     6.8654     6.8353   139.7454     7.7838    81.9989     0.0310     0.1085     2.4657
  314.0000   -37.4119     6.8207     6.8395   138.1868     7.7850    82.9116     0.0311     0.1088     2.4658
  314.5000   -37.2591     6.8249     6.8428   137.3697     7.7865    83.0750     0.0342     0.1013     2.4508
  315.0000   -37.2552     6.8275     6.8935   137.3017     7.8325    83.3909     0.0373     0.1001     2.4573
  315.5000   -37.1018     6.8308     6.8968   137.2336     7.8936    84.4536     0.0375     0.1003     2.4683
  316.0000   -37.0973     6.7870     6.9480   137.1656     7.8648    84.1668     0.0391     0.0964     2.4631
  316.5000   -37.0929     6.7904     6.9027   137.0975     7.7911    84.3299     0.0407     0.0985     2.4677
  317.0000   -37.0884     6.7470     6.8586   137.0295     7.7321    85.5425     0.0408     0.0994     2.4745
  317.5000   -37.0839     6.6578     6.8147   136.9615     7.7336    85.5556     0.0409     0.0994     2.4731
  318.0000   -37.2289     6.6135     6.8189   139.1406     7.8695    85.5687     0.0411     0.0963     2.4709
  318.5000   -37.2233     6.5273     6.7744   140.5707     7.9615    85.7318     0.0412     0.0927     2.4694
  319.0000   -37.3684     6.4416     6.6857   143.5159     8.0068    86.8186     0.0398     0.0906     2.4740
  319.5000   -37.3628     6.4447     6.6429   143.4309     8.0379    88.0075     0.0384     0.0912     2.4853
  320.0000   -37.3583     6.4479     6.6455   143.3629     8.0690    87.4237     0.0385     0.0915     2.4907
  320.5000   -37.3538     6.4510     6.6947   142.5457     8.0400    86.3841     0.0401     0.0918     2.4831
  321.0000   -37.3494     6.5438     6.7054   142.4777     8.0414    86.4005     0.0388     0.0917     2.4841
  321.5000   -37.3449     6.6378     6.7943   142.4097     8.1324    86.4137     0.0404     0.0917     2.4849
  322.0000   -37.3404     6.7333     6.8447   141.5926     8.1785    86.5767     0.0405     0.0893     2.4804
  322.5000   -37.1876     6.8300     6.9431   140.7755     8.1946    86.7398     0.0391     0.0857     2.4790
  323.0000   -37.0348     6.8806     7.0430   139.2093     8.1808    86.3032     0.0333     0.0885     2.4821
  323.5000   -37.0303     6.9796     7.0981   137.6431     8.1820    84.9650     0.0304     0.1028     2.4942
  324.0000   -36.8783     7.0313     7.1972   136.0770     8.1984    84.5303     0.0275     0.1078     2.4882
  324.5000   -36.8739     7.0347     7.2505   135.1212     8.2744    84.6967     0.0261     0.1012     2.4672
  325.0000   -36.8447     7.0381     7.3043   132.9588     8.3504    88.7578     0.0262     0.0997     2.4643
  325.5000   -36.7166     7.0902     7.3078   130.6442     8.3516    89.6705     0.0279     0.1012     2.4667
  326.0000   -36.7319     7.1427     7.3114   129.0087     8.3528    89.5304     0.0280     0.1015     2.4689
  326.5000   -36.8562     7.1956     7.3656   126.7640     8.3389    86.9981     0.0296     0.0993     2.4682
  327.0000   -36.8516     7.2489     7.3691   125.9325     8.3102    82.9633     0.0297     0.1044     2.4676
  327.5000   -36.8469     7.2525     7.4237   124.3817     8.2964    82.6766     0.0283     0.1056     2.4676
  328.0000   -36.9912     7.3062     7.3762   123.5646     8.2826    82.2400     0.0285     0.1025     2.4624
  328.5000   -37.1351     7.3097     7.3799   124.2472     8.2388    80.6039     0.0286     0.1011     2.4580
  329.0000   -37.2790     7.3133     7.3835   125.6757     8.1505    80.4672     0.0287     0.1008     2.4596
  329.5000   -37.2720     7.3168     7.3361   127.1058     8.0618    80.4836     0.0303     0.1022     2.4702
