~VERSION INFORMATION
 VERS.                2.0:   CWLS LOG ASCII STANDARD - VERSION 2.0
 WRAP.                 NO:   ONE LINE PER DEPTH STEP
~WELL INFORMATION
#MNEM.UNIT      DATA TYPE    INFORMATION
#----------   ------------   ------------------------------
 STRT.F           95.0000:   START DEPTH
 STOP.F          862.0000:   STOP DEPTH
 STEP.F            0.5000:   STEP LENGTH
 NULL.          -999.2500:   NO VALUE
 COMP. U S NAVY INTEX OIL:   COMPANY
 WELL. RES 3 TEAMPT DOME #13-S-35:   WELL
 FLD .        TEAPOT DOME:   FIELD
 LOC .      S35 T39N R78W:   LOCATION
 CNTY.            NATRONA:   COUNTY
 STAT.            WYOMING:   STATE
 CTRY. UNITED STATES OF AMERICA:   COUNTRY
 SRVC.       Schlumberger:   SERVICE COMPANY
 DATE.        27-JUL-1963:   LOGDATE
 API .       490250655000:   API NUMBER
~CURVE INFORMATION
#MNEM.UNIT       API CODE    CURVE DESCRIPTION
#----------   ------------   ------------------------------
 DEPT.F                  :   
 SPR .MV     05 010 01 00:   SPONTANEOUS POTENTIAL FROM RES.
 ILD .OHMM   05 120 46 00:   INDUCTION LOG DEEP
 ASN .OHMM   05 041 18 00:   AMPLIFIED SHORT NORMAL 18"
 CILD.MMHO   05 110 46 00:   CONDUCTIVITY INDUCTION LOG DEEP
 GR  .GAPI   30 310 01 00:   GAMMA RAY
~PARAMETER INFORMATION
#MNEM.UNIT          VALUE    DESCRIPTION
#----------   ------------   ------------------------------
 PD  .                 GL:   PERMANENT DATUM
 EPD .F              5100:   ELEVATION PERMANENT DATUM
 LMF .                 KB:   LOG MEASURED FROM
 DAPD.F               5.0:   FEET ABOVE PERMANENT DATUM
 DMF .                 KB:   DRILLING MEASURED FROM
 EKB .F              5105:   KELLING BUSHING
 EGL .F              5100:   GROUND LEVEL
 DATE.        27-JUL-1963:   RUN DATE
 RUN .                  1:   RUN NUMBER
 DD  .F               862:   DEPTH DRILLER
 DL  .F               863:   DEPTH LOGGER
 BLI .F               862:   BOTTOM LOG INTERVAL
 TLI .F               100:   TOP LOG INTERVAL
 CS  .IN            8.625:   CASING SIZE
 CBD .F                10:   CASING BOTTOM DRILLER
 BS  .IN             6.75:   BIT SIZE
 BSD .F               862:   BIT SIZE AT DEPTH
 DFT . NATURAL- GEL ADDED:   DRILLING FLUID TYPE
 DFD .                9.0:   DRILLING FLUID DENSITY
 DFV .                 38:   DRILLING FLUID VISCOSITY
 DFPH.                8.5:   DRILLING FLUID PH
 DFL .                5.6:   DRILLING FLUID LOSS
 MSS .           FLOWLINE:   MUD SAMPLE SOURCE
 RMS .OHMM            4.6:   RESISTIVITY MUD SAMPLE
 MST .F                83:   MUD SAMPLE TEMPERATURE
 RMF .OHMM            3.8:   RESISTIVITY MUD FILTRATE SAMPLE
 MFST.F                83:   MUD FILTRATE SAMPLE TEMPERATURE
 RMC .OHMM            4.8:   RESISTIVITY MUD CAKE
 MCST.F                83:   MUD CAKE SAMPLE TEMPERATURE
 MFSS.                 FP:   MUD FILTRATE SAMPLE SOURCE
 MCSS.                 FP:   MUD CAKE SAMPLE SOURCE
 TCS .HRS               1:   TIME CURCULATED STOPPED
 LUN .               2523:   LOGGING UNIT NUMBER
 LUL .               CSPR:   LOGGING UNIT LOCATION
 ENGI.            GIFFORD:   RECORDING ENGINEER
 WITN.          JORGENSON:   WITNESSED BY
 CLNT.            A2DTECH:   CLIENT CODE
 ORIG.           5" PRINT:   ORIGIN OF DATA
 UWI .       490250655000:   UNIQUE WELL ID
 DICO. A2D Technologies, Inc.:   DIGITIZING COMPANY
~OTHER INFORMATION
~A   DEPT      SPR        ILD        ASN       CILD         GR   
# ...
  705.0000   -31.5962     6.2500     7.3672   154.6546    88.0670
  705.5000   -32.1958     6.2500     7.4562   153.1532    87.6326
  706.0000   -32.4941     6.3253     7.5154   153.1532    84.9661
  706.5000   -32.1893     6.3253     7.5747   153.1532    84.9781
  707.0000   -31.4334     6.3253     7.6636   152.4024    84.6896
  707.5000   -31.8823     6.3253     7.7375   149.3994    84.5528
  708.0000   -32.4819     6.3253     7.8266   147.8979    84.6548
  708.5000   -32.3284     6.4759     7.9007   146.3964    86.7500
  709.0000   -32.4761     6.5512     7.9598   145.6456    89.5138
  709.5000   -33.0749     6.6265     7.9889   146.5087    94.2886
  710.0000   -33.8250     6.7771     7.9730   150.1501    91.1607
  710.5000   -33.9735     6.7771     7.9270   152.4024    92.6609
  711.0000   -33.6686     6.7018     7.8512   153.9039    94.7563
  711.5000   -33.4939     6.5512     7.7604   154.6546    95.8100
  712.0000   -32.9091     6.2500     7.6845   154.6546    97.0125
  712.5000   -32.4545     6.1747     7.5912   153.9039    94.3430
  713.0000   -31.9998     6.4759     7.4727   153.1532    96.4414
  713.5000   -31.6957     5.8579     7.4421   153.9039    95.1141
  714.0000   -31.2288     5.4217     7.5010   163.6637    97.2095
  714.5000   -30.6350     5.0452     7.3652   180.9309    97.8138
  715.0000   -30.9340     4.7440     7.1974   198.1982    89.6444
  715.5000   -30.9304     4.5181     6.6136   211.7117    93.3767
  716.0000   -30.6263     4.3675     5.9231   223.7237    97.1089
  716.5000   -30.4728     4.2922     5.5624   225.9760    96.0793
  717.0000   -30.0000     4.2922     5.7865   226.7267    94.8979
  717.5000   -29.1109     4.2922     5.5757   231.3568    94.1689
  718.0000   -29.2587     4.3675     5.1848   233.4835    91.4702
  718.5000   -30.4606     4.5181     5.7537   232.7327    91.1919
  719.0000   -31.0601     4.6722     6.1876   219.9700    91.2411
  719.5000   -30.9036     4.8193     6.3817   211.7117    92.1383
  720.0000   -30.4512     4.5934     6.3838   215.4655    92.4405
  720.5000   -29.5447     4.3675     6.1008   226.7267    90.0714
  721.0000   -28.4876     4.2169     5.6442   231.9820    90.0836
  721.5000   -27.5811     4.1416     5.3585   235.7357    87.5659
  722.0000   -26.6746     4.0663     5.4326   235.7357    86.4166
  722.5000   -26.2199     4.0663     5.7616   235.7357    87.8846
  723.0000   -26.3670     4.2169     5.8357   234.9850    82.8402
  723.5000   -26.9665     4.5181     5.6397   229.7297    84.4892
  724.0000   -27.2655     5.0452     5.9537   217.7177    91.3464
  724.5000   -27.2619     5.4217     6.5226   199.6997    94.4835
  725.0000   -27.4096     5.7229     6.8066   188.4384    96.2813
  725.5000   -27.7080     5.7229     6.9859   177.8899    97.3350
  726.0000   -27.8557     5.6476     7.1045   167.4174    91.8411
  726.5000   -27.7015     5.4217     7.1636   164.4144    95.4246
  727.0000   -27.5480     5.3464     7.1929   165.1652    97.6688
  727.5000   -27.5451     5.2711     7.2371   175.6757    98.2731
  728.0000   -27.5421     5.1958     7.2660   185.4354    94.8333
  728.5000   -27.5386     5.1205     7.0550   190.0273    97.1964
  729.0000   -27.5357     5.1205     6.6643   192.9429    98.7560
  729.5000   -27.5329     5.1205     6.3936   191.4414    98.9165
  730.0000   -27.5300     5.1205     6.3330   189.1892    97.8869
  730.5000   -27.5271     5.1205     6.5268   189.1892    91.5002
  731.0000   -27.6748     5.1958     6.5559   189.9399    90.7682
  731.5000   -28.1230     5.4217     6.5099   188.4384    90.3338
  732.0000   -28.7225     5.8735     7.1537   178.6787    87.8161
  732.5000   -29.1715     6.2500     7.5427   168.1682    86.7865
  733.0000   -29.1686     6.5512     7.8117   159.9099    85.4562
  733.5000   -29.0151     6.7771     8.0095   151.6517    86.9594
  734.0000   -28.7103     6.9277     8.2445   143.9440    87.4179
  734.5000   -28.2556     6.9277     8.3636   138.1381    87.2811
  735.0000   -28.1021     6.9277     8.4827   136.6366    83.4241
  735.5000   -28.0992     6.9277     8.6018   137.3874    79.2695
  736.0000   -28.2470     6.9277     8.7058   137.3874    81.2161
  736.5000   -28.5663     6.9277     8.6898   136.6366    83.3115
  737.0000   -28.9935     7.0030     8.6589   135.1351    87.7878
  737.5000   -29.1419     7.1536     8.6731   134.3844    92.4130
  738.0000   -29.2889     7.2289     8.7322   132.8829    94.0589
  738.5000   -29.4366     7.2289     8.7913   130.6306    88.7738
  739.0000   -30.0362     7.1536     8.8527   129.1291    87.2378
  739.5000   -30.3345     7.1536     8.9543   129.2415    87.8451
  740.0000   -30.3309     7.1536     9.0136   131.3814    84.1369
  740.5000   -30.0268     7.0783     8.9376   133.6336    84.1490
  741.0000   -29.6766     7.0783     8.8318   134.3844    84.7563
  741.5000   -29.4184     7.1536     8.6929   133.6336    85.0659
  742.0000   -29.2649     7.2289     8.5750   132.1321    84.4827
  742.5000   -29.2620     7.4548     8.4841   131.3814    83.0067
  743.0000   -29.7328     7.5301     8.6032   129.8799    81.5276
  743.5000   -30.3098     7.4548     8.8123   127.6276    82.8820
  744.0000   -30.9093     7.2289     9.0837   129.1291    77.2393
  744.5000   -30.9064     6.8396     9.2751   140.3904    77.6978
  745.0000   -30.7529     6.0241     9.3344   151.6517    78.4539
  745.5000   -31.2018     5.3464     9.1384   180.1802    81.4421
  746.0000   -32.2525     5.1205     8.1931   195.1952    92.4661
  746.5000   -33.1532     5.0452     7.4718   198.9489    91.2847
  747.0000   -33.7527     5.1205     6.6919   196.6967    92.1926
  747.5000   -34.0518     5.2711     6.6613   194.4444    93.3951
  748.0000   -34.0482     5.1205     6.9450   194.4444    94.3571
  748.5000   -33.1226     5.1958     6.8242   193.6937    86.2664
  749.0000   -32.9882     5.6476     7.6630   191.4414    83.3092
  749.5000   -33.7376     6.4006     9.2471   168.9189    85.2781
  750.0000   -34.0784     7.8313     9.9851   132.1309    86.0119
  750.5000   -34.6351     8.7419     9.8920   114.1056    83.1895
  751.0000   -34.7835     9.2620     9.9634   106.5907    83.6433
  751.5000   -34.0268     9.3373     9.9605   104.3312    80.3740
  752.0000   -33.4214     8.8855     9.9576   109.5791    81.1240
  752.5000   -34.0209     8.8855    10.0296   111.8243    77.2624
  753.0000   -34.7709     9.1114    10.1766   110.3152    73.3993
  753.5000   -35.3704     9.3373    10.2494   108.7812    71.9156
  754.0000   -35.5181     9.6386    10.3957   104.9454    72.9647
  754.5000   -35.0632    10.2410    10.7675    99.0301    71.9290
  755.0000   -34.2972    10.7681    11.3643    92.2660    72.3814
  755.5000   -33.8524    11.7551    12.4406    84.0005    72.9826
  756.0000   -33.9994    13.2890    14.1313    76.4856    70.1611
  756.5000   -34.9001    14.3072    14.9530    69.7215    59.6016
  757.0000   -36.1019    15.9639    15.9996    64.4590    56.7802
  757.5000   -37.9062    17.1687    16.8962    58.4456    50.9826
  758.0000   -39.5599    18.1476    18.1676    53.1831    46.2266
  758.5000   -40.7617    19.1265    19.5890    49.4219    45.0421
  759.0000   -42.2648    20.1054    21.1603    47.1622    44.1537
  759.5000   -43.3161    21.0090    22.5816    46.4025    44.1611
  760.0000   -44.2167    21.0843    23.0285    47.1478    44.1671
  760.5000   -44.8162    20.7831    22.6431    47.8912    44.3218
  761.0000   -44.9638    20.9377    22.2723    48.6346    46.7087
  761.5000   -44.8015    21.3212    21.8196    48.6255    49.5420
  762.0000   -42.3556    21.3855    21.5168    47.8674    49.9944
  762.5000   -41.7922    20.7831    21.3640    47.8601    51.7861
  763.0000   -42.3910    20.4819    21.5859    48.6036    53.4289
  763.5000   -44.9483    20.3313    21.8828    49.3469    51.6492
  764.0000   -47.2044    20.4066    22.2547    49.3394    50.0182
  764.5000   -49.0086    20.4819    22.8515    49.3304    50.7682
  765.0000   -49.6088    20.6325    22.4738    50.0757    51.3694
  765.5000   -47.7979    20.6325    22.0809    50.0665    51.8218
