~VERSION INFORMATION
 VERS.                2.0:   CWLS LOG ASCII STANDARD - VERSION 2.0
 WRAP.                 NO:   ONE LINE PER DEPTH STEP
~WELL INFORMATION
#MNEM.UNIT      DATA TYPE    INFORMATION
#----------   ------------   ------------------------------
 STRT.F           68.0000:   START DEPTH
 STOP.F          560.0000:   STOP DEPTH
 STEP.F            0.5000:   STEP LENGTH
 NULL.          -999.2500:   NO VALUE
 COMP.               NAVY:   COMPANY
 WELL. RES 3 TEAPOT DOM #24S-11:   WELL
 FLD .             TEAPOT:   FIELD
 LOC .      S11 T38N R78W:   LOCATION
 CNTY.            NATRONA:   COUNTY
 STAT.            WYOMING:   STATE
 CTRY. UNITED STATES OF AMERICA:   COUNTRY
 SRVC.       Schlumberger:   SERVICE COMPANY
 DATE.        16-JUL-1963:   LOGDATE
 API .       490250634300:   API NUMBER
~CURVE INFORMATION
#MNEM.UNIT       API CODE    CURVE DESCRIPTION
#----------   ------------   ------------------------------
 DEPT.F                  :   
 GR  .GAPI   30 310 01 00:   GAMMA RAY
 CALS.IN     60 280 50 00:   CALIPER FROM SONIC LOG
 DT  .US/F   60 520 00 00:   INTERVAL TRANSIT TIME
 SPR .MV     05 010 01 00:   SPONTANEOUS POTENTIAL FROM RES.
 CILD.MMHO   05 110 00 00:   CONDUCTIVITY INDUCTION LOG
 ASN .OHMM   05 041 16 00:   AMPLIFIED SHORT NORMAL 16"
 ILD .OHMM   05 120 46 00:   INDUCTION LOG DEEP
~PARAMETER INFORMATION
#MNEM.UNIT          VALUE    DESCRIPTION
#----------   ------------   ------------------------------
 PD  .                 GL:   PERMANENT DATUM
 EPD .F              5168:   ELEVATION PERMANENT DATUM
 LMF .                 KB:   LOG MEASURED FROM
 DAPD.F                 5:   FEET ABOVE PERMANENT DATUM
 DMF .                 KB:   DRILLING MEASURED FROM
 EKB .F              5173:   KELLING BUSHING
 EGL .F              5168:   GROUND LEVEL
 DATE.            7-16-63:   RUN DATE
 RUN .                  1:   RUN NUMBER
 DD  .F               562:   DEPTH DRILLER
 DL  .F               561:   DEPTH LOGGER
 BLI .F               560:   BOTTOM LOG INTERVAL
 TLI .F                94:   TOP LOG INTERVAL
 CS  .IN            8.625:   CASING SIZE
 CBD .F                10:   CASING BOTTOM DRILLER
 BS  .IN            6.875:   BIT SIZE
 BSD .F               562:   BIT SIZE AT DEPTH
 DFT .            NATURAL:   DRILLING FLUID TYPE
 DFD .                 10:   DRILLING FLUID DENSITY
 DFV .                 65:   DRILLING FLUID VISCOSITY
 MSS .           FLOWLINE:   MUD SAMPLE SOURCE
 RMS .OHMM            3.4:   RESISTIVITY MUD SAMPLE
 MST .F                76:   MUD SAMPLE TEMPERATURE
 RMF .OHMM            1.8:   RESISTIVITY MUD FILTRATE SAMPLE
 MFST.F                75:   MUD FILTRATE SAMPLE TEMPERATURE
 RMC .OHMM            3.4:   RESISTIVITY MUD CAKE
 MCST.F                75:   MUD CAKE SAMPLE TEMPERATURE
 MFSS.                 FP:   MUD FILTRATE SAMPLE SOURCE
 MCSS.                 FP:   MUD CAKE SAMPLE SOURCE
 TCS .HRS               1:   TIME CURCULATED STOPPED
 MRT .F                80:   MAXIMUM RECORDED TEMPERATURE
 LUN .               4507:   LOGGING UNIT NUMBER
 LUL .               CSPR:   LOGGING UNIT LOCATION
 ENGI.            GIFFORD:   RECORDING ENGINEER
 WITN.          JORGENSON:   WITNESSED BY
 CLNT.            A2DTECH:   CLIENT CODE
 ORIG.       2", 5" PRINT:   ORIGIN OF DATA
 UWI .       490250634300:   UNIQUE WELL ID
 DICO. A2D Technologies, Inc.:   DIGITIZING COMPANY
~OTHER INFORMATION
~A   DEPT       GR         CALS       DT        SPR       CILD        ASN        ILD   
# ...
  295.5000  -999.2500     6.9718    98.1215   -36.2784    89.1726    11.7808    11.3081
  296.0000  -999.2500     6.9871    97.4542   -36.3568    87.5565    11.9397    11.4501
  296.5000  -999.2500     7.0155    97.2487   -36.4355    86.6654    12.0987    11.5922
  297.0000  -999.2500     7.0389    97.0433   -36.5113    86.1327    12.2578    11.7341
  297.5000  -999.2500     7.0383    96.8378   -36.7135    85.6021    12.4177    11.8781
  298.0000  -999.2500     7.0352    96.6749   -36.9637    85.0666    12.5741    11.9334
  298.5000  -999.2500     7.0321    96.6778   -37.1493    85.2584    12.7334    11.9871
  299.0000  -999.2500     7.0290    96.7774   -37.1460    85.5363    12.7346    12.0275
  299.5000  -999.2500     7.0259    97.1030   -37.1459    85.8194    12.4670    11.8721
  300.0000  -999.2500     7.0228    97.4104   -37.1454    86.3774    12.2135    11.7030
  300.5000  -999.2500     7.0197    97.6838   -37.1436    87.5865    12.0524    11.5332
  301.0000  -999.2500     7.0027    97.2540   -37.1516    88.7956    11.8907    11.3643
  301.5000  -999.2500     6.9728    96.8023   -37.5633    90.0048    11.7265    11.2010
  302.0000  -999.2500     6.9428    96.9876   -37.9674    91.2912    11.6286    11.1095
  302.5000  -999.2500     6.9128    97.1803   -37.7267    93.0583    11.5316    11.0146
  303.0000  -999.2500     6.8861    97.5257   -37.3044    94.8255    11.4341    10.9193
  303.5000  -999.2500     6.8589    97.7847   -36.8837    96.5926    11.3367    10.8240
  304.0000  -999.2500     6.8363    98.6237   -36.5263    98.3597    11.2331    10.7284
  304.5000  -999.2500     6.8443    98.7648   -36.6517    98.2852    11.1420    10.6303
  305.0000  -999.2500     6.8522    98.7924   -36.7993    96.8996    11.1329    10.6538
  305.5000  -999.2500     6.8566    99.2595   -36.9405    95.8800    11.1536    10.7044
  306.0000  -999.2500     6.8383    99.7266   -36.9028    95.3962    11.1730    10.7555
  306.5000  -999.2500     6.7923    99.9070   -36.8509    94.9123    11.1918    10.8064
  307.0000  -999.2500     6.7764    99.8920   -36.7987    94.4285    11.2111    10.8575
  307.5000  -999.2500     6.7768    99.3415   -36.7435    94.2123    11.2154    10.9098
  308.0000  -999.2500     6.7910    99.0937   -36.9374    94.8100    11.1713    10.8649
  308.5000  -999.2500     6.7727    98.4109   -37.1267    95.4077    11.1269    10.8052
  309.0000  -999.2500     6.7224    98.2388   -36.7849    96.0054    11.0830    10.7441
  309.5000  -999.2500     6.7311    98.6183   -36.4406    96.9159    11.0381    10.6587
  310.0000  -999.2500     6.8050    99.0332   -36.1302    97.8685    10.9787    10.5436
  310.5000  -999.2500     6.8789   100.0524   -36.0338    98.8211    10.8240    10.4292
  311.0000  -999.2500     6.9542   100.3021   -35.9441   100.1408    10.6754    10.3145
  311.5000  -999.2500     6.9537   100.1364   -35.8541   102.1730    10.5271    10.1998
  312.0000  -999.2500     6.9468    99.8993   -35.7639   103.7978    10.3820    10.0855
  312.5000  -999.2500     6.9403    99.7162   -35.6740   105.0679    10.3894     9.9640
  313.0000  -999.2500     6.9339    99.5309   -35.5845   106.3380    10.4122     9.8301
  313.5000  -999.2500     6.9276    99.2199   -35.4962   107.6081    10.3395     9.6965
  314.0000  -999.2500     6.9214    99.0937   -35.3083   108.8783    10.2810     9.5622
  314.5000  -999.2500     6.9237    99.5460   -35.1288   110.1610    10.1434     9.4746
  315.0000  -999.2500     6.9409    99.9827   -35.2248   111.5059    10.1035     9.4180
  315.5000  -999.2500     6.9578   100.3021   -35.4970   112.8712    10.2496     9.3627
  316.0000  -999.2500     6.9748   100.8479   -35.7662   114.1741    10.2373     9.2818
  316.5000  -999.2500     6.9918   101.1077   -36.0348   112.1127    10.2211     9.2281
  317.0000  -999.2500     7.0086   101.1077   -36.3237   110.1610    10.1573     9.2496
  317.5000  -999.2500     7.0145   100.9466   -36.6206   110.1610    10.1105     9.2750
  318.0000  -999.2500     7.0060   100.4371   -36.9190   110.1610    10.1106     9.2999
  318.5000  -999.2500     6.9995   100.3804   -37.2185   110.1610    10.1355     9.3247
  319.0000  -999.2500     6.9514   100.5140   -37.5169   110.1610    10.1697     9.3496
  319.5000  -999.2500     6.8977   100.2908   -37.5018   110.1610    10.0786     9.3743
  320.0000  -999.2500     6.8439    99.7438   -37.4449   110.1610     9.9502     9.4003
  320.5000  -999.2500     6.7955    99.5896   -37.3869   110.1610     9.9126     9.3460
  321.0000  -999.2500     6.8082    99.7489   -37.2695   110.1610    10.0740     9.2264
  321.5000  -999.2500     6.7913    99.9081   -37.0094   110.8293     9.9904     9.1071
  322.0000  -999.2500     6.6017   100.2586   -36.7502   112.8647     9.9209     9.0050
  322.5000  -999.2500     6.6980   100.8701   -36.7451   116.0400     9.8476     8.8273
  323.0000  -999.2500     6.8197   101.4816   -37.0617   119.2153     9.7010     8.5912
  323.5000  -999.2500     6.8051   101.9529   -37.4103   123.2747     9.5212     8.3502
  324.0000  -999.2500     6.7471   102.2586   -37.2567   128.8632     9.2818     8.1843
  324.5000  -999.2500     6.5995   102.5643   -36.8433   132.8288     9.0431     8.0350
  325.0000  -999.2500     6.6693   102.8701   -36.2710   134.2144     8.8040     7.8863
  325.5000  -999.2500     6.5885   103.2360   -35.7007   135.6000     8.5634     7.7604
  326.0000  -999.2500     6.5537   104.1120   -35.1269   136.9855     8.4438     7.5663
  326.5000  -999.2500     6.6613   105.4381   -34.9148   138.3300     8.4469     7.4988
  327.0000  -999.2500     6.8303   104.9607   -35.1800   138.3300     8.3758     7.5996
  327.5000  -999.2500     7.0061   104.8338   -35.4940   136.8748     8.3052     7.6921
  328.0000  -999.2500     7.0401   104.1138   -35.7373   133.6088     8.4341     7.8038
  328.5000  -999.2500     6.9944   104.0175   -35.6121   130.3428     8.5634     7.9128
  329.0000  -999.2500     6.9770   104.2563   -35.4750   128.8652     8.6839     7.9270
  329.5000  -999.2500     7.0223   103.8741   -35.3390   128.2555     8.7480     7.9618
  330.0000  -999.2500     7.0590   104.7331   -35.3234   127.6459     8.8091     8.0257
  330.5000  -999.2500     7.0585   104.2444   -35.3237   127.0387     8.8700     8.0882
  331.0000  -999.2500     7.0585   104.1280   -35.3248   126.4255     8.9271     8.1501
  331.5000  -999.2500     7.0580   104.2848   -35.2802   125.1145     8.9424     8.2121
  332.0000  -999.2500     7.0810   104.4310   -35.2193   123.5224     8.9581     8.2740
  332.5000  -999.2500     7.1123   104.7482   -35.1598   121.9347     9.0394     8.3362
  333.0000  -999.2500     7.1121   105.0455   -35.1861   120.3471     9.1849     8.3955
  333.5000  -999.2500     7.0784   105.1359   -35.6283   118.7594     9.4185     8.5052
  334.0000  -999.2500     6.9720   104.2558   -36.0650   117.1718     9.5670     8.6412
  334.5000  -999.2500     6.8608   103.0037   -36.3489   116.0939     9.6653     8.7783
  335.0000  -999.2500     6.8034   102.0141   -35.9614   115.8265     9.7067     8.9148
  335.5000  -999.2500     6.7791   102.1579   -35.4915   115.5591     9.7473     9.0540
  336.0000  -999.2500     6.7801   102.3162   -35.0790   115.2917     9.7571     9.0179
  336.5000  -999.2500     6.8953   102.8076   -34.9192   116.0179     9.7664     8.8812
  337.0000  -999.2500     7.0130   102.7190   -35.1147   117.3432     9.7306     8.7612
  337.5000  -999.2500     7.0700   101.2588   -35.4199   118.6685     9.6421     8.6657
  338.0000  -999.2500     7.0270    99.7986   -35.7287   119.9939     9.5539     8.5709
  338.5000  -999.2500     6.9132   100.0595   -36.0359   121.2274     9.4832     8.5041
  339.0000  -999.2500     6.7906   100.6823   -35.9592   120.7650     9.4323     8.5261
  339.5000  -999.2500     6.6704   100.9063   -35.5669   120.3326     9.3865     8.5461
  340.0000  -999.2500     6.5951   100.9063   -35.2061   119.9003     9.3848     8.5661
  340.5000  -999.2500     6.6333   101.2905   -35.0962   119.4679     9.4672     8.5860
