~VERSION INFORMATION
 VERS.                2.0:   CWLS LOG ASCII STANDARD - VERSION 2.0
 WRAP.                 NO:   ONE LINE PER DEPTH STEP
~WELL INFORMATION
#MNEM.UNIT      DATA TYPE    INFORMATION
#----------   ------------   ------------------------------
 STRT.F         1208.5000:   START DEPTH
 STOP.F         3816.0000:   STOP DEPTH
 STEP.F            0.5000:   STEP LENGTH
 NULL.          -999.2500:   NO VALUE
 COMP. BROWN JOHN E&C INC:   COMPANY
 WELL. NPR 3 STX-11 #13-11:   WELL
 FLD .             TEAPOT:   FIELD
 LOC .      S11 T38N R78W:   LOCATION
 CNTY.            NATRONA:   COUNTY
 STAT.            WYOMING:   STATE
 CTRY. UNITED STATES OF AMERICA:   COUNTRY
 SRVC.            Unknown:   SERVICE COMPANY
 DATE.        08-APR-1986:   LOGDATE
 API .       490251105000:   API NUMBER
~CURVE INFORMATION
#MNEM.UNIT       API CODE    CURVE DESCRIPTION
#----------   ------------   ------------------------------
 DEPT.F                  :   
 ROP .MIN/FT 91 810 01 00:   RATE OF DRILLING PENETRATION
 TGAS.UNITS  91 830 01 00:   TOTAL GAS FROM HOTWIRE
 GR  .GAPI   81 310 01 00:   GAMMA RAY
 TT  .US/F   81 520 00 00:   TRANSIT TIME
~PARAMETER INFORMATION
#MNEM.UNIT          VALUE    DESCRIPTION
#----------   ------------   ------------------------------
 PD  .                 GL:   PERMANENT DATUM
 EPD .F              5176:   ELEVATION PERMANENT DATUM
 LMF .                 KB:   LOG MEASURED FROM
 DAPD.F              11.8:   FEET ABOVE PERMANENT DATUM
 DMF .                 KB:   DRILLING MEASURED FROM
 EKB .F            5187.8:   KELLING BUSHING
 EGL .F              5176:   GROUND LEVEL
 DATE.             4-8-86:   RUN DATE
 RUN .                  1:   RUN NUMBER
 DD  .F              4051:   DEPTH DRILLER
 DL  .F              3815:   DEPTH LOGGER
 BLI .F              3815:   BOTTOM LOG INTERVAL
 TLI .F              2200:   TOP LOG INTERVAL
 CS  .IN              5.5:   CASING SIZE
 CBD .F              3861:   CASING BOTTOM DRILLER
 DFT .              WATER:   DRILLING FLUID TYPE
 BHT .F               167:   BOTTOM HOLE TEMPERATURE
 MRT .F               167:   MAXIMUM RECORDED TEMPERATURE
 LUN .            558/374:   LOGGING UNIT NUMBER
 LUL .             CASPER:   LOGGING UNIT LOCATION
 ENGI.             BAILEY:   RECORDING ENGINEER
 WITN.             BARRON:   WITNESSED BY
 CLNT.            A2DTECH:   CLIENT CODE
 ORIG.     2.5", 5" PRINT:   ORIGIN OF DATA
 UWI .       490251105000:   UNIQUE WELL ID
 DICO. A2D Technologies, Inc.:   DIGITIZING COMPANY
~OTHER INFORMATION
~A  DEPT         ROP     TGAS         GR         TT   
# ...
 1573.5000     0.5155     5.0431  -999.2500  -999.2500
 1574.0000     0.4514     5.0431  -999.2500  -999.2500
 1574.5000     0.4329     5.1362  -999.2500  -999.2500
 1575.0000     0.4872     5.4310  -999.2500  -999.2500
 1575.5000     0.5671     5.4310  -999.2500  -999.2500
 1576.0000     0.5861     5.4310  -999.2500  -999.2500
 1576.5000     0.6052     5.4310  -999.2500  -999.2500
 1577.0000     0.6035     5.4310  -999.2500  -999.2500
 1577.5000     0.5856     5.4310  -999.2500  -999.2500
 1578.0000     0.6056     5.8190  -999.2500  -999.2500
 1578.5000     0.6963     5.8190  -999.2500  -999.2500
 1579.0000     0.7753     6.2069  -999.2500  -999.2500
 1579.5000     0.8067     6.1397  -999.2500  -999.2500
 1580.0000     0.7910     5.8190  -999.2500  -999.2500
 1580.5000     0.7069     5.9586  -999.2500  -999.2500
 1581.0000     0.5457     6.2069  -999.2500  -999.2500
 1581.5000     0.4686     6.2069  -999.2500  -999.2500
 1582.0000     0.4300     6.2069  -999.2500  -999.2500
 1582.5000     0.4335     6.2069  -999.2500  -999.2500
 1583.0000     0.4898     6.2069  -999.2500  -999.2500
 1583.5000     0.6049     5.8190  -999.2500  -999.2500
 1584.0000     0.6672     5.8190  -999.2500  -999.2500
 1584.5000     0.6701     5.8190  -999.2500  -999.2500
 1585.0000     0.5952     5.8190  -999.2500  -999.2500
 1585.5000     0.5065     5.8190  -999.2500  -999.2500
 1586.0000     0.4719     5.8190  -999.2500  -999.2500
 1586.5000     0.4859     5.8190  -999.2500  -999.2500
 1587.0000     0.4858     5.8190  -999.2500  -999.2500
 1587.5000     0.5048     5.8190  -999.2500  -999.2500
 1588.0000     0.5046     6.1138  -999.2500  -999.2500
 1588.5000     0.5044     6.2069  -999.2500  -999.2500
 1589.0000     0.5042     6.2069  -999.2500  -999.2500
 1589.5000     0.4965     6.2069  -999.2500  -999.2500
 1590.0000     0.4753     6.2069  -999.2500  -999.2500
 1590.5000     0.4652     6.2069  -999.2500  -999.2500
 1591.0000     0.4521     6.2069  -999.2500  -999.2500
 1591.5000     0.4309     6.0466  -999.2500  -999.2500
 1592.0000     0.4261     5.8190  -999.2500  -999.2500
 1592.5000     0.4260     5.8190  -999.2500  -999.2500
 1593.0000     0.4058     5.5500  -999.2500  -999.2500
 1593.5000     0.3871     5.4310  -999.2500  -999.2500
 1594.0000     0.3869     5.4310  -999.2500  -999.2500
 1594.5000     0.3928    16.6810  -999.2500  -999.2500
 1595.0000     0.4058    16.6810  -999.2500  -999.2500
 1595.5000     0.4152    16.6810  -999.2500  -999.2500
 1596.0000     0.4360    16.6810  -999.2500  -999.2500
 1596.5000     0.4700    16.6810  -999.2500  -999.2500
 1597.0000     0.5268    16.6810  -999.2500  -999.2500
 1597.5000     0.5779    16.6810  -999.2500  -999.2500
 1598.0000     0.6354    16.6810  -999.2500  -999.2500
 1598.5000     0.6566    16.6810  -999.2500  -999.2500
 1599.0000     0.6927    16.6810  -999.2500  -999.2500
 1599.5000     0.6925    16.6810  -999.2500  -999.2500
 1600.0000     0.6923    16.6810  -999.2500  -999.2500
 1600.5000     0.6921    16.6810  -999.2500  -999.2500
 1601.0000     0.6919    16.6810  -999.2500  -999.2500
 1601.5000     0.6917    16.6810  -999.2500  -999.2500
 1602.0000     0.6915    16.6810  -999.2500  -999.2500
 1602.5000     0.6913    16.6810  -999.2500  -999.2500
 1603.0000     0.6912    16.6810  -999.2500  -999.2500
 1603.5000     0.6910    16.6810  -999.2500  -999.2500
 1604.0000     0.6908    16.6810  -999.2500  -999.2500
 1604.5000     0.6810    16.6810  -999.2500  -999.2500
 1605.0000     0.6078    16.6810  -999.2500  -999.2500
 1605.5000     0.5296    16.6810  -999.2500  -999.2500
 1606.0000     0.5084    16.6810  -999.2500  -999.2500
 1606.5000     0.4975    16.6810  -999.2500  -999.2500
 1607.0000     0.4973    16.6810  -999.2500  -999.2500
 1607.5000     0.5110    16.6810  -999.2500  -999.2500
 1608.0000     0.5738    16.6810  -999.2500  -999.2500
 1608.5000     0.6890    16.6810  -999.2500  -999.2500
 1609.0000     0.6888    16.6810  -999.2500  -999.2500
 1609.5000     0.6257    16.6810  -999.2500  -999.2500
 1610.0000     0.5660    16.6810  -999.2500  -999.2500
 1610.5000     0.5344    16.6810  -999.2500  -999.2500
 1611.0000     0.5342    16.6810  -999.2500  -999.2500
 1611.5000     0.5340    16.6810  -999.2500  -999.2500
 1612.0000     0.5445    16.6810  -999.2500  -999.2500
 1612.5000     0.5653    16.6810  -999.2500  -999.2500
 1613.0000     0.6003    16.6810  -999.2500  -999.2500
 1613.5000     0.7255    16.6810  -999.2500  -999.2500
 1614.0000     0.8408    16.6810  -999.2500  -999.2500
 1614.5000     0.8297    16.6810  -999.2500  -999.2500
 1615.0000     0.8106    16.6810  -999.2500  -999.2500
 1615.5000     0.7887    16.6810  -999.2500  -999.2500
 1616.0000     0.7531    16.6810  -999.2500  -999.2500
 1616.5000     0.7484    16.6810  -999.2500  -999.2500
 1617.0000     0.7276    16.6810  -999.2500  -999.2500
 1617.5000     0.7149    16.6810  -999.2500  -999.2500
 1618.0000     0.7051    16.6810  -999.2500  -999.2500
 1618.5000     0.6959    16.6810  -999.2500  -999.2500
 1619.0000     0.6960    16.6810  -999.2500  -999.2500
 1619.5000     0.6961    16.6810  -999.2500  -999.2500
 1620.0000     0.7154    16.6810  -999.2500  -999.2500
 1620.5000     0.7155    16.6810  -999.2500  -999.2500
 1621.0000     0.7365    16.6810  -999.2500  -999.2500
 1621.5000     0.7860    16.6810  -999.2500  -999.2500
 1622.0000     0.8865    16.6810  -999.2500  -999.2500
 1622.5000     0.9466    16.6810  -999.2500  -999.2500
 1623.0000     0.9467    16.6810  -999.2500  -999.2500
 1623.5000     0.9188    16.6810  -999.2500  -999.2500
 1624.0000     0.8561    16.6810  -999.2500  -999.2500
 1624.5000     0.7807    16.6810  -999.2500  -999.2500
 1625.0000     0.8702    16.6810  -999.2500  -999.2500
 1625.5000     1.0049    16.6810  -999.2500  -999.2500
 1626.0000     1.0242    16.6810  -999.2500  -999.2500
 1626.5000     0.9853    16.6810  -999.2500  -999.2500
 1627.0000     0.9415    16.6810  -999.2500  -999.2500
 1627.5000     0.8715    16.6810  -999.2500  -999.2500
 1628.0000     0.7669    16.6810  -999.2500  -999.2500
 1628.5000     0.6836    16.5569  -999.2500  -999.2500
 1629.0000     0.6506    16.2931  -999.2500  -999.2500
 1629.5000     0.6508    16.2931  -999.2500  -999.2500
 1630.0000     0.6718    16.0604  -999.2500  -999.2500
 1630.5000     0.6789    15.6362  -999.2500  -999.2500
 1631.0000     0.6791    14.7414  -999.2500  -999.2500
 1631.5000     0.6791    14.7414  -999.2500  -999.2500
 1632.0000     0.6792    14.3534  -999.2500  -999.2500
 1632.5000     0.6793    13.9396  -999.2500  -999.2500
 1633.0000     0.6731    13.5156  -999.2500  -999.2500
 1633.5000     0.6314    13.0914  -999.2500  -999.2500
 1634.0000     0.5896    12.6673  -999.2500  -999.2500
 1634.5000     0.5973    12.5196  -999.2500  -999.2500
 1635.0000     0.6811    12.6853  -999.2500  -999.2500
 1635.5000     0.7533    12.6892  -999.2500  -999.2500
 1636.0000     0.7762    12.4656  -999.2500  -999.2500
 1636.5000     0.7612    12.0469  -999.2500  -999.2500
 1637.0000     0.7571    11.3315  -999.2500  -999.2500
 1637.5000     0.7572    11.1530  -999.2500  -999.2500
 1638.0000     0.7573    11.1571  -999.2500  -999.2500
 1638.5000     0.7652    11.1482  -999.2500  -999.2500
 1639.0000     0.8281    10.7296  -999.2500  -999.2500
 1639.5000     0.8790    10.3919  -999.2500  -999.2500
 1640.0000     0.9000    10.3966  -999.2500  -999.2500
 1640.5000     0.9210    10.2494  -999.2500  -999.2500
 1641.0000     0.9421     9.8308  -999.2500  -999.2500
 1641.5000     0.9375     9.6323  -999.2500  -999.2500
 1642.0000     0.9167     9.6362  -999.2500  -999.2500
 1642.5000     0.8736     9.6401  -999.2500  -999.2500
 1643.0000     0.8352     9.2566  -999.2500  -999.2500
 1643.5000     0.8157     9.2602  -999.2500  -999.2500
 1644.0000     0.7969     9.2638  -999.2500  -999.2500
 1644.5000     0.7970     9.2279  -999.2500  -999.2500
 1645.0000     0.8026     8.8829  -999.2500  -999.2500
 1645.5000     0.8379     8.8875  -999.2500  -999.2500
 1646.0000     0.9096     8.7479  -999.2500  -999.2500
