~VERSION INFORMATION
 VERS.                2.0:   CWLS LOG ASCII STANDARD - VERSION 2.0
 WRAP.                 NO:   ONE LINE PER DEPTH STEP
~WELL INFORMATION
#MNEM.UNIT      DATA TYPE    INFORMATION
#----------   ------------   ------------------------------
 STRT.F           11.5000:   START DEPTH
 STOP.F          697.0000:   STOP DEPTH
 STEP.F            0.5000:   STEP LENGTH
 NULL.          -999.2500:   NO VALUE
 COMP. FENIX & SCISSON INC:   COMPANY
 WELL.    NPR3 SX-2 #12-2:   WELL
 FLD .             TEAPOT:   FIELD
 LOC .       S2 T38N R78W:   LOCATION
 CNTY.            NATRONA:   COUNTY
 STAT.            WYOMING:   STATE
 CTRY. UNITED STATES OF AMERICA:   COUNTRY
 SRVC.           BIRDWELL:   SERVICE COMPANY
 DATE.        13-JAN-1978:   LOGDATE
 API .       490251055000:   API NUMBER
~CURVE INFORMATION
#MNEM.UNIT       API CODE    CURVE DESCRIPTION
#----------   ------------   ------------------------------
 DEPT.F                  :   
 CALD.IN     45 280 60 00:   CALIPER FROM DENSITY LOG
 CORR.G/C3   45 356 01 00:   DENSITY CORRECTION
 RHOB.G/C3   45 350 01 00:   BULK DENSITY
 GRD .GAPI   45 310 01 00:   GAMMA RAY FROM DENSITY LOG
 DPHI.DEC    45 890 12 00:   DENSITY POROSITY SANDSTONE
 ILD .OHMM   05 120 46 00:   INDUCTION LOG DEEP
 SN  .OHMM   05 040 16 00:   SHORT NORMAL 16"
 SPR .MV     05 010 01 00:   SPONTANEOUS POTENTIAL FROM RES.
~PARAMETER INFORMATION
#MNEM.UNIT          VALUE    DESCRIPTION
#----------   ------------   ------------------------------
 PD  .                 GL:   PERMANENT DATUM
 EPD .F              5094:   ELEVATION PERMANENT DATUM
 LMF .                 KB:   LOG MEASURED FROM
 DAPD.F                 4:   FEET ABOVE PERMANENT DATUM
 DMF .                 KB:   DRILLING MEASURED FROM
 EKB .F              5098:   KELLING BUSHING
 EGL .F              5094:   GROUND LEVEL
 DATE.        13-JAN-1978:   RUN DATE
 RUN .                  1:   RUN NUMBER
 DD  .F               695:   DEPTH DRILLER
 DL  .F               697:   DEPTH LOGGER
 BLI .F               692:   BOTTOM LOG INTERVAL
 TLI .F                30:   TOP LOG INTERVAL
 CS  .IN            8.625:   CASING SIZE
 CBD .F                35:   CASING BOTTOM DRILLER
 CBL .F                35:   CASING BOTTOM LOGGER
 BS  .IN            7.875:   BIT SIZE
 BSD .F               695:   BIT SIZE AT DEPTH
 DFT .                KCL:   DRILLING FLUID TYPE
 DFD .                8.6:   DRILLING FLUID DENSITY
 DFV .                 32:   DRILLING FLUID VISCOSITY
 DFPH.                9.5:   DRILLING FLUID PH
 DFL .                 12:   DRILLING FLUID LOSS
 MSS .           FLOWLINE:   MUD SAMPLE SOURCE
 RMS .OHMM            0.3:   RESISTIVITY MUD SAMPLE
 MST .F                59:   MUD SAMPLE TEMPERATURE
 RMF .OHMM           0.24:   RESISTIVITY MUD FILTRATE SAMPLE
 MFST.F                70:   MUD FILTRATE SAMPLE TEMPERATURE
 RMC .OHMM           0.56:   RESISTIVITY MUD CAKE
 MCST.F                63:   MUD CAKE SAMPLE TEMPERATURE
 MFSS.               MEAS:   MUD FILTRATE SAMPLE SOURCE
 MCSS.               MEAS:   MUD CAKE SAMPLE SOURCE
 RMB .OHMM           0.26:   RESISTIVITY MUD AT BHT
 BHT .F                72:   BOTTOM HOLE TEMPERATURE
 TCS .HRS               2:   TIME CURCULATED STOPPED
 MRT .F                72:   MAXIMUM RECORDED TEMPERATURE
 LUN .               2958:   LOGGING UNIT NUMBER
 LUL .             CASPER:   LOGGING UNIT LOCATION
 ENGI.           MARTINEZ:   RECORDING ENGINEER
 WITN.       MR. MCGINLEY:   WITNESSED BY
 CLNT.            A2DTECH:   CLIENT CODE
 ORIG.           5" PRINT:   ORIGIN OF DATA
 UWI .       490251055000:   UNIQUE WELL ID
 DICO. A2D Technologies, Inc.:   DIGITIZING COMPANY
~OTHER INFORMATION
~A   DEPT     CALD       CORR       RHOB         GRD      DPHI        ILD         SN        SPR   
# ...
  619.0000     8.5374     0.0717     2.5054    91.0686     0.0904    10.9301    11.1831   -27.4924
  619.5000     8.5371     0.0747     2.5024    90.4739     0.0922    10.4852    10.9194   -27.7946
  620.0000     8.5368     0.0823     2.5084    91.9828     0.0851     9.7166    10.6941   -27.9456
  620.5000     8.5516     0.1078     2.5219    94.9916     0.0892     8.7587    10.2582   -28.2477
  621.0000     8.5513     0.1095     2.5227    98.0005     0.0934     8.0607     9.8400   -28.5589
  621.5000     8.5510     0.1064     2.5152    99.2061     0.0838     7.5738     9.3738   -29.0267
  622.0000     8.5507     0.1171     2.5122    96.9612     0.0868     7.3160     8.9917   -29.4562
  622.5000     8.5654     0.1200     2.5100    91.7119     0.0940     7.3662     8.6851   -29.9094
  623.0000     8.5668     0.1110     2.5010    80.6066     0.0961     7.7847     8.4472   -30.2115
  623.5000     8.5948     0.1095     2.5131    83.7147     0.0934     8.4079     8.3884   -30.3625
  624.0000     8.5945     0.1171     2.5258    92.4746     0.0835     9.0201     8.5126   -30.3625
  624.5000     8.5942     0.1021     2.5328    95.4906     0.0721     9.8457     9.0509   -29.9094
  625.0000     8.5939     0.0976     2.5396    93.0941     0.0697    10.4050     9.6323   -28.8520
  625.5000     8.5937     0.1036     2.5476    91.1480     0.0672    10.8450    10.2511   -28.3988
  626.0000     8.5934     0.1157     2.5544    91.9046     0.0647    11.2258    10.8343   -28.2477
  626.5000     8.5931     0.1247     2.5567    94.7634     0.0601    11.6199    11.1380   -28.0967
  627.0000     8.5777     0.1308     2.5537    96.4209     0.0622    11.9449    11.4499   -28.0967
  627.5000     8.5774     0.1291     2.5500    96.2751     0.0676    12.2791    11.6089   -27.9456
  628.0000     8.5771     0.1218     2.5440    95.9820     0.0679    12.4492    11.9341   -27.9456
  628.5000     8.5768     0.1143     2.5463    95.2373     0.0664    12.6218    12.1025   -27.9456
  629.0000     8.5916     0.1084     2.5478    93.4256     0.0658    12.7085    12.2790   -27.7946
  629.5000     8.5913     0.1039     2.5448    90.3424     0.0676    12.8058    12.6111   -27.4924
  630.0000     8.6060     0.1024     2.5403    87.7475     0.0700    13.1535    12.8750   -27.3414
  630.5000     8.6057     0.0994     2.5350    92.1092     0.0724    13.3358    13.0734   -27.1903
  631.0000     8.6054     0.0950     2.5298    95.1180     0.0752    13.6144    13.3414   -27.0393
  631.5000     8.6051     0.0920     2.5269    96.3236     0.0769    13.8030    13.6056   -26.8882
  632.0000     8.6048     0.1025     2.5314    93.0277     0.0754    13.9943    13.6993   -26.7372
  632.5000     8.5895     0.1269     2.5487    88.8294     0.0643    14.1882    13.8894   -26.5861
  633.0000     8.5892     0.1389     2.5562    89.7361     0.0625    14.2860    14.0821   -26.4350
  633.5000     8.5889     0.1447     2.5510    90.1925     0.0691    14.3839    14.1823   -26.2840
  634.0000     8.5885     0.1552     2.5420    89.2974     0.0712    14.4827    14.3758   -26.1329
  634.5000     8.5882     0.1687     2.5390    87.2012     0.0583    14.5822    14.5751   -25.8308
  635.0000     8.6030     0.1838     2.5608    88.1181     0.0499    14.6824    14.6756   -25.8308
  635.5000     8.6027     0.1943     2.5649    88.7147     0.0503    14.7989    14.7766   -25.6798
  636.0000     8.6024     0.1553     2.5481    86.0191     0.0614    14.8848    14.9814   -25.5287
  636.5000     8.6021     0.1328     2.5382    83.6226     0.0713    14.9871    14.9804   -25.3691
  637.0000     8.6018     0.1238     2.5338    83.3267     0.0755    15.0900    15.0837   -25.2266
  637.5000     8.6015     0.1194     2.5324    87.3881     0.0755    15.0888    15.1873   -25.0755
  638.0000     8.6012     0.1179     2.5332    93.4000     0.0767    15.0879    15.2918   -24.9245
  638.5000     8.6009     0.1194     2.5340    94.4569     0.0791    15.0867    15.2907   -24.9245
  639.0000     8.6005     0.1240     2.5302    94.0124     0.0797    15.0858    15.2756   -24.9245
  639.5000     8.6002     0.1330     2.5235    92.3666     0.0797    15.0847    15.1831   -24.7734
  640.0000     8.6000     0.1450     2.5228    90.4005     0.0791    14.9797    15.1819   -24.9245
  640.5000     8.5997     0.1526     2.5333    91.3273     0.0740    14.9787    15.1809   -24.9245
  641.0000     8.5994     0.1436     2.5453    85.1131     0.0695    14.9206    15.0751   -24.9245
  641.5000     8.6142     0.1211     2.5401    84.4322     0.0707    14.8732    15.0741   -25.0755
  642.0000     8.6138     0.1046     2.5334    87.1422     0.0731    14.7697    14.9690   -25.0755
  642.5000     8.6135     0.1032     2.5289    89.1000     0.0761    14.7687    14.9680   -25.0755
  643.0000     8.5982     0.1107     2.5289    88.0549     0.0785    14.6660    14.8637   -25.2266
  643.5000     8.5979     0.1186     2.5319    85.5082     0.0803    14.6650    14.8593   -25.2266
  644.0000     8.5976     0.1243     2.5395    82.9615     0.0800    14.5630    14.7455   -25.3776
  644.5000     8.5972     0.1213     2.5507    82.0650     0.0758    14.5620    14.6560   -25.3776
  645.0000     8.5969     0.1093     2.5373    85.6760     0.0746    14.4606    14.6551   -25.3776
  645.5000     8.5967     0.1018     2.5298    89.1358     0.0761    14.4597    14.4525   -25.5287
  646.0000     8.5964     0.1004     2.5283    91.6942     0.0743    14.3591    14.3518   -25.5287
  646.5000     8.5961     0.1004     2.5396    94.2527     0.0668    14.3521    14.2518   -25.5287
  647.0000     8.5958     0.1019     2.5456    95.4597     0.0659    14.1456    14.2148   -25.5287
  647.5000     8.5932     0.1020     2.5486    95.1653     0.0722    13.9643    14.0539   -25.5287
  648.0000     8.5801     0.1020     2.5494    93.5195     0.0779    13.6767    13.9559   -25.6798
  648.5000     8.5798     0.1005     2.5448    94.4815     0.0831    13.4879    13.7630   -25.6798
  649.0000     8.5795     0.0982     2.5394    97.8800     0.0877    13.3018    13.6671   -25.8308
  649.5000     8.5792     0.0961     2.5300   101.1948     0.0899    13.0278    13.4780   -25.8308
  650.0000     8.5940     0.0961     2.5262    96.3974     0.0731    12.9306    13.4771   -25.8144
  650.5000     8.5932     0.1004     2.5405    91.3007     0.0695    12.8889    13.2908   -25.7741
  651.0000     8.5887     0.1130     2.5487    90.5628     0.0669    12.8472    13.1206   -25.7337
  651.5000     8.5841     0.1277     2.5592    90.2702     0.0627    12.7454    12.8456   -25.6891
  652.0000     8.5796     0.1217     2.5577    90.7336     0.0588    12.5661    12.5705   -25.8432
  652.5000     8.5751     0.1068     2.5508    95.3985     0.0615    12.3893    12.2954   -25.9972
  653.0000     8.5705     0.0978     2.5449    99.6130     0.0651    12.2997    12.1375   -26.4533
  653.5000     8.5660     0.0948     2.5427   101.8755     0.0630    12.2108    12.1358   -26.7584
  654.0000     8.5614     0.0918     2.5404   101.1272     0.0667    12.2067    12.0504   -27.0635
  654.5000     8.5899     0.0919     2.5427    99.2758     0.0678    12.2025    12.0487   -27.2175
  655.0000     8.6045     0.1024     2.5472    96.6537     0.0643    12.1143    11.9636   -27.3716
  655.5000     8.6040     0.1129     2.5531    94.5619     0.0624    12.0267    11.9622   -27.5263
  656.0000     8.5885     0.1175     2.5584    93.2208     0.0582    12.0226    11.9606   -27.5287
  656.5000     8.5881     0.1175     2.5592    92.4804     0.0589    12.0187    11.9586   -27.5322
  657.0000     8.5726     0.1130     2.5516    92.1878     0.0644    11.9317    11.8745   -27.5351
  657.5000     8.5571     0.1101     2.5479    93.1015     0.0653    11.9276    11.7909   -27.6892
  658.0000     8.5529     0.1071     2.5486    94.6133     0.0629    11.9235    11.7080   -27.6921
  658.5000     8.5412     0.1056     2.5448    97.0260     0.0650    11.9194    11.7064   -27.6951
  659.0000     8.5407     0.1026     2.5411    99.1384     0.0671    11.8332    11.6240   -27.6981
