~VERSION INFORMATION
 VERS.                2.0:   CWLS LOG ASCII STANDARD - VERSION 2.0
 WRAP.                 NO:   ONE LINE PER DEPTH STEP
~WELL INFORMATION
#MNEM.UNIT      DATA TYPE    INFORMATION
#----------   ------------   ------------------------------
 STRT.F          250.0000:   START DEPTH
 STOP.F         1798.0000:   STOP DEPTH
 STEP.F            0.5000:   STEP LENGTH
 NULL.          -999.2500:   NO VALUE
 COMP. BROWN JOHN E&C INC:   COMPANY
 WELL. NPR 3 STX-10 #57-10:   WELL
 FLD .  TEAPOT DOME NPR 3:   FIELD
 LOC .      S10 T38N R78W:   LOCATION
 CNTY.            NATRONA:   COUNTY
 STAT.            WYOMING:   STATE
 CTRY. UNITED STATES OF AMERICA:   COUNTRY
 SRVC.           BIRDWELL:   SERVICE COMPANY
 DATE.        24-FEB-1979:   LOGDATE
 API .       490251096900:   API NUMBER
~CURVE INFORMATION
#MNEM.UNIT       API CODE    CURVE DESCRIPTION
#----------   ------------   ------------------------------
 DEPT.F                  :   
 GRD .GAPI   45 310 01 00:   GAMMA RAY FROM DENSITY LOG
 CALD.IN     45 280 60 00:   CALIPER
 RHOB.G/C3   45 350 01 00:   BULK DENSITY
 DPHI.DEC    45 890 12 00:   DENSITY POROSITY SANDSTONE
 CORR.G/C3   45 356 01 00:   DENSITY CORRECTION
~PARAMETER INFORMATION
#MNEM.UNIT          VALUE    DESCRIPTION
#----------   ------------   ------------------------------
 PD  .                 GL:   PERMANENT DATUM
 EPD .F              5201:   ELEVATION PERMANENT DATUM
 LMF .                 KB:   LOG MEASURED FROM
 DAPD.F                10:   FEET ABOVE PERMANENT DATUM
 DMF .                 KB:   DRILLING MEASURED FROM
 EKB .F              5211:   KELLING BUSHING
 EGL .F              5201:   GROUND LEVEL
 RUN .                  1:   RUN NUMBER
 DD  .F              1802:   DEPTH DRILLER
 DL  .F              1793:   DEPTH LOGGER
 BLI .F              1793:   BOTTOM LOG INTERVAL
 TLI .F               250:   TOP LOG INTERVAL
 CS  .IN            9.625:   CASING SIZE
 CBD .F               500:   CASING BOTTOM DRILLER
 CBL .F               490:   CASING BOTTOM LOGGER
 BS  .IN             8.75:   BIT SIZE
 BSD .F              1802:   BIT SIZE AT DEPTH
 DFT .                OIL:   DRILLING FLUID TYPE
 BHT .F                90:   BOTTOM HOLE TEMPERATURE
 TCS .HRS               4:   TIME CURCULATED STOPPED
 MRT .F                90:   MAXIMUM RECORDED TEMPERATURE
 LUN .               3029:   LOGGING UNIT NUMBER
 LUL .             CASPER:   LOGGING UNIT LOCATION
 ENGI.            ROLLINS:   RECORDING ENGINEER
 WITN.              AMEND:   WITNESSED BY
 CLNT.            A2DTECH:   CLIENT CODE
 ORIG.       2", 5" PRINT:   ORIGIN OF DATA
 UWI .       490251096900:   UNIQUE WELL ID
 DICO. A2D Technologies, Inc.:   DIGITIZING COMPANY
~OTHER INFORMATION
~A   DEPT       GRD        CALD       RHOB       DPHI      CORR  
# ...
 1531.0000   125.0555     8.9518     2.5729    -0.0076     0.1244
 1531.5000   128.0480     9.0330     2.5581    -0.0022     0.1060
 1532.0000   128.6533     9.1113     2.5491     0.0002     0.0993
 1532.5000   127.5520     9.0722     2.5659    -0.0091     0.1146
 1533.0000   125.6547     9.0269     2.5605    -0.0001     0.1292
 1533.5000   124.1301     8.9821     2.5494     0.0060     0.1458
 1534.0000   126.1098     8.9375     2.5399    -0.0138     0.2322
 1534.5000   129.2964     8.8928     2.6805    -0.0488     0.3705
 1535.0000   126.1570     8.8482     2.6650    -0.0749     0.4467
 1535.5000   118.8651     8.8036     2.6787    -0.0846     0.4790
 1536.0000   120.8942     8.7589     2.7034    -0.0794     0.4443
 1536.5000   124.4418     8.7141     2.6671    -0.0672     0.3964
 1537.0000   128.0359     8.6699     2.6426    -0.0549     0.3483
 1537.5000   131.6898     8.6339     2.6475    -0.0427     0.2997
 1538.0000   133.6077     8.6595     2.6237    -0.0305     0.2435
 1538.5000   130.0104     8.6840     2.5855    -0.0196     0.2013
 1539.0000   125.0182     8.7081     2.5859    -0.0187     0.2004
 1539.5000   123.8430     8.7324     2.5876    -0.0177     0.1868
 1540.0000   126.4413     8.7566     2.5887    -0.0044     0.1405
 1540.5000   130.4456     8.7731     2.5335     0.0124     0.1034
 1541.0000   134.4541     8.7904     2.5343     0.0124     0.1174
 1541.5000   137.5504     8.8229     2.5438     0.0058     0.1339
 1542.0000   134.7861     8.8554     2.5539    -0.0013     0.1261
 1542.5000   131.9818     8.8880     2.5640    -0.0096     0.1113
 1543.0000   129.1763     8.9207     2.5655    -0.0078     0.1030
 1543.5000   127.7312     8.9534     2.5538    -0.0043     0.1097
 1544.0000   128.8584     8.9859     2.5648     0.0008     0.1143
 1544.5000   130.1534     9.0184     2.5682    -0.0092     0.1073
 1545.0000   131.2737     9.0261     2.5571    -0.0027     0.0942
 1545.5000   129.9210     9.0112     2.5482     0.0038     0.0810
 1546.0000   128.2946     8.9962     2.5408     0.0064     0.0683
 1546.5000   127.0373     8.9816     2.5670    -0.0080     0.0865
 1547.0000   128.4266     8.9884     2.5620    -0.0050     0.1039
 1547.5000   129.8561     9.0421     2.5536     0.0008     0.0978
 1548.0000   131.2613     9.0940     2.5449     0.0066     0.1249
 1548.5000   129.9711     9.1459     2.5368     0.0104     0.1584
 1549.0000   127.6005     9.1977     2.5444     0.0083     0.1622
 1549.5000   125.7019     9.2494     2.5482     0.0037     0.1704
 1550.0000   127.7561     9.2617     2.5417    -0.0012     0.1931
 1550.5000   129.8938     9.2347     2.5673    -0.0083     0.2153
 1551.0000   130.3001     9.2077     2.5921    -0.0269     0.2380
 1551.5000   122.8145     9.1805     2.6166    -0.0371     0.2435
 1552.0000   125.0810     9.1533     2.6193    -0.0304     0.2141
 1552.5000   122.2971     9.1261     2.6032    -0.0229     0.1906
 1553.0000   117.9405     9.0989     2.5797    -0.0168     0.2185
 1553.5000   119.7086     9.0717     2.5952    -0.0273     0.2688
 1554.0000   122.0967     9.0445     2.6323    -0.0424     0.3187
 1554.5000   122.7480     9.0174     2.6691    -0.0575     0.3680
 1555.0000   120.1742     8.9902     2.6922    -0.0695     0.3928
 1555.5000   118.9962     8.9630     2.6824    -0.0769     0.3275
 1556.0000   123.9861     8.9358     2.6564    -0.0495     0.2772
 1556.5000   127.4777     8.9086     2.5981    -0.0294     0.2263
 1557.0000   127.4834     8.8812     2.5922    -0.0224     0.2007
 1557.5000   126.8369     8.8539     2.5806    -0.0104     0.1890
 1558.0000   126.0233     8.8490     2.5427     0.0064     0.1520
 1558.5000   125.2002     8.8452     2.5502    -0.0020     0.1501
 1559.0000   124.6787     8.8412     2.5725    -0.0120     0.1463
 1559.5000   124.9949     8.8371     2.5612    -0.0053     0.1152
 1560.0000   125.2922     8.8331     2.5375     0.0078     0.0829
 1560.5000   125.5494     8.8290     2.5268     0.0143     0.0741
 1561.0000   127.0474     8.8250     2.5335     0.0103     0.0988
 1561.5000   128.8033     8.8210     2.5425     0.0066     0.1268
 1562.0000   130.5793     8.8169     2.5494     0.0040     0.1285
 1562.5000   132.3690     8.8122     2.5241     0.0183     0.1129
 1563.0000   132.6910     8.8354     2.5032     0.0269     0.1049
 1563.5000   132.4429     8.8633     2.5150     0.0113     0.1246
 1564.0000   131.0920     8.8914     2.5310     0.0156     0.1324
 1564.5000   129.7575     8.9195     2.5223     0.0258     0.1018
 1565.0000   128.4226     8.9476     2.5116     0.0289     0.0769
 1565.5000   127.0736     8.9756     2.5032     0.0290     0.0760
 1566.0000   127.1835     9.0037     2.5269     0.0020     0.0969
 1566.5000   127.5655     9.0318     2.5462     0.0058     0.1100
 1567.0000   127.9112     9.0599     2.5390     0.0152     0.1074
 1567.5000   126.8761     9.0880     2.5311     0.0098     0.1114
 1568.0000   125.7042     9.1141     2.5386    -0.0003     0.1266
 1568.5000   124.5260     9.1047     2.5484     0.0004     0.1417
 1569.0000   123.6132     9.0818     2.5580    -0.0019     0.1567
 1569.5000   124.7373     9.0591     2.5652    -0.0099     0.1721
 1570.0000   126.0241     9.0364     2.5548     0.0020     0.1938
 1570.5000   127.3035     9.0136     2.5484    -0.0239     0.2354
 1571.0000   128.5792     8.9909     2.6027    -0.0331     0.2667
 1571.5000   128.5881     8.9682     2.6333    -0.0317     0.2184
 1572.0000   127.1422     8.9453     2.5949    -0.0151     0.1535
 1572.5000   125.7017     8.9037     2.5694    -0.0132     0.1304
 1573.0000   124.2507     8.8411     2.5993    -0.0219     0.1587
 1573.5000   122.8004     8.7785     2.6031    -0.0270     0.1995
 1574.0000   121.3670     8.7163     2.5953    -0.0283     0.2402
 1574.5000   120.5664     8.6711     2.6067    -0.0382     0.2752
 1575.0000   121.1655     8.6774     2.6194    -0.0449     0.2702
 1575.5000   122.7883     8.6983     2.6259    -0.0388     0.2246
 1576.0000   124.9773     8.7185     2.5909    -0.0137     0.1727
 1576.5000   127.4515     8.7387     2.5227     0.0115     0.1199
 1577.0000   130.1791     8.7589     2.5361     0.0177     0.0718
 1577.5000   132.8937     8.7791     2.5587    -0.0096     0.0999
 1578.0000   135.6189     8.7992     2.5785    -0.0092     0.1265
 1578.5000   136.6499     8.8195     2.5571     0.0082     0.1218
 1579.0000   134.9338     8.8395     2.5224     0.0219     0.1101
 1579.5000   133.6454     8.8613     2.5008     0.0253     0.1142
 1580.0000   132.3440     8.8826     2.5278     0.0271     0.1329
 1580.5000   131.0441     8.9038     2.5564     0.0110     0.1468
 1581.0000   129.7439     8.9251     2.5587    -0.0023     0.1474
 1581.5000   128.4384     8.9464     2.5519    -0.0024     0.1485
 1582.0000   127.1380     8.9676     2.5475    -0.0021     0.1588
 1582.5000   126.0605     8.9893     2.5615    -0.0177     0.1730
 1583.0000   128.4238     8.9915     2.5779    -0.0168     0.1871
 1583.5000   130.9165     8.9848     2.5854    -0.0192     0.1947
 1584.0000   133.3863     8.9781     2.5883    -0.0212     0.1901
 1584.5000   135.8767     8.9713     2.5832    -0.0204     0.1719
 1585.0000   136.4476     8.9646     2.5720    -0.0115     0.1537
 1585.5000   134.1665     8.9580     2.5594    -0.0008     0.1355
 1586.0000   132.4139     8.9690     2.5721    -0.0024     0.1173
 1586.5000   131.1763     9.0098     2.5820    -0.0052     0.0989
 1587.0000   133.0325     9.0500     2.5678    -0.0080     0.0804
 1587.5000   135.4575     9.0900     2.5486     0.0132     0.0798
 1588.0000   137.8450     9.1152     2.5297     0.0093     0.0910
 1588.5000   139.5577     9.0941     2.5540     0.0023     0.1023
 1589.0000   136.6197     9.0693     2.5682    -0.0036     0.1136
 1589.5000   133.6947     9.0439     2.5484     0.0006     0.1166
 1590.0000   130.7459     9.0184     2.5386     0.0087     0.1047
 1590.5000   130.2979     8.9942     2.5663     0.0132     0.0888
 1591.0000   132.5244     8.9951     2.5531     0.0104     0.0728
 1591.5000   133.7744     9.0351     2.5357     0.0153     0.0698
