~VERSION INFORMATION
 VERS.                2.0:   CWLS LOG ASCII STANDARD - VERSION 2.0
 WRAP.                 NO:   ONE LINE PER DEPTH STEP
~WELL INFORMATION
#MNEM.UNIT      DATA TYPE    INFORMATION
#----------   ------------   ------------------------------
 STRT.F           30.0000:   START DEPTH
 STOP.F          618.0000:   STOP DEPTH
 STEP.F            0.5000:   STEP LENGTH
 NULL.          -999.2500:   NO VALUE
 COMP. FENNIX & SCISSON, INC.:   COMPANY
 WELL.       NPR #88-S-10:   WELL
 FLD .              NPR-3:   FIELD
 LOC .      S10 T38N R78W:   LOCATION
 CNTY.            NATRONA:   COUNTY
 STAT.            WYOMING:   STATE
 CTRY. UNITED STATES OF AMERICA:   COUNTRY
 SRVC.              Welex:   SERVICE COMPANY
 DATE.        22-APR-1977:   LOGDATE
 API .       490251034200:   API NUMBER
~CURVE INFORMATION
#MNEM.UNIT       API CODE    CURVE DESCRIPTION
#----------   ------------   ------------------------------
 DEPT.F                  :   
 CALD.IN     45 280 60 00:   CALIPER FROM DENSITY LOG
 GRD .GAPI   45 310 01 00:   GAMMA RAY FROM DENSITY LOG
 CORR.G/C3   45 356 01 00:   DENSITY CORRECTION
 RHOB.G/C3   45 350 01 00:   BULK DENSITY
 DPHI.DEC    45 890 12 00:   DENSITY POROSITY SANDSTONE
 ILD .OHMM   07 120 46 00:   INDUCTION LOG DEEP
 ILM .OHMM   07 120 44 00:   INDUCTION LOG MEDIUM
 SGRD.OHMM   07 220 05 00:   SHALLOW GUARD RESISTIVITY
 SPR .MV     07 010 01 00:   SPONTANEOUS POTENTIAL FROM RES.
~PARAMETER INFORMATION
#MNEM.UNIT          VALUE    DESCRIPTION
#----------   ------------   ------------------------------
 PD  .                 GL:   PERMANENT DATUM
 EPD .F              5255:   ELEVATION PERMANENT DATUM
 LMF .                 GL:   LOG MEASURED FROM
 DMF .                 GL:   DRILLING MEASURED FROM
 EGL .F              5255:   GROUND LEVEL
 DATE.        22-APR-1977:   RUN DATE
 RUN .                  1:   RUN NUMBER
 DD  .F               630:   DEPTH DRILLER
 DL  .F               620:   DEPTH LOGGER
 BLI .F               618:   BOTTOM LOG INTERVAL
 TLI .F                38:   TOP LOG INTERVAL
 CS  .IN            8.625:   CASING SIZE
 CBD .F                40:   CASING BOTTOM DRILLER
 BS  .IN            7.875:   BIT SIZE
 BSD .F               630:   BIT SIZE AT DEPTH
 DFT .            KCL GEL:   DRILLING FLUID TYPE
 DFD .                9.0:   DRILLING FLUID DENSITY
 DFV .                 40:   DRILLING FLUID VISCOSITY
 DFPH.                8.0:   DRILLING FLUID PH
 DFL .                6.4:   DRILLING FLUID LOSS
 MSS .            MUD PIT:   MUD SAMPLE SOURCE
 RMS .OHMM            .20:   RESISTIVITY MUD SAMPLE
 MST .F                65:   MUD SAMPLE TEMPERATURE
 RMF .OHMM            .18:   RESISTIVITY MUD FILTRATE SAMPLE
 MFST.F                65:   MUD FILTRATE SAMPLE TEMPERATURE
 RMC .OHMM            .28:   RESISTIVITY MUD CAKE
 MCST.F                65:   MUD CAKE SAMPLE TEMPERATURE
 MFSS.               MEAS:   MUD FILTRATE SAMPLE SOURCE
 MCSS.               MEAS:   MUD CAKE SAMPLE SOURCE
 RMB .OHMM            .18:   RESISTIVITY MUD AT BHT
 BHT .F                71:   BOTTOM HOLE TEMPERATURE
 TCS .HRS            0300:   TIME CURCULATED STOPPED
 MRT .F                71:   MAXIMUM RECORDED TEMPERATURE
 LUN .               8611:   LOGGING UNIT NUMBER
 LUL .             CASPER:   LOGGING UNIT LOCATION
 ENGI.          T. JOYNER:   RECORDING ENGINEER
 WITN.           ROB LYON:   WITNESSED BY
 CLNT.            A2DTECH:   CLIENT CODE
 ORIG.           5" PRINT:   ORIGIN OF DATA
 UWI .       490251034200:   UNIQUE WELL ID
 DICO. A2D Technologies, Inc.:   DIGITIZING COMPANY
~OTHER INFORMATION
~A   DEPT     CALD        GRD       CORR       RHOB       DPHI        ILD        ILM       SGRD        SPR   
# ...
  577.5000     7.8468   106.1377     0.0150     2.4966     0.1074     9.7169    11.6124    15.1945   -16.8601
  578.0000     7.8619   108.5329     0.0180     2.4959     0.1071     9.7119    10.9088    15.3981   -16.8692
  578.5000     7.8471   109.5808     0.0210     2.4966     0.1056     9.7752    10.8283    15.4991   -16.8780
  579.0000     7.8473   110.9281     0.0210     2.4996     0.1017     9.8387    11.3636    15.4898   -16.7380
  579.5000     7.8324   111.2275     0.0195     2.5026     0.0996     9.8345    11.6736    15.3761   -16.7470
  580.0000     7.8176   108.6826     0.0195     2.5034     0.1005     9.8305    11.5674    15.3687   -16.7560
  580.5000     7.8028   105.6886     0.0194     2.5004     0.1032     9.8944    11.0866    15.4695   -16.7649
  581.0000     7.8030   107.3353     0.0179     2.4877     0.1065     9.8903    10.6580    15.5691   -16.7755
  581.5000     7.8032   109.5808     0.0164     2.4757     0.1092     9.8184    10.3637    15.5598   -16.7843
  582.0000     7.8033   109.7305     0.0149     2.4712     0.1113     9.7469    10.3595    15.5524   -16.7932
  582.5000     7.8035   106.8862     0.0164     2.4690     0.1113     9.6760    10.6461    15.3321   -16.8020
  583.0000     7.7887   106.2874     0.0163     2.4727     0.1071     9.6720    10.9383    15.0111   -16.8108
  583.5000     7.7888   106.5868     0.0178     2.4869     0.1038     9.6017    11.1625    14.9008   -16.8196
  584.0000     7.7890   109.7305     0.0208     2.4981     0.1006     9.5880    11.2364    14.8937   -16.6797
  584.5000     7.7891   113.6228     0.0223     2.4990     0.1003     9.5279    10.9249    15.0933   -16.6885
  585.0000     7.7893   116.3174     0.0208     2.4921     0.1074     9.3284    10.4776    15.2955   -16.5463
  585.5000     7.7894   117.6647     0.0178     2.4921     0.1057     9.1969    10.1182    15.2881   -16.5573
  586.0000     7.7896   117.9641     0.0148     2.4877     0.1027     9.1300     9.8388    15.1632   -16.4151
  586.5000     7.7897   112.4251     0.0117     2.4697     0.1140     9.1263     9.5671    15.0473   -16.4262
  587.0000     7.7899   110.1796     0.0102     2.4570     0.1194     8.9977     9.3673    14.6460   -16.2840
  587.5000     7.7900   110.9281     0.0057     2.4458     0.1221     8.8101     9.1716    14.4386   -16.2950
  588.0000     7.7902   112.8743     0.0041     2.4398     0.1245     8.6860     9.0422    14.2341   -16.3038
  588.5000     7.7903   114.8204     0.0041     2.4405     0.1239     8.6228     9.1641    14.0324   -16.3127
  589.0000     7.7755   113.9222     0.0041     2.4488     0.1219     8.7397     9.5475    13.8337   -16.3215
  589.5000     7.7757   114.5210     0.0056     2.4488     0.1216     8.8573     9.9483    13.6377   -16.3304
  590.0000     7.7608   118.8623     0.0086     2.4547     0.1210     8.9149    10.1508    13.4446   -16.4881
  590.5000     7.7610   120.8084     0.0086     2.4645     0.1156     8.9103     9.4702    13.3458   -16.4970
  591.0000     7.7462   120.2096     0.0086     2.4817     0.1063     8.7245     9.8093    13.1568   -16.6548
  591.5000     7.7464   119.4611     0.0086     2.4877     0.1069     8.4256     9.5930    13.0602   -16.6654
  592.0000     7.7465   118.2635     0.0100     2.4869     0.1063     8.2499     9.1370    13.0539   -16.8231
  592.5000     7.7467   117.9641     0.0115     2.4936     0.1019     8.0224     9.0714    13.1395   -16.8319
  593.0000     7.7618   118.1138     0.0130     2.5019     0.0974     7.9094     9.1927    13.0415   -16.9895
  593.5000     7.7619   118.2635     0.0160     2.5138     0.0932     7.7444     9.1258    12.8568   -16.9984
  594.0000     7.7621   118.7126     0.0145     2.5213     0.0908     7.6881     8.9352    12.5876   -16.8562
  594.5000     7.7622   119.0120     0.0115     2.5206     0.0950     8.0092     8.7485    12.3240   -16.8672
  595.0000     7.7624   119.4611     0.0100     2.5131     0.1016     8.2296     8.6251    12.1495   -17.0248
  595.5000     7.7625   118.2635     0.0084     2.4996     0.1049     8.2839     8.5632    12.0603   -17.0337
  596.0000     7.7627   116.9162     0.0084     2.4892     0.1067     8.1103     9.1071    11.9717   -17.0425
  596.5000     7.7478   115.4192     0.0099     2.4854     0.1067     7.9412     9.4229    12.0512   -17.0513
  597.0000     7.7480   113.9222     0.0114     2.4862     0.1061     7.7222     9.1627    12.1324   -17.0601
  597.5000     7.7482   112.5749     0.0144     2.4892     0.1046     7.5611     8.6671    12.2888   -17.2178
  598.0000     7.7483   110.6287     0.0189     2.4989     0.1031     7.4546     8.3122    12.4535   -17.2266
  598.5000     7.7634   107.1856     0.0234     2.5108     0.1016     7.4004     8.3664    12.6188   -17.3842
  599.0000     7.7636    88.6228     0.0234     2.5071     0.1004     7.4485     8.5379    12.7016   -17.3931
  599.5000     7.7637    77.6946     0.0234     2.4936     0.0972     7.4454     8.1883    12.7833   -17.4019
  600.0000     7.7638    56.3902     0.0234     2.4847     0.0951     7.1410     7.6393    11.9246   -17.5595
  600.5000     7.7638  -999.2500     0.0234     2.4981     0.0951     6.9428     7.2738    11.5151   -17.7242
  601.0000     7.7489  -999.2500     0.0234     2.5034     0.0939     6.7525     7.1241    11.1965   -18.0377
  601.5000     7.7489  -999.2500     0.0249     2.5026     0.0918     6.7034     7.1774    10.9621   -18.3512
  602.0000     7.7489  -999.2500     0.0249     2.5019     0.0921     6.6957     7.4801    10.8068   -18.6646
  602.5000     7.7489  -999.2500     0.0265     2.5011     0.0939     6.5039     7.8904    10.6538   -18.9451
  603.0000     7.7489  -999.2500     0.0272     2.5011     0.0954     6.1997     8.1640    10.5029   -19.2516
  603.5000     7.7489  -999.2500     0.0279     2.4988     0.0972     6.1192     7.9386    10.3541   -19.5580
  604.0000     7.7489  -999.2500     0.0279     2.4973     0.0975     6.2015     7.5612    10.2781   -19.7157
  604.5000     7.7489  -999.2500     0.0279     2.4951     0.0972     6.1983     7.1522    10.2026   -20.0221
  605.0000     7.7638  -999.2500     0.0294     2.4943     0.0969     6.0274     7.0029    10.3393   -20.3286
  605.5000     7.7788  -999.2500     0.0294     2.4882     0.0988     5.8612     7.0000    10.4778   -20.6350
  606.0000     7.7937  -999.2500     0.0294     2.4820     0.1053     5.6995     6.9971    10.4728   -20.9414
  606.5000     7.8087  -999.2500     0.0279     2.4569     0.1123     5.6581     6.7571    10.3245   -21.5455
  607.0000     7.8236  -999.2500     0.0249     2.4573     0.1175     5.8138     6.3917    10.0389   -22.1496
  607.5000     7.7937  -999.2500     0.0249     2.4642     0.1153     5.7715     6.0878     9.4957   -22.6048
  608.0000     7.7788  -999.2500     0.0264     2.4768     0.1049     5.4223     5.9197     8.4339   -23.3577
  608.5000     7.7040  -999.2500     0.0279     2.4972     0.0944     5.1649     5.9173     7.7638   -24.1106
  609.0000     7.6143  -999.2500     0.0294     2.5035     0.0927     5.6077     6.0804     7.6049   -24.5658
  609.5000     7.5695  -999.2500     0.0339     2.5024     0.0942     5.8425     6.1624     9.4745   -25.0211
  610.0000     7.5396  -999.2500     0.0370     2.4989     0.0941     5.4134     6.1598    10.9474   -25.3275
  610.5000     7.5396  -999.2500     0.0415     2.5029     0.0923     5.6785     6.1149    11.6426   -25.4852
  611.0000     7.5396  -999.2500     0.0460     2.5056     0.0890     5.7953     5.9872    12.0452   -25.1925
  611.5000     7.5396  -999.2500     0.0520     2.5034     0.0910     5.5962     5.8189    12.2925   -24.7480
  612.0000     7.5396  -999.2500     0.0551     2.4981     0.0952     4.9416     5.6564    12.6302   -24.3036
  612.5000     7.5396  -999.2500     0.0596     2.4921     0.1016     4.2157     5.5364    12.8864   -23.8836
  613.0000     7.5247  -999.2500     0.0656     2.4839     0.1077     4.0999     5.4265    13.0591   -23.5948
  613.5000     7.4948  -999.2500     0.0716     2.4720     0.1112     4.6069     5.3876    13.1431   -23.3060
