~VERSION INFORMATION
 VERS.                2.0:   CWLS LOG ASCII STANDARD - VERSION 2.0
 WRAP.                 NO:   ONE LINE PER DEPTH STEP
~WELL INFORMATION
#MNEM.UNIT      DATA TYPE    INFORMATION
#----------   ------------   ------------------------------
 STRT.F           28.5000:   START DEPTH
 STOP.F          625.0000:   STOP DEPTH
 STEP.F            0.5000:   STEP LENGTH
 NULL.          -999.2500:   NO VALUE
 COMP. FENIX & SCISSON INC:   COMPANY
 WELL.    NPR ##3 13-SX-3:   WELL
 FLD .             TEAPOT:   FIELD
 LOC .       S3 T38N R78W:   LOCATION
 CNTY.            NATRONA:   COUNTY
 STAT.            WYOMING:   STATE
 CTRY. UNITED STATES OF AMERICA:   COUNTRY
 SRVC.       Schlumberger:   SERVICE COMPANY
 DATE.        25-FEB-1977:   LOGDATE
 API .       490251028400:   API NUMBER
~CURVE INFORMATION
#MNEM.UNIT       API CODE    CURVE DESCRIPTION
#----------   ------------   ------------------------------
 DEPT.F                  :   
 SPR .MV     07 010 01 00:   SPONTANEOUS POTENTIAL
 ILD .OHMM   07 120 46 00:   INDUCTION LOG DEEP
 LL8 .OHMM   07 220 08 00:   LATEROLOG-8 RES.
 ILM .OHMM   07 120 44 00:   INDUCTION LOG MEDIUM
 GRD .GAPI   45 310 01 00:   GAMMA RAY FROM DENSITY LOG
 CALD.IN     45 280 60 00:   CALIPER
 RHOB.G/C3   45 350 01 00:   BULK DENSITY
 CORR.G/C3   45 356 01 00:   DENSITY CORRECTION
 DPOR.DEC    45 890 12 00:   DENSITY POROSITY SANDSTONE
~PARAMETER INFORMATION
#MNEM.UNIT          VALUE    DESCRIPTION
#----------   ------------   ------------------------------
 PD  .                 GL:   PERMANENT DATUM
 EPD .F              5227:   ELEVATION PERMANENT DATUM
 LMF .                 GL:   LOG MEASURED FROM
 DMF .                 GL:   DRILLING MEASURED FROM
 EKB .F              5232:   KELLING BUSHING
 EGL .F              5227:   GROUND LEVEL
 DATE.          2-25-1977:   RUN DATE
 RUN .                  1:   RUN NUMBER
 DD  .F               629:   DEPTH DRILLER
 DL  .F               626:   DEPTH LOGGER
 BLI .F               620:   BOTTOM LOG INTERVAL
 TLI .F                40:   TOP LOG INTERVAL
 CS  .IN            8.625:   CASING SIZE
 CBD .F                40:   CASING BOTTOM DRILLER
 CBL .F                40:   CASING BOTTOM LOGGER
 BS  .IN            7.875:   BIT SIZE
 BSD .F               629:   BIT SIZE AT DEPTH
 DFT .                KCL:   DRILLING FLUID TYPE
 DFD .                8.8:   DRILLING FLUID DENSITY
 DFV .                 45:   DRILLING FLUID VISCOSITY
 DFPH.                  8:   DRILLING FLUID PH
 DFL .                8.2:   DRILLING FLUID LOSS
 MSS .                PIT:   MUD SAMPLE SOURCE
 RMS .OHMM           .508:   RESISTIVITY MUD SAMPLE
 MST .F                60:   MUD SAMPLE TEMPERATURE
 RMF .OHMM           .419:   RESISTIVITY MUD FILTRATE SAMPLE
 MFST.F                58:   MUD FILTRATE SAMPLE TEMPERATURE
 MFSS.                  M:   MUD FILTRATE SAMPLE SOURCE
 RMB .OHMM            .41:   RESISTIVITY MUD AT BHT
 BHT .F                75:   BOTTOM HOLE TEMPERATURE
 TCS .HRS            1700:   TIME CURCULATED STOPPED
 TLAB.HRS            2130:   TIME LOGGER AT BOTTOM
 MRT .F                75:   MAXIMUM RECORDED TEMPERATURE
 LUN .               5642:   LOGGING UNIT NUMBER
 LUL .               CSPR:   LOGGING UNIT LOCATION
 ENGI.             MARTIN:   RECORDING ENGINEER
 CLNT.            A2DTECH:   CLIENT CODE
 ORIG.       2", 5" PRINT:   ORIGIN OF DATA
 UWI .       490251028400:   UNIQUE WELL ID
 DICO. A2D Technologies, Inc.:   DIGITIZING COMPANY
~OTHER INFORMATION
~A   DEPT      SPR        ILD        LL8        ILM         GRD      CALD         RHOB     CORR       DPOR   
# ...
  357.0000   -45.3252     7.1770     7.8640     7.5367   116.2007     8.2533     2.4287    -0.0014     0.1289
  357.5000   -46.2571     7.2717     7.9423     7.6349   118.2716     8.2546     2.4441     0.0035     0.1248
  358.0000   -45.9184     7.3676     8.0541     7.7344   119.0502     8.2559     2.4538    -0.0002     0.1255
  358.5000   -45.5339     7.4648     8.1675     7.7945   119.7872     8.2572     2.4472    -0.0038     0.1278
  359.0000   -45.1505     7.5392     8.2801     7.8466   120.5249     8.2585     2.4384    -0.0074     0.1301
  359.5000   -45.2404     7.5075     8.4218     7.8962   122.1569     8.2598     2.4372    -0.0068     0.1324
  360.0000   -45.4084     7.4820     8.4107     7.8652   124.1489     8.2612     2.4459    -0.0033     0.1303
  360.5000   -45.5740     7.4565     8.3670     7.8291   126.2295     8.2625     2.4478    -0.0016     0.1262
  361.0000   -45.6009     7.4311     8.3417     7.7931   125.8767     8.2638     2.4395    -0.0053     0.1325
  361.5000   -45.1671     7.4058     8.3165     7.7573   124.6842     8.2658     2.4334    -0.0089     0.1337
  362.0000   -44.7704     7.3806     8.2914     7.7217   123.4755     8.2379     2.4201    -0.0125     0.1377
  362.5000   -43.8822     7.3555     8.2663     7.6863   122.2587     8.1989     2.4115    -0.0121     0.1457
  363.0000   -42.9664     7.3304     8.2414     7.6509   119.8091     8.1596     2.4113    -0.0073     0.1444
  363.5000   -42.8835     7.3055     8.2165     7.6158   117.4740     8.1203     2.4110    -0.0026     0.1459
  364.0000   -44.0773     7.2806     8.1916     7.5808   114.1013     8.0811     2.4103     0.0021     0.1473
  364.5000   -44.7852     7.2558     8.1669     7.5460   115.3087     8.0460     2.4220     0.0046     0.1388
  365.0000   -44.3696     7.2311     8.1422     7.5114   117.9346     8.0423     2.4359     0.0047     0.1304
  365.5000   -44.1595     7.2065     8.1176     7.4769   120.6603     8.0392     2.4499     0.0087     0.1220
  366.0000   -44.3433     7.1819     8.0931     7.4425   120.5156     8.0361     2.4615     0.0125     0.1208
  366.5000   -44.5215     7.1575     8.0680     7.4083   119.3994     8.0329     2.4552     0.0162     0.1220
  367.0000   -44.6903     7.1325     8.0441     7.3743   118.8665     8.0297     2.4489     0.0198     0.1289
  367.5000   -44.5090     6.9047     7.9733     7.3405   120.1073     8.0266     2.4511     0.0238     0.1266
  368.0000   -44.3086     6.6210     8.5142     7.0115   121.2941     8.0234     2.4609     0.0493     0.1182
  368.5000   -44.0917     6.3491     9.2544     6.6206   122.3260     8.0203     2.4678     0.0707     0.1219
  369.0000   -43.4908     6.0882     9.4128     6.2759   122.0115     8.0171     2.4459     0.0575     0.1303
  369.5000   -42.8784     5.8382     5.5369     6.0400   122.2390     8.0139     2.4276     0.0666     0.1386
  370.0000   -42.6972     5.5566     4.4920     5.8200   123.9405     8.0107     2.4112     0.0706     0.1465
  370.5000   -43.1571     5.5796     5.1724     5.8713   122.5166     8.0076     2.4389     0.0329     0.1356
  371.0000   -43.3893     5.6169     5.7140     5.9248   120.6564     8.0044     2.4666     0.0393     0.1253
  371.5000   -42.7651     5.6544     6.3122     5.9776   118.8107     8.0012     2.4735     0.0436     0.1138
  372.0000   -42.3028     5.6922     6.9373     6.0388   116.9671     7.9981     2.4592     0.0390     0.1204
  372.5000   -42.4307     5.7129     7.6518     5.8277   115.0464     7.9949     2.4416     0.0268     0.1291
  373.0000   -42.9851     5.2931     8.3993     5.5897   115.4200     7.9917     2.4239     0.0188     0.1399
  373.5000   -43.5195     4.9820     8.5814     5.3614   117.3843     7.9886     2.4063     0.0233     0.1506
  374.0000   -43.9145     4.6895     6.7391     5.1603   118.8846     7.9854     2.3890     0.0275     0.1614
  374.5000   -43.9037     4.4920     3.8258     5.2700   119.5950     7.9822     2.3718     0.0273     0.1723
  375.0000   -43.7593     4.6698     4.2332     5.3734   119.1383     7.9791     2.3611     0.0260     0.1795
  375.5000   -43.1628     4.9385     5.1417     5.5566   118.3153     7.9759     2.4078     0.0217     0.1510
  376.0000   -42.5857     5.2225     6.2673     5.7615   117.5765     7.9727     2.4527     0.0349     0.1269
  376.5000   -42.6491     5.5229     6.9373     5.9845   117.6654     7.9696     2.4418     0.0284     0.1321
  377.0000   -43.2828     5.7915     7.0579     6.2161   117.7535     7.9661     2.4226     0.0171     0.1379
  377.5000   -43.0327     6.1554     7.1907     6.4567   116.8695     7.9543     2.4201     0.0243     0.1422
  378.0000   -42.7305     6.5629     7.3260     6.7067   115.8696     7.9411     2.4159     0.0288     0.1404
  378.5000   -42.9923     6.6212     7.4700     6.8734   114.8711     7.9280     2.4182     0.0329     0.1465
  379.0000   -43.5434     6.6832     7.3325     6.9247   113.8733     7.9149     2.4378     0.0436     0.1366
  379.5000   -44.0910     6.7475     7.1915     6.9373   113.2978     7.9018     2.4466     0.0384     0.1287
  380.0000   -44.3052     6.7475     7.1325     6.9373   113.3410     7.8887     2.4345     0.0432     0.1303
  380.5000   -44.0820     6.2642     8.1093     6.6751   113.9865     7.8753     2.4256     0.0359     0.1370
  381.0000   -43.8517     5.9341     8.9015     6.3484   114.6320     7.8560     2.4211     0.0283     0.1470
  381.5000   -43.6237     5.6216    10.0423     6.0376   116.1776     7.8172     2.4269     0.0505     0.1317
  382.0000   -43.3925     5.3257     9.5003     5.7420   117.6667     7.7789     2.4096     0.0291     0.1419
  382.5000   -43.3754     5.0303     6.5145     5.4609   119.1639     7.7526     2.3861     0.0448     0.1604
  383.0000   -43.4669     4.6688     4.4870     5.1603   120.4407     7.8872     2.3688     0.0336     0.1698
  383.5000   -44.3375     4.3699     3.9102     4.9956   118.5773     8.0086     2.3837     0.0161     0.1644
  384.0000   -45.3511     4.5515     5.3848     4.9729   115.8187     8.0921     2.4259     0.0222     0.1456
  384.5000   -45.6371     4.7398     6.3746     5.2208   117.2884     8.1704     2.4425     0.0118     0.1305
  385.0000   -45.5612     4.9626     5.0251     5.4699   120.0034     8.2268     2.4371     0.0114     0.1328
  385.5000   -45.4925     5.3019     5.4360     5.9496   120.6309     8.2250     2.4331     0.0143     0.1299
  386.0000   -45.3914     5.6604     6.1315     6.5106   116.3957     8.2246     2.4653     0.0176     0.1232
  386.5000   -45.2904     6.0438     6.7886     7.1260   112.9037     8.2242     2.4750     0.0086     0.1166
  387.0000   -45.1901     6.4532     7.1717     7.3158   114.1543     8.2238     2.4753    -0.0014     0.1114
  387.5000   -45.0909     6.8903     7.6063     7.5232   115.7497     8.2234     2.4787     0.0014     0.1134
  388.0000   -44.9912     7.4012     7.8109     7.6200   117.1532     8.2230     2.4710     0.0048     0.1154
  388.5000   -44.8008     7.3836     8.0358     7.7235   117.1682     8.2226     2.4635     0.0058     0.1174
  389.0000   -43.9690     7.3642     8.1937     7.7711   116.6098     8.2222     2.4576    -0.0003     0.1186
  389.5000   -43.0924     7.3449     8.1937     7.7994   115.5107     8.2218     2.4636    -0.0052     0.1170
  390.0000   -43.3422     7.3256     8.1937     7.8235   114.4098     8.2214     2.4611    -0.0001     0.1164
  390.5000   -43.9168     7.3064     8.1183     7.7928   113.2496     8.2210     2.4641     0.0078     0.1191
  391.0000   -44.4011     7.2873     8.1183     7.7659   113.8738     8.2206     2.4696     0.0156     0.1168
  391.5000   -44.6729     7.2682     8.1181     7.7391   115.1295     8.2202     2.4709     0.0155     0.1141
  392.0000   -45.0434     7.2491     8.1183     7.7122   116.4065     8.2198     2.4811     0.0113     0.1148
  392.5000   -45.8723     7.2301     8.1178     7.6883   117.6642     8.2194     2.4970     0.0183     0.1096
  393.0000   -46.0908     7.2111     8.1183     7.6094   118.3436     8.2190     2.5085     0.0254     0.1038
