~VERSION INFORMATION
 VERS.                2.0:   CWLS LOG ASCII STANDARD - VERSION 2.0
 WRAP.                 NO:   ONE LINE PER DEPTH STEP
~WELL INFORMATION
#MNEM.UNIT      DATA TYPE    INFORMATION
#----------   ------------   ------------------------------
 STRT.F           89.0000:   START DEPTH
 STOP.F         1360.0000:   STOP DEPTH
 STEP.F            0.5000:   STEP LENGTH
 NULL.          -999.2500:   NO VALUE
 COMP.           U S NAVY:   COMPANY
 WELL.     NPR 3 #85 S-11:   WELL
 FLD .             TEAPOT:   FIELD
 LOC .      S11 T38N R78W:   LOCATION
 CNTY.            NATRONA:   COUNTY
 STAT.            WYOMING:   STATE
 CTRY. UNITED STATES OF AMERICA:   COUNTRY
 SRVC.       Schlumberger:   SERVICE COMPANY
 DATE.        15-AUG-1966:   LOGDATE
 API .       490250959000:   API NUMBER
~CURVE INFORMATION
#MNEM.UNIT       API CODE    CURVE DESCRIPTION
#----------   ------------   ------------------------------
 DEPT.F                  :   
 SPR .MV     05 010 01 00:   SPONTANEOUS POTENTIAL FROM RES.
 CILD.MMHO   05 110 46 00:   CONDUCTIVITY INDUCTION LOG DEEP
 ASN .OHMM   05 041 16 00:   AMPLIFIED SHORT NORMAL 16"
 ILD .OHMM   05 120 46 00:   INDUCTION LOG DEEP
 GR  .GAPI   30 310 01 00:   GAMMA RAY
~PARAMETER INFORMATION
#MNEM.UNIT          VALUE    DESCRIPTION
#----------   ------------   ------------------------------
 PD  .                 GL:   PERMANENT DATUM
 EPD .F              5288:   ELEVATION PERMANENT DATUM
 LMF .                 KB:   LOG MEASURED FROM
 DAPD.F                 5:   FEET ABOVE PERMANENT DATUM
 DMF .                 KB:   DRILLING MEASURED FROM
 EKB .F            5286.9:   KELLING BUSHING
 EGL .F            5281.9:   GROUND LEVEL
 DATE.        15-AUG-1966:   RUN DATE
 RUN .                  1:   RUN NUMBER
 DD  .F              1360:   DEPTH DRILLER
 DL  .F              1361:   DEPTH LOGGER
 BLI .F              1360:   BOTTOM LOG INTERVAL
 TLI .F                88:   TOP LOG INTERVAL
 CS  .IN            8.625:   CASING SIZE
 CBD .F                12:   CASING BOTTOM DRILLER
 BS  .IN            7.875:   BIT SIZE
 BSD .F              1360:   BIT SIZE AT DEPTH
 DFT .          CHEM- GEL:   DRILLING FLUID TYPE
 DFD .                9.6:   DRILLING FLUID DENSITY
 DFV .                 60:   DRILLING FLUID VISCOSITY
 DFPH.                7.2:   DRILLING FLUID PH
 DFL .                6.4:   DRILLING FLUID LOSS
 MSS .         CIRCULATED:   MUD SAMPLE SOURCE
 RMS .OHMM           1.41:   RESISTIVITY MUD SAMPLE
 MST .F                72:   MUD SAMPLE TEMPERATURE
 RMF .OHMM           0.75:   RESISTIVITY MUD FILTRATE SAMPLE
 MFST.F                73:   MUD FILTRATE SAMPLE TEMPERATURE
 MFSS.               MEAS:   MUD FILTRATE SAMPLE SOURCE
 TCS .HRS             2.5:   TIME CURCULATED STOPPED
 LUN .               3527:   LOGGING UNIT NUMBER
 LUL .              CSPR.:   LOGGING UNIT LOCATION
 ENGI.               HAUG:   RECORDING ENGINEER
 WITN.             TUTTLE:   WITNESSED BY
 CLNT.            A2DTECH:   CLIENT CODE
 ORIG.       2", 5" PRINT:   ORIGIN OF DATA
 UWI .       490250959000:   UNIQUE WELL ID
 DICO. A2D Technologies, Inc.:   DIGITIZING COMPANY
~OTHER INFORMATION
~A   DEPT      SPR       CILD          ASN        ILD       GR   
# ...
  272.0000   -52.9278   176.2930     7.3639     5.8808  -999.2500
  272.5000   -52.9318   176.3079     7.3785     5.7423  -999.2500
  273.0000   -52.9364   176.3250     7.3628     5.7083  -999.2500
  273.5000   -52.9409   176.3378     7.3179     5.5883  -999.2500
  274.0000   -52.9050   176.3578     7.2837     5.5865  -999.2500
  274.5000   -52.7985   178.5239     7.2105     5.5094  -999.2500
  275.0000   -52.8030   181.2407     7.1298     5.4322  -999.2500
  275.5000   -52.8076   183.1252     7.0439     5.4305  -999.2500
  276.0000   -52.8129   185.0025     6.9572     5.4286  -999.2500
  276.5000   -52.8167   186.3154     6.9015     5.4264  -999.2500
  277.0000   -52.8213   188.4030     6.8465     5.3945  -999.2500
  277.5000   -52.8258   189.4308     6.8028     5.3459  -999.2500
  278.0000   -52.8303   191.4202     6.7527     5.2707  -999.2500
  278.5000   -52.8354   193.5313     6.6891     5.2688  -999.2500
  279.0000   -52.8394   195.5208     6.6354     5.2668  -999.2500
  279.5000   -52.8439   198.1928     6.5728     5.2650  -999.2500
  280.0000   -52.8485   201.4947     6.5030     5.1880  -999.2500
  280.5000   -52.8530   205.2776     6.4293     5.2610  -999.2500
  281.0000   -52.8579   207.1076     6.3603     5.2594  -999.2500
  281.5000   -52.8621   203.4865     6.3179     5.2575  -999.2500
  282.0000   -52.8667   200.5087     6.2535     5.2557  -999.2500
  282.5000   -52.8719   200.5232     6.3091     5.3471  -999.2500
  283.0000   -52.8758   199.6437     6.5659     5.4023  -999.2500
  283.5000   -52.8803   198.3126     6.8095     5.4756  -999.2500
  284.0000   -52.8848   196.9208     6.9141     5.5490  -999.2500
  284.5000   -52.7373   195.2591     6.9927     5.5467  -999.2500
  285.0000   -52.7429   191.6322     7.0489     5.5451  -999.2500
  285.5000   -52.7470   189.6936     7.0582     5.5432  -999.2500
  286.0000   -52.7515   186.4282     6.9876     5.6612  -999.2500
  286.5000   -52.7570   183.3806     6.6111     5.7060  -999.2500
  287.0000   -52.6082   186.0911     6.5466     5.7632  -999.2500
  287.5000   -52.6139   188.7164     6.5493     5.7957  -999.2500
  288.0000   -52.6182   188.4205     6.6267     5.8347  -999.2500
  288.5000   -52.6227   185.7026     6.8120     5.8324  -999.2500
  289.0000   -52.6279   183.2935     6.9844     5.8551  -999.2500
  289.5000   -52.6318   181.0924     7.1018     5.9042  -999.2500
  290.0000   -52.6364   179.8215     7.2545     5.9774  -999.2500
  290.5000   -52.6409   177.9510     7.2857     6.0510  -999.2500
  291.0000   -52.6455   176.8597     7.2987     6.1238  -999.2500
  291.5000   -52.4989   176.8781     7.2981     6.1222  -999.2500
  292.0000   -52.5030   176.8909     7.3251     6.1243  -999.2500
  292.5000   -52.5076   176.9057     7.3749     6.2444  -999.2500
  293.0000   -52.3615   174.7608     7.4963     6.3644  -999.2500
  293.5000   -52.3652   169.6450     7.6479     6.4154  -999.2500
  294.0000   -52.3699   164.9937     7.7924     6.4542  -999.2500
  294.5000   -52.2227   162.4028     7.9669     6.5742  -999.2500
  295.0000   -52.2273   159.4419     8.2121     6.7103  -999.2500
  295.5000   -52.2324   154.5764     8.3782     6.8895  -999.2500
  296.0000   -52.2970   152.0180     8.4755     7.0075  -999.2500
  296.5000   -52.4602   148.6250     8.6332     7.0544  -999.2500
  297.0000   -52.5726   147.1450     8.7206     6.9835  -999.2500
  297.5000   -52.6850   147.4962     8.7527     6.8514  -999.2500
  298.0000   -52.7974   150.1658     8.5563     6.7358  -999.2500
  298.5000   -53.0175   152.3742     8.3070     6.6872  -999.2500
  299.0000   -53.0737   156.2406     8.0197     6.5448  -999.2500
  299.5000   -53.1783   158.4332     7.8769     6.4396  -999.2500
  300.0000   -53.3333   159.6911     7.8363     6.3910  -999.2500
  300.5000   -53.3379   162.1977     7.8157     6.2586  -999.2500
  301.0000   -53.3425   164.5690     7.9574     6.1262  -999.2500
  301.5000   -53.2490   166.4089     8.0256     5.9938  -999.2500
  302.0000   -53.1992   169.5960     8.0099     5.8614  -999.2500
  302.5000   -53.0531   172.3296     7.8721     5.6823  -999.2500
  303.0000   -52.9626   175.0632     7.5579     5.3271  -999.2500
  303.5000   -52.9098   178.0082     7.1058     5.4003  -999.2500
  304.0000   -52.7638   183.2486     6.9924     5.5700  -999.2500
  304.5000   -52.7682   185.4886     6.8942     5.8182  -999.2500
  305.0000   -52.7727   184.2302     6.8938     6.0714  -999.2500
  305.5000   -52.7775   181.7377     6.9545     6.3425  -999.2500
  306.0000   -52.7818   177.3122     7.0999     6.4656  -999.2500
  306.5000   -52.7864   171.9953     7.4198     6.6672  -999.2500
  307.0000   -52.7912   165.2940     7.7920     6.7120  -999.2500
  307.5000   -52.7955   157.9250     8.1663     6.7600  -999.2500
  308.0000   -52.8000   153.3930     8.4578     6.8121  -999.2500
  308.5000   -52.8049   148.1727     8.4725     6.7350  -999.2500
  309.0000   -52.8091   144.5169     8.4201     6.7125  -999.2500
  309.5000   -52.8136   144.8020     8.2308     6.6559  -999.2500
  310.0000   -52.8185   148.4055     8.0352     6.6090  -999.2500
  310.5000   -52.8227   155.7725     7.8781     6.4821  -999.2500
  311.0000   -52.8273   160.6277     7.7176     6.3495  -999.2500
  311.5000   -52.8322   165.6305     7.5936     6.3034  -999.2500
  312.0000   -52.8364   170.7650     7.4631     6.1955  -999.2500
  312.5000   -52.8409   173.1128     7.3550     6.0431  -999.2500
  313.0000   -52.8459   177.6159     7.2621     5.9978  -999.2500
  313.5000   -52.8500   181.2731     7.1225     5.8525  -999.2500
  314.0000   -52.8545   184.0957     6.9623     5.7367  -999.2500
  314.5000   -52.8596   186.6767     6.6798     5.6169  -999.2500
  315.0000   -52.8636   191.0339     6.5372     5.4148  -999.2500
  315.5000   -52.8682   193.6920     6.4793     5.2800  -999.2500
  316.0000   -52.8733   197.1996     6.4486     5.2361  -999.2500
  316.5000   -52.7258   203.0369     6.4107     5.1844  -999.2500
  317.0000   -52.5785   206.1659     6.3275     5.1239  -999.2500
  317.5000   -52.5840   208.2960     6.2226     5.1222  -999.2500
  318.0000   -52.4364   208.3134     6.1090     5.1363  -999.2500
  318.5000   -52.4409   208.0307     6.0553     5.2687  -999.2500
  319.0000   -52.2946   206.7040     6.0915     5.3827  -999.2500
  319.5000   -52.2985   203.1265     6.1813     5.5059  -999.2500
  320.0000   -52.3030   200.4484     6.2951     5.6389  -999.2500
  320.5000   -52.3083   196.2743     6.4188     5.7523  -999.2500
  321.0000   -52.3121   192.7079     6.5766     5.8754  -999.2500
  321.5000   -52.3167   189.2674     6.7759     5.9342  -999.2500
  322.0000   -52.3220   184.1855     7.1142     6.0075  -999.2500
  322.5000   -52.3258   176.3102     7.2873     6.0056  -999.2500
  323.0000   -52.3303   174.8281     7.0459     6.0036  -999.2500
  323.5000   -52.3357   175.5904     6.9511     6.0019  -999.2500
  324.0000   -52.3394   176.3550     7.2315     5.9870  -999.2500
  324.5000   -52.3439   177.4252     7.2857     5.8476  -999.2500
  325.0000   -52.3485   179.4969     7.2176     5.6955    65.6391
  325.5000   -52.3530   186.8632     7.0184     5.5187    66.8931
  326.0000   -52.3576   191.1210     6.8027     5.3908    67.2031
  326.5000   -52.3621   195.9256     6.6215     5.3139    65.7793
  327.0000   -52.3667   197.3714     6.5449     5.3120    67.9758
  327.5000   -52.3713   197.0665     6.5907     5.3851    69.8576
  328.0000   -52.3758   195.6950     6.6739     5.5669    68.9074
  328.5000   -52.3803   190.6897     6.8346     5.8543    69.2158
  329.0000   -52.3850   185.3587     7.0112     6.2065    74.7414
  329.5000   -52.3894   179.2127     7.1086     6.3154    76.5983
  330.0000   -52.3939   174.2921     7.2249     6.4386    73.7600
  330.5000   -52.3987   170.4373     7.4468     6.5768    76.9285
  331.0000   -52.4030   164.4495     7.6519     6.6850    80.5115
  331.5000   -52.4076   160.1366     7.9306     6.7329    84.7534
  332.0000   -52.4124   156.9208     8.2590     6.7970    79.7123
  332.5000   -52.4167   151.7813     8.4904     6.8703    80.1781
