~VERSION INFORMATION
 VERS.                2.0:   CWLS LOG ASCII STANDARD - VERSION 2.0
 WRAP.                 NO:   ONE LINE PER DEPTH STEP
~WELL INFORMATION
#MNEM.UNIT      DATA TYPE    INFORMATION
#----------   ------------   ------------------------------
 STRT.F           30.0000:   START DEPTH
 STOP.F          481.0000:   STOP DEPTH
 STEP.F            0.5000:   STEP LENGTH
 NULL.          -999.2500:   NO VALUE
 COMP. FENIX & SCISSON INC:   COMPANY
 WELL.       NPR-3 #47-10:   WELL
 FLD .             TEAPOT:   FIELD
 LOC .      S10 T38N R78W:   LOCATION
 CNTY.            NATRONA:   COUNTY
 STAT.            WYOMING:   STATE
 CTRY. UNITED STATES OF AMERICA:   COUNTRY
 SRVC.           BIRDWELL:   SERVICE COMPANY
 DATE.        16-JUN-1978:   LOGDATE
 API .       490251064800:   API NUMBER
~CURVE INFORMATION
#MNEM.UNIT       API CODE    CURVE DESCRIPTION
#----------   ------------   ------------------------------
 DEPT.F                  :   
 SPR .MV     05 010 01 00:   SPONTANEOUS POTENTIAL FROM RES.
 SN  .OHMM   05 040 16 00:   SHORT NORMAL 16"
 ILD .OHMM   05 120 46 00:   INDUCTION LOG DEEP
 CALD.IN     45 280 60 00:   CALIPER FROM DENSITY LOG
 GRD .GAPI   45 310 01 00:   GAMMA RAY FROM DENSITY LOG
 CORR.G/C3   45 356 01 00:   DENSITY CORRECTION
 DPHI.DEC    45 890 12 00:   DENSITY POROSITY SANDSTONE
 DEN .G/C3   45 350 01 00:   COMPENSATED BULK DENSITY
~PARAMETER INFORMATION
#MNEM.UNIT          VALUE    DESCRIPTION
#----------   ------------   ------------------------------
 PD  .                 GL:   PERMANENT DATUM
 EPD .F              5200:   ELEVATION PERMANENT DATUM
 LMF .                 KB:   LOG MEASURED FROM
 DAPD.F                 4:   FEET ABOVE PERMANENT DATUM
 DMF .                 KB:   DRILLING MEASURED FROM
 EKB .F              5204:   KELLING BUSHING
 EGL .F              5200:   GROUND LEVEL
 DATE.        16-JUN-1978:   RUN DATE
 RUN .                  1:   RUN NUMBER
 DD  .F               513:   DEPTH DRILLER
 DL  .F               481:   DEPTH LOGGER
 BLI .F               475:   BOTTOM LOG INTERVAL
 TLI .F                40:   TOP LOG INTERVAL
 CS  .IN            8.625:   CASING SIZE
 CBD .F                40:   CASING BOTTOM DRILLER
 CBL .F                40:   CASING BOTTOM LOGGER
 BS  .IN            7.875:   BIT SIZE
 BSD .F               513:   BIT SIZE AT DEPTH
 DFT .                KCL:   DRILLING FLUID TYPE
 DFD .                8.6:   DRILLING FLUID DENSITY
 DFV .                 30:   DRILLING FLUID VISCOSITY
 DFPH.                 10:   DRILLING FLUID PH
 DFL .                 16:   DRILLING FLUID LOSS
 MSS .           FLOWLINE:   MUD SAMPLE SOURCE
 RMS .OHMM            .36:   RESISTIVITY MUD SAMPLE
 MST .F                72:   MUD SAMPLE TEMPERATURE
 RMF .OHMM            .34:   RESISTIVITY MUD FILTRATE SAMPLE
 MFST.F                70:   MUD FILTRATE SAMPLE TEMPERATURE
 RMC .OHMM            .52:   RESISTIVITY MUD CAKE
 MCST.F                72:   MUD CAKE SAMPLE TEMPERATURE
 MFSS.               MEAS:   MUD FILTRATE SAMPLE SOURCE
 MCSS.               MEAS:   MUD CAKE SAMPLE SOURCE
 RMB .OHMM            .32:   RESISTIVITY MUD AT BHT
 BHT .F                82:   BOTTOM HOLE TEMPERATURE
 TCS .HRS            0400:   TIME CURCULATED STOPPED
 MRT .F                82:   MAXIMUM RECORDED TEMPERATURE
 LUN .               2958:   LOGGING UNIT NUMBER
 LUL .               CASP:   LOGGING UNIT LOCATION
 ENGI.           REYNOLDS:   RECORDING ENGINEER
 WITN.           MCGINLEY:   WITNESSED BY
 CLNT.            A2DTECH:   CLIENT CODE
 ORIG.           5" PRINT:   ORIGIN OF DATA
 UWI .       490251064800:   UNIQUE WELL ID
 DICO. A2D Technologies, Inc.:   DIGITIZING COMPANY
~OTHER INFORMATION
~A   DEPT      SPR         SN        ILD       CALD         GRD      CORR       DPHI        DEN   
# ...
  151.5000   -53.9181     8.9344     7.7831     6.9833   107.9661     0.0101     0.1021     2.5047
  152.0000   -53.9226     8.8704     7.7815     6.9400   108.5807     0.0088     0.1051     2.4966
  152.5000   -53.9271     8.8069     7.7799     6.8520   109.0461     0.0089     0.1081     2.4936
  153.0000   -53.9316     8.8045     7.7783     6.7045   109.5114     0.0106     0.1083     2.4930
  153.5000   -53.9967     8.7415     7.7767     6.6017   110.1260     0.0108     0.1083     2.4923
  154.0000   -54.0735     8.7390     7.7751     6.5732   111.7854     0.0109     0.1083     2.4901
  154.5000   -54.1502     8.7366     7.7199     6.5746   114.7881     0.0125     0.1079     2.4850
  155.0000   -54.2270     8.7342     7.6652     6.5908   115.4027     0.0142     0.1103     2.4835
  155.5000   -54.2540     8.7318     7.5584     6.6090   112.7402     0.0158     0.1171     2.4829
  156.0000   -54.2585     8.7294     7.4532     6.6384   106.3378     0.0160     0.1183     2.4830
  156.5000   -54.1117     8.7270     7.3494     6.6397   107.5494     0.0176     0.1189     2.4830
  157.0000   -54.1173     8.7246     7.2973     6.6559   110.2536     0.0177     0.1197     2.4831
  157.5000   -54.1218     8.7222     7.2958     6.7018   113.1070     0.0179     0.1206     2.4839
  158.0000   -54.1263     8.7198     7.2941     6.7180   115.5126     0.0165     0.1161     2.4907
  158.5000   -54.1308     8.5386     7.2928     6.7491   115.0825     0.0152     0.1142     2.4908
  159.0000   -54.1353     8.3611     7.2913     6.7653   111.8165     0.0121     0.1124     2.4916
  159.5000   -54.1398     8.1873     7.2898     6.7815   109.5952     0.0066     0.1106     2.4940
  160.0000   -54.1443     7.9620     7.2815     6.8126   107.2248     0.0142     0.1079     2.4955
  160.5000   -54.1488     7.8505     7.2287     6.8288   106.4961     0.0173     0.1102     2.4934
  161.0000   -54.1533     7.7943     7.1357     6.8152   105.7674     0.0189     0.1093     2.4949
  161.5000   -54.1578     7.7922     7.0848     6.8165   105.1880     0.0206     0.1123     2.4965
  162.0000   -54.0120     7.8446     7.0834     6.8178   107.8126     0.0192     0.1062     2.4981
  162.5000   -54.0166     7.8963     7.0819     6.8365   110.5474     0.0194     0.1074     2.5011
  163.0000   -54.0211     7.9494     7.0805     6.8803   111.8123     0.0195     0.1032     2.5042
  163.5000   -53.8753     8.0023     7.2273     6.9263   110.1881     0.0182     0.1008     2.5051
  164.0000   -53.7297     8.1671     7.2762     6.9425   109.6087     0.0154     0.1001     2.5058
  164.5000   -53.4340     8.2784     7.4782     6.9438   108.7307     0.0125     0.1007     2.5052
  165.0000   -53.2883     8.4496     7.6333     6.9600   107.5499     0.0111     0.1051     2.5015
  165.5000   -53.2928     8.5648     7.6850     6.9613   112.6465     0.0098     0.1072     2.4978
  166.0000   -53.2973     8.7417     7.7367     6.9626   116.9924     0.0100     0.1072     2.4979
  166.5000   -53.3018     8.7393     7.7347     6.9937   112.3832     0.0086     0.1071     2.4980
  167.0000   -53.3063     8.7369     7.7331     7.0099   108.3709     0.0088     0.1068     2.4966
  167.5000   -53.4609     8.7345     7.7315     7.0261   109.4333     0.0045     0.1068     2.4959
  168.0000   -53.4654     8.7321     7.7299     7.0572   110.0479     0.0031     0.1073     2.4907
  168.5000   -53.6201     8.7902     7.7283     7.0436   109.1632     0.0018     0.1133     2.4863
  169.0000   -53.7747     8.7878     7.7267     7.0300   109.0383     0.0034     0.1094     2.4871
  169.5000   -53.7793     8.7854     7.7252     7.0317   109.6573     0.0036     0.1081     2.4820
  170.0000   -53.7838     8.7830     7.7234     7.0330   110.7196     0.0037     0.1228     2.4776
  170.5000   -53.7883     8.7805     7.7220     7.0343   109.8417     0.0054     0.1257     2.4778
  171.0000   -53.7928     8.7781     7.7743     7.0356   106.4265     0.0055     0.1236     2.4815
  171.5000   -53.7973     8.7757     7.7723     7.0369   105.6934     0.0057     0.1218     2.4816
  172.0000   -53.8018     8.7129     7.7707     7.0531   109.8945     0.0073     0.1196     2.4824
  172.5000   -53.8063     8.6504     7.7691     7.0693   111.1061     0.0090     0.1220     2.4832
  173.0000   -53.8108     8.6480     7.7675     7.1004   111.4222     0.0106     0.1196     2.4825
  173.5000   -53.8153     8.6455     7.7658     7.1017   111.5890     0.0108     0.1177     2.4826
  174.0000   -53.8199     8.6433     7.7643     7.1328   112.6514     0.0124     0.1189     2.4827
  174.5000   -53.8243     8.6409     7.8165     7.1490   113.2660     0.0125     0.1210     2.4827
  175.0000   -53.6785     8.5790     7.8149     7.1503   112.5373     0.0127     0.1209     2.4873
  175.5000   -53.5328     8.6362     7.8133     7.1367   109.0786     0.0128     0.1083     2.4986
  176.0000   -53.5095     8.6333     7.8117     7.1381   106.4896     0.0115     0.1044     2.4942
  176.5000   -53.3624     8.7510     7.8642     7.1096   101.5497     0.0101     0.1107     2.4920
  177.0000   -52.9468     8.8098     7.8626     7.0666    98.4330     0.0088     0.1124     2.4913
  177.5000   -52.8001     8.8685     7.8610     7.0233    96.9580     0.0074     0.1124     2.4914
  178.0000   -52.6544     8.9888     7.9687     7.0246    96.6727     0.0061     0.1079     2.4907
  178.5000   -52.5087     9.1114     8.0780     7.0408    98.4857     0.0063     0.1135     2.4908
  179.0000   -52.5736     9.1726     8.2465     7.0570   105.0705     0.0049     0.1162     2.4901
  179.5000   -52.6524     9.3615     8.4189     7.0583   105.5358     0.0051     0.1120     2.4887
  180.0000   -52.7311     9.4892     8.5948     7.0596   106.2997     0.0052     0.1179     2.4895
  180.5000   -52.8098     9.6186     8.7744     7.0609   106.6114     0.0054     0.1149     2.4941
  181.0000   -52.8885     9.6159     8.9579     7.0622   106.0393     0.0055     0.1122     2.4972
  181.5000   -52.9672     9.7477     9.0820     6.9892   102.4748     0.0057     0.1103     2.4987
  182.0000   -52.9910     9.9485     9.2617     6.9309    99.2088     0.0058     0.1124     2.5010
  182.5000   -52.9955    10.1547     9.4004     6.9471    97.7338     0.0075     0.1061     2.5026
  183.0000   -53.0000    10.5081     9.5173     6.9486    96.2589     0.0076     0.1070     2.5042
  183.5000   -53.0045    10.8745     9.6477     6.9650    95.6751     0.0077     0.1045     2.5058
  184.0000   -53.0090    11.1761     9.7126     6.9961    95.6971     0.0079     0.1039     2.4984
  184.5000   -53.0135    11.4071     9.7101     6.9974    94.8191     0.0081     0.1018     2.4917
  185.0000   -52.8678    11.6428     9.7081     7.0136    95.1352     0.0082     0.1080     2.4903
  185.5000   -52.8723    11.6396     9.7061     7.0000    97.2423     0.0084     0.1110     2.4889
  186.0000   -52.8769    11.7178     9.7041     7.0013    99.7972     0.0085     0.1133     2.4874
  186.5000   -52.8814    11.7138     9.7021     6.9874   100.2657     0.0087     0.1160     2.4875
  187.0000   -52.8859    11.7106     9.7001     6.9891   100.5791     0.0088     0.1145     2.4883
  187.5000   -52.8904    11.7074     9.6981     7.0053    99.0794     0.0104     0.1135     2.4892
  188.0000   -52.7446    11.6236     9.6961     6.9619    96.4392     0.0106     0.1120     2.4900
  188.5000   -52.7337    11.5403     9.6944     6.9335    95.1091     0.0137     0.1075     2.4893
  189.0000   -52.5866    11.3005     9.6924     6.9348    97.6684     0.0154     0.1129     2.4879
  189.5000   -52.4578    11.1423     9.6901     6.9361    97.8352     0.0155     0.1155     2.4872
  190.0000   -52.3122    10.9864     9.2947     6.9526    98.3006     0.0156     0.1161     2.4903
  190.5000   -52.3169    10.9077     9.2288     6.9540    99.2137     0.0158     0.1124     2.4919
  191.0000   -52.3213    10.6810     9.2269     6.9702    99.6790     0.0144     0.1118     2.4912
  191.5000   -52.3258    10.6046     9.2250     6.9715    99.0996     0.0116     0.1112     2.4913
