~VERSION INFORMATION
 VERS.                2.0:   CWLS LOG ASCII STANDARD - VERSION 2.0
 WRAP.                 NO:   ONE LINE PER DEPTH STEP
~WELL INFORMATION
#MNEM.UNIT      DATA TYPE    INFORMATION
#----------   ------------   ------------------------------
 STRT.F            0.0000:   START DEPTH
 STOP.F          820.0000:   STOP DEPTH
 STEP.F            0.5000:   STEP LENGTH
 NULL.          -999.2500:   NO VALUE
 COMP. LAWRENCE/ALLISON INC:   COMPANY
 WELL.       44 SX #16-11:   WELL
 FLD .             TEAPOT:   FIELD
 LOC .      S11 T38N R78W:   LOCATION
 CNTY.            NATRONA:   COUNTY
 STAT.            WYOMING:   STATE
 CTRY. UNITED STATES OF AMERICA:   COUNTRY
 SRVC.           Gearhart:   SERVICE COMPANY
 DATE.        26-AUG-1988:   LOGDATE
 API .       490251124600:   API NUMBER
~CURVE INFORMATION
#MNEM.UNIT       API CODE    CURVE DESCRIPTION
#----------   ------------   ------------------------------
 DEPT.F                  :   
 GRR .GAPI   07 310 01 00:   GAMMA RAY FROM RES. LOG.
 RILD.OHMM   07 120 46 00:   INDUCTION LOG DEEP RESISTIVITY
 RILM.OHMM   07 120 44 00:   INDUCTION LOG MEDIUM RESISTIVITY
~PARAMETER INFORMATION
#MNEM.UNIT          VALUE    DESCRIPTION
#----------   ------------   ------------------------------
 PD  .                 GL:   PERMANENT DATUM
 EPD .F              5197:   ELEVATION PERMANENT DATUM
 LMF .                 KB:   LOG MEASURED FROM
 DAPD.F                10:   FEET ABOVE PERMANENT DATUM
 DMF .                 KB:   DRILLING MEASURED FROM
 EKB .F              5207:   KELLING BUSHING
 EDF .F              5206:   DRILLING FLOOR
 EGL .F              5197:   GROUND LEVEL
 DATE.            8-26-88:   RUN DATE
 RUN .                  1:   RUN NUMBER
 DD  .F               820:   DEPTH DRILLER
 DL  .F               819:   DEPTH LOGGER
 BLI .F               811:   BOTTOM LOG INTERVAL
 TLI .F                50:   TOP LOG INTERVAL
 CS  .IN            9.625:   CASING SIZE
 CBD .F                50:   CASING BOTTOM DRILLER
 CBL .F                50:   CASING BOTTOM LOGGER
 BS  .IN             8.75:   BIT SIZE
 BSD .F               820:   BIT SIZE AT DEPTH
 DFT .                AIR:   DRILLING FLUID TYPE
 BHT .F                70:   BOTTOM HOLE TEMPERATURE
 TCS .HRS            0200:   TIME CURCULATED STOPPED
 TLAB.HRS            0342:   TIME LOGGER AT BOTTOM
 MRT .F                70:   MAXIMUM RECORDED TEMPERATURE
 LUN .               7609:   LOGGING UNIT NUMBER
 LUL .           GILLETTE:   LOGGING UNIT LOCATION
 ENGI.           JOHNSTON:   RECORDING ENGINEER
 WITN.             STRONG:   WITNESSED BY
 CLNT.            A2DTECH:   CLIENT CODE
 ORIG.        2" 5" PRINT:   ORIGIN OF DATA
 UWI .       490251124600:   UNIQUE WELL ID
 DICO. A2D Technologies, Inc.:   DIGITIZING COMPANY
~OTHER INFORMATION
~A    DEPT      GRR      RILD       RILM   
    0.0000    23.9264  -999.2500  -999.2500
    0.5000    21.9194  -999.2500  -999.2500
    1.0000    19.4274  -999.2500  -999.2500
    1.5000    18.5322  -999.2500  -999.2500
    2.0000    19.3317  -999.2500  -999.2500
    2.5000    21.1403  -999.2500  -999.2500
    3.0000    24.8775  -999.2500  -999.2500
    3.5000    28.5703  -999.2500  -999.2500
    4.0000    32.2654  -999.2500  -999.2500
    4.5000    35.9635  -999.2500  -999.2500
    5.0000    39.6751  -999.2500  -999.2500
    5.5000    43.0849  -999.2500  -999.2500
    6.0000    44.5050  -999.2500  -999.2500
    6.5000    44.3893  -999.2500  -999.2500
    7.0000    43.9060  -999.2500  -999.2500
    7.5000    43.5559  -999.2500  -999.2500
    8.0000    47.7275  -999.2500  -999.2500
    8.5000    55.7901  -999.2500  -999.2500
    9.0000    63.8863  -999.2500  -999.2500
    9.5000    71.9773  -999.2500  -999.2500
   10.0000    76.5351  -999.2500  -999.2500
   10.5000    77.7720  -999.2500  -999.2500
   11.0000    76.4022  -999.2500  -999.2500
   11.5000    75.0456  -999.2500  -999.2500
   12.0000    74.5491  -999.2500  -999.2500
   12.5000    75.0956  -999.2500  -999.2500
   13.0000    75.0162  -999.2500  -999.2500
   13.5000    74.0502  -999.2500  -999.2500
   14.0000    73.1122  -999.2500  -999.2500
   14.5000    73.3032  -999.2500  -999.2500
   15.0000    74.3641  -999.2500  -999.2500
   15.5000    75.4062  -999.2500  -999.2500
   16.0000    74.9838  -999.2500  -999.2500
   16.5000    73.5234  -999.2500  -999.2500
   17.0000    72.5855  -999.2500  -999.2500
   17.5000    72.5981  -999.2500  -999.2500
   18.0000    72.6021  -999.2500  -999.2500
   18.5000    72.1219  -999.2500  -999.2500
   19.0000    71.3562  -999.2500  -999.2500
   19.5000    70.5843  -999.2500  -999.2500
   20.0000    69.8121  -999.2500  -999.2500
   20.5000    69.0406  -999.2500  -999.2500
   21.0000    68.2689  -999.2500  -999.2500
   21.5000    67.4943  -999.2500  -999.2500
   22.0000    66.7185  -999.2500  -999.2500
   22.5000    66.0331  -999.2500  -999.2500
   23.0000    66.3924  -999.2500  -999.2500
   23.5000    68.5655  -999.2500  -999.2500
   24.0000    70.7891  -999.2500  -999.2500
   24.5000    72.6157  -999.2500  -999.2500
   25.0000    71.7065  -999.2500  -999.2500
   25.5000    71.2881  -999.2500  -999.2500
   26.0000    72.4048  -999.2500  -999.2500
   26.5000    72.2838  -999.2500  -999.2500
   27.0000    70.5796  -999.2500  -999.2500
   27.5000    68.9065  -999.2500  -999.2500
   28.0000    67.6731  -999.2500  -999.2500
   28.5000    68.2178  -999.2500  -999.2500
   29.0000    69.3042  -999.2500  -999.2500
   29.5000    70.3846  -999.2500  -999.2500
   30.0000    71.4752  -999.2500  -999.2500
   30.5000    72.5522  -999.2500  -999.2500
   31.0000    72.5115  -999.2500  -999.2500
   31.5000    72.4059  -999.2500  -999.2500
   32.0000    72.3019  -999.2500  -999.2500
   32.5000    72.1990  -999.2500  -999.2500
   33.0000    72.2718  -999.2500  -999.2500
   33.5000    73.9074  -999.2500  -999.2500
   34.0000    75.9936  -999.2500  -999.2500
   34.5000    76.7063  -999.2500  -999.2500
   35.0000    74.8977  -999.2500  -999.2500
   35.5000    72.2744  -999.2500  -999.2500
   36.0000    71.0255  -999.2500  -999.2500
   36.5000    71.4807  -999.2500  -999.2500
   37.0000    74.6313  -999.2500  -999.2500
   37.5000    76.8109  -999.2500  -999.2500
   38.0000    72.3031  -999.2500  -999.2500
   38.5000    66.7404  -999.2500  -999.2500
   39.0000    66.0262  -999.2500  -999.2500
   39.5000    66.0214  -999.2500  -999.2500
   40.0000    67.4899  -999.2500  -999.2500
   40.5000    69.2698  -999.2500  -999.2500
   41.0000    70.9629  -999.2500  -999.2500
   41.5000    70.4964  -999.2500  -999.2500
   42.0000    69.6050  -999.2500  -999.2500
   42.5000    69.2879  -999.2500  -999.2500
   43.0000    70.6980  -999.2500  -999.2500
   43.5000    72.2897  -999.2500  -999.2500
   44.0000    72.5637  -999.2500  -999.2500
   44.5000    71.5621  -999.2500  -999.2500
   45.0000    69.6291  -999.2500  -999.2500
   45.5000    67.6422  -999.2500  -999.2500
   46.0000    66.8695  -999.2500  -999.2500
   46.5000    67.5101  -999.2500  -999.2500
   47.0000    73.5452  -999.2500  -999.2500
   47.5000    82.3606  -999.2500  -999.2500
   48.0000    91.2709  -999.2500  -999.2500
   48.5000    99.4636  -999.2500  -999.2500
   49.0000    99.2500     2.2491  -999.2500
   49.5000    97.3639     1.9627     4.8695
   50.0000    95.6037     2.6860     2.8490
   50.5000    95.2680     3.6973     2.4374
   51.0000    97.3887     5.5006     2.6841
   51.5000   101.6971     6.6495     2.9808
   52.0000   107.9186     4.8632     3.3103
   52.5000   113.3509     3.7234     3.5174
   53.0000   114.0323     3.1324     3.6542
   53.5000   114.8168     3.0339     3.4602
   54.0000   115.9975     2.9385     3.1666
   54.5000   118.3832     2.8460     2.8979
   55.0000   119.0041     2.8337     2.6519
   55.5000   118.6922     2.9378     2.5121
   56.0000   118.4949     2.9704     2.3919
   56.5000   120.2244     2.9560     2.4697
   57.0000   120.7360     2.9452     2.6250
   57.5000   121.0532     2.9425     2.7902
   58.0000   121.3115     3.1581     2.9657
   58.5000   119.4365     3.3267     3.1439
   59.0000   116.9325     3.5041     3.2983
   59.5000   114.4010     3.6909     3.4602
   60.0000   111.9584     3.8266     3.6302
   60.5000   112.4271     3.8986     3.7945
   61.0000   112.3470     3.9725     3.8283
   61.5000   111.8181     4.0528     3.8671
   62.0000   113.9245     4.0446     3.9062
   62.5000   116.4355     4.0346     3.9406
   63.0000   118.9565     4.0248     3.9405
   63.5000   121.3629     4.0150     3.9168
   64.0000   121.5654     3.9746     3.8998
   64.5000   119.3077     3.9339     3.8828
   65.0000   117.0865     3.8287     3.8659
   65.5000   114.8193     3.5285     3.8491
   66.0000   113.5362     3.2518     3.8324
   66.5000   113.4944     2.9968     3.4790
   67.0000   114.1290     2.7618     3.1179
   67.5000   115.8893     2.5309     2.7944
   68.0000   119.7580     2.5072     2.5044
   68.5000   124.0697     2.6035     2.2445
   69.0000   128.3775     2.5687     2.0768
   69.5000   128.7651     2.5309     2.0768
   70.0000   121.0216     2.6288     2.4309
   70.5000   114.5048     2.7979     2.7214
   71.0000   108.0758     3.0117     3.0466
   71.5000   107.4298     3.2622     3.4107
   72.0000   109.6429     3.5335     3.8182
   72.5000   111.7606     3.8050     4.1490
   73.0000   111.5174     3.9045     4.2116
   73.5000   111.1099     4.0066     4.2751
   74.0000   112.2758     4.0530     4.3292
   74.5000   114.6377     4.0530     4.2848
   75.0000   115.9633     4.0313     4.2470
   75.5000   115.9378     4.0037     4.2094
   76.0000   116.0155     3.9764     4.1722
   76.5000   117.7214     3.9493     4.1353
   77.0000   119.4693     3.9223     4.0131
   77.5000   119.4894     3.8956     3.8806
   78.0000   117.0510     3.8666     3.7526
   78.5000   114.6682     3.7324     3.6199
   79.0000   113.5210     3.5520     3.4362
   79.5000   113.8490     3.3804     3.2486
   80.0000   114.2367     3.2170     3.0712
   80.5000   114.6169     3.0615     2.9035
   81.0000   115.8377     2.9136     2.7450
   81.5000   116.9246     2.8311     2.5951
   82.0000   117.3112     2.8320     2.4592
   82.5000   117.7110     2.9874     2.4582
   83.0000   118.1024     3.1439     2.6907
   83.5000   118.2825     3.3082     2.9289
   84.0000   117.6276     3.5173     3.1864
   84.5000   116.9933     3.7555     3.4664
   85.0000   116.3667     4.0097     3.7711
   85.5000   115.6980     4.2812     4.1026
   86.0000   117.1158     4.5712     4.3582
   86.5000   119.3214     4.9412     4.5523
   87.0000   120.9214     4.9407     4.6680
   87.5000   119.0540     4.8312     4.6286
   88.0000   116.6569     4.7108     4.5407
   88.5000   114.6973     4.5738     4.4544
   89.0000   116.1552     4.4223     4.2629
   89.5000   119.9533     4.1307     3.9777
   90.0000   123.0898     3.8583     3.7116
   90.5000   123.6686     3.6039     3.4633
