~VERSION INFORMATION
 VERS.                2.0:   CWLS LOG ASCII STANDARD - VERSION 2.0
 WRAP.                 NO:   ONE LINE PER DEPTH STEP
~WELL INFORMATION
#MNEM.UNIT      DATA TYPE    INFORMATION
#----------   ------------   ------------------------------
 STRT.F            6.0000:   START DEPTH
 STOP.F         2600.0000:   STOP DEPTH
 STEP.F            0.5000:   STEP LENGTH
 NULL.          -999.2500:   NO VALUE
 COMP. FENIX & SCISSON INC:   COMPANY
 WELL.   NPR 3 SH #17 -34:   WELL
 FLD .             TEAPOT:   FIELD
 LOC .      S34 T39N R78W:   LOCATION
 CNTY.            NATRONA:   COUNTY
 STAT.            WYOMING:   STATE
 CTRY. UNITED STATES OF AMERICA:   COUNTRY
 SRVC.            Unknown:   SERVICE COMPANY
 DATE.        21-MAR-1978:   LOGDATE
 API .       490251060600:   API NUMBER
~CURVE INFORMATION
#MNEM.UNIT       API CODE    CURVE DESCRIPTION
#----------   ------------   ------------------------------
 DEPT.F                  :   
 NPHI.DEC    42 890 03 00:   NEUTRON POROSITY SANDSTONE
 CALD.IN     45 280 60 00:   CALIPER FROM DENSITY LOG
 GRD .GAPI   45 310 01 00:   GAMMA RAY FROM DENSITY LOG
 CORR.G/C3   45 356 01 00:   DENSITY CORRECTION
 RHOB.G/C3   45 350 01 00:   BULK DENSITY
 DPHI.DEC    45 890 12 00:   DENSITY POROSITY SANDSTONE
~PARAMETER INFORMATION
#MNEM.UNIT          VALUE    DESCRIPTION
#----------   ------------   ------------------------------
 PD  .                 GL:   PERMANENT DATUM
 EPD .F              5150:   ELEVATION PERMANENT DATUM
 LMF .                 KB:   LOG MEASURED FROM
 DMF .                 KB:   DRILLING MEASURED FROM
 EKB .F              5160:   KELLING BUSHING
 EGL .F              5150:   GROUND LEVEL
 DATE.          3-21-1978:   RUN DATE
 RUN .                  1:   RUN NUMBER
 DD  .F              2612:   DEPTH DRILLER
 DL  .F              2592:   DEPTH LOGGER
 BLI .F              2590:   BOTTOM LOG INTERVAL
 TLI .F                20:   TOP LOG INTERVAL
 CS  .IN            9.625:   CASING SIZE
 CBD .F               710:   CASING BOTTOM DRILLER
 CBL .F               710:   CASING BOTTOM LOGGER
 BS  .IN            8.625:   BIT SIZE
 BSD .F              2612:   BIT SIZE AT DEPTH
 DFT .           AIR MIST:   DRILLING FLUID TYPE
 BHT .F               110:   BOTTOM HOLE TEMPERATURE
 TCS .HRS               2:   TIME CURCULATED STOPPED
 MRT .F               110:   MAXIMUM RECORDED TEMPERATURE
 LUN .               2958:   LOGGING UNIT NUMBER
 LUL .               CASP:   LOGGING UNIT LOCATION
 ENGI.            POINTER:   RECORDING ENGINEER
 WITN.           MCGINLEY:   WITNESSED BY
 CLNT.            A2DTECH:   CLIENT CODE
 ORIG.      2" , 5" PRINT:   ORIGIN OF DATA
 UWI .       490251060600:   UNIQUE WELL ID
 DICO. A2D Technologies, Inc.:   DIGITIZING COMPANY
~OTHER INFORMATION
~A    DEPT      NPHI     CALD        GRD       CORR       RHOB       DPHI   
# ...
 2190.0000  -999.2500     9.0022   101.9936     0.1043     2.4654     0.1091
 2190.5000  -999.2500     9.0025   100.5560     0.1058     2.4687     0.1064
 2191.0000  -999.2500     9.0028    98.9482     0.1072     2.4734     0.1031
 2191.5000  -999.2500     9.0032    97.5700     0.1087     2.4782     0.0999
 2192.0000  -999.2500     9.0035    97.5381     0.1110     2.4829     0.0972
 2192.5000  -999.2500     9.0038    98.7694     0.1140     2.4875     0.0946
 2193.0000  -999.2500     9.0042   100.0433     0.1144     2.4913     0.0938
 2193.5000  -999.2500     9.0045    99.0502     0.1125     2.4930     0.0971
 2194.0000  -999.2500     9.0048    95.7539     0.1107     2.4891     0.1000
 2194.5000  -999.2500     9.0051    92.4814     0.1088     2.4866     0.1026
 2195.0000  -999.2500     9.0055    90.4240     0.1069     2.4824     0.1056
 2195.5000  -999.2500     9.0058    88.2913     0.1050     2.4741     0.1060
 2196.0000  -999.2500     9.0060    88.3825     0.1037     2.4740     0.1078
 2196.5000  -999.2500     9.0060    91.1211     0.1060     2.4733     0.1100
 2197.0000  -999.2500     9.0060    94.1754     0.1083     2.4671     0.1072
 2197.5000  -999.2500     9.0060    95.3365     0.1145     2.4676     0.1034
 2198.0000  -999.2500     9.0060    95.5954     0.1245     2.4746     0.0992
 2198.5000  -999.2500     9.0060    98.2739     0.1291     2.4818     0.1005
 2199.0000  -999.2500     9.0060   101.2326     0.1204     2.4858     0.1024
 2199.5000  -999.2500     9.0060   103.6057     0.1103     2.4816     0.1044
 2200.0000  -999.2500     9.0060   103.4072     0.1001     2.4766     0.1044
 2200.5000  -999.2500     9.0060   100.9090     0.0953     2.4725     0.1070
 2201.0000  -999.2500     9.0060    99.1051     0.0964     2.4710     0.1092
 2201.5000  -999.2500     9.0060    99.4635     0.0974     2.4694     0.1084
 2202.0000  -999.2500     9.0060    99.7539     0.0983     2.4679     0.1093
 2202.5000  -999.2500     9.0060    99.7414     0.0993     2.4648     0.1122
 2203.0000  -999.2500     9.0060    99.6560     0.1002     2.4597     0.1127
 2203.5000  -999.2500     9.0060   102.1602     0.1012     2.4606     0.1107
 2204.0000  -999.2500     9.0060   104.2750     0.1021     2.4652     0.1088
 2204.5000  -999.2500     9.0060   102.2629     0.1031     2.4704     0.1077
 2205.0000  -999.2500     9.0060   100.2081     0.1040     2.4690     0.1084
 2205.5000  -999.2500     9.0060    99.1342     0.1050     2.4676     0.1104
 2206.0000  -999.2500     9.0060    99.1529     0.1059     2.4646     0.1099
 2206.5000  -999.2500     9.0060    99.1310     0.1069     2.4643     0.1076
 2207.0000  -999.2500     9.0060   101.1697     0.1078     2.4706     0.1049
 2207.5000  -999.2500     9.0060   102.8860     0.1088     2.4767     0.1012
 2208.0000  -999.2500     9.0060   104.6374     0.1089     2.4819     0.1012
 2208.5000  -999.2500     9.0060   106.2366     0.1071     2.4814     0.1012
 2209.0000  -999.2500     9.0060   104.8598     0.1054     2.4808     0.1012
 2209.5000  -999.2500     9.0060   103.2345     0.1037     2.4801     0.1015
 2210.0000  -999.2500     9.0060   101.7970     0.1020     2.4819     0.1038
 2210.5000  -999.2500     9.0060   100.3379     0.1003     2.4836     0.1061
 2211.0000  -999.2500     9.0060   101.6774     0.0987     2.4743     0.1084
 2211.5000  -999.2500     9.0060   103.5565     0.0979     2.4668     0.1075
 2212.0000  -999.2500     9.0060   103.0757     0.1000     2.4707     0.1052
 2212.5000  -999.2500     9.0060   102.7203     0.1021     2.4746     0.1052
 2213.0000  -999.2500     9.0060   102.9372     0.1042     2.4738     0.1052
 2213.5000  -999.2500     9.0060   102.7966     0.1063     2.4731     0.1042
 2214.0000  -999.2500     9.0060   101.1204     0.1083     2.4747     0.1016
 2214.5000  -999.2500     9.0060   100.0202     0.1104     2.4765     0.0968
 2215.0000  -999.2500     9.0060    98.8979     0.1125     2.4799     0.0995
 2215.5000  -999.2500     9.0060    97.8777     0.1145     2.4850     0.1023
 2216.0000  -999.2500     9.0060    96.9923     0.1139     2.4816     0.1051
 2216.5000  -999.2500     9.0060    96.7403     0.1115     2.4755     0.1080
 2217.0000  -999.2500     9.0060    97.2853     0.1090     2.4728     0.1100
 2217.5000  -999.2500     9.0060   100.4720     0.1065     2.4663     0.1123
 2218.0000  -999.2500     9.0060   106.7078     0.1055     2.4609     0.1148
 2218.5000  -999.2500     9.0060   108.4887     0.1056     2.4598     0.1140
 2219.0000  -999.2500     9.0060   109.7128     0.1057     2.4595     0.1134
 2219.5000  -999.2500     9.0060   111.8843     0.1058     2.4592     0.1148
 2220.0000  -999.2500     9.0060   110.0250     0.1059     2.4570     0.1139
 2220.5000  -999.2500     9.0060   106.5548     0.1060     2.4539     0.1151
 2221.0000  -999.2500     9.0060   103.2040     0.1061     2.4500     0.1172
 2221.5000  -999.2500     9.0060    99.8435     0.1062     2.4486     0.1192
 2222.0000  -999.2500     9.0060    99.2171     0.1063     2.4472     0.1187
 2222.5000  -999.2500     9.0060    99.9015     0.1064     2.4499     0.1180
 2223.0000  -999.2500     9.0060    99.9479     0.1065     2.4528     0.1204
 2223.5000  -999.2500     9.0060   101.5341     0.1066     2.4474     0.1232
 2224.0000  -999.2500     9.0060   103.5679     0.1067     2.4424     0.1204
 2224.5000  -999.2500     9.0060   101.5467     0.1068     2.4481     0.1180
 2225.0000  -999.2500     9.0060   100.3933     0.1069     2.4530     0.1187
 2225.5000  -999.2500     9.0060    98.4721     0.1070     2.4515     0.1199
 2226.0000  -999.2500     9.0060    93.3913     0.1071     2.4502     0.1210
 2226.5000  -999.2500     9.0060    86.6397     0.1072     2.4489     0.1222
 2227.0000  -999.2500     9.0060    86.6385     0.1074     2.4475     0.1234
 2227.5000  -999.2500     9.0060    87.6255     0.1085     2.4462     0.1244
 2228.0000  -999.2500     9.0060    89.8591     0.1137     2.4450     0.1216
 2228.5000  -999.2500     9.0060    91.3970     0.1214     2.4452     0.1187
 2229.0000  -999.2500     9.0060    91.2447     0.1256     2.4493     0.1156
 2229.5000  -999.2500     9.0060    91.1173     0.1287     2.4533     0.1094
 2230.0000  -999.2500     9.0060    90.9511     0.1310     2.4582     0.1064
 2230.5000  -999.2500     9.0060    89.4565     0.1238     2.4660     0.1116
 2231.0000  -999.2500     9.0060    88.1478     0.1174     2.4676     0.1122
 2231.5000  -999.2500     9.0060    89.0790     0.1168     2.4627     0.1157
 2232.0000  -999.2500     9.0060    90.9487     0.1162     2.4598     0.1192
 2232.5000  -999.2500     9.0060    92.2137     0.1157     2.4627     0.1228
 2233.0000  -999.2500     9.0060    90.4203     0.1153     2.4549     0.1263
 2233.5000  -999.2500     9.0060    88.0423     0.1212     2.4397     0.1280
 2234.0000  -999.2500     9.0060    86.5272     0.1302     2.4360     0.1247
 2234.5000  -999.2500     9.0060    86.3087     0.1367     2.4397     0.1180
 2235.0000  -999.2500     9.0060    88.3110     0.1324     2.4478     0.1207
 2235.5000  -999.2500     9.0060    90.2952     0.1234     2.4506     0.1233
 2236.0000  -999.2500     9.0060    92.2772     0.1134     2.4489     0.1260
 2236.5000  -999.2500     9.0060    91.9558     0.1122     2.4422     0.1287
 2237.0000  -999.2500     9.0060    90.9840     0.1135     2.4356     0.1295
 2237.5000  -999.2500     9.0060    90.9479     0.1229     2.4335     0.1221
 2238.0000  -999.2500     9.0060    92.7774     0.1333     2.4392     0.1140
 2238.5000  -999.2500     9.0060    94.6070     0.1240     2.4538     0.1149
 2239.0000  -999.2500     9.0060    95.5280     0.1121     2.4533     0.1162
 2239.5000  -999.2500     9.0060    92.9882     0.1101     2.4483     0.1182
 2240.0000  -999.2500     9.0060    91.3247     0.1108     2.4471     0.1200
 2240.5000  -999.2500     9.0060    94.8371     0.1117     2.4479     0.1195
 2241.0000  -999.2500     9.0060    99.7691     0.1126     2.4489     0.1192
 2241.5000  -999.2500     9.0060   104.9417     0.1133     2.4499     0.1155
