~VERSION INFORMATION
 VERS.                2.0:   CWLS LOG ASCII STANDARD - VERSION 2.0
 WRAP.                 NO:   ONE LINE PER DEPTH STEP
~WELL INFORMATION
#MNEM.UNIT      DATA TYPE    INFORMATION
#----------   ------------   ------------------------------
 STRT.F           30.0000:   START DEPTH
 STOP.F          634.0000:   STOP DEPTH
 STEP.F            0.5000:   STEP LENGTH
 NULL.          -999.2500:   NO VALUE
 COMP. FENIX & SCISSON INC:   COMPANY
 WELL.     26-S-11 #26-11:   WELL
 FLD .             TEAPOT:   FIELD
 LOC .      S11 T38N R78W:   LOCATION
 CNTY.            NATRONA:   COUNTY
 STAT.            WYOMING:   STATE
 CTRY. UNITED STATES OF AMERICA:   COUNTRY
 SRVC.              Welex:   SERVICE COMPANY
 DATE.        26-APR-1977:   LOGDATE
 API .       490251034300:   API NUMBER
~CURVE INFORMATION
#MNEM.UNIT       API CODE    CURVE DESCRIPTION
#----------   ------------   ------------------------------
 DEPT.F                  :   
 SPR .MV     07 010 01 00:   SPONTANEOUS POTENTIAL
 ILD .OHMM   07 120 46 00:   INDUCTION LOG DEEP
 ILM .OHMM   07 120 44 00:   INDUCTION LOG MEDIUM
 SGRD.OHMM   07 221 05 00:   SHALLOW SHORT GUARD RESISTIVITY
 CALD.IN     45 280 60 00:   CALIPER FROM DENSITY LOG
 GRD .GAPI   45 310 01 00:   GAMMA RAY FROM DENSITY LOG
 CORR.G/C3   45 356 01 00:   DENSITY CORRECTION
 DPHI.DEC    45 890 12 00:   DENSITY POROSITY SANDSTONE
 RHOB.G/C3   45 350 01 00:   BULK DENSITY
~PARAMETER INFORMATION
#MNEM.UNIT          VALUE    DESCRIPTION
#----------   ------------   ------------------------------
 PD  .                 GL:   PERMANENT DATUM
 EPD .F              5179:   ELEVATION PERMANENT DATUM
 LMF .                 GL:   LOG MEASURED FROM
 DMF .                 GL:   DRILLING MEASURED FROM
 EGL .F              5179:   GROUND LEVEL
 DATE.          4-24-1977:   RUN DATE
 RUN .                  1:   RUN NUMBER
 DD  .F               645:   DEPTH DRILLER
 DL  .F               634:   DEPTH LOGGER
 BLI .F               632:   BOTTOM LOG INTERVAL
 TLI .F                40:   TOP LOG INTERVAL
 CS  .IN            8.625:   CASING SIZE
 CBD .F                40:   CASING BOTTOM DRILLER
 CBL .F                42:   CASING BOTTOM LOGGER
 BS  .IN            7.875:   BIT SIZE
 BSD .F               645:   BIT SIZE AT DEPTH
 DFT .            KCL MUD:   DRILLING FLUID TYPE
 DFD .                8.8:   DRILLING FLUID DENSITY
 DFV .                 33:   DRILLING FLUID VISCOSITY
 DFPH.                7.5:   DRILLING FLUID PH
 DFL .                 96:   DRILLING FLUID LOSS
 MSS .           FLOWLINE:   MUD SAMPLE SOURCE
 RMS .OHMM            .17:   RESISTIVITY MUD SAMPLE
 MST .F                81:   MUD SAMPLE TEMPERATURE
 RMF .OHMM            .16:   RESISTIVITY MUD FILTRATE SAMPLE
 MFST.F                81:   MUD FILTRATE SAMPLE TEMPERATURE
 RMC .OHMM            .21:   RESISTIVITY MUD CAKE
 MCST.F                81:   MUD CAKE SAMPLE TEMPERATURE
 MFSS.           FANN KIT:   MUD FILTRATE SAMPLE SOURCE
 MCSS.           FANN KIT:   MUD CAKE SAMPLE SOURCE
 RMB .OHMM            .19:   RESISTIVITY MUD AT BHT
 BHT .F                72:   BOTTOM HOLE TEMPERATURE
 TCS .HRS             1.5:   TIME CURCULATED STOPPED
 MRT .F                72:   MAXIMUM RECORDED TEMPERATURE
 LUN .                861:   LOGGING UNIT NUMBER
 LUL .           GILLETTE:   LOGGING UNIT LOCATION
 ENGI.             JOYNER:   RECORDING ENGINEER
 WITN.           ROB LYON:   WITNESSED BY
 CLNT.            A2DTECH:   CLIENT CODE
 ORIG.         2.5" PRINT:   ORIGIN OF DATA
 UWI .       490251034300:   UNIQUE WELL ID
 DICO. A2D Technologies, Inc.:   DIGITIZING COMPANY
~OTHER INFORMATION
~A   DEPT      SPR        ILD        ILM       SGRD       CALD        GRD       CORR       DPHI       RHOB   
# ...
  504.5000   -22.6722     9.9794    11.4422    16.2698     7.9915    90.4164     0.0010     0.1529     2.3932
  505.0000   -22.6740     9.9780    11.2803    16.0385     7.9879    91.3196    -0.0018     0.1559     2.3857
  505.5000   -22.6755     9.8377    11.2787    15.8106     7.9844    92.4898     0.0012     0.1607     2.3798
  506.0000   -22.6770     9.6994    11.1192    15.5858     7.9817    93.6598     0.0011     0.1589     2.3797
  506.5000   -22.6785     9.5631    10.9619    15.3643     7.9807    94.5366     0.0041     0.1530     2.3856
  507.0000   -22.6800     9.4286    10.9604    15.3610     7.9797    95.7478     0.0073     0.1482     2.3944
  507.5000   -22.6815     9.4273    10.9588    15.3578     7.9786    96.9208     0.0099     0.1447     2.4018
  508.0000   -22.3809     9.4260    10.8038    15.1395     7.9776    98.0469     0.0129     0.1400     2.4106
  508.5000   -22.3824     9.2935    10.9557    15.1363     7.9766    98.9238     0.0128     0.1358     2.4195
  509.0000   -22.3839     9.2922    10.9542    15.1331     7.9756    99.9891     0.0128     0.1317     2.4254
  509.5000   -22.0831     9.2909    10.9526    15.1298     7.9746   100.6774     0.0128     0.1287     2.4283
  510.0000   -21.7825     9.2896    11.1067    15.1266     8.0029   101.2023     0.0133     0.1317     2.4327
  510.5000   -21.1800     9.4195    11.2628    15.1460     8.0018   101.7223     0.0157     0.1388     2.4253
  511.0000   -20.5773     9.4181    11.5834    15.3590     8.0008   100.6745     0.0157     0.1418     2.4045
  511.5000   -20.2767     9.6845    11.7463    15.5750     7.9998    97.3284     0.0156     0.1424     2.4148
  512.0000   -19.6739    10.0991    12.2523    15.9913     7.9988    93.5075     0.0162     0.1436     2.4153
  512.5000   -19.3733    10.6801    12.7801    16.2436     7.9978    90.8369     0.0185     0.1460     2.3866
  513.0000   -19.0725    11.4540    13.5199    16.9433     7.9967    91.8592     0.0192     0.1502     2.3777
  513.5000   -18.4700    12.4573    14.5058    17.9590     7.9957    92.9501     0.0215     0.1585     2.3703
  514.0000   -18.1694    13.9338    15.5635    19.3490     7.9947    94.2815     0.0214     0.1668     2.3643
  514.5000   -17.8688    14.9435    16.4645    21.6154     7.9937    95.6628     0.0214     0.1727     2.3554
  515.0000   -17.5682    15.8032    17.9160    23.8070     7.9927    96.4516     0.0243     0.1852     2.3391
  515.5000   -17.2674    16.7123    19.2224    25.5447     7.9916    96.9427     0.0243     0.1941     2.3139
  516.0000   -16.9668    17.6738    20.3352    27.0255     7.9906    95.1144     0.0235     0.2102     2.3021
  516.5000   -16.9685    18.9544    21.2111    28.5243     7.9896    88.5248     0.0213     0.2066     2.3020
  517.0000   -17.2721    19.7658    22.4391    29.8259     7.9884    83.0204     0.0212     0.1995     2.3094
  517.5000   -17.2736    20.6119    23.0778    31.3981     7.9875    79.5894     0.0204     0.1942     2.3153
  518.0000   -17.2751    20.9000    23.0745    30.8732     7.9865    77.8358     0.0182     0.1889     2.3227
  518.5000   -17.5788    21.1921    23.3996    30.0839     7.9853    78.6305     0.0182     0.1841     2.3302
  519.0000   -17.8824    21.1891    23.0680    29.6563     8.0138    79.9824     0.0182     0.1794     2.3418
  519.5000   -18.1860    21.1862    22.7417    29.2354     8.0128    81.3292     0.0181     0.1705     2.3565
  520.0000   -18.1875    20.8883    22.4201    34.1483     8.0117    82.7862     0.0181     0.1491     2.3772
  520.5000   -18.1890    20.5947    21.7934    40.2584     8.0107    81.3109     0.0191     0.1331     2.3964
  521.0000   -18.1905    20.0178    21.1842    49.2357     8.0097    81.3020     0.0210     0.1254     2.4304
  521.5000   -18.1920    19.4527    20.5921    31.3243     8.0087    81.2933     0.0220     0.1219     2.4481
  522.0000   -18.1936    18.6532    20.0165    27.7388     8.0076    80.8973     0.0239     0.1309     2.4499
  522.5000   -18.1951    17.8804    19.1845    25.9190     8.0066    79.4134     0.0239     0.1399     2.4170
  523.0000   -17.8943    17.3696    18.9131    24.8363     8.0350    77.4551     0.0268     0.1513     2.3726
  523.5000   -17.8960    16.6614    18.3844    24.2158     8.0339    80.9922     0.0268     0.1621     2.3548
  524.0000   -17.5952    16.1966    18.3818    23.9505     8.0328    85.3198     0.0268     0.1810     2.3429
  524.5000   -17.2946    15.7448    18.3792    23.9455     8.0318    87.7839     0.0297     0.1867     2.3384
  525.0000   -17.2963    15.5216    18.4641    24.2811     8.0308    88.9052     0.0297     0.1864     2.3369
  525.5000   -16.9955    15.3016    17.8630    24.2753     8.0298    88.0880     0.0296     0.1816     2.3428
  526.0000   -16.9972    15.1058    16.8807    24.2701     8.0287    85.6137     0.0309     0.1754     2.3501
  526.5000   -16.6964    15.1036    16.4088    24.2650     8.0277    88.1231     0.0326     0.1785     2.3518
  527.0000   -16.6981    15.1015    16.4065    24.3529     8.0267    89.7615     0.0339     0.1802     2.3486
  527.5000   -16.6996    15.1261    16.8736    24.6000     8.0257    90.3421     0.0355     0.1780     2.3456
  528.0000   -16.3988    15.3106    17.6004    24.5941     8.0246    90.9228     0.0354     0.1760     2.3441
  528.5000   -16.0982    15.3083    18.3585    24.4907     8.0236    91.1418     0.0354     0.1791     2.3470
  529.0000   -16.0999    15.3061    18.8811    24.2394     8.0226    90.4731     0.0354     0.1775     2.3484
  529.5000   -15.7991    15.3040    19.1466    24.2343     8.0216    89.2131     0.0353     0.1743     2.3514
  530.0000   -15.4987    15.3018    18.3507    23.8897     8.0205    88.1036     0.0353     0.1762     2.3558
  530.5000   -15.5002    15.3375    15.4912    23.8847     8.0195    88.9218     0.0353     0.1745     2.3543
  531.0000   -15.1996    15.5137    14.0328    23.7761     8.0185    90.0920     0.0353     0.1696     2.3601
  531.5000   -15.2011    15.5113    14.2302    23.5402     8.0174    91.2621     0.0352     0.1643     2.3719
  532.0000   -15.2026    15.4660    15.2678    23.5353     7.9871    92.2535     0.0352     0.1601     2.3808
  532.5000   -15.2041    15.0783    15.2656    23.5303     7.9861    91.8573     0.0352     0.1616     2.3837
  533.0000   -15.2056    15.0307    15.2635    23.0886     7.9850    91.3548     0.0351     0.1632     2.3822
  533.5000   -15.2071    14.6573    15.2613    22.8661     7.9840    91.2473     0.0321     0.1644     2.3777
  534.0000   -15.5107    14.2500    15.4763    22.5411     7.9830    90.6491     0.0262     0.1655     2.3776
  534.5000   -15.8144    14.0024    15.6935    22.2207     7.9820    90.1554     0.0232     0.1654     2.3761
  535.0000   -15.8159    13.8040    15.9146    22.2160     7.9809    90.1466     0.0231     0.1627     2.3761
  535.5000   -16.1195    13.4673    15.9120    21.9002     7.9799    90.1378     0.0231     0.1585     2.3822
  536.0000   -16.4231    13.2286    15.9097    21.5889     7.9789    90.2424     0.0231     0.1559     2.3879
  536.5000   -16.7267    12.9917    15.9075    21.2821     7.9779    91.2327     0.0201     0.1550     2.3924
  537.0000   -17.0304    12.6773    15.9052    21.1673     7.9768    92.2835     0.0201     0.1526     2.3953
  537.5000   -17.3340    12.3236    15.9030    20.9751     7.9758    93.5728     0.0200     0.1481     2.3997
  538.0000   -17.6376    11.9799    15.9008    20.5669     7.9748    94.9111     0.0200     0.1424     2.4028
  538.5000   -17.9412    11.6457    15.8985    20.3831     7.9738    95.7850     0.0229     0.1389     2.4071
  539.0000   -17.9428    11.5314    15.8963    20.0933     7.9727    96.6589     0.0229     0.1389     2.4115
  539.5000   -18.2464    11.3695    16.1198    20.0891     7.9717    97.1056     0.0229     0.1395     2.4128
  540.0000   -18.2479    11.5824    16.5787    19.8035     7.9707    95.5133     0.0228     0.1389     2.4125
  540.5000   -18.5515    11.7457    17.0506    19.7993     7.9696    94.4624     0.0228     0.1372     2.4112
