~VERSION INFORMATION
 VERS.                2.0:   CWLS LOG ASCII STANDARD - VERSION 2.0
 WRAP.                 NO:   ONE LINE PER DEPTH STEP
~WELL INFORMATION
#MNEM.UNIT      DATA TYPE    INFORMATION
#----------   ------------   ------------------------------
 STRT.F           33.0000:   START DEPTH
 STOP.F          957.0000:   STOP DEPTH
 STEP.F            0.5000:   STEP LENGTH
 NULL.          -999.2500:   NO VALUE
 COMP. TESORO PETROLEUM CORP:   COMPANY
 WELL.  NPR #3 46-S-14 #3:   WELL
 FLD .             TEAPOT:   FIELD
 LOC .      S14 T38N R78W:   LOCATION
 CNTY.            NATRONA:   COUNTY
 STAT.            WYOMING:   STATE
 CTRY. UNITED STATES OF AMERICA:   COUNTRY
 SRVC.       Schlumberger:   SERVICE COMPANY
 DATE.        25-JUN-1970:   LOGDATE
 API .       490251023100:   API NUMBER
~CURVE INFORMATION
#MNEM.UNIT       API CODE    CURVE DESCRIPTION
#----------   ------------   ------------------------------
 DEPT.F                  :   
 SPR .MV     05 010 01 00:   SPONTANEOUS POTENTIAL FROM RES.
 ILD .OHMM   05 120 46 00:   INDUCTION LOG DEEP
 CILD.MMHO   05 110 46 00:   CONDUCTIVITY INDUCTION LOG DEEP
 ASN .OHMM   05 041 16 00:   AMPLIFIED SHORT NORMAL 16"
 GR  .GAPI   30 310 01 00:   GAMMA RAY
 CALD.IN     45 280 60 00:   CALIPER FROM DENSITY LOG
 CORR.G/C3   45 356 01 00:   DENSITY CORRECTION
 DPHI.DEC    45 890 12 00:   DENSITY POROSITY SANDSTONE
 RHOB.G/C3   45 350 01 00:   BULK DENSITY
~PARAMETER INFORMATION
#MNEM.UNIT          VALUE    DESCRIPTION
#----------   ------------   ------------------------------
 PD  .                 GL:   PERMANENT DATUM
 EPD .F              5271:   ELEVATION PERMANENT DATUM
 LMF .                 KB:   LOG MEASURED FROM
 DAPD.F                10:   FEET ABOVE PERMANENT DATUM
 DMF .                 KB:   DRILLING MEASURED FROM
 EKB .F              5281:   KELLING BUSHING
 EDF .F              5280:   DRILLING FLOOR
 EGL .F              5271:   GROUND LEVEL
 DATE.        25-JUN-1970:   RUN DATE
 RUN .                  1:   RUN NUMBER
 DD  .F               950:   DEPTH DRILLER
 DL  .F               958:   DEPTH LOGGER
 BLI .F               957:   BOTTOM LOG INTERVAL
 TLI .F                33:   TOP LOG INTERVAL
 CS  .IN            10.75:   CASING SIZE
 CBD .F                30:   CASING BOTTOM DRILLER
 CBL .F                33:   CASING BOTTOM LOGGER
 BS  .IN                9:   BIT SIZE
 BSD .F               950:   BIT SIZE AT DEPTH
 DFT .         MO-MAR MUD:   DRILLING FLUID TYPE
 DFD .                9.7:   DRILLING FLUID DENSITY
 DFV .                 62:   DRILLING FLUID VISCOSITY
 DFPH.                7.4:   DRILLING FLUID PH
 DFL .                5.6:   DRILLING FLUID LOSS
 MSS .           FLOWLINE:   MUD SAMPLE SOURCE
 RMS .OHMM           1.40:   RESISTIVITY MUD SAMPLE
 MST .F                85:   MUD SAMPLE TEMPERATURE
 RMF .OHMM           0.85:   RESISTIVITY MUD FILTRATE SAMPLE
 MFST.F                87:   MUD FILTRATE SAMPLE TEMPERATURE
 MFSS.               MEAS:   MUD FILTRATE SAMPLE SOURCE
 RMB .OHMM           1.06:   RESISTIVITY MUD AT BHT
 BHT .F               112:   BOTTOM HOLE TEMPERATURE
 TCS .HRS               1:   TIME CURCULATED STOPPED
 MRT .F               112:   MAXIMUM RECORDED TEMPERATURE
 LUN .               7037:   LOGGING UNIT NUMBER
 LUL .                GLT:   LOGGING UNIT LOCATION
 ENGI.           KNOSTMAN:   RECORDING ENGINEER
 WITN.                MAY:   WITNESSED BY
 CLNT.            A2DTECH:   CLIENT CODE
 ORIG.         2.5" PRINT:   ORIGIN OF DATA
 UWI .       490251023100:   UNIQUE WELL ID
 DICO. A2D Technologies, Inc.:   DIGITIZING COMPANY
~OTHER INFORMATION
~A   DEPT       SPR        ILD       CILD       ASN         GR       CALD       CORR       DPHI       RHOB   
# ...
  544.0000   -34.4195     8.8364   113.4347     9.3834  -999.2500     9.4236     0.0425     0.1004     2.5366
  544.5000   -34.4134     8.5360   117.3497     9.2867  -999.2500     9.4233     0.0431     0.0768     2.5557
  545.0000   -34.4064     8.5381   120.3613     9.1182  -999.2500     9.4074     0.0209     0.0859     2.5364
  545.5000   -34.4007     8.2371   123.3728     8.8155  -999.2500     9.3924     0.0178     0.0967     2.5117
  546.0000   -34.3951     8.0647   126.6873     8.5054  -999.2500     9.3921     0.0178     0.1047     2.4916
  546.5000   -34.3891     7.9383   131.3299     8.1952  -999.2500     9.3918     0.0199     0.1089     2.4707
  547.0000   -34.3830     7.7151   136.1246     8.0620  -999.2500     9.3915     0.0231     0.1078     2.4858
  547.5000   -34.3769     7.6402   141.4841     7.9985  -999.2500     9.3912     0.0239     0.0999     2.4949
  548.0000   -34.3708     7.6426   142.9787     7.9685  -999.2500     9.3909     0.0239     0.1012     2.4979
  548.5000   -34.2381     7.6447   142.9480     7.9688  -999.2500     9.3906     0.0085     0.1072     2.4845
  549.0000   -34.0547     7.6470   141.1702     8.0455  -999.2500     9.3903     0.0052     0.1147     2.4652
  549.5000   -34.0486     7.6492   137.3404     8.3567  -999.2500     9.3900     0.0118     0.1206     2.4478
  550.0000   -34.0426     7.7652   131.4590     8.7273  -999.2500     9.4199     0.0223     0.1054     2.4720
  550.5000   -33.9605     7.8559   126.1049     8.8791  -999.2500     9.4196     0.0443     0.0963     2.4977
  551.0000   -33.7255     7.9591   123.0374     8.9400  -999.2500     9.4495     0.0454     0.0879     2.5083
  551.5000   -34.0243     8.0375   121.4514     8.9790  -999.2500     9.4492     0.0282     0.0885     2.5082
  552.0000   -34.0182     8.1152   119.9392     9.0012  -999.2500     9.4489     0.0022     0.1049     2.4885
  552.5000   -34.3166     8.1433   119.9088     8.9958  -999.2500     9.4486     0.0099     0.1055     2.4824
  553.0000   -34.3100     8.2712   119.8784     8.9776  -999.2500     9.4483     0.0191     0.1007     2.4935
  553.5000   -34.3040     8.2738   119.8442     8.9593  -999.2500     9.4480     0.0237     0.0829     2.5148
  554.0000   -34.2969     8.2759   119.8162     8.9603  -999.2500     9.4477     0.0253     0.0779     2.5313
  554.5000   -34.2913     8.2780   119.9010     8.9766  -999.2500     9.4474     0.0234     0.0790     2.5095
  555.0000   -34.2857     8.3081   121.6563     8.9470  -999.2500     9.4471     0.0185     0.0887     2.5064
  555.5000   -34.2796     8.3317   122.7719     8.9478  -999.2500     9.4468     0.0174     0.0929     2.5064
  556.0000   -34.0709     8.2848   122.7300     8.9485  -999.2500     9.4465     0.0212     0.0935     2.4973
  556.5000   -33.6596     8.2874   121.1823     8.9620  -999.2500     9.4462     0.0113     0.0966     2.4880
  557.0000   -33.6526     8.2894   119.6346     9.0322  -999.2500     9.4327     0.0006     0.1002     2.4851
  557.5000   -33.3430     8.2917   119.4148     9.1629  -999.2500     9.4154    -0.0010     0.1014     2.4870
  558.0000   -33.3374     8.2939   117.5987     9.3456  -999.2500     9.4151     0.0006     0.1015     2.4954
  558.5000   -33.0274     8.3099   115.7826     9.4372  -999.2500     9.4148     0.0104     0.0996     2.5018
  559.0000   -33.0213     8.3943   113.4298     9.5591  -999.2500     9.3843     0.0271     0.0923     2.5092
  559.5000   -33.3191     8.5052   111.8820     9.6858  -999.2500     9.3840     0.0282     0.0906     2.5091
  560.0000   -33.6161     8.6062   110.3344     9.8165  -999.2500     9.3837     0.0165     0.0918     2.5045
  560.5000   -33.6105     8.8121   110.3040     9.9472  -999.2500     9.3834     0.0051     0.0955     2.4966
  561.0000   -33.9088     8.9444   109.7417     9.9864  -999.2500     9.3831     0.0004     0.0979     2.4908
  561.5000   -34.2072     9.2189   108.7234     9.9872  -999.2500     9.3828     0.0143     0.0961     2.4917
  562.0000   -34.2006     9.2485   107.1691     9.9273  -999.2500     9.3824     0.0235     0.0876     2.5024
  562.5000   -34.1945     9.3753   107.1411     9.8674  -999.2500     9.4124     0.0281     0.0795     2.5129
  563.0000   -34.1875     9.5289   107.1125     9.8655  -999.2500     9.4121     0.0227     0.0850     2.5180
  563.5000   -34.1819     9.5311   107.0821     9.8083  -999.2500     9.4118     0.0167     0.0992     2.5209
  564.0000   -34.1763     9.5333   107.0517     9.8091  -999.2500     9.4115     0.0142     0.1035     2.4921
  564.5000   -34.1702     9.4309   108.5351     9.7940  -999.2500     9.4112     0.0219     0.1041     2.5105
  565.0000   -34.1641     9.3030   110.0269     9.6895  -999.2500     9.4109     0.0295     0.0883     2.5263
  565.5000   -34.1581     9.2371   109.9990     9.5084  -999.2500     9.4106     0.0203     0.0896     2.5252
  566.0000   -34.1520     8.9983   111.4908     9.4182  -999.2500     9.4102     0.0157     0.1027     2.5090
  566.5000   -34.0192     8.7835   112.9826     9.3826  -999.2500     9.4099     0.0275     0.1065     2.4874
  567.0000   -33.8359     8.6380   115.1519     9.2008  -999.2500     9.3794     0.0464     0.0817     2.5411
  567.5000   -33.8298     8.3173   117.4720     8.9423  -999.2500     9.3792     0.0274     0.0933     2.5131
  568.0000   -33.7731     8.2101   118.9666     8.7667  -999.2500     9.3789     0.0220     0.0918     2.4903
  568.5000   -33.5137     8.0389   121.9753     8.6645  -999.2500     9.3786     0.0163     0.0872     2.5251
  569.0000   -33.5067     8.0410   123.6930     8.6045  -999.2500     9.3782     0.0094     0.0974     2.5124
  569.5000   -33.5011     7.9389   125.4483     8.5750  -999.2500     9.3779     0.0356     0.0871     2.4902
  570.0000   -33.4954     7.8005   127.9635     8.5421  -999.2500     9.4079     0.0325     0.0764     2.5219
  570.5000   -33.4894     7.7447   129.4483     8.4779  -999.2500     9.4075     0.0140     0.0873     2.5273
  571.0000   -33.4833     7.7470   129.4204     8.4256  -999.2500     9.4072     0.0170     0.1000     2.4946
  571.5000   -33.4772     7.7492   130.9122     8.3329  -999.2500     9.4069     0.0170     0.1079     2.4855
  572.0000   -33.4702     7.7515   130.8815     8.2456  -999.2500     9.4066     0.0191     0.0999     2.4885
  572.5000   -33.4646     7.8081   130.8511     8.1857  -999.2500     9.4063     0.0216     0.0958     2.5051
  573.0000   -33.4590     7.9076   130.8207     8.1561  -999.2500     9.4060     0.0170     0.0922     2.4953
  573.5000   -33.4529     7.9410   130.7864     8.1265  -999.2500     9.4057     0.0047     0.1018     2.4838
  574.0000   -33.4468     8.0636   130.7585     8.1273  -999.2500     9.4054     0.0170     0.0898     2.5121
  574.5000   -33.7447     8.0662   132.2492     8.1708  -999.2500     9.4051     0.0231     0.0983     2.5217
  575.0000   -33.8061     8.0683   132.2189     8.2365  -999.2500     9.4045     0.0149     0.1141     2.4867
  575.5000   -34.0360     8.0707   132.1885     8.3418  -999.2500     9.4037     0.0043     0.1167     2.4511
  576.0000   -34.0304     8.0727   132.1525     8.4334  -999.2500     9.4030     0.0015     0.1038     2.4517
  576.5000   -34.0243     8.1827   130.6048     8.4947  -999.2500     9.4023     0.0110     0.1032     2.4897
  577.0000   -34.0182     8.2292   130.5768     8.5601  -999.2500     9.4016     0.0217     0.0940     2.4942
  577.5000   -34.0122     8.2311   130.3570     8.6258  -999.2500     9.4008     0.0245     0.0882     2.5078
  578.0000   -34.0051     8.2333   128.9969     8.6916  -999.2500     9.4001     0.0168     0.0873     2.5168
  578.5000   -34.0000     8.2356   128.9666     8.7402  -999.2500     9.3994     0.0107     0.0918     2.5183
  579.0000   -33.9930     8.2379   127.4115     8.7713  -999.2500     9.3986     0.0075     0.0972     2.5142
  579.5000   -33.9878     8.2074   127.3836     8.7417  -999.2500     9.3979     0.0042     0.1021     2.5025
  580.0000   -33.7116     8.0909   128.8754     8.6515  -999.2500     9.3972     0.0084     0.1166     2.4803
