~VERSION INFORMATION
 VERS.                2.0:   CWLS LOG ASCII STANDARD - VERSION 2.0
 WRAP.                 NO:   ONE LINE PER DEPTH STEP
~WELL INFORMATION
#MNEM.UNIT      DATA TYPE    INFORMATION
#----------   ------------   ------------------------------
 STRT.F            0.0000:   START DEPTH
 STOP.F          400.0000:   STOP DEPTH
 STEP.F            0.5000:   STEP LENGTH
 NULL.          -999.2500:   NO VALUE
 COMP. DEPARTMENT OF ENERGY:   COMPANY
 WELL. NPR 3 #55-56 SX 3 C5:   WELL
 FLD .        TEAPOT EAST:   FIELD
 LOC .       S3 T38N R78W:   LOCATION
 CNTY.            NATRONA:   COUNTY
 STAT.            WYOMING:   STATE
 CTRY. UNITED STATES OF AMERICA:   COUNTRY
 SRVC.      Dresser Atlas:   SERVICE COMPANY
 DATE.        03-JUL-1985:   LOGDATE
 API .       490251134300:   API NUMBER
~CURVE INFORMATION
#MNEM.UNIT       API CODE    CURVE DESCRIPTION
#----------   ------------   ------------------------------
 DEPT.F                  :   
 GRR .GAPI   07 310 01 00:   GAMMA RAY
 RILD.OHMM   07 120 46 00:   INDUCTION LOG DEEP RESISTIVITY
 RILM.OHMM   07 120 44 00:   INDUCTION LOG DEEP RESISTIVITY
 CALD.IN     45 280 60 00:   CALIPER FROM DENSITY LOG
 CORR.G/C3   45 356 01 00:   DENSITY CORRECTION
 DEN .G/C3   45 350 01 00:   COMPENSATED BULK DENSTIY
 NPOR.DEC    42 890 03 00:   NEUTRON POROSITY SANDSTONE
 PORD.DEC    45 890 12 00:   POROSITY DENSITY SANDSTONE
~PARAMETER INFORMATION
#MNEM.UNIT          VALUE    DESCRIPTION
#----------   ------------   ------------------------------
 PD  .                 GL:   PERMANENT DATUM
 EPD .F              5168:   ELEVATION PERMANENT DATUM
 LMF .                 GL:   LOG MEASURED FROM
 DMF .                 GL:   DRILLING MEASURED FROM
 EGL .F              5168:   GROUND LEVEL
 DATE.        03-JUL-1985:   RUN DATE
 RUN .                  1:   RUN NUMBER
 DD  .F               402:   DEPTH DRILLER
 DL  .F               402:   DEPTH LOGGER
 BLI .F               394:   BOTTOM LOG INTERVAL
 CS  .IN                7:   CASING SIZE
 CBD .F                80:   CASING BOTTOM DRILLER
 CBL .F                84:   CASING BOTTOM LOGGER
 BS  .IN            4.875:   BIT SIZE
 BSD .F               402:   BIT SIZE AT DEPTH
 DFT .                OIL:   DRILLING FLUID TYPE
 TCS .HRS               3:   TIME CURCULATED STOPPED
 MRT .F               148:   MAXIMUM RECORDED TEMPERATURE
 LUN .               6274:   LOGGING UNIT NUMBER
 LUL .               GLTE:   LOGGING UNIT LOCATION
 ENGI.             RAUTIO:   RECORDING ENGINEER
 WITN.             GROOMS:   WITNESSED BY
 CLNT.            A2DTECH:   CLIENT CODE
 ORIG.           5" PRINT:   ORIGIN OF DATA
 UWI .       490251134300:   UNIQUE WELL ID
 DICO. A2D Technologies, Inc.:   DIGITIZING COMPANY
~OTHER INFORMATION
~A    DEPT      GRR      RILD       RILM       CALD       CORR        DEN       NPOR       PORD   
# ...
  162.0000   121.1600     7.4207     7.1692     6.6090     0.1307     2.4627     0.2780     0.1122
  162.5000   121.4504     7.5218     7.1682     6.6088     0.0767     2.4611     0.2764     0.1134
  163.0000   122.9464     7.5197     7.2172     6.6087     0.0422     2.4604     0.2746     0.1140
  163.5000   125.6537     7.5177     7.2666     6.6086     0.0287     2.4581     0.2734     0.1149
  164.0000   127.1526     7.5156     7.3674     6.6084     0.0227     2.4536     0.2725     0.1167
  164.5000   127.4460     7.5136     7.4696     6.6082     0.0346     2.4453     0.2755     0.1195
  165.0000   126.8271     7.6165     7.5730     6.6081     0.0452     2.4310     0.2770     0.1270
  165.5000   125.9091     7.7375     7.5720     6.6079     0.0495     2.4137     0.2755     0.1411
  166.0000   124.3746     7.7355     7.6773     6.6078     0.0315     2.4084     0.2730     0.1460
  166.5000   122.5595     7.8420     7.7296     6.6076     0.0105     2.4152     0.2761     0.1444
  167.0000   120.7352     7.8404     7.7827     6.6075    -0.0045     2.4205     0.2776     0.1411
  167.5000   118.9108     7.8389     7.7814     6.6074    -0.0136     2.4294     0.2794     0.1378
  168.0000   118.8991     7.8372     7.7803     6.6072    -0.0196     2.4391     0.2797     0.1338
  168.5000   120.7001     7.8353     7.7793     6.6070    -0.0017     2.4429     0.2788     0.1290
  169.0000   119.4799     7.8337     7.7066     6.6069     0.0193     2.4398     0.2785     0.1253
  169.5000   118.2598     7.8322     7.6339     6.6067     0.0376     2.4188     0.2768     0.1291
  170.0000   117.3418     7.8306     7.5557     6.6066     0.0461     2.4045     0.2691     0.1422
  170.5000   120.3483     7.8290     7.4569     6.6064     0.0386     2.4067     0.2661     0.1477
  171.0000   121.8472     7.7733     7.4042     6.6063     0.0310     2.4180     0.2679     0.1446
  171.5000   123.0440     7.7717     7.2503     6.6067     0.0280     2.4233     0.2691     0.1389
  172.0000   122.1260     7.7161     7.0996     6.6210     0.0280     2.4262     0.2676     0.1349
  172.5000   119.6973     7.7146     7.0006     6.6208     0.0279     2.4239     0.2664     0.1343
  173.0000   118.1751     7.6597     6.9030     6.6358     0.0279     2.4179     0.2685     0.1379
  173.5000   118.4925     7.6052     6.7552     6.6356     0.0218     2.4141     0.2715     0.1422
  174.0000   121.1699     7.4471     6.5273     6.6354     0.0078     2.4186     0.2739     0.1417
  174.5000   122.3696     7.1918     6.3033     6.6503    -0.0112     2.4231     0.2751     0.1367
  175.0000   123.8656     6.9453     6.0870     6.6652    -0.0202     2.4185     0.2786     0.1373
  175.5000   125.0624     6.6888     5.8782     6.6800    -0.0008     2.4124     0.2823     0.1451
  176.0000   125.3557     6.1701     5.5980     6.6949     0.0695     2.4680     0.2847     0.1348
  176.5000   123.2263     5.5209     5.2211     6.7248     0.1578     2.4860     0.2857     0.0974
  177.0000   120.7976     4.8720     4.6956     6.7546     0.3164     2.5266     0.2853     0.0778
  177.5000   123.5021     4.2696     4.0632     6.8146     0.4302     2.5408     0.2853     0.0660
  178.0000   123.7955     3.6394     3.5350     7.0997     0.4646     2.5138     0.2859     0.0708
  178.5000   122.8745     2.9964     2.9911     7.2947     0.3960     2.4439     0.2881     0.1232
  179.0000   122.5607     2.5850     2.5133     7.3847     0.3162     2.3771     0.2923     0.1710
  179.5000   123.1533     2.3659     2.2956     7.4296     0.2698     2.3671     0.2968     0.1716
  180.0000   123.4441     2.3007     2.2015     7.3693     0.3117     2.3342     0.3083     0.1791
  180.5000   121.6114     2.2685     2.2166     7.3242     0.3505     2.2396     0.3300     0.2488
  181.0000   111.3837     2.2999     2.2810     7.2940     0.3834     2.1810     0.3466     0.2893
  181.5000   108.6021     2.3476     2.3592     7.1737     0.3954     2.1172     0.3541     0.3092
  182.0000   107.6841     2.4300     2.4593     6.9784     0.2831     2.1164     0.3354     0.3225
  182.5000   109.4851     2.6772     2.6730     6.8581     0.2815     2.1081     0.3243     0.3270
  183.0000   115.5157     3.0681     3.0716     6.8279     0.2877     2.1164     0.3140     0.3130
  183.5000   122.4527     3.6817     3.5791     6.8278     0.2515     2.1314     0.3019     0.3044
  184.0000   124.5558     4.1129     4.1128     6.8427     0.1137     2.1289     0.2990     0.3408
  184.5000   124.5730     4.5314     4.5739     6.8425     0.1077     2.0750     0.2910     0.3550
  185.0000   127.2485     5.0622     4.9611     6.8423     0.1495     2.0592     0.2871     0.3185
  185.5000   131.1643     5.4624     5.2080     6.8572     0.1435     2.1193     0.2901     0.2962
  186.0000   135.3822     5.7329     5.4292     6.8721     0.0956     2.3114     0.2931     0.2243
  186.5000   132.9536     5.9368     5.5817     6.8719     0.0892     2.4503     0.2931     0.1141
  187.0000   130.2229     6.1419     5.6986     6.8717     0.1231     2.4555     0.2913     0.1180
  187.5000   129.3049     6.1837     5.7376     6.8716     0.2022     2.4533     0.2931     0.1201
  188.0000   128.9909     6.1821     5.7791     6.8715     0.2720     2.4588     0.2943     0.1143
  188.5000   128.6744     6.0536     5.7759     6.8713     0.2675     2.4660     0.2952     0.1098
  189.0000   128.6627     5.8868     5.6954     6.8712     0.2854     2.4412     0.2922     0.1140
  189.5000   128.6510     5.6457     5.3863     6.8710     0.3467     2.4044     0.2880     0.1435
  190.0000   128.6393     5.3771     5.0237     6.8709     0.4156     2.3886     0.2877     0.1577
  190.5000   128.9297     5.0719     4.6530     6.8707     0.4280     2.4899     0.2955     0.1046
  191.0000   130.4286     4.6785     4.4005     6.8705     0.3496     2.5117     0.2976     0.0820
  191.5000   132.2326     4.3946     4.2198     6.8704     0.2469     2.5079     0.2995     0.0810
  192.0000   133.7724     4.2735     4.1037     6.8703     0.1534     2.5064     0.3134     0.0898
  192.5000   135.8287     4.1846     4.0183     6.8701     0.1294     2.3960     0.3160     0.1190
  193.0000   137.0255     4.1261     4.0458     6.8700     0.1848     2.2473     0.3145     0.1827
  193.5000   137.3188     4.0968     4.1019     6.8698     0.2655     2.1024     0.3127     0.3325
  194.0000   132.4704     4.1840     4.2171     6.8547     0.2940     2.1579     0.3109     0.3057
  194.5000   127.9270     4.3587     4.3355     6.8845     0.2056     2.3073     0.3070     0.2642
  195.0000   126.4047     4.5116     4.5197     6.9595     0.1829     2.3321     0.3015     0.1936
  195.5000   127.3303     4.7023     4.7185     6.8842     0.1950     2.3065     0.3002     0.1970
  196.0000   129.1004     4.9696     5.0855     6.8691     0.2120     2.2960     0.2985     0.2110
  196.5000   129.9921     5.3254     5.4892     6.9590     0.2353     2.3322     0.2967     0.2095
  197.0000   129.9805     5.7067     5.8839     7.0189     0.2563     2.3868     0.2940     0.1700
  197.5000   129.9688     6.0731     6.1338     7.0338     0.2652     2.4250     0.2910     0.1422
  198.0000   128.4465     6.3798     6.3061     6.7343     0.2232     2.4543     0.2885     0.1168
  198.5000   127.5285     6.6431     6.3936     6.6431     0.2262     2.4625     0.2864     0.1138
  199.0000   126.2900     6.8286     6.5275     6.6580     0.2306     2.4715     0.2840     0.1107
  199.5000   125.3874     6.9226     6.5264     6.6428     0.1947     2.4700     0.2819     0.1059
  200.0000   125.0736     7.0178     6.4803     6.6577     0.1123     2.4429     0.2804     0.1270
  200.5000   127.7809     6.9679     6.4345     6.6575    -0.0001     2.4292     0.2798     0.1347
  201.0000   131.3946     6.9184     6.3008     6.6574    -0.0106     2.4354     0.2792     0.1324
  201.5000   133.7999     6.8217     6.2129     6.6572    -0.0152     2.4444     0.2792     0.1270
  202.0000   134.9970     6.6796     6.1262     6.6570    -0.0167     2.4474     0.2813     0.1224
