~VERSION INFORMATION
 VERS.                2.0:   CWLS LOG ASCII STANDARD - VERSION 2.0
 WRAP.                 NO:   ONE LINE PER DEPTH STEP
~WELL INFORMATION
#MNEM.UNIT      DATA TYPE    INFORMATION
#----------   ------------   ------------------------------
 STRT.F            0.0000:   START DEPTH
 STOP.F          717.5000:   STOP DEPTH
 STEP.F            0.5000:   STEP LENGTH
 NULL.          -999.2500:   NO VALUE
 COMP. LAWRENCE/ALLISON INC:   COMPANY
 WELL. NPR 3 #27-64-SX-11-WP:   WELL
 FLD .             TEAPOT:   FIELD
 LOC .      S11 T38N R78W:   LOCATION
 CNTY.            NATRONA:   COUNTY
 STAT.            WYOMING:   STATE
 CTRY. UNITED STATES OF AMERICA:   COUNTRY
 SRVC.      Dresser Atlas:   SERVICE COMPANY
 DATE.        15-SEP-1984:   LOGDATE
 API .       490251097500:   API NUMBER
~CURVE INFORMATION
#MNEM.UNIT       API CODE    CURVE DESCRIPTION
#----------   ------------   ------------------------------
 DEPT.F                  :   
 CALD.IN     45 280 60 00:   CALIPER FROM DENSITY LOG
 CNC .DEC    42 890 03 00:   COMPENSATED NEUTRON POROSITY SANDSTONE
 CORR.G/C3   45 356 01 00:   DENSITY CORRECTION
 DEN .G/C3   45 350 01 00:   BULK DENSTIY
 PORD.DEC    45 890 12 00:   POROSITY DENSITY SANDSTONE
 GRR .GAPI   07 310 01 00:   GAMMA RAY FROM RESISTIVITY
 RFOC.OHMM   07 220 01 00:   RESISTIVITY FOCUSED LOG
 RILD.OHMM   07 120 46 00:   RESISTIVITY INDUCTION LOG DEEP
 RILM.OHMM   07 120 44 00:   RESITIVITY INDUCTION LOG MEDIUM
 SPR .MV     07 010 01 00:   SPONTANEOUS POTENTIAL FROM RES.
~PARAMETER INFORMATION
#MNEM.UNIT          VALUE    DESCRIPTION
#----------   ------------   ------------------------------
 PD  .                 GL:   PERMANENT DATUM
 EPD .F              5198:   ELEVATION PERMANENT DATUM
 LMF .                 GL:   LOG MEASURED FROM
 DMF .                 GL:   DRILLING MEASURED FROM
 EGL .F              5198:   GROUND LEVEL
 DATE.        15-SEP-1984:   RUN DATE
 RUN .                  1:   RUN NUMBER
 DD  .F               736:   DEPTH DRILLER
 DL  .F               722:   DEPTH LOGGER
 BLI .F               704:   BOTTOM LOG INTERVAL
 TLI .F                42:   TOP LOG INTERVAL
 CS  .IN            8.625:   CASING SIZE
 CBD .F                42:   CASING BOTTOM DRILLER
 CBL .F                42:   CASING BOTTOM LOGGER
 BS  .IN            7.875:   BIT SIZE
 BSD .F               736:   BIT SIZE AT DEPTH
 DFT .          KCL WATER:   DRILLING FLUID TYPE
 MSS .           FLOWLINE:   MUD SAMPLE SOURCE
 RMS .OHMM           0.22:   RESISTIVITY MUD SAMPLE
 MST .F                70:   MUD SAMPLE TEMPERATURE
 RMB .OHMM           0.17:   RESISTIVITY MUD AT BHT
 BHT .F                90:   BOTTOM HOLE TEMPERATURE
 TCS .HRS               5:   TIME CURCULATED STOPPED
 MRT .F                90:   MAXIMUM RECORDED TEMPERATURE
 LUN .               6274:   LOGGING UNIT NUMBER
 LUL .               GLTE:   LOGGING UNIT LOCATION
 ENGI.             RAUTIO:   RECORDING ENGINEER
 WITN.            JOHNSON:   WITNESSED BY
 CLNT.            A2DTECH:   CLIENT CODE
 ORIG.         2.5" PRINT:   ORIGIN OF DATA
 UWI .       490251097500:   UNIQUE WELL ID
 DICO. A2D Technologies, Inc.:   DIGITIZING COMPANY
~OTHER INFORMATION
~A    DEPT    CALD        CNC       CORR        DEN       PORD         GRR      RFOC       RILD       RILM        SPR   
# ...
  536.0000     8.1420     0.2362     0.0049     2.3501     0.2017    67.6769    13.9472    13.6034    13.7384    12.1183
  536.5000     8.1701     0.2339     0.0047     2.3419     0.2082    68.1893    13.9302    13.5876    13.7221    12.0956
  537.0000     8.1685     0.2327    -0.0103     2.3322     0.2109    67.5225    13.7269    13.3845    13.7099    11.4852
  537.5000     8.1375     0.2309    -0.0342     2.3297     0.2106    66.8639    13.5249    13.3709    13.6495    11.3535
  538.0000     8.1360     0.2292    -0.0373     2.3320     0.2067    66.7929    13.5076    13.3559    13.3093    10.8491
  538.5000     8.1346     0.2284    -0.0436     2.3355     0.2033    67.8981    13.3108    13.3403    12.9379    10.5352
  539.0000     8.1331     0.2242    -0.0430     2.3414     0.2012    71.4242    13.1154    13.3235    12.9009    10.2189
  539.5000     8.1317     0.2194    -0.0288     2.3443     0.1998    72.5084    13.1010    13.1281    12.7364     9.6026
  540.0000     8.1302     0.2161    -0.0111     2.3501     0.1981    72.4157    12.9070    13.1128    12.5487     9.2887
  540.5000     8.1287     0.2206     0.0018     2.3516     0.1957    71.1706    12.8777    12.9173    12.5373     8.9734
  541.0000     8.1272     0.2247     0.0108     2.3530     0.1934    69.9172    12.7043    12.9042    12.4687     8.6568
  541.5000     8.1257     0.2265     0.0211     2.3562     0.1911    69.8328    12.6884    12.8892    12.3391     8.3381
  542.0000     8.1240     0.2266     0.0239     2.3655     0.1862    69.7710    12.5035    12.6963    12.3281     7.7278
  542.5000     8.1226     0.2236     0.0148     2.3739     0.1804    70.3945    12.3196    12.5108    12.2796     7.3052
  543.0000     8.1212     0.2212     0.0142     2.3749     0.1787    70.8166    12.3035    12.4969    12.1357     6.7957
  543.5000     8.1197     0.2201     0.0205     2.3706     0.1813    71.3301    12.1242    12.4824    12.1222     6.4818
  544.0000     8.1183     0.2238     0.0204     2.3681     0.1829    70.6746    12.1117    12.2967    12.1108     6.0907
  544.5000     8.1465     0.2366     0.0172     2.3791     0.1813    70.3865    12.0984    12.1166    12.0320     5.5492
  545.0000     8.1450     0.2425     0.0141     2.3909     0.1742    69.3388    12.0836    12.1025    11.9198     5.2353
  545.5000     8.1435     0.2412     0.0110     2.3998     0.1617    68.6854    12.0719    12.0863    11.9091     4.6243
  546.0000     8.1420     0.2324     0.0257     2.4116     0.1558    68.0237    12.2272    12.0741    11.8969     4.3077
  546.5000     8.1405     0.2314     0.0399     2.4174     0.1528    66.7559    12.2096    12.0603    11.8825     3.9888
  547.0000     8.1391     0.2333     0.0447     2.4233     0.1499    66.6941    12.3671    12.2125    11.8719     3.3787
  547.5000     8.1376     0.2292     0.0490     2.4294     0.1464    67.8158    12.5254    12.1973    12.0250     3.2569
  548.0000     8.1358     0.2256     0.0519     2.4382     0.1458    68.0158    12.5105    12.3531    12.0116     2.7423
  548.5000     8.1344     0.2227     0.0484     2.4394     0.1479    68.2604    12.4955    12.3378    11.9981     2.4284
  549.0000     8.1330     0.2226     0.0367     2.4319     0.1549    69.4122    12.3129    12.3218    12.1646     2.1124
  549.5000     8.1316     0.2310     0.0217     2.4246     0.1609    70.7022    12.1317    12.3091    12.3095     1.9335
  550.0000     8.1302     0.2352     0.0097     2.4169     0.1663    71.0059    12.1164    12.2948    12.2929     1.4778
  550.5000     8.1287     0.2334     0.0033     2.4092     0.1693    70.3422    11.9398    12.1110    12.1148     1.4196
  551.0000     8.1272     0.2311     0.0004     2.3975     0.1679    69.3648    11.7644    11.9340    11.9378     0.7288
  551.5000     8.1257     0.2354     0.0010     2.4078     0.1637    67.2292    11.5887    11.7226    11.7608     0.0803
  552.0000     8.1243     0.2389     0.0041     2.4092     0.1650    67.1675    11.4198    11.5848    11.5904    -0.6773
  552.5000     8.1228     0.2327     0.0072     2.4047     0.1680    68.2892    11.4081    11.5702    11.5792    -1.5829
  553.0000     8.1213     0.2298     0.0117     2.4001     0.1674    69.9486    11.3956    11.4005    11.4099    -2.1953
  553.5000     8.1195     0.2319     0.0116     2.4019     0.1633    70.5089    11.3816    11.3872    11.2417    -2.2197
  554.0000     8.1479     0.2348     0.0055     2.4108     0.1604    70.4379    11.3706    11.3722    11.2314    -2.2377
  554.5000     8.1463     0.2343    -0.0066     2.4133     0.1624    70.3669    11.3581    11.3607    11.2199    -2.6080
  555.0000     8.1449     0.2337    -0.0067     2.4054     0.1702    70.2856    11.3435    11.3475    11.2065    -3.0129
  555.5000     8.1435     0.2331    -0.0068     2.3971     0.1735    71.4073    11.3326    11.4883    11.1965    -3.4842
  556.0000     8.1420     0.2326    -0.0070     2.3923     0.1734    68.9704    11.3208    11.4767    11.1853    -3.7988
  556.5000     8.1405     0.2326    -0.0071     2.3955     0.1673    67.7026    11.3084    11.4639    11.1738    -3.9315
  557.0000     8.1095     0.2335    -0.0073     2.4099     0.1595    68.2367    11.2947    11.4506    11.1615    -4.1390
  557.5000     8.1080     0.2497    -0.0044     2.4188     0.1538    69.4478    11.4399    11.4360    11.1509    -4.1570
  558.0000     8.1065     0.2522    -0.0046     2.4217     0.1529    70.4615    11.5869    11.4239    11.1394    -4.2584
  558.5000     8.1050     0.2427    -0.0035     2.4246     0.1535    69.7916    11.5702    11.2575    11.1265    -4.7938
  559.0000     8.1035     0.2317    -0.0004     2.4156     0.1565    69.0966    11.7189    11.2777    11.1166    -4.8118
  559.5000     8.1018     0.2263     0.0073     2.4124     0.1589    68.4734    11.8695    11.2951    11.1051    -4.8314
  560.0000     8.1302     0.2258     0.0215     2.4093     0.1631    68.3921    11.8551    11.3125    11.0917    -4.8521
  560.5000     8.1286     0.2328     0.0273     2.4058     0.1655    68.9221    11.8411    11.3299    11.0818    -4.8749
  561.0000     8.1272     0.2311     0.0093     2.4030     0.1674    70.9428    11.9933    11.3473    11.1005    -4.8935
  561.5000     8.1257     0.2281    -0.0146     2.4004     0.1685    72.9097    12.1474    11.3647    11.2122    -4.8072
  562.0000     8.1243     0.2264    -0.0266     2.3987     0.1680    74.0314    12.1300    11.3821    11.3552    -4.6391
  562.5000     8.1228     0.2240    -0.0230     2.4048     0.1631    73.9645    12.2859    11.3995    11.3436    -4.3639
  563.0000     8.1213     0.2211    -0.0081     2.4179     0.1570    73.8935    12.4437    11.4169    11.3913    -4.3087
  563.5000     8.1198     0.2194     0.0027     2.4268     0.1541    73.8153    12.4259    11.4357    11.4765    -4.1095
  564.0000     8.1183     0.2231    -0.0153     2.4252     0.1540    73.6727    12.5863    11.2653    11.3085    -4.1315
  564.5000     8.1169     0.2247    -0.0028     2.4148     0.1592    71.6884    12.5725    11.0968    11.2970    -4.4467
  565.0000     8.1151     0.2246     0.0141     2.4088     0.1628    68.8654    12.7322    10.9347    10.9781    -4.6006
  565.5000     8.1137     0.2220     0.0152     2.4057     0.1640    66.4368    12.8926    10.8932    10.8190    -5.0821
  566.0000     8.1123     0.2195     0.0019     2.4088     0.1635    65.7751    12.3425    10.6148    10.6614    -5.1006
  566.5000     8.1108     0.2180     0.0018     2.4118     0.1629    66.2825    11.5774    10.6013    10.6505    -5.4172
  567.0000     8.1094     0.2178     0.0076     2.4148     0.1611    69.7710    11.0487    10.3037    10.6384    -5.7369
  567.5000     8.1080     0.2202    -0.0045     2.4183     0.1587    70.8927    10.8876    10.2917    10.6214    -5.7550
  568.0000     8.1065     0.2344    -0.0105     2.4238     0.1580    70.8166    10.6946    10.2781    10.4732    -6.1420
  568.5000     8.1050     0.2332    -0.0075     2.4246     0.1556    71.9218    10.4258    10.2677    10.4607    -6.3876
  569.0000     8.1036     0.2309     0.0020     2.4245     0.1548    73.1202    10.4134    10.2558    10.5959    -6.4098
