~VERSION INFORMATION
 VERS.                2.0:   CWLS LOG ASCII STANDARD - VERSION 2.0
 WRAP.                 NO:   ONE LINE PER DEPTH STEP
~WELL INFORMATION
#MNEM.UNIT      DATA TYPE    INFORMATION
#----------   ------------   ------------------------------
 STRT.F            2.5000:   START DEPTH
 STOP.F          548.0000:   STOP DEPTH
 STEP.F            0.5000:   STEP LENGTH
 NULL.          -999.2500:   NO VALUE
 COMP. LAWRENCE/ALLISON INC:   COMPANY
 WELL.    55-61 SX #10-10:   WELL
 FLD .           N.P.R #3:   FIELD
 LOC .      S10 T38N R78W:   LOCATION
 CNTY.            NATRONA:   COUNTY
 STAT.            WYOMING:   STATE
 CTRY. UNITED STATES OF AMERICA:   COUNTRY
 SRVC.            Unknown:   SERVICE COMPANY
 DATE.        05-SEP-1984:   LOGDATE
 API .       490251098100:   API NUMBER
~CURVE INFORMATION
#MNEM.UNIT       API CODE    CURVE DESCRIPTION
#----------   ------------   ------------------------------
 DEPT.F                  :   
 GRR .GAPI   07 310 01 00:   GAMMA RAY FROM RES
 SPR .MV     07 010 01 00:   SPONTANEOUS POTENTIAL
 RFOC.OHMM   07 220 04 00:   RESISTIVITY FOCUSED LOG
 RILD.OHMM   07 120 46 00:   INDUCTION LOG DEEP RESISTIVITY
 RILM.OHMM   07 120 44 00:   INDUCTION LOG MEDIUM RESISTIVITY
 CALD.IN     45 280 60 00:   CALIPER FROM DENSITY LOG
 DEN .G/C3   45 350 01 00:   COMPENSATED BULK DENSTIY
 CNC .DEC    42 890 03 00:   NEUTRON POROSITY SANDSTONE
 PORD.DEC    45 890 12 00:   POROSITY DENSITY SANDSTONE
 CORR.G/C3   45 356 01 00:   DENSITY CORRECTION
 AC  .US/F   60 520 00 00:   ACCOUSTIC SONIC
~PARAMETER INFORMATION
#MNEM.UNIT          VALUE    DESCRIPTION
#----------   ------------   ------------------------------
 PD  .                 GL:   PERMANENT DATUM
 EPD .F              5191:   ELEVATION PERMANENT DATUM
 LMF .                 KB:   LOG MEASURED FROM
 DAPD.F                12:   FEET ABOVE PERMANENT DATUM
 DMF .                 KB:   DRILLING MEASURED FROM
 EKB .F              5203:   KELLING BUSHING
 EGL .F              5191:   GROUND LEVEL
 DATE.         5-SEP-1984:   RUN DATE
 RUN .                  1:   RUN NUMBER
 DD  .F               540:   DEPTH DRILLER
 DL  .F               550:   DEPTH LOGGER
 BLI .F               548:   BOTTOM LOG INTERVAL
 CS  .IN            8.625:   CASING SIZE
 CBD .F                42:   CASING BOTTOM DRILLER
 CBL .F                54:   CASING BOTTOM LOGGER
 BS  .IN            7.875:   BIT SIZE
 BSD .F               540:   BIT SIZE AT DEPTH
 DFT .        KCL POLYMER:   DRILLING FLUID TYPE
 MSS .           FLOWLINE:   MUD SAMPLE SOURCE
 RMS .OHMM            .79:   RESISTIVITY MUD SAMPLE
 MST .F                74:   MUD SAMPLE TEMPERATURE
 RMF .OHMM            .59:   RESISTIVITY MUD FILTRATE SAMPLE
 MFST.F                74:   MUD FILTRATE SAMPLE TEMPERATURE
 RMC .OHMM            .99:   RESISTIVITY MUD CAKE
 MCST.F                74:   MUD CAKE SAMPLE TEMPERATURE
 MFSS.               CALC:   MUD FILTRATE SAMPLE SOURCE
 MCSS.               CALC:   MUD CAKE SAMPLE SOURCE
 RMB .OHMM            .65:   RESISTIVITY MUD AT BHT
 BHT .F                90:   BOTTOM HOLE TEMPERATURE
 TCS .HRS               3:   TIME CURCULATED STOPPED
 MRT .F                90:   MAXIMUM RECORDED TEMPERATURE
 LUN .               6274:   LOGGING UNIT NUMBER
 LUL .               GLTE:   LOGGING UNIT LOCATION
 ENGI.             RAUTIO:   RECORDING ENGINEER
 WITN.            JOHNSON:   WITNESSED BY
 CLNT.            A2DTECH:   CLIENT CODE
 ORIG. 2", 2.5", 5" PRINT:   ORIGIN OF DATA
 UWI .       490251098100:   UNIQUE WELL ID
 DICO. A2D Technologies, Inc.:   DIGITIZING COMPANY
~OTHER INFORMATION
~A    DEPT      GRR       SPR       RFOC       RILD       RILM       CALD        DEN        CNC       PORD       CORR         AC   
# ...
  216.0000   132.0020   -96.5030  -999.2500     7.0970     6.9440     8.0540     2.4670     0.3231     0.1260     0.0010   118.3490
  216.5000   127.8240   -95.3530  -999.2500     6.7540     6.5290     8.0540     2.4670     0.3280     0.1300     0.0180   117.1910
  217.0000   125.4440   -94.6100  -999.2500     6.4110     6.1150     8.0550     2.4590     0.3542     0.1350     0.0210   119.3600
  217.5000   125.6850   -91.9630  -999.2500     6.0680     5.7010     8.0550     2.4490     0.3619     0.1510     0.0050   121.7730
  218.0000   128.4570   -85.8170  -999.2500     5.7370     5.2330     8.0560     2.4140     0.3430     0.1710    -0.0120   121.3730
  218.5000   131.4330   -79.2520  -999.2500     5.6730     5.3870     8.0560     2.3780     0.3331     0.1930    -0.0290   120.2070
  219.0000   130.8840   -72.8570  -999.2500     5.5930     5.5830     8.0560     2.3540     0.3316     0.1860    -0.0290   119.0400
  219.5000   128.8940   -68.0540  -999.2500     5.5300     5.7370     8.0570     2.3900     0.3393     0.1610    -0.0150   117.8730
  220.0000   127.2920   -63.1610  -999.2500     5.5810     5.8430     8.0570     2.4250     0.3356     0.1400     0.0000   117.2810
  220.5000   127.7850   -58.9060  -999.2500     5.8830     6.1810     8.0580     2.4580     0.3238     0.1320     0.0110   117.5310
  221.0000   129.8660   -55.5160  -999.2500     6.2520     6.5130     8.0580     2.4470     0.3080     0.1400     0.0000   117.7890
  221.5000   133.7800   -52.1560  -999.2500     6.6200     6.8440     8.0580     2.4360     0.2973     0.1470    -0.0110   116.1750
  222.0000   134.5250   -48.6390  -999.2500     6.9890     7.1760     8.0590     2.4340     0.2882     0.1430    -0.0200   114.8310
  222.5000   133.7440   -45.8560  -999.2500     7.3580     7.5070     8.0590     2.4500     0.2838     0.1320    -0.0160   113.8050
  223.0000   130.5330   -41.8050  -999.2500     7.7260     7.8390     8.0600     2.4670     0.2814     0.1280    -0.0020   116.1950
  223.5000   124.8700   -37.8060  -999.2500     8.0950     8.1710     8.0600     2.4730     0.2841     0.1230     0.0110   117.9880
  224.0000   118.7660   -33.7870  -999.2500     8.4360     8.6720     8.0610     2.4720     0.3008     0.1260     0.0090   118.7360
  224.5000   114.1420   -27.6680  -999.2500     8.4510     8.4970     8.0610     2.4660     0.3085     0.1290    -0.0040   118.5860
  225.0000   110.2400   -20.5530  1999.8525     8.4680     8.1670     8.0610     2.4650     0.3045     0.1270    -0.0170   119.7140
  225.5000   107.2250   -12.9600  1894.9874     8.4860     7.8370     8.0620     2.4710     0.2849     0.1240    -0.0190   121.1310
  226.0000   104.5690   -10.0660  1410.4668     8.5030     7.5060     8.0620     2.4760     0.2760     0.1210    -0.0060   121.7690
  226.5000   104.2340    -8.3960   925.9463     8.5140     7.0860     8.0630     2.4760     0.2809     0.1220    -0.0010   121.2690
  227.0000   107.1090    -7.6040   441.4257     8.3450     7.5800     8.0630     2.4750     0.2791     0.1230    -0.0150   120.6770
  227.5000   110.3550    -7.2440    21.6430     8.2160     8.2610     8.0630     2.4730     0.2769     0.1230    -0.0280   119.9550
  228.0000   110.8730    -7.2680    10.2310     8.1320     8.4520     8.0640     2.4710     0.2775     0.1240    -0.0210   119.2320
  228.5000   109.9720    -7.2920    10.1730     8.3540     8.4720     8.0640     2.4750     0.2803     0.1220    -0.0070   118.3860
  229.0000   108.0010    -7.3180    11.7520     8.5180     8.4930     8.0650     2.4830     0.2886     0.1170     0.0080   118.3860
  229.5000   106.2170    -7.3450    12.9050     8.6830     8.5140     8.0650     2.4880     0.2969     0.1140     0.0130   120.2780
  230.0000   105.9250    -7.3720    13.9440     8.8480     8.5350     8.0650     2.4880     0.2959     0.1150     0.0020   122.1120
  230.5000   105.9440    -7.3970    14.7720     9.0120     8.5550     8.0650     2.4830     0.2910     0.1170    -0.0040   123.9450
  231.0000   105.9430    -7.4120    14.6360     9.1330     8.5760     8.0650     2.4850     0.2845     0.1150     0.0030   124.9600
  231.5000   106.4000    -7.6260    14.3100     9.2250     8.6410     8.0650     2.4890     0.2795     0.1130     0.0100   122.9310
  232.0000   107.0640    -7.9610    13.9820     9.3160     8.8780     8.0650     2.4940     0.2773     0.1110     0.0060   119.8060
  232.5000   106.0360    -8.3640    13.7250     9.4430     9.1160     8.0650     2.4910     0.2755     0.1130     0.0040   116.6810
  233.0000   104.9580    -8.7670    13.8520     9.6230     9.3540     8.0650     2.4860     0.2733     0.1150     0.0110   114.8840
  233.5000   102.6410    -9.2710    14.5550     9.8020     9.5910     8.0650     2.4860     0.2711     0.1150     0.0180   115.5080
  234.0000    98.6340    -9.2220    15.2390    10.0440     9.8620     8.0650     2.4890     0.2686     0.1140     0.0240   116.5700
  234.5000    94.9610    -8.9530    15.8410     9.7420     9.6080     8.0650     2.4850     0.2712     0.1170     0.0140   117.6330
  235.0000    95.3080    -8.6820    16.1970     9.0670     8.9220     8.0650     2.4800     0.2973     0.1190     0.0030   118.1870
  235.5000    96.8730    -8.4090    16.5530     8.3920     8.0300     8.0650     2.4800     0.3285     0.1180    -0.0070   117.9170
  236.0000    98.6090    -8.1350    16.9090     7.7170     7.1380     8.0650     2.4820     0.3217     0.1180    -0.0150   118.0320
  236.5000   100.8770    -7.8610    16.0680     7.0420     5.7900     8.0650     2.4680     0.3102     0.1290    -0.0130   118.5320
  237.0000   104.9830    -7.5870    13.1740     6.7680     5.9100     8.0640     2.4250     0.3005     0.1600    -0.0020   118.4390
  237.5000   110.0460    -7.3130     9.4190     6.7680     6.1570     8.0630     2.3660     0.2923     0.1980     0.0080   117.7390
  238.0000   110.7020    -7.0390     7.2170     6.7680     6.6630     8.0620     2.3360     0.2641     0.2050     0.0090   117.1910
  238.5000   103.7660    -6.7650     9.9220     6.8300     7.2790     8.0610     2.3600     0.2515     0.1760     0.0030   117.4670
  239.0000    96.9650    -6.4850    13.7290     7.2780     7.8950     8.0610     2.4390     0.2514     0.1370     0.0120   117.7170
  239.5000    92.6730    -6.2000    16.4920     8.0200     8.5110     8.0600     2.5020     0.2548     0.0970     0.0250   117.7890
  240.0000    92.1730    -5.9160    15.8980     8.7610     9.1630     8.0590     2.5230     0.2622     0.0940     0.0230   117.5900
  240.5000    96.7600    -5.6320    14.7890     9.5020     9.7360     8.0580     2.5200     0.2739     0.0950     0.0080   116.5170
  241.0000   100.4980    -5.4490    13.8110    10.2430    10.6130     8.0570     2.5180     0.2792     0.0970     0.0150   115.5580
  241.5000   100.2500    -5.6840    13.5460    11.0110    10.5760     8.0570     2.5140     0.2767     0.0990     0.0130   114.6000
  242.0000    98.9100    -5.9330    13.2810    10.9790    10.4720     8.0560     2.5060     0.2739     0.1040     0.0110   113.6420
  242.5000    96.7400    -6.1870    13.0160    10.9230    10.3250     8.0550     2.4990     0.2710     0.1080     0.0200   113.0930
  243.0000    97.4550    -6.0770    12.7510    10.8660    10.4200     8.0540     2.5000     0.2675     0.1060     0.0310   113.8840
  243.5000    98.5370    -5.8100    12.4860    10.8100    10.5160     8.0530     2.5050     0.2643     0.1040     0.0350   115.8170
  244.0000    99.5390    -5.5310    12.2210    11.0270    11.0650     8.0530     2.5100     0.2627     0.1020     0.0320   117.5360
  244.5000    99.0590    -5.7600    11.9590    11.3890    11.6320     8.0520     2.5090     0.2617     0.1020     0.0290   116.9920
  245.0000    95.6100    -6.0250    12.8450    12.4950    12.1980     8.0510     2.5010     0.2596     0.1070     0.0260   115.7970
  245.5000    89.6280    -6.2510    14.2850    14.0660    12.7530     8.0500     2.4820     0.2586     0.1160     0.0120   116.2110
  246.0000    80.3290    -6.0090    15.7250    15.6380    14.4370     8.0490     2.4630     0.2623     0.1330    -0.0040   117.3540
