~VERSION INFORMATION
 VERS.                2.0:   CWLS LOG ASCII STANDARD - VERSION 2.0
 WRAP.                 NO:   ONE LINE PER DEPTH STEP
~WELL INFORMATION
#MNEM.UNIT      DATA TYPE    INFORMATION
#----------   ------------   ------------------------------
 STRT.F            6.0000:   START DEPTH
 STOP.F          475.0000:   STOP DEPTH
 STEP.F            0.5000:   STEP LENGTH
 NULL.          -999.2500:   NO VALUE
 COMP. BROWN JOHN E&C INC:   COMPANY
 WELL.       SX 74 #32-10:   WELL
 FLD .             TEAPOT:   FIELD
 LOC .      S10 T38N R78W:   LOCATION
 CNTY.            NATRONA:   COUNTY
 STAT.            WYOMING:   STATE
 CTRY. UNITED STATES OF AMERICA:   COUNTRY
 SRVC.       Schlumberger:   SERVICE COMPANY
 DATE.        06-SEP-1990:   LOGDATE
 API .       490251132500:   API NUMBER
~CURVE INFORMATION
#MNEM.UNIT       API CODE    CURVE DESCRIPTION
#----------   ------------   ------------------------------
 DEPT.F                  :   
 GRR .GAPI   07 310 01 00:   GAMMA RAY FROM RES. LOG.
 ILD .OHMM   07 120 46 00:   INDUCTION LOG DEEP
 ILM .OHMM   07 120 44 00:   INDUCTION LOG MEDIUM
~PARAMETER INFORMATION
#MNEM.UNIT          VALUE    DESCRIPTION
#----------   ------------   ------------------------------
 PD  .                 GL:   PERMANENT DATUM
 EPD .F              5180:   ELEVATION PERMANENT DATUM
 LMF .                 KB:   LOG MEASURED FROM
 DAPD.F                10:   FEET ABOVE PERMANENT DATUM
 DMF .                 KB:   DRILLING MEASURED FROM
 EKB .F              5190:   KELLING BUSHING
 EGL .F              5180:   GROUND LEVEL
 DATE.         6-SEP-1990:   RUN DATE
 RUN .                  1:   RUN NUMBER
 DD  .F               480:   DEPTH DRILLER
 DL  .F               481:   DEPTH LOGGER
 BLI .F               475:   BOTTOM LOG INTERVAL
 TLI .F                10:   TOP LOG INTERVAL
 CS  .IN            8.625:   CASING SIZE
 CBD .F                42:   CASING BOTTOM DRILLER
 CBL .F                42:   CASING BOTTOM LOGGER
 BS  .IN            7.875:   BIT SIZE
 BSD .F               480:   BIT SIZE AT DEPTH
 DFT .                AIR:   DRILLING FLUID TYPE
 MFSS.               MEAS:   MUD FILTRATE SAMPLE SOURCE
 MCSS.               CALC:   MUD CAKE SAMPLE SOURCE
 BHT .F                69:   BOTTOM HOLE TEMPERATURE
 TLAB.HRS            0919:   TIME LOGGER AT BOTTOM
 MRT .F                69:   MAXIMUM RECORDED TEMPERATURE
 LUN .               8199:   LOGGING UNIT NUMBER
 LUL .             CASPER:   LOGGING UNIT LOCATION
 ENGI.                LEE:   RECORDING ENGINEER
 WITN.          G. STRONG:   WITNESSED BY
 CLNT.            A2DTECH:   CLIENT CODE
 ORIG.        2" 5" PRINT:   ORIGIN OF DATA
 UWI .       490251132500:   UNIQUE WELL ID
 DICO. A2D Technologies, Inc.:   DIGITIZING COMPANY
~OTHER INFORMATION
~A    DEPT      GRR       ILD        ILM   
# ...
  188.0000   136.9210     4.9260     4.6601
  188.5000   133.1409     5.3894     5.0914
  189.0000   132.5794     5.8356     5.5427
  189.5000   142.3232     6.2557     6.0340
  190.0000   150.4151     6.5002     6.2791
  190.5000   153.0211     6.5274     6.3758
  191.0000   151.2222     6.5548     6.3758
  191.5000   147.5248     6.5823     6.3777
  192.0000   145.1422     6.6153     6.3780
  192.5000   144.9969     6.2622     5.9917
  193.0000   147.5504     5.8495     5.6863
  193.5000   150.8817     5.5840     5.3965
  194.0000   152.7508     5.4450     5.1215
  194.5000   153.2320     5.3094     5.0212
  195.0000   151.3422     5.1773     4.9708
  195.5000   145.8658     5.1102     5.0150
  196.0000   140.0173     5.2421     5.0812
  196.5000   134.5933     5.3330     5.1981
  197.0000   134.6771     5.5934     5.3513
  197.5000   136.5532     5.9111     5.6640
  198.0000   137.2655     6.2470     5.9878
  198.5000   135.7045     6.6019     6.3170
  199.0000   134.1074     6.9769     6.6667
  199.5000   135.1178     7.1963     6.9691
  200.0000   140.2449     7.3698     7.2454
  200.5000   145.3754     7.5480     7.5328
  201.0000   146.0297     7.7305     7.7335
  201.5000   143.7099     7.9169     7.8571
  202.0000   141.4297     8.1028     7.9827
  202.5000   140.5055     7.9937     8.1035
  203.0000   140.8071     7.8646     7.9565
  203.5000   139.9438     7.7377     7.8166
  204.0000   138.6093     7.6128     7.6748
  204.5000   137.3039     7.4899     7.5365
  205.0000   137.7119     7.3689     7.4006
  205.5000   140.2216     7.2523     7.2672
  206.0000   145.0622     7.0406     7.1362
  206.5000   150.4762     6.7435     6.6528
  207.0000   154.5691     6.4206     6.1614
  207.5000   153.0622     5.9319     5.7063
  208.0000   150.4791     5.4794     5.2849
  208.5000   148.8786     5.1228     4.8935
  209.0000   148.0831     5.0168     4.4896
  209.5000   145.1407     4.9708     4.4896
  210.0000   141.5299     5.0887     4.8703
  210.5000   139.2395     5.2579     5.2430
  211.0000   140.7627     5.4327     5.6430
  211.5000   144.0605     5.7735     6.0736
  212.0000   142.7425     6.2441     6.5369
  212.5000   140.7237     6.7571     7.0356
  213.0000   141.4464     7.1914     7.3276
  213.5000   143.2923     7.4283     7.5295
  214.0000   145.7967     7.6659     7.7370
  214.5000   148.7619     7.8404     8.0285
  215.0000   151.6998     7.8818     8.0244
  215.5000   151.1446     7.8821     8.0179
  216.0000   147.6343     7.8818     8.0114
  216.5000   144.6724     7.8818     8.0050
  217.0000   146.4482     7.8818     7.9985
  217.5000   149.7851     7.8818     7.9921
  218.0000   151.6940     7.8818     7.9856
  218.5000   149.9401     7.8818     7.9792
  219.0000   146.0462     7.8818     7.9728
  219.5000   143.0647     7.8818     7.9663
  220.0000   141.9002     7.8818     7.9599
  220.5000   142.3753     7.8818     7.9533
  221.0000   148.1221     7.8818     7.9459
  221.5000   156.2160     7.8818     7.9385
  222.0000   161.4134     7.8818     7.9311
  222.5000   163.8343     7.8816     7.9237
  223.0000   160.9174     7.8926     7.9163
  223.5000   155.4173     7.9070     7.9089
  224.0000   149.7557     7.9215     7.9015
  224.5000   148.7030     7.9361     7.8941
  225.0000   154.9095     7.9548     7.8865
  225.5000   159.4410     7.9280     7.8613
  226.0000   158.7402     7.8904     7.6989
  226.5000   158.1831     7.7685     7.5403
  227.0000   159.8474     7.6241     7.3850
  227.5000   161.6055     7.4821     7.2329
  228.0000   162.3319     7.3429     7.0839
  228.5000   160.9722     7.2063     6.9380
  229.0000   157.3505     7.0722     6.7951
  229.5000   154.5188     6.9407     6.6551
  230.0000   155.7647     6.7695     6.5181
  230.5000   157.7115     6.5546     6.1716
  231.0000   154.5647     6.1030     5.8030
  231.5000   150.0943     5.9119     5.4587
  232.0000   149.5276     5.8681     5.2995
  232.5000   148.7849     5.9184     5.5012
  233.0000   148.0201     5.9632     5.7202
  233.5000   147.3056     6.0060     5.8741
  234.0000   147.2859     6.1756     6.0155
  234.5000   147.2551     6.4911     6.2328
  235.0000   149.3932     6.8271     6.5365
  235.5000   153.3868     7.1868     6.8550
  236.0000   157.4356     7.3986     7.1890
  236.5000   157.7225     7.5267     7.4576
  237.0000   152.6024     7.4319     7.3277
  237.5000   146.9489     7.2877     7.1244
  238.0000   141.3419     7.1463     6.8329
  238.5000   137.1834     6.7980     6.3623
  239.0000   137.7460     6.1160     5.9241
  239.5000   141.6879     5.7261     5.5161
  240.0000   147.2867     5.5002     5.1575
  240.5000   149.8844     5.3022     5.2598
  241.0000   146.6591     5.2053     5.4160
  241.5000   142.8954     5.4902     5.5573
  242.0000   141.7083     5.7577     5.5904
  242.5000   144.1041     6.0703     5.7662
  243.0000   144.0141     6.4224     6.0574
  243.5000   141.6487     6.7949     6.4725
  244.0000   139.7434     7.1890     6.9126
  244.5000   138.4256     7.6060     7.3810
  245.0000   132.4477     7.9644     7.7134
  245.5000   125.9977     8.1044     7.9259
  246.0000   123.6181     8.2524     8.1444
  246.5000   125.6264     8.3655     8.2740
  247.0000   129.4071     8.4992     8.4229
  247.5000   131.5769     8.6351     8.5746
  248.0000   132.2097     8.7731     8.6648
  248.5000   138.4251     8.9133     8.7041
  249.0000   143.2650     8.9677     8.7436
  249.5000   144.0957     8.9385     8.7833
  250.0000   141.4055     8.9040     8.8039
  250.5000   138.6946     8.8695     8.7298
  251.0000   136.4975     8.8353     8.6802
  251.5000   134.8444     8.8011     8.6309
  252.0000   133.9555     8.7670     8.5819
  252.5000   137.7684     8.7261     8.5331
  253.0000   144.9047     8.7440     8.4845
  253.5000   151.4174     8.7739     8.4365
  254.0000   149.7286     8.8039     8.4072
  254.5000   142.4821     8.9458     8.8032
  255.0000   139.6357     9.0908     9.0997
  255.5000   139.3761     9.3046     9.4062
  256.0000   138.4313     9.1274     9.7230
  256.5000   134.2929     8.8039     9.9249
  257.0000   130.9208     8.1697     8.5349
  257.5000   130.2681     7.5779     7.6507
  258.0000   135.6548     7.0290     6.8580
  258.5000   143.5909     6.4944     6.1433
  259.0000   155.3765     6.4944     5.5058
  259.5000   159.9707     6.5521     5.4411
  260.0000   152.1318     6.6111     5.8909
  260.5000   140.2280     6.6707     6.4696
  261.0000   128.8264     6.7733     7.1052
  261.5000   118.8234     7.3354     7.8031
  262.0000   113.6473     8.1692     8.5918
  262.5000   111.6621     9.0978     9.5557
  263.0000   115.2025    10.0411    10.3185
  263.5000   119.1881    10.8834    10.7772
  264.0000   122.6945    11.1887    11.0860
  264.5000   125.9330    11.0814    10.8522
  265.0000   129.1998    10.9887    10.7514
  265.5000   132.4891    10.8976    10.6787
  266.0000   134.8405    10.7825    10.5842
  266.5000   134.6294    11.7593    10.8473
  267.0000   128.8551    13.1987    11.6723
  267.5000   118.9927    14.5242    13.3835
  268.0000   106.5362    15.9828    15.3442
  268.5000    93.9576    17.6523    18.5919
  269.0000    75.3527    20.1700    23.3723
  269.5000    61.2077    22.9889    26.1372
  270.0000    56.4265    26.1633    29.3377
  270.5000    56.6912    29.7754    32.2610
  271.0000    61.6331    30.7598    33.4605
  271.5000    69.2468    31.4214    33.0180
  272.0000    80.7119    31.8152    32.4730
  272.5000    88.7838    32.0062    31.9370
  273.0000    93.1226    31.9002    31.4099
  273.5000    86.8990    31.7125    31.1331
  274.0000    80.9009    32.4815    32.2020
  274.5000    77.5436    33.3659    34.8355
  275.0000    73.0186    34.2775    37.6845
  275.5000    68.6268    35.2136    39.1987
  276.0000    66.3697    36.1736    38.6842
  276.5000    67.9020    37.1605    38.2676
  277.0000    71.9322    37.4371    37.8581
  277.5000    73.2515    37.7839    37.4342
  278.0000    73.4361    34.8173    35.1847
  278.5000    78.3704    33.5162    33.0241
