~VERSION INFORMATION
 VERS.                2.0:   CWLS LOG ASCII STANDARD - VERSION 2.0
 WRAP.                 NO:   ONE LINE PER DEPTH STEP
~WELL INFORMATION
#MNEM.UNIT      DATA TYPE    INFORMATION
#----------   ------------   ------------------------------
 STRT.F           80.0000:   START DEPTH
 STOP.F          660.0000:   STOP DEPTH
 STEP.F            0.5000:   STEP LENGTH
 NULL.          -999.2500:   NO VALUE
 COMP. U S NAVY-INTEX OIL:   COMPANY
 WELL.    NPR #3 #34 S-11:   WELL
 FLD .             TEAPOT:   FIELD
 LOC .      S11 T38N R78W:   LOCATION
 CNTY.            NATRONA:   COUNTY
 STAT.            WYOMING:   STATE
 CTRY. UNITED STATES OF AMERICA:   COUNTRY
 SRVC.       Schlumberger:   SERVICE COMPANY
 DATE.        10-JUL-1962:   LOGDATE
 API .       490250635000:   API NUMBER
~CURVE INFORMATION
#MNEM.UNIT       API CODE    CURVE DESCRIPTION
#----------   ------------   ------------------------------
 DEPT.F                  :   
 SPR .MV     05 010 01 00:   SPONTANEOUS POTENTIAL FROM RES.
 ASN .OHMM   05 041 16 00:   AMPLIFIED SHORT NORMAL 16"
 ILD .OHMM   05 120 46 00:   INDUCTION LOG DEEP
 GR  .GAPI   30 310 01 00:   GAMMA RAY
 CALM.IN     15 280 01 00:   CALIPER FROM MICRO LOG
 CILD.MMHO   05 110 46 00:   CONDUCTIVITY INDUCTION LOG DEEP
~PARAMETER INFORMATION
#MNEM.UNIT          VALUE    DESCRIPTION
#----------   ------------   ------------------------------
 CLNT.            A2DTECH:   CLIENT CODE
 UWI .       490250635000:   UNIQUE WELL ID
 DICO. A2D Technologies, Inc.:   DIGITIZING COMPANY
~OTHER INFORMATION
~A   DEPT      SPR        ASN        ILD         GR       CALM        CILD  
# ...
  288.0000   -65.7126     8.7095     7.7946  -999.2500  -999.2500   118.8279
  288.5000   -66.1729     8.6937     7.7847  -999.2500  -999.2500   118.1120
  289.0000   -66.3273     8.6931     7.7115  -999.2500  -999.2500   118.1492
  289.5000   -66.4817     8.7380     7.7077  -999.2500  -999.2500   116.6803
  290.0000   -66.4832     8.7981     7.7796  -999.2500  -999.2500   115.9645
  290.5000   -66.4847     8.8280     7.8514  -999.2500  -999.2500   115.2486
  291.0000   -66.3333     8.7514     7.9232  -999.2500  -999.2500   115.2862
  291.5000   -66.3349     8.7660     7.9185  -999.2500  -999.2500   116.8299
  292.0000   -66.3364     8.8868     7.8393  -999.2500  -999.2500   118.4839
  292.5000   -66.3382     8.8902     7.6845  -999.2500  -999.2500   120.6776
  293.0000   -66.3397     8.7187     7.6052  -999.2500  -999.2500   122.2208
  293.5000   -66.3412     8.5208     7.6015  -999.2500  -999.2500   123.7640
  294.0000   -66.3428     8.4443     7.5222  -999.2500  -999.2500   124.5541
  294.5000   -66.3443     8.4437     7.4429  -999.2500  -999.2500   125.3443
  295.0000   -66.4987     8.4451     7.4392  -999.2500  -999.2500   125.3815
  295.5000   -66.5002     8.4577     7.4355  -999.2500  -999.2500   126.1716
  296.0000   -66.6546     8.4569     7.4317  -999.2500  -999.2500   126.9618
  296.5000   -66.6561     8.4108     7.4280  -999.2500  -999.2500   127.7520
  297.0000   -66.5043     8.3647     7.4242  -999.2500  -999.2500   127.7891
  297.5000   -66.5062     8.3186     7.3450  -999.2500  -999.2500   128.5793
  298.0000   -66.5077     8.2876     7.3412  -999.2500  -999.2500   128.6164
  298.5000   -66.6621     8.2719     7.3375  -999.2500  -999.2500   128.6536
  299.0000   -66.8166     8.2409     7.3338  -999.2500  -999.2500   127.9367
  299.5000   -66.9710     8.1948     7.3300  -999.2500  -999.2500   127.2219
  300.0000   -66.9725     8.2277     7.4018  -999.2500  -999.2500   127.2590
  300.5000   -66.7181     8.3380     7.4736  -999.2500  -999.2500   125.5131
  301.0000   -66.5138     8.4245     7.6191  -999.2500  -999.2500   123.7671
  301.5000   -66.5138     8.5413     7.6147  -999.2500  -999.2500   122.0212
  302.0000   -66.5138     8.6318     7.8368  -999.2500  -999.2500   120.2752
  302.5000   -66.5138     8.7374     7.9079  -999.2500  -999.2500   118.3398
  303.0000   -66.5138     8.8278     7.9789  -999.2500  -999.2500   116.8505
  303.5000   -66.5138     8.9183     8.0500  -999.2500  -999.2500   115.3668
  304.0000   -66.5138     8.9634     8.0444  -999.2500  -999.2500   113.8886
  304.5000   -66.5138     8.9779     8.0400  -999.2500  -999.2500   113.9109
  305.0000   -66.5138     8.9772     8.1110  -999.2500  -999.2500   113.9331
  305.5000   -66.5138     8.9766     8.1066  -999.2500  -999.2500   113.9554
  306.0000   -66.5138     8.9608     8.1021  -999.2500  -999.2500   113.9777
  306.5000   -66.5138     8.9602     8.0977  -999.2500  -999.2500   114.7530
  307.0000   -66.5138     8.9141     8.0177  -999.2500  -999.2500   115.5283
  307.5000   -65.9021     8.8528     7.9377  -999.2500  -999.2500   116.3035
  308.0000   -65.4434     8.7915     7.9332  -999.2500  -999.2500   116.3258
  308.5000   -65.7492     8.7757     7.8533  -999.2500  -999.2500   117.1011
  309.0000   -66.3609     8.7751     7.7733  -999.2500  -999.2500   117.8765
  309.5000   -66.3609     8.7897     7.7688  -999.2500  -999.2500   118.7101
  310.0000   -66.3609     8.7586     7.6888  -999.2500  -999.2500   120.1807
  310.5000   -66.3711     8.6670     7.5332  -999.2500  -999.2500   121.7138
  311.0000   -66.5138     8.5905     7.4431  -999.2500  -999.2500   123.2421
  311.5000   -66.5138     8.4533     7.2967  -999.2500  -999.2500   125.5235
  312.0000   -66.3609     8.3010     7.2167  -999.2500  -999.2500   127.0518
  312.5000   -66.5138     8.1942     7.1367  -999.2500  -999.2500   128.5801
  313.0000   -66.5138     8.0722     7.1323  -999.2500  -999.2500   129.3553
  313.5000   -66.3609     7.9957     7.0523  -999.2500  -999.2500   130.1306
  314.0000   -66.3609     8.0406     6.9723  -999.2500  -999.2500   130.1529
  314.5000   -66.3609     8.1614     6.9678  -999.2500  -999.2500   130.1752
  315.0000   -66.2080     8.4036     7.0400  -999.2500  -999.2500   129.4444
  315.5000   -65.9021     8.5699     7.1111  -999.2500  -999.2500   128.7081
  316.0000   -65.4434     8.6452     7.1055  -999.2500  -999.2500   126.4769
  316.5000   -65.2905     8.6902     7.1767  -999.2500  -999.2500   124.9932
  317.0000   -65.5963     8.6872     7.3988  -999.2500  -999.2500   122.7564
  317.5000   -66.0550     8.5826     7.4698  -999.2500  -999.2500   121.2726
  318.0000   -66.5240     8.5670     7.6919  -999.2500  -999.2500   119.0061
  318.5000   -66.8196     8.6876     7.7630  -999.2500  -999.2500   116.7992
  319.0000   -66.9725     8.7629     7.9085  -999.2500  -999.2500   115.3154
  319.5000   -67.1254     8.8382     7.9807  -999.2500  -999.2500   113.8372
  320.0000   -67.1254     8.9286     8.0517  -999.2500  -999.2500   112.3535
  320.5000   -66.9725     9.0039     8.0462  -999.2500  -999.2500   112.3758
  321.0000   -66.9725     9.0186     8.0417  -999.2500  -999.2500   111.6395
  321.5000   -67.1254     8.9875     8.0372  -999.2500  -999.2500   112.4203
  322.0000   -67.1254     8.9414     7.9573  -999.2500  -999.2500   112.4426
  322.5000   -67.1254     8.9256     7.8773  -999.2500  -999.2500   113.2179
  323.0000   -67.2783     8.9250     7.7973  -999.2500  -999.2500   114.7462
  323.5000   -67.2783     8.8941     7.7928  -999.2500  -999.2500   115.5215
  324.0000   -67.2783     8.8170     7.7128  -999.2500  -999.2500   117.0498
  324.5000   -67.2783     8.7563     7.7084  -999.2500  -999.2500   117.8250
  325.0000   -67.4312     8.7405     7.7039  -999.2500  -999.2500   118.6003
  325.5000   -67.4312     8.7398     7.6994  -999.2500  -999.2500   118.6226
  326.0000   -67.4312     8.7695     7.6949  -999.2500  -999.2500   118.6449
  326.5000   -67.2783     8.7994     7.6894  -999.2500  -999.2500   118.6672
  327.0000   -67.2783     8.7532     7.6850  -999.2500  -999.2500   118.6897
  327.5000   -67.2783     8.7222     7.6805  -999.2500  -999.2500   117.9587
  328.0000   -67.2783     8.7368     7.6761  -999.2500  -999.2500   117.2279
  328.5000   -67.1254     8.8121     7.7483  -999.2500  -999.2500   115.7498
  329.0000   -67.1254     8.9784     7.8949  -999.2500  -999.2500   115.0135
  329.5000   -67.2783     9.1447     7.9659  -999.2500  -999.2500   113.5297
  330.0000   -67.5841     9.3110     8.0370  -999.2500  -999.2500   111.2985
  330.5000   -68.1957     9.4774     8.2591  -999.2500  -999.2500   109.0562
  331.0000   -68.3486     9.6892     8.4813  -999.2500  -999.2500   106.0720
  331.5000   -68.1957     9.9466     8.7023  -999.2500  -999.2500   103.8352
  332.0000   -68.0428     9.9004     8.9244  -999.2500  -999.2500   101.5985
  332.5000   -67.4312     9.9756     9.2221  -999.2500  -999.2500    99.3617
  333.0000   -67.2783    10.2027     9.4491  -999.2500  -999.2500    97.1194
  333.5000   -67.0846    10.3538     9.7418  -999.2500  -999.2500    94.1352
  334.0000   -66.6667    10.5808     9.9629  -999.2500  -999.2500    91.1454
  334.5000   -66.8196    10.8080    10.1095  -999.2500  -999.2500    88.1556
  335.0000   -66.9725    11.0349    10.3316  -999.2500  -999.2500    85.9189
  335.5000   -66.9725    11.1860    10.5537  -999.2500  -999.2500    83.6821
  336.0000   -67.4312    11.3372    10.7758  -999.2500  -999.2500    82.1384
  336.5000   -67.7370    11.4124    10.9224  -999.2500  -999.2500    79.9616
  337.0000   -67.7370    11.5651    10.9935  -999.2500  -999.2500    78.4834
  337.5000   -67.7370    11.7147    11.0646  -999.2500  -999.2500    77.7471
  338.0000   -67.7370    11.8011    11.1368  -999.2500  -999.2500    77.0164
  338.5000   -67.5841    12.0169    11.1312  -999.2500  -999.2500    77.0442
  339.0000   -67.5841    12.0163    11.1267  -999.2500  -999.2500    77.0665
  339.5000   -67.5841    12.0157    11.1223  -999.2500  -999.2500    77.8418
