~VERSION INFORMATION
 VERS.                2.0:   CWLS LOG ASCII STANDARD - VERSION 2.0
 WRAP.                 NO:   ONE LINE PER DEPTH STEP
~WELL INFORMATION
#MNEM.UNIT      DATA TYPE    INFORMATION
#----------   ------------   ------------------------------
 STRT.F           44.0000:   START DEPTH
 STOP.F          666.0000:   STOP DEPTH
 STEP.F            0.5000:   STEP LENGTH
 NULL.          -999.2500:   NO VALUE
 COMP. FENIX & SCISSON INC:   COMPANY
 WELL.     NPR-3 #22SX-10:   WELL
 FLD .             TEAPOT:   FIELD
 LOC .      S10 T38N R78W:   LOCATION
 CNTY.            NATRONA:   COUNTY
 STAT.            WYOMING:   STATE
 CTRY. UNITED STATES OF AMERICA:   COUNTRY
 SRVC.            Unknown:   SERVICE COMPANY
 DATE.        11-JUL-1978:   LOGDATE
 API .       490251065600:   API NUMBER
~CURVE INFORMATION
#MNEM.UNIT       API CODE    CURVE DESCRIPTION
#----------   ------------   ------------------------------
 DEPT.F                  :   
 CALD.IN     45 280 60 00:   CALIPER FROM DENSITY LOG
 GRD .GAPI   45 310 01 00:   GAMMA RAY FROM DENSITY LOG
 CORR.G/C3   45 356 01 00:   DENSITY CORRECTION
 DPHI.DEC    45 890 12 00:   DENSITY POROSITY SANDSTONE
 RHOB.G/C3   45 350 01 00:   BULK DENSITY
 SPR .MV     05 010 01 00:   SPONTANEOUS POTENTIAL FROM RES.
 SN  .OHMM   05 040 16 00:   SHORT NORMAL 16"
 ILD .OHMM   05 120 46 00:   INDUCTION LOG DEEP
~PARAMETER INFORMATION
#MNEM.UNIT          VALUE    DESCRIPTION
#----------   ------------   ------------------------------
 PD  .                 GL:   PERMANENT DATUM
 EPD .F              5263:   ELEVATION PERMANENT DATUM
 LMF .                 KB:   LOG MEASURED FROM
 DAPD.F                 4:   FEET ABOVE PERMANENT DATUM
 DMF .                 KB:   DRILLING MEASURED FROM
 EKB .F              5267:   KELLING BUSHING
 EGL .F              5263:   GROUND LEVEL
 DATE.        11-JUL-1978:   RUN DATE
 RUN .                  1:   RUN NUMBER
 DD  .F               657:   DEPTH DRILLER
 DL  .F               666:   DEPTH LOGGER
 BLI .F               660:   BOTTOM LOG INTERVAL
 TLI .F                50:   TOP LOG INTERVAL
 CS  .IN            8.625:   CASING SIZE
 CBD .F                40:   CASING BOTTOM DRILLER
 BS  .IN            7.875:   BIT SIZE
 BSD .F               657:   BIT SIZE AT DEPTH
 DFT .                KCL:   DRILLING FLUID TYPE
 DFD .                8.6:   DRILLING FLUID DENSITY
 DFV .                 33:   DRILLING FLUID VISCOSITY
 DFPH.                9.0:   DRILLING FLUID PH
 DFL .                 14:   DRILLING FLUID LOSS
 MSS .           FLOWLINE:   MUD SAMPLE SOURCE
 RMS .OHMM            .16:   RESISTIVITY MUD SAMPLE
 MST .F                89:   MUD SAMPLE TEMPERATURE
 RMF .OHMM            .15:   RESISTIVITY MUD FILTRATE SAMPLE
 MFST.F                89:   MUD FILTRATE SAMPLE TEMPERATURE
 RMC .OHMM            .32:   RESISTIVITY MUD CAKE
 MCST.F                88:   MUD CAKE SAMPLE TEMPERATURE
 MFSS.               MEAS:   MUD FILTRATE SAMPLE SOURCE
 BHT .F                76:   BOTTOM HOLE TEMPERATURE
 TCS .HRS            0200:   TIME CURCULATED STOPPED
 MRT .F                76:   MAXIMUM RECORDED TEMPERATURE
 LUN .               2958:   LOGGING UNIT NUMBER
 LUL .               CASP:   LOGGING UNIT LOCATION
 ENGI.             MILLER:   RECORDING ENGINEER
 WITN.           MCGINLEY:   WITNESSED BY
 CLNT.            A2DTECH:   CLIENT CODE
 ORIG.           5" PRINT:   ORIGIN OF DATA
 UWI .       490251065600:   UNIQUE WELL ID
 DICO. A2D Technologies, Inc.:   DIGITIZING COMPANY
~OTHER INFORMATION
~A   DEPT     CALD         GRD      CORR       DPHI       RHOB        SPR         SN        ILD   
# ...
  449.0000     8.5460    85.0529    -0.0021     0.1246     2.4726   -68.5754     5.9168     5.2646
  449.5000     7.9396    85.2042    -0.0022     0.1261     2.4733   -68.5594     6.0027     5.3410
  450.0000     7.9242    93.0711    -0.0023     0.1294     2.4691   -68.5473     6.0899     5.5261
  450.5000     7.8936    93.9772    -0.0026     0.1213     2.4658   -68.5959     6.1128     5.7300
  451.0000     7.8781    94.8834    -0.0029     0.1156     2.4643   -68.6407     6.1357     6.1832
  451.5000     7.8656    95.9409    -0.0033     0.1153     2.4943   -68.6588     6.1864     6.6734
  452.0000     7.8722    95.9394    -0.0036     0.1220     2.4881   -68.6469     6.1901     6.9114
  452.5000     7.8789    96.0895    -0.0040     0.1241     2.4790   -68.6350     6.2366     6.9637
  453.0000     7.8855    95.9364    -0.0043     0.1293     2.4722   -68.7721     6.2404     6.9684
  453.5000     7.8921    91.5476    -0.0046     0.1388     2.4652   -68.7576     6.2004     6.6914
  454.0000     7.8988    90.0332    -0.0050     0.1445     2.4525   -68.7460     6.0368     6.1235
  454.5000     7.9054    90.9394    -0.0053     0.1458     2.4446   -68.7344     5.7567     5.5612
  455.0000     7.9120    91.1095    -0.0057     0.1556     2.4303   -68.5744     5.5275     5.1556
  455.5000     7.9186    86.3978    -0.0014     0.1683     2.4137   -68.5628     5.2710     4.9593
  456.0000     7.9253    87.1528     0.0075     0.1797     2.3851   -68.4028     5.1284     4.8949
  456.5000     7.9319    94.1104     0.0075     0.1729     2.3806   -68.3912     5.0238     4.8982
  457.0000     7.9352    99.8578     0.0014     0.1446     2.4317   -68.2312     4.9981     4.9015
  457.5000     7.8288   100.3101    -0.0032     0.1251     2.4580   -68.2196     5.0711     4.9727
  458.0000     9.0103   100.0061    -0.0032     0.1278     2.4692   -68.2077     5.2516     5.1500
  458.5000     7.9948    99.2442    -0.0033     0.1365     2.4617   -68.1935     5.5138     5.4448
  459.0000     7.9482    96.6707    -0.0034     0.1280     2.4489   -67.8852     5.8692     5.7564
  459.5000     7.9630    95.4348    -0.0035     0.1121     2.4714   -67.5768     6.2475     6.0859
  460.0000     7.9608    92.0928    -0.0036     0.1231     2.4887   -67.2685     6.5145     6.4343
  460.5000     7.9585    91.0726    -0.0037     0.1190     2.4819   -67.2569     6.7463     6.7097
  461.0000     7.9563    92.4593    -0.0038     0.1131     2.4743   -67.2453     6.8910     6.9042
  461.5000     7.9540    97.9538    -0.0039     0.1162     2.4923   -66.9369     7.0390     7.0987
  462.0000     7.9518    99.0863    -0.0040     0.1179     2.4968   -66.6286     7.0919     7.1535
  462.5000     7.9495    97.0680    -0.0041     0.1141     2.4795   -66.4686     7.1460     7.2077
  463.0000     7.9473    91.4343    -0.0042     0.1119     2.4885   -66.6054     7.1503     7.2126
  463.5000     7.9450    90.4581    -0.0043     0.1171     2.4945   -66.5935     7.1547     7.2175
  464.0000     7.9428    93.1797    -0.0044     0.1210     2.4855   -66.5792     7.1590     7.2227
  464.5000     7.9405    93.7834    -0.0046     0.1216     2.4787   -66.5676     7.1633     7.2272
  465.0000     7.9383    94.0848    -0.0047     0.1159     2.4757   -66.7073     7.1677     7.2321
  465.5000     7.9360    93.4778    -0.0048     0.1138     2.4854   -66.5444     7.1720     7.2366
  466.0000     7.9338    89.8454    -0.0049     0.1189     2.4921   -66.5328     7.1763     7.2416
  466.5000     7.9316    88.4823    -0.0050     0.1240     2.4801   -66.5212     7.1807     7.1970
  467.0000     7.9291    88.6325    -0.0051     0.1264     2.4711   -66.3612     7.1851     7.2027
  467.5000     7.9136    89.8409    -0.0052     0.1252     2.4702   -66.2003     7.1896     7.2069
  468.0000     7.8830    90.5962    -0.0053     0.1274     2.4763   -66.1896     7.1948     7.2118
  468.5000     7.8524    90.5943    -0.0054     0.1289     2.4710   -66.0297     7.2488     7.2675
  469.0000     7.8673    89.9877    -0.0055     0.1295     2.4650   -66.0178     7.2532     7.2716
  469.5000     7.8518    89.2297    -0.0056     0.1256     2.4664   -66.0059     7.2576     7.2773
  470.0000     7.8212    88.1692    -0.0058     0.1217     2.4717   -65.9919     7.3121     7.3318
  470.5000     7.7148    89.6806    -0.0059     0.1187     2.4814   -65.9803     7.4689     7.3374
  471.0000     7.7145    93.9151    -0.0060     0.1190     2.4829   -65.9687     7.5769     7.4444
  471.5000     7.7142    94.2165    -0.0061     0.1214     2.4821   -65.9571     7.6864     7.5004
  472.0000     7.7139    93.9121    -0.0062     0.1241     2.4738   -65.7971     7.7441     7.5572
  472.5000     7.7136    83.7744    -0.0063     0.1211     2.4708   -65.7855     7.7489     7.5695
  473.0000     7.7133    83.3191    -0.0064     0.1169     2.4824   -65.7739     7.7004     7.4641
  473.5000     7.7130    84.9817    -0.0065     0.1205     2.4865   -65.7623     7.6010     7.2160
  474.0000     7.7127    85.4344    -0.0066     0.1266     2.4811   -65.7507     7.3487     6.9211
  474.5000     7.7124    83.1633    -0.0067     0.1326     2.4750   -65.7389     7.1047     6.6467
  475.0000     7.7121    82.2540    -0.0068     0.1410     2.4510   -65.7270     6.8688     6.4350
  475.5000     7.7118    84.3705     0.0008     0.1470     2.4373   -65.5646     6.6866     6.3503
  476.0000     7.6964    85.1258     0.0066     0.1473     2.4331   -65.2563     6.5983     6.3111
  476.5000     7.6203    84.9727     0.0004     0.1512     2.4421   -64.9479     6.5571     6.2721
  477.0000     7.9685    81.0377    -0.0040     0.1515     2.4563   -64.3428     6.5620     6.3207
  477.5000     8.0136    77.7079    -0.0041     0.1215     2.4773   -64.0345     6.7028     6.4567
  478.0000     8.3163    78.7654    -0.0045     0.1071     2.5036   -63.8745     6.9434     6.6412
  478.5000     7.9373    82.0922    -0.0048     0.1089     2.5036   -63.8629     7.2512     7.1185
  479.0000     7.8006    83.3010    -0.0052     0.1155     2.5021   -63.7029     7.8124     7.7357
  479.5000     7.8003    83.6021    -0.0056     0.1207     2.4960   -63.5430     8.2024     8.5229
  480.0000     7.8000    83.2980    -0.0060     0.1207     2.4765   -63.3729     8.4943     9.0108
  480.5000     7.7997    80.8759    -0.0064     0.1207     2.4795   -63.0742     8.6765     9.0791
  481.0000     7.7539    79.8154    -0.0068     0.1198     2.4802   -62.9118     8.8020     9.1493
  481.5000     7.7233    80.4190    -0.0072     0.1189     2.4802   -62.6034     8.8680     9.1555
  482.0000     7.7079    85.8638    -0.0076     0.1237     2.4801   -62.4434     8.9346     9.2248
  482.5000     7.7076    86.3162    -0.0107     0.1309     2.4741   -62.1351     8.8786     9.3588
  483.0000     7.6770    86.1634    -0.0107     0.1393     2.4516   -61.8268     8.9454     9.5603
  483.5000     7.6009    86.0095    -0.0108     0.1384     2.4470   -61.5184     9.0766    10.1075
  484.0000     7.5552    80.5221    -0.0109     0.1427     2.4402   -61.2101     9.2850    10.6860
  484.5000     7.6457    68.3069    -0.0094     0.1616     2.4282   -60.0115     9.7337    11.3756
  485.0000     7.7666    64.0694    -0.0080     0.1772     2.4086   -58.6646    10.0110    12.1932
  485.5000     7.8573    59.1433    -0.0035     0.1889     2.3868   -58.0509    10.2963    13.0696
  486.0000     7.9176    53.3536     0.0009     0.1973     2.3770   -57.4323    10.5172    14.1056
  486.5000     7.9627    44.8517    -0.0066     0.2052     2.3718   -56.4013    10.6692    14.9184
  487.0000     7.9927    43.3373     0.0023     0.2085     2.3469   -55.3512    10.6757    15.2342
  487.5000     8.0228    43.9409     0.0038     0.2025     2.3281   -54.3010    10.6821    15.0386
  488.0000     8.0376    49.2344     0.0037     0.1980     2.3454   -53.5475    10.6886    14.5403
  488.5000     8.0373    56.6459     0.0036     0.1965     2.3499   -53.3876    10.6951    14.0586
  489.0000     8.0066    58.0060     0.0051     0.1935     2.3529   -53.2276    10.7754    13.6866
