~VERSION INFORMATION
 VERS.                2.0:   CWLS LOG ASCII STANDARD - VERSION 2.0
 WRAP.                 NO:   ONE LINE PER DEPTH STEP
~WELL INFORMATION
#MNEM.UNIT      DATA TYPE    INFORMATION
#----------   ------------   ------------------------------
 STRT.F           17.0000:   START DEPTH
 STOP.F          565.5000:   STOP DEPTH
 STEP.F            0.5000:   STEP LENGTH
 NULL.          -999.2500:   NO VALUE
 COMP. LAWRENCE/ALLISON INC:   COMPANY
 WELL. NPR 3 #83-56 SX 10:   WELL
 FLD .             TEAPOT:   FIELD
 LOC .      S10 T38N R78W:   LOCATION
 CNTY.            NATRONA:   COUNTY
 STAT.            WYOMING:   STATE
 CTRY. UNITED STATES OF AMERICA:   COUNTRY
 SRVC.           Gearhart:   SERVICE COMPANY
 DATE.        11-JUN-1986:   LOGDATE
 API .       490251108300:   API NUMBER
~CURVE INFORMATION
#MNEM.UNIT       API CODE    CURVE DESCRIPTION
#----------   ------------   ------------------------------
 DEPT.F                  :   
 GRR .GAPI   07 310 01 00:   GAMMA RAY FROM RES. LOG.
 RILD.OHMM   07 120 46 00:   INDUCTION LOG DEEP RESISTIVITY
 RILM.OHMM   07 120 44 00:   INDUCTION LOG MEDIUM RESISTIVITY
~PARAMETER INFORMATION
#MNEM.UNIT          VALUE    DESCRIPTION
#----------   ------------   ------------------------------
 PD  .                 GL:   PERMANENT DATUM
 EPD .F              5174:   ELEVATION PERMANENT DATUM
 LMF .                 KB:   LOG MEASURED FROM
 DMF .                 KB:   DRILLING MEASURED FROM
 EKB .F              5174:   KELLING BUSHING
 EGL .F              5174:   GROUND LEVEL
 DATE.            6-11-86:   RUN DATE
 RUN .                  1:   RUN NUMBER
 DD  .F               580:   DEPTH DRILLER
 DL  .F               576:   DEPTH LOGGER
 BLI .F               565:   BOTTOM LOG INTERVAL
 TLI .F                15:   TOP LOG INTERVAL
 CS  .IN            8.625:   CASING SIZE
 CBD .F                42:   CASING BOTTOM DRILLER
 CBL .F                42:   CASING BOTTOM LOGGER
 BS  .IN            7.875:   BIT SIZE
 BSD .F               580:   BIT SIZE AT DEPTH
 DFT .                AIR:   DRILLING FLUID TYPE
 TCS .HRS            0300:   TIME CURCULATED STOPPED
 TLAB.HRS            0445:   TIME LOGGER AT BOTTOM
 MRT .F                95:   MAXIMUM RECORDED TEMPERATURE
 LUN .               7609:   LOGGING UNIT NUMBER
 LUL .           GILLETTE:   LOGGING UNIT LOCATION
 ENGI.              BAUER:   RECORDING ENGINEER
 WITN.           JENNINGS:   WITNESSED BY
 CLNT.            A2DTECH:   CLIENT CODE
 ORIG.       2", 5" PRINT:   ORIGIN OF DATA
 UWI .       490251108300:   UNIQUE WELL ID
 DICO. A2D Technologies, Inc.:   DIGITIZING COMPANY
~OTHER INFORMATION
~A   DEPT       GRR      RILD       RILM   
   17.0000    91.5493  -999.2500  -999.2500
   17.5000    90.3420  -999.2500  -999.2500
   18.0000    89.1348  -999.2500  -999.2500
   18.5000    86.3558  -999.2500  -999.2500
   19.0000    83.5962  -999.2500  -999.2500
   19.5000    83.9712  -999.2500  -999.2500
   20.0000    85.0517  -999.2500  -999.2500
   20.5000    84.2976  -999.2500  -999.2500
   21.0000    84.5877  -999.2500  -999.2500
   21.5000    84.9868  -999.2500  -999.2500
   22.0000    86.1785  -999.2500  -999.2500
   22.5000    88.1482  -999.2500  -999.2500
   23.0000    91.0763  -999.2500  -999.2500
   23.5000    94.0069  -999.2500  -999.2500
   24.0000    96.7308  -999.2500  -999.2500
   24.5000    96.2320  -999.2500  -999.2500
   25.0000    93.5950  -999.2500  -999.2500
   25.5000    90.9508  -999.2500  -999.2500
   26.0000    90.3381  -999.2500  -999.2500
   26.5000    90.4852  -999.2500  -999.2500
   27.0000    91.5348  -999.2500  -999.2500
   27.5000    92.6068  -999.2500  -999.2500
   28.0000    91.7816  -999.2500  -999.2500
   28.5000    90.5916  -999.2500  -999.2500
   29.0000    90.3253  -999.2500  -999.2500
   29.5000    91.1626  -999.2500  -999.2500
   30.0000    91.5164  -999.2500  -999.2500
   30.5000    89.6417  -999.2500  -999.2500
   31.0000    87.5590  -999.2500  -999.2500
   31.5000    86.7067  -999.2500  -999.2500
   32.0000    87.7708  -999.2500  -999.2500
   32.5000    89.1099  -999.2500  -999.2500
   33.0000    88.6525  -999.2500  -999.2500
   33.5000    87.3733  -999.2500  -999.2500
   34.0000    86.9805  -999.2500  -999.2500
   34.5000    90.0305  -999.2500  -999.2500
   35.0000    93.9483  -999.2500  -999.2500
   35.5000    96.3054  -999.2500  -999.2500
   36.0000    92.8207  -999.2500  -999.2500
   36.5000    89.2418  -999.2500  -999.2500
   37.0000    90.0441  -999.2500  -999.2500
   37.5000    95.9734  -999.2500  -999.2500
   38.0000   101.1469  -999.2500  -999.2500
   38.5000   103.4942  -999.2500  -999.2500
   39.0000   101.5196  -999.2500  -999.2500
   39.5000    95.7693  -999.2500  -999.2500
   40.0000    89.7767  -999.2500  -999.2500
   40.5000    87.4441  -999.2500  -999.2500
   41.0000    92.0835  -999.2500  -999.2500
   41.5000   101.7327  -999.2500  -999.2500
   42.0000   110.9969     6.6239   439.8414
   42.5000   116.6933     4.4439    73.7940
   43.0000   119.4631     3.9201    13.9991
   43.5000   122.1171     3.9245     9.6286
   44.0000   124.1680     3.4581     6.0980
   44.5000   125.1837     3.4232     4.3557
   45.0000   126.1772     3.9982     4.0341
   45.5000   123.8425     4.5578     3.8614
   46.0000   120.4339     5.1463     4.0724
   46.5000   116.8678     5.0036     4.3351
   47.0000   116.7995     4.8742     4.6908
   47.5000   122.5225     4.7482     4.6380
   48.0000   126.5504     4.6444     4.5423
   48.5000   129.3407     4.6267     4.4486
   49.0000   128.7374     4.6090     4.3921
   49.5000   126.3233     4.5915     4.3744
   50.0000   123.9184     4.5737     4.3573
   50.5000   121.4169     4.5617     4.3556
   51.0000   121.3908     4.5616     4.4358
   51.5000   124.6658     4.6666     4.5183
   52.0000   127.2513     4.7574     4.6183
   52.5000   128.4269     4.8642     4.7345
   53.0000   126.6477     5.0096     4.8891
   53.5000   124.8476     5.1593     5.0487
   54.0000   124.6074     5.3134     5.2135
   54.5000   126.1989     5.4722     5.3836
   55.0000   127.2186     5.6357     5.5594
   55.5000   126.6398     5.8054     5.6813
   56.0000   126.0933     5.9236     5.7502
   56.5000   125.5318     5.9888     5.8199
   57.0000   125.4928     6.0527     5.8904
   57.5000   125.7007     6.1180     5.9618
   58.0000   126.0076     6.1973     6.0340
   58.5000   127.1759     6.2832     6.1156
   59.0000   128.8711     6.3703     6.2131
   59.5000   129.6362     6.4587     6.3122
   60.0000   129.3504     6.5482     6.4128
   60.5000   132.3255     6.6389     6.5151
   61.0000   137.5691     6.7310     6.6190
   61.5000   142.7997     6.8243     6.7246
   62.0000   142.5191     6.9189     6.8318
   62.5000   138.5974     7.0148     6.9408
   63.0000   136.2773     7.1120     7.0514
   63.5000   137.9118     7.2106     7.1639
   64.0000   139.9905     7.3106     7.2783
   64.5000   139.1136     7.4119     7.3939
   65.0000   136.8446     7.5246     7.4904
   65.5000   135.0380     7.5756     7.5623
   66.0000   135.1651     7.6325     7.6356
   66.5000   133.9409     7.6897     7.7095
   67.0000   133.5709     7.7474     7.7842
   67.5000   133.6143     7.8056     7.8595
   68.0000   134.2527     7.8642     7.9356
   68.5000   134.8829     7.9232     8.0120
   69.0000   135.5278     7.9826     8.0910
   69.5000   136.1479     8.0426     8.1600
   70.0000   135.4440     8.1029     8.9550
   70.5000   135.4051     8.1637     9.9439
   71.0000   135.4280     8.2628    11.0420
   71.5000   134.4065     8.3758    12.2701
   72.0000   132.9692     8.4904    13.0133
   72.5000   130.0336     8.6066    12.3640
   73.0000   126.6485     8.7244    11.5171
   73.5000   123.2858     8.8438    10.5222
   74.0000   121.2024     8.9648     9.6133
   74.5000   123.1487     9.0897     9.1409
   75.0000   125.1268     9.2234     9.3894
   75.5000   127.1079     9.3591     9.6306
   76.0000   128.2042     9.4967     9.8779
   76.5000   127.1569     9.6364    10.0284
   77.0000   125.9685     9.7781     9.8602
   77.5000   126.4081     9.9359     9.7422
   78.0000   127.2663     9.8370     9.6255
   78.5000   126.6663     9.6492     9.5103
   79.0000   125.8444     9.4650     9.4420
   79.5000   125.0149     9.2843     9.3685
   80.0000   124.1745     9.1071     9.2956
   80.5000   123.3222     8.8906     9.2232
   81.0000   124.7393     8.9008     9.1515
   81.5000   128.7777     8.9135     9.0802
   82.0000   132.6808     8.9272     9.0096
   82.5000   134.8285     8.9407     8.9603
   83.0000   135.8843     8.9541     8.9338
   83.5000   137.8619     8.9677     8.9073
   84.0000   140.1329     8.9726     8.8809
   84.5000   138.9267     8.9298     8.8546
   85.0000   135.3315     8.8991     8.8284
   85.5000   131.8538     8.8686     8.8023
   86.0000   129.3843     8.8381     8.7762
   86.5000   127.1365     8.8077     8.7502
   87.0000   125.3404     8.7774     8.7243
   87.5000   127.4818     8.7470     8.6985
   88.0000   132.4139     8.7267     8.6728
   88.5000   136.6207     8.7568     8.6466
   89.0000   138.3381     8.7833     8.6921
   89.5000   138.6408     8.8098     8.7388
   90.0000   136.7810     8.8364     8.7857
   90.5000   134.5268     8.8631     8.8328
   91.0000   132.5327     8.8898     8.8803
   91.5000   132.5164     8.9167     8.9279
   92.0000   135.4541     8.9438     8.9731
   92.5000   139.0520     8.9736     8.8469
   93.0000   142.4825     8.8909     8.7293
   93.5000   141.3325     8.7767     8.6133
   94.0000   139.5836     8.6640     8.4988
   94.5000   138.2921     8.5527     8.3858
   95.0000   138.7984     8.4429     8.2743
   95.5000   138.2101     8.3344     8.1643
   96.0000   136.5391     8.2274     8.0558
   96.5000   136.5439     8.1217     7.9490
   97.0000   138.4664     7.9596     7.8421
   97.5000   140.7134     7.7888     7.7081
   98.0000   144.3790     7.6218     7.5609
   98.5000   147.9825     7.4552     7.4166
   99.0000   149.9884     7.4994     7.3864
   99.5000   151.5016     7.5445     7.4520
  100.0000   151.1064     7.5941     7.5318
  100.5000   148.5661     7.6984     7.6131
  101.0000   141.6863     7.8146     7.7060
  101.5000   134.7452     7.9327     7.8217
  102.0000   128.9583     8.0526     7.9387
  102.5000   123.8847     8.1743     8.0576
  103.0000   123.4496     8.2978     8.1782
  103.5000   124.5164     8.4233     8.3006
  104.0000   126.8193     8.5505     8.4248
  104.5000   128.9842     8.6797     8.5509
  105.0000   127.2178     8.7271     8.6466
  105.5000   125.1071     8.7271     8.6421
  106.0000   123.2822     8.7289     8.6386
  106.5000   123.7980     8.7346     8.6351
  107.0000   126.5783     8.7402     8.6315
  107.5000   129.3338     8.7459     8.6280
