~VERSION INFORMATION
 VERS.                2.0:   CWLS LOG ASCII STANDARD - VERSION 2.0
 WRAP.                 NO:   ONE LINE PER DEPTH STEP
~WELL INFORMATION
#MNEM.UNIT      DATA TYPE    INFORMATION
#----------   ------------   ------------------------------
 STRT.F           14.0000:   START DEPTH
 STOP.F          692.5000:   STOP DEPTH
 STEP.F            0.5000:   STEP LENGTH
 NULL.          -999.2500:   NO VALUE
 COMP. FENIX & SCISSON INC:   COMPANY
 WELL. NPR #3 #27-51 SX 11 WP:   WELL
 FLD .        TEAPOT DOME:   FIELD
 LOC .      S11 T38N R78W:   LOCATION
 CNTY.            NATRONA:   COUNTY
 STAT.            WYOMING:   STATE
 CTRY. UNITED STATES OF AMERICA:   COUNTRY
 SRVC.      Dresser Atlas:   SERVICE COMPANY
 DATE.        16-AUG-1980:   LOGDATE
 API .       490251083900:   API NUMBER
~CURVE INFORMATION
#MNEM.UNIT       API CODE    CURVE DESCRIPTION
#----------   ------------   ------------------------------
 DEPT.F                  :   
 RHOB.G/C3   45 350 01 00:   BULK DENSITY
 CORR.G/C3   45 356 01 00:   DENSITY CORRECTION
 GRD .GAPI   45 310 01 00:   GAMMA RAY FROM DENSITY LOG
 CALD.IN     45 280 60 00:   CALIPER
 NPOR.DEC    42 890 03 00:   NEUTRON POROSITY SANDSTONE
 DPOR.DEC    45 890 12 00:   DENSITY POROSITY SANDSTONE
 SPR .MV     07 010 01 00:   SPONTANEOUS POTENTIAL
 SFL .OHMM   07 220 01 00:   SHALLOW FOCUSED LOG RESISTIVITY
 ILM .OHMM   07 120 44 00:   INDUCTION LOG MEDIUM
 ILD .OHMM   07 120 46 00:   INDUCTION LOG DEEP
~PARAMETER INFORMATION
#MNEM.UNIT          VALUE    DESCRIPTION
#----------   ------------   ------------------------------
 PD  .                 GL:   PERMANENT DATUM
 EPD .F              5194:   ELEVATION PERMANENT DATUM
 LMF .                 KB:   LOG MEASURED FROM
 DAPD.F                 5:   FEET ABOVE PERMANENT DATUM
 DMF .                 KB:   DRILLING MEASURED FROM
 EKB .F              5199:   KELLING BUSHING
 EGL .F              5194:   GROUND LEVEL
 DATE.            8-16-80:   RUN DATE
 RUN .                  1:   RUN NUMBER
 DD  .F               685:   DEPTH DRILLER
 DL  .F               693:   DEPTH LOGGER
 BLI .F               692:   BOTTOM LOG INTERVAL
 TLI .F                25:   TOP LOG INTERVAL
 BS  .IN            7.875:   BIT SIZE
 BSD .F               685:   BIT SIZE AT DEPTH
 DFT .                KCL:   DRILLING FLUID TYPE
 DFD .                9.4:   DRILLING FLUID DENSITY
 DFV .                 45:   DRILLING FLUID VISCOSITY
 DFPH.                 11:   DRILLING FLUID PH
 DFL .                7.2:   DRILLING FLUID LOSS
 MSS .           FLOWLINE:   MUD SAMPLE SOURCE
 RMS .OHMM            .74:   RESISTIVITY MUD SAMPLE
 MST .F                60:   MUD SAMPLE TEMPERATURE
 RMF .OHMM            .44:   RESISTIVITY MUD FILTRATE SAMPLE
 MFST.F                60:   MUD FILTRATE SAMPLE TEMPERATURE
 RMC .OHMM           1.35:   RESISTIVITY MUD CAKE
 MCST.F                60:   MUD CAKE SAMPLE TEMPERATURE
 MFSS.               MEAS:   MUD FILTRATE SAMPLE SOURCE
 MCSS.               MEAS:   MUD CAKE SAMPLE SOURCE
 TCS .HRS               1:   TIME CURCULATED STOPPED
 LUN .               6180:   LOGGING UNIT NUMBER
 LUL .               CODY:   LOGGING UNIT LOCATION
 ENGI.              HOYER:   RECORDING ENGINEER
 WITN.           MCINTYRE:   WITNESSED BY
 CLNT.            A2DTECH:   CLIENT CODE
 ORIG.      2" 2.5" PRINT:   ORIGIN OF DATA
 UWI .       490251083900:   UNIQUE WELL ID
 DICO. A2D Technologies, Inc.:   DIGITIZING COMPANY
~OTHER INFORMATION
~A   DEPT     RHOB       CORR        GRD       CALD       NPOR       DPOR        SPR        SFL         ILM       ILD   
# ...
  114.5000     2.4502     0.0221   114.3855     8.0247     0.2873     0.1304   -87.5036     6.9418     6.5387     6.7514
  115.0000     2.4548     0.0209   116.3982     8.0285     0.2972     0.1320   -87.3759     6.4049     6.3148     6.4825
  115.5000     2.4502     0.0204   114.2377     8.0324     0.2972     0.1361   -87.3957     7.1846     6.0986     6.2243
  116.0000     2.4451     0.0280   110.6063     8.0362     0.2868     0.1288   -87.5366     7.6962     5.8898     6.0219
  116.5000     2.4681     0.0322   111.7393     8.0401     0.2889     0.1176   -88.1829     7.3508     5.7799     5.9513
  117.0000     2.4765     0.0261   115.7739     8.0439     0.2930     0.1248   -88.4279     7.5468     5.6992     5.8649
  117.5000     2.4628     0.0204   117.5704     8.0478     0.2964     0.1311   -88.3975     7.8101     5.6322     5.7542
  118.0000     2.4477     0.0144   116.4897     8.0516     0.2972     0.1374   -88.0302     7.9841     5.6322     5.6842
  118.5000     2.4410     0.0083   119.5604     8.0555     0.2920     0.1417   -87.7161     7.6230     5.6322     5.6842
  119.0000     2.4333     0.0041   119.3449     8.0593     0.2866     0.1446   -87.7221     7.3934     5.6322     5.6842
  119.5000     2.4269     0.0043   118.1110     8.0632     0.2804     0.1457   -87.7273     7.2270     5.6322     5.7287
  120.0000     2.4286     0.0086   118.5113     8.0670     0.2796     0.1445   -87.9311     7.1489     5.6400     5.8112
  120.5000     2.4330     0.0126   121.3562     8.0709     0.2796     0.1418   -88.2131     7.1493     5.6955     5.8948
  121.0000     2.4385     0.0170   120.1659     8.0748     0.2796     0.1393   -88.8473     7.3843     5.7516     5.9513
  121.5000     2.4465     0.0215   116.3852     8.0777     0.2856     0.1322   -89.4885     7.6419     5.8083     5.9513
  122.0000     2.4581     0.0243   115.5071     8.0796     0.2972     0.1289   -89.3660     7.9841     5.8655     6.0056
  122.5000     2.4519     0.0240   115.2530     8.0815     0.2946     0.1345   -89.1889     7.9028     5.9232     6.0648
  123.0000     2.4468     0.0241   114.3044     8.0835     0.2865     0.1369   -89.0146     7.7672     5.9513     6.1175
  123.5000     2.4548     0.0241   115.1725     8.0855     0.2783     0.1323   -88.8441     7.7672     5.9513     6.1175
  124.0000     2.4552     0.0241   113.4949     8.0874     0.2747     0.1312   -88.7203     7.7672     5.9445     6.0416
  124.5000     2.4532     0.0248   116.0052     8.0894     0.2777     0.1321   -88.7229     7.6258     5.8827     5.9592
  125.0000     2.4623     0.0254   112.5862     8.0913     0.2802     0.1281   -88.7234     7.5909     5.8215     5.8780
  125.5000     2.4566     0.0261   116.4124     8.0933     0.2827     0.1286   -88.7282     7.5260     5.7610     5.7979
  126.0000     2.4507     0.0268   118.4504     8.0953     0.2815     0.1337   -88.5324     7.4254     5.7011     5.7188
  126.5000     2.4562     0.0275   117.7598     8.0972     0.2765     0.1312   -88.3195     7.3262     5.6418     5.6297
  127.0000     2.4660     0.0283   118.8279     8.0992     0.2756     0.1257   -88.1057     7.2283     5.5832     5.6346
  127.5000     2.4761     0.0312   120.5606     8.1012     0.2790     0.1202   -87.8920     7.2170     5.5297     5.5825
  128.0000     2.4764     0.0341   115.0748     8.1031     0.2824     0.1190   -87.6805     7.2170     5.5297     5.5797
  128.5000     2.4714     0.0370   111.0551     8.1051     0.2858     0.1211   -87.5528     7.1067     5.6300     5.7169
  129.0000     2.4880     0.0398   113.1391     8.1070     0.2892     0.1152   -87.6937     6.9822     5.7098     5.8253
  129.5000     2.5062     0.0432   113.0945     8.1090     0.2908     0.1062   -87.8252     6.8962     5.7366     5.9360
  130.0000     2.5206     0.0408   110.9333     8.1110     0.2870     0.0968   -87.9317     6.8871     5.7366     5.9513
  130.5000     2.5156     0.0329   111.1727     8.1130     0.2837     0.0968   -87.5918     7.6877     5.7667     5.9513
  131.0000     2.4934     0.0255   113.6857     8.1149     0.2804     0.1163   -87.0977     8.1321     5.8330     5.9511
  131.5000     2.4595     0.0182   116.1040     8.1168     0.2828     0.1361   -86.5923     7.2297     5.8969     5.9516
  132.0000     2.4462     0.0119   118.0749     8.1169     0.2853     0.1361   -86.7664     6.6678     5.9595     5.9823
  132.5000     2.4541     0.0153   118.9758     8.1170     0.2878     0.1279   -87.0499     6.4049     6.0343     6.1107
  133.0000     2.4659     0.0247   117.9157     8.1169     0.2892     0.1219   -87.3353     6.5441     6.1100     6.2418
  133.5000     2.4839     0.0332   115.9286     8.1169     0.2892     0.1146   -87.6222     6.7138     6.1867     6.3757
  134.0000     2.5023     0.0436   114.4614     8.1169     0.2892     0.1074   -87.7231     6.8880     6.2309     6.5126
  134.5000     2.5096     0.0420   115.2632     8.1169     0.2871     0.1023   -87.7252     7.0667     6.3169     6.6523
  135.0000     2.4983     0.0371   117.7422     8.1169     0.2842     0.1053   -87.7263     7.2836     6.4017     6.7055
  135.5000     2.4885     0.0318   116.8964     8.1169     0.2813     0.1111   -87.7160     7.0805     6.4877     6.7065
  136.0000     2.4783     0.0267   114.9639     8.1169     0.2788     0.1169   -87.4740     6.9567     6.5748     6.7562
  136.5000     2.4680     0.0222   115.9849     8.1169     0.2772     0.1227   -87.2204     6.9566     6.6445     6.8306
  137.0000     2.4611     0.0168   115.9662     8.1169     0.2752     0.1297   -87.2578     6.9567     6.6445     6.8301
  137.5000     2.4703     0.0214   112.8803     8.1169     0.2792     0.1265   -87.4690     6.9566     6.5792     6.8299
  138.0000     2.4701     0.0268   111.6232     8.1169     0.2836     0.1237   -87.6922     6.9573     6.5330     6.8310
  138.5000     2.4693     0.0318   113.0601     8.1169     0.2826     0.1248   -87.4375     6.8556     6.5236     6.6748
  139.0000     2.4766     0.0276   114.5803     8.1169     0.2802     0.1192   -87.0748     6.7556     6.4396     6.5658
  139.5000     2.4767     0.0242   115.7192     8.1169     0.2780     0.1200   -86.9287     6.6570     6.3560     6.4586
  140.0000     2.4710     0.0203   115.1721     8.1169     0.2776     0.1231   -86.9255     6.5599     6.2735     6.3531
  140.5000     2.4659     0.0202   114.1154     8.1169     0.2822     0.1257   -86.9257     6.4642     6.1921     6.2709
  141.0000     2.4667     0.0200   114.0204     8.1169     0.2868     0.1247   -86.9579     6.3758     6.1117     6.2248
  141.5000     2.4707     0.0199   113.9959     8.1170     0.2908     0.1232   -87.1596     6.2985     6.0616     6.1790
  142.0000     2.4624     0.0169   111.9267     8.1171     0.2890     0.1268   -87.3585     6.2222     6.0616     6.1336
  142.5000     2.4610     0.0146   113.3966     8.1194     0.2838     0.1296   -87.4996     6.1739     6.0616     6.0886
  143.0000     2.4629     0.0120   114.2102     8.1217     0.2785     0.1268   -87.2953     6.2820     6.0237     6.0438
  143.5000     2.4555     0.0091   113.0702     8.1241     0.2756     0.1321   -87.0937     6.4640     5.9845     6.0062
  144.0000     2.4580     0.0100   113.6881     8.1264     0.2787     0.1274   -86.8952     6.3565     5.9513     6.0062
  144.5000     2.4741     0.0154   115.3239     8.1288     0.2866     0.1184   -86.8018     6.0600     5.9513     6.0062
  145.0000     2.4748     0.0205   113.9333     8.1312     0.2944     0.1190   -87.3882     6.1157     5.9747     6.0062
  145.5000     2.4751     0.0254   114.6213     8.1336     0.2972     0.1192   -87.9889     6.1759     5.9995     6.0276
  146.0000     2.4811     0.0307   112.6539     8.1359     0.2972     0.1160   -88.2254     6.2579     6.0245     6.0915
  146.5000     2.4779     0.0299   109.4141     8.1383     0.2964     0.1188   -88.3021     6.3404     6.0496     6.1562
  147.0000     2.4770     0.0260   106.1050     8.1407     0.2914     0.1200   -88.2217     6.4240     6.0749     6.2215
  147.5000     2.4831     0.0253   107.1382     8.1431     0.2858     0.1160   -88.1453     6.5083     6.1004     6.2875
