~VERSION INFORMATION
 VERS.                2.0:   CWLS LOG ASCII STANDARD - VERSION 2.0
 WRAP.                 NO:   ONE LINE PER DEPTH STEP
~WELL INFORMATION
#MNEM.UNIT      DATA TYPE    INFORMATION
#----------   ------------   ------------------------------
 STRT.F           86.5000:   START DEPTH
 STOP.F         1282.0000:   STOP DEPTH
 STEP.F            0.5000:   STEP LENGTH
 NULL.          -999.2500:   NO VALUE
 COMP.      UNITED STATES:   COMPANY
 WELL.             NPR #3:   WELL
 FLD .        TEAPOT DOME:   FIELD
 LOC .      S14 T38N R78W:   LOCATION
 CNTY.            NATRONA:   COUNTY
 STAT.            WYOMING:   STATE
 CTRY. UNITED STATES OF AMERICA:   COUNTRY
 SRVC.       Schlumberger:   SERVICE COMPANY
 DATE.        06-JUL-1962:   LOGDATE
 API .       490250631800:   API NUMBER
~CURVE INFORMATION
#MNEM.UNIT       API CODE    CURVE DESCRIPTION
#----------   ------------   ------------------------------
 DEPT.F                  :   
 SPR .MV     05 010 01 00:   SPONTANEOUS POTENTIAL FROM RES.
 CILD.MMHO   05 110 00 00:   CONDUCTIVITY INDUCTION LOG
 ASN .OHMM   05 041 16 00:   AMPLIFIED SHORT NORMAL 16"
 ILD .OHMM   05 120 46 00:   INDUCTION LOG DEEP
 GR  .GAPI   30 310 01 00:   GAMMA RAY
~PARAMETER INFORMATION
#MNEM.UNIT          VALUE    DESCRIPTION
#----------   ------------   ------------------------------
 PD  .                 GL:   PERMANENT DATUM
 EPD .F              5288:   ELEVATION PERMANENT DATUM
 LMF .                 KB:   LOG MEASURED FROM
 DAPD.F                 5:   FEET ABOVE PERMANENT DATUM
 DMF .                 KB:   DRILLING MEASURED FROM
 EKB .F              5293:   KELLING BUSHING
 EGL .F              5288:   GROUND LEVEL
 DATE.             7-6-62:   RUN DATE
 RUN .                  1:   RUN NUMBER
 DD  .F              1286:   DEPTH DRILLER
 DL  .F              1283:   DEPTH LOGGER
 BLI .F              1282:   BOTTOM LOG INTERVAL
 TLI .F                87:   TOP LOG INTERVAL
 CBD .F                10:   CASING BOTTOM DRILLER
 BS  .IN             6.75:   BIT SIZE
 BSD .F              1286:   BIT SIZE AT DEPTH
 DFT .            GEL-OIL:   DRILLING FLUID TYPE
 DFD .               10.3:   DRILLING FLUID DENSITY
 DFV .                 53:   DRILLING FLUID VISCOSITY
 DFL .                3.6:   DRILLING FLUID LOSS
 MSS .           FLOWLINE:   MUD SAMPLE SOURCE
 RMS .OHMM           5.66:   RESISTIVITY MUD SAMPLE
 MST .F                78:   MUD SAMPLE TEMPERATURE
 RMF .OHMM           5.59:   RESISTIVITY MUD FILTRATE SAMPLE
 MFST.F                78:   MUD FILTRATE SAMPLE TEMPERATURE
 RMC .OHMM           4.47:   RESISTIVITY MUD CAKE
 MCST.F                78:   MUD CAKE SAMPLE TEMPERATURE
 MFSS.                  M:   MUD FILTRATE SAMPLE SOURCE
 MCSS.                  M:   MUD CAKE SAMPLE SOURCE
 RMB .OHMM           5.08:   RESISTIVITY MUD AT BHT
 BHT .F                88:   BOTTOM HOLE TEMPERATURE
 TCS .HRS               1:   TIME CURCULATED STOPPED
 MRT .F                88:   MAXIMUM RECORDED TEMPERATURE
 LUN .               2503:   LOGGING UNIT NUMBER
 LUL .               CSPR:   LOGGING UNIT LOCATION
 ENGI.             KNOBEL:   RECORDING ENGINEER
 WITN.          JORGENSEN:   WITNESSED BY
 CLNT.            A2DTECH:   CLIENT CODE
 ORIG.       2", 5" PRINT:   ORIGIN OF DATA
 UWI .       490250631800:   UNIQUE WELL ID
 DICO. A2D Technologies, Inc.:   DIGITIZING COMPANY
~OTHER INFORMATION
~A   DEPT      SPR       CILD        ASN        ILD         GR   
# ...
 1245.5000   -48.7016    87.9704    11.4981    11.5568    61.8364
 1246.0000   -48.2318    88.5933    11.3203    11.5566    54.9482
 1246.5000   -47.8959    88.5933    11.1581    11.5568    63.4057
 1247.0000   -47.9092    87.5922    11.1557    11.5565    62.3453
 1247.5000   -48.5811    86.5911    11.2408    11.5571    66.8490
 1248.0000   -49.3501    85.4490    11.3377    11.6418    60.1995
 1248.5000   -50.1201    84.3069    11.4343    11.7385    59.3338
 1249.0000   -50.8898    83.1648    11.5311    11.8351    58.5839
 1249.5000   -51.6758    82.5869    11.6330    11.9318    61.4271
 1250.0000   -52.2684    82.5869    11.5650    12.0338    65.1574
 1250.5000   -52.8145    83.4499    11.4358    11.9609    59.7577
 1251.0000   -53.0921    84.4083    11.3046    11.8258    57.1995
 1251.5000   -53.0792    85.3667    11.1736    11.6888  -999.2500
 1252.0000   -51.8212    86.3251    11.0572    11.5530  -999.2500
 1252.5000   -50.4013    87.2835    11.0562    11.4550  -999.2500
 1253.0000   -49.0953    88.2421    11.0557    11.4560  -999.2500
 1253.5000   -48.5605    89.2005    10.9786    11.4182  -999.2500
 1254.0000   -48.0656    90.1588    10.8920    11.2710  -999.2500
 1254.5000   -47.5699    91.1172    10.8052    11.1285  -999.2500
 1255.0000   -47.3136    91.5964    10.7185    11.0577  -999.2500
 1255.5000   -47.6212    91.7966    10.6319    11.0535  -999.2500
 1256.0000   -47.9724    92.4640    10.5453    10.9805  -999.2500
 1256.5000   -48.3263    93.1314    10.4586    10.9104  -999.2500
 1257.0000   -48.6789    93.7987    10.3719    10.8409  -999.2500
 1257.5000   -49.0323    94.4661    10.2854    10.7714  -999.2500
 1258.0000   -49.4005    95.1335    10.1992    10.7018  -999.2500
 1258.5000   -49.4961    95.7414    10.1625    10.6314  -999.2500
 1259.0000   -49.3034    96.2106    10.1881    10.5590  -999.2500
 1259.5000   -48.4528    96.6799    10.2128    10.5751  -999.2500
 1260.0000   -47.6282    97.1491    10.2381    10.5979  -999.2500
 1260.5000   -47.8661    97.6184    10.2667    10.6203  -999.2500
 1261.0000   -48.6453    98.0876    10.3076    10.6426  -999.2500
 1261.5000   -49.4679    98.6009    10.3477    10.6649  -999.2500
 1262.0000   -49.4826    98.0720    10.3877    10.6871  -999.2500
 1262.5000   -49.5056    97.4849    10.4276    10.7094  -999.2500
 1263.0000   -49.5073    96.8965    10.4564    10.7319  -999.2500
 1263.5000   -49.8866    96.3073    10.4558    10.7550  -999.2500
 1264.0000   -50.7469    95.7184    10.4557    10.7473  -999.2500
 1264.5000   -51.6007    95.1295    10.4558    10.7371  -999.2500
 1265.0000   -52.0905    94.5996    10.4556    10.7270  -999.2500
 1265.5000   -52.3900    94.8367    10.4556    10.7170  -999.2500
 1266.0000   -53.0854    95.1001    10.4574    10.7070  -999.2500
 1266.5000   -53.7741    95.3635    10.4563    10.6970  -999.2500
 1267.0000   -53.8856    95.6006    10.5780    10.6870  -999.2500
 1267.5000   -53.8916    94.8141    10.6134    10.6769  -999.2500
 1268.0000   -53.8546    94.0991    10.6556    10.6667  -999.2500
 1268.5000   -53.4876    93.3840    10.6994    10.6566  -999.2500
 1269.0000   -53.2339    92.6690    10.7433    10.6858  -999.2500
 1269.5000   -53.0884    91.9539    10.6215    10.7193  -999.2500
 1270.0000   -53.0899    91.2389    10.5010    10.7527  -999.2500
 1270.5000   -53.0952    90.5954    10.3848    10.7861  -999.2500
 1271.0000   -53.0586    91.2210    10.3561    10.8199  -999.2500
 1271.5000   -52.0438    91.7898    10.3553    10.8546  -999.2500
 1272.0000   -51.0006    92.3586    10.3555    10.8370  -999.2500
 1272.5000   -49.9621    92.9274    10.3556    10.8149  -999.2500
 1273.0000   -48.9387    93.4961    10.3556    10.7931  -999.2500
 1273.5000   -48.0575    94.0649    10.3556    10.7713  -999.2500
 1274.0000   -47.2444    94.6337    10.3555    10.7495  -999.2500
 1274.5000   -46.3731    95.2025    10.3549    10.7278  -999.2500
 1275.0000   -45.5399    95.6006    10.3587    10.7060  -999.2500
 1275.5000   -45.6473    96.6017    10.4366    10.6842  -999.2500
 1276.0000   -46.3874    96.6017    10.4183    10.6625  -999.2500
 1276.5000   -47.0949    96.6017    10.3665    10.6407  -999.2500
 1277.0000   -47.1087    96.6017    10.3130    10.6189  -999.2500
 1277.5000   -46.6955  -999.2500    10.2578    10.5971  -999.2500
 1278.0000   -46.4677  -999.2500    10.2550    10.5754  -999.2500
 1278.5000   -46.7145  -999.2500    10.2554    10.5560  -999.2500
 1279.0000   -47.2007  -999.2500    10.2555    10.5557  -999.2500
 1279.5000   -47.5956  -999.2500    10.2551    10.5558  -999.2500
 1280.0000   -44.9427  -999.2500    10.2561    10.5558  -999.2500
 1280.5000   -41.6765  -999.2500    10.3454    10.5558  -999.2500
 1281.0000   -38.4587  -999.2500    10.4464    10.5553  -999.2500
 1281.5000   -37.8390  -999.2500    10.5518    10.5770  -999.2500
 1282.0000   -37.3288  -999.2500    10.6207    10.6068  -999.2500
