~VERSION INFORMATION
 VERS.                2.0:   CWLS LOG ASCII STANDARD - VERSION 2.0
 WRAP.                 NO:   ONE LINE PER DEPTH STEP
~WELL INFORMATION
#MNEM.UNIT      DATA TYPE    INFORMATION
#----------   ------------   ------------------------------
 STRT.F           20.0000:   START DEPTH
 STOP.F          964.0000:   STOP DEPTH
 STEP.F            0.5000:   STEP LENGTH
 NULL.          -999.2500:   NO VALUE
 COMP. FENIX & SCISSON INC:   COMPANY
 WELL.    NPR-3 SX #58-11:   WELL
 FLD .             TEAPOT:   FIELD
 LOC .      S11 T38N R78W:   LOCATION
 CNTY.            NATRONA:   COUNTY
 STAT.            WYOMING:   STATE
 CTRY. UNITED STATES OF AMERICA:   COUNTRY
 SRVC.            Unknown:   SERVICE COMPANY
 DATE.        09-MAR-1978:   LOGDATE
 API .       490251060100:   API NUMBER
~CURVE INFORMATION
#MNEM.UNIT       API CODE    CURVE DESCRIPTION
#----------   ------------   ------------------------------
 DEPT.F                  :   
 SPR .MV     05 010 01 00:   SPONTANEOUS POTENTIAL FROM RES.
 SN  .OHMM   05 040 16 00:   SHORT NORMAL 16"
 ILD .OHMM   05 120 46 00:   INDUCTION LOG DEEP
 CALD.IN     45 280 60 00:   CALIPER
 GRD .GAPI   45 310 01 00:   GAMMA RAY FROM DENSITY LOG
 CORR.G/C3   45 356 01 00:   DENSITY CORRECTION
 RHOB.G/C3   45 350 01 00:   BULK DENSITY
 DPHI.DEC    45 890 12 00:   DENSITY POROSITY SANDSTONE
~PARAMETER INFORMATION
#MNEM.UNIT          VALUE    DESCRIPTION
#----------   ------------   ------------------------------
 PD  .                 GL:   PERMANENT DATUM
 EPD .F              5219:   ELEVATION PERMANENT DATUM
 LMF .                 KB:   LOG MEASURED FROM
 DAPD.F                 4:   FEET ABOVE PERMANENT DATUM
 DMF .                 KB:   DRILLING MEASURED FROM
 EKB .F              5223:   KELLING BUSHING
 EGL .F              5219:   GROUND LEVEL
 DATE.           3-9-1978:   RUN DATE
 RUN .                  1:   RUN NUMBER
 DD  .F               963:   DEPTH DRILLER
 DL  .F               966:   DEPTH LOGGER
 BLI .F               960:   BOTTOM LOG INTERVAL
 TLI .F                80:   TOP LOG INTERVAL
 CS  .IN            8.625:   CASING SIZE
 CBD .F                40:   CASING BOTTOM DRILLER
 BS  .IN            7.875:   BIT SIZE
 BSD .F               963:   BIT SIZE AT DEPTH
 DFT .         LIGNO SULF:   DRILLING FLUID TYPE
 DFD .                8.6:   DRILLING FLUID DENSITY
 DFV .                 30:   DRILLING FLUID VISCOSITY
 DFPH.               10.5:   DRILLING FLUID PH
 DFL .                4.8:   DRILLING FLUID LOSS
 MSS .          FLOW LINE:   MUD SAMPLE SOURCE
 RMS .OHMM            1.7:   RESISTIVITY MUD SAMPLE
 MST .F                60:   MUD SAMPLE TEMPERATURE
 RMF .OHMM            1.5:   RESISTIVITY MUD FILTRATE SAMPLE
 MFST.F                74:   MUD FILTRATE SAMPLE TEMPERATURE
 RMC .OHMM            2.8:   RESISTIVITY MUD CAKE
 MCST.F                68:   MUD CAKE SAMPLE TEMPERATURE
 MFSS.               MEAS:   MUD FILTRATE SAMPLE SOURCE
 MCSS.               MEAS:   MUD CAKE SAMPLE SOURCE
 RMB .OHMM           1.38:   RESISTIVITY MUD AT BHT
 BHT .F                74:   BOTTOM HOLE TEMPERATURE
 TCS .HRS               4:   TIME CURCULATED STOPPED
 MRT .F                74:   MAXIMUM RECORDED TEMPERATURE
 LUN .               2958:   LOGGING UNIT NUMBER
 LUL .               CASP:   LOGGING UNIT LOCATION
 ENGI.             MILLER:   RECORDING ENGINEER
 WITN.         HARRINGTON:   WITNESSED BY
 CLNT.            A2DTECH:   CLIENT CODE
 ORIG.      2" , 5" PRINT:   ORIGIN OF DATA
 UWI .       490251060100:   UNIQUE WELL ID
 DICO. A2D Technologies, Inc.:   DIGITIZING COMPANY
~OTHER INFORMATION
~A   DEPT      SPR         SN        ILD       CALD         GRD      CORR       RHOB       DPHI   
# ...
  668.0000   -24.6745     8.0175     6.9525     7.7280    84.8789     0.0325     2.4791     0.1025
  668.5000   -24.4587     7.8589     6.8962     7.7165    84.7839     0.0298     2.4942     0.0992
  669.0000   -24.4494     7.7112     6.8403     7.7064    82.8459     0.0253     2.4945     0.1014
  669.5000   -24.4506     7.5662     6.7849     7.7023    80.4388     0.0249     2.4922     0.1037
  670.0000   -24.4515     7.5120     6.7299     7.7645    79.5868     0.0248     2.4893     0.1064
  670.5000   -24.4517     7.5827     6.6754     7.8223    78.6710     0.0249     2.4876     0.1101
  671.0000   -24.5230     7.6521     6.6213     7.8946    77.5042     0.0248     2.4804     0.1128
  671.5000   -24.6546     7.5096     6.5844     7.8986    79.4289     0.0248     2.4678     0.1142
  672.0000   -24.7866     7.3384     6.5580     7.8994    81.3911     0.0248     2.4676     0.1159
  672.5000   -24.8443     7.2271     6.5318     7.8970    82.2177     0.0248     2.4750     0.1161
  673.0000   -24.8018     7.1685     6.5057     7.8968    82.8552     0.0248     2.4793     0.1164
  673.5000   -24.7584     7.1104     6.4798     7.8959    83.5388     0.0248     2.4705     0.1167
  674.0000   -24.7146     7.0545     6.2947     7.8948    84.0499     0.0249     2.4633     0.1212
  674.5000   -24.6748     6.9920     6.1159     7.8940    83.1903     0.0248     2.4553     0.1247
  675.0000   -24.7470     6.7421     5.9422     7.8930    79.6465     0.0248     2.4503     0.1270
  675.5000   -25.1123     6.4569     5.7735     7.8921    79.8206     0.0231     2.4456     0.1243
  676.0000   -25.4665     6.1846     5.6413     7.8913    80.3135     0.0207     2.4594     0.1209
  676.5000   -25.6448     6.0633     5.6413     7.8904    80.2050     0.0184     2.4852     0.1174
  677.0000   -25.5914     5.9801     5.6413     7.8895    78.6102     0.0162     2.4828     0.1139
  677.5000   -25.5401     5.9628     5.6413     7.8886    78.1993     0.0138     2.4768     0.1128
  678.0000   -25.4895     6.2654     5.6413     7.8877    78.0975     0.0128     2.4707     0.1150
  678.5000   -25.4382     6.6968     5.7396     7.8868    79.2457     0.0129     2.4650     0.1173
  679.0000   -25.1850     6.9810     5.8598     7.8859    82.2858     0.0129     2.4592     0.1191
  679.5000   -24.9340     7.0034     5.9827     7.8850    83.8915     0.0129     2.4593     0.1197
  680.0000   -24.6845     7.0260     6.1081     7.8841    82.2609     0.0129     2.4622     0.1189
  680.5000   -24.4549     7.0486     6.1873     7.8832    80.9881     0.0139     2.4650     0.1173
  681.0000   -24.4498     7.0714     6.1802     7.8823    80.0245     0.0152     2.4683     0.1169
  681.5000   -24.4509     7.0941     6.1678     7.8814    82.6087     0.0164     2.4685     0.1173
  682.0000   -24.4511     7.1170     6.1554     7.8805    84.9189     0.0176     2.4647     0.1175
  682.5000   -24.4511     7.1399     6.1431     7.8796    86.4154     0.0189     2.4720     0.1155
  683.0000   -24.4511     7.1629     6.1308     7.8787    86.5627     0.0201     2.4742     0.1135
  683.5000   -24.4511     7.2358     6.1185     7.8779    86.7756     0.0214     2.4741     0.1138
  684.0000   -24.4511     7.1982     6.1063     7.8770    86.8173     0.0226     2.4742     0.1141
  684.5000   -24.4511     7.1661     6.0940     7.8761    84.2703     0.0239     2.4741     0.1143
  685.0000   -24.4511     7.1350     6.0819     7.8752    82.2349     0.0248     2.4742     0.1132
  685.5000   -24.4511     7.1042     6.0601     7.8743    79.9216     0.0248     2.4746     0.1120
  686.0000   -24.4508     7.0731     6.0214     7.8734    78.0038     0.0249     2.4789     0.1111
  686.5000   -24.4499     7.0406     5.9830     7.8725    76.9387     0.0249     2.4839     0.1147
  687.0000   -24.4526     6.9133     5.9448     7.8716    77.1962     0.0248     2.4797     0.1177
  687.5000   -24.5466     6.6905     5.9069     7.8707    77.2512     0.0249     2.4748     0.1207
  688.0000   -25.0455     6.4738     5.8692     7.8698    77.3439     0.0250     2.4534     0.1231
  688.5000   -25.4653     6.3440     5.8317     7.8689    76.6385     0.0288     2.4516     0.1273
  689.0000   -25.4396     6.2281     5.7999     7.8680    75.4957     0.0336     2.4494     0.1308
  689.5000   -25.0424     6.1142     5.6287     7.8671    75.3982     0.0392     2.4482     0.1349
  690.0000   -24.6244     6.0177     5.1925     7.8662    75.3477     0.0374     2.4415     0.1331
  690.5000   -24.4069     5.6918     4.9115     7.8653    74.4288     0.0300     2.4400     0.1297
  691.0000   -24.2769     5.3639     4.6511     7.8644    73.4612     0.0236     2.4453     0.1264
  691.5000   -24.2858     5.0542     4.4368     7.8635    75.6123     0.0173     2.4504     0.1231
  692.0000   -24.3293     4.6864     4.4425     7.8627    77.7808     0.0173     2.4547     0.1186
  692.5000   -24.3738     4.7240     4.4533     7.8616    78.3070     0.0175     2.4627     0.1142
  693.0000   -24.4181     5.0466     4.4641     7.8610    78.7763     0.0179     2.4691     0.1098
  693.5000   -24.4623     5.3972     4.4750     7.8608    78.7820     0.0182     2.4759     0.1072
  694.0000   -24.5065     5.8031     4.5991     7.8751    77.8432     0.0185     2.4753     0.1072
  694.5000   -24.5505     6.2387     4.8214     7.8898    78.6484     0.0188     2.4741     0.1072
  695.0000   -24.5949     6.4557     5.2491     7.9051    79.4467     0.0191     2.4719     0.1072
  695.5000   -24.6427     6.6303     5.7561     7.9200    80.4824     0.0195     2.4766     0.1035
  696.0000   -24.5527     6.8134     6.0802     7.9349    79.1754     0.0198     2.4896     0.1004
  696.5000   -24.4212     7.0015     6.1339     7.9502    77.9025     0.0201     2.4973     0.0973
  697.0000   -24.2848     7.1856     6.1882     7.9649    77.7762     0.0204     2.4982     0.0937
  697.5000   -24.2519     7.3004     6.2424     7.9792    78.4793     0.0209     2.5000     0.0940
  698.0000   -24.2502     7.4170     6.3023     7.9799    80.8541     0.0197     2.5019     0.0945
  698.5000   -24.2536     7.5354     6.3878     7.9802    81.4145     0.0174     2.5014     0.0949
  699.0000   -24.3433     7.6557     6.4836     7.9799    82.0135     0.0154     2.5007     0.0954
  699.5000   -24.6862     7.7780     6.5806     7.9800    82.5574     0.0132     2.4998     0.0958
  700.0000   -25.0161     7.9022     6.6789     7.9800    83.0747     0.0111     2.4959     0.0972
  700.5000   -25.2504     7.9401     6.7787     7.9800    84.0856     0.0091     2.4919     0.0992
  701.0000   -25.0793     7.9401     6.8801     7.9800    84.9231     0.0101     2.4880     0.1000
  701.5000   -24.4582     7.9401     6.9127     7.9800    85.8440     0.0112     2.4834     0.0991
  702.0000   -24.4235     7.9401     6.9204     7.9800    86.3392     0.0124     2.4850     0.0984
  702.5000   -24.4043     7.9401     6.9276     7.9800    86.5079     0.0136     2.4921     0.0976
  703.0000   -24.3821     7.9401     6.9349     7.9800    86.7003     0.0147     2.4912     0.1028
  703.5000   -24.3597     7.9401     6.9421     7.9800    86.9579     0.0160     2.4848     0.1119
  704.0000   -24.3372     7.9401     6.9493     7.9800    86.5932     0.0170     2.4804     0.1090
  704.5000   -24.3147     7.9401     6.9567     7.9800    85.7282     0.0192     2.4832     0.1059
  705.0000   -24.2920     7.9401     6.9687     7.9800    85.0044     0.0212     2.4855     0.1029
  705.5000   -24.2701     7.9401     6.9713     7.9800    84.8541     0.0232     2.4912     0.0998
  706.0000   -24.2699     7.9402     6.9767     7.9800    84.7121     0.0247     2.4982     0.0968
  706.5000   -24.3810     7.9401     6.9142     7.9800    86.0804     0.0227     2.4989     0.0968
  707.0000   -24.4912     7.9402     6.7693     7.9800    87.3680     0.0210     2.4971     0.0979
  707.5000   -24.6008     7.9163     6.6813     7.9800    87.7267     0.0192     2.4945     0.0990
  708.0000   -24.7100     7.8544     6.5944     7.9800    86.1771     0.0174     2.4906     0.1001
