~VERSION INFORMATION
 VERS.                2.0:   CWLS LOG ASCII STANDARD - VERSION 2.0
 WRAP.                 NO:   ONE LINE PER DEPTH STEP
~WELL INFORMATION
#MNEM.UNIT      DATA TYPE    INFORMATION
#----------   ------------   ------------------------------
 STRT.F           46.0000:   START DEPTH
 STOP.F          490.0000:   STOP DEPTH
 STEP.F            0.5000:   STEP LENGTH
 NULL.          -999.2500:   NO VALUE
 COMP.    FENIX & SCISSON:   COMPANY
 WELL.        NPR #55-S-3:   WELL
 FLD .              NPR 3:   FIELD
 LOC .       S3 T38N R78W:   LOCATION
 CNTY.            NATRONA:   COUNTY
 STAT.            WYOMING:   STATE
 CTRY. UNITED STATES OF AMERICA:   COUNTRY
 SRVC.      Dresser Atlas:   SERVICE COMPANY
 DATE.        12-MAR-1977:   LOGDATE
 API .       490251028700:   API NUMBER
~CURVE INFORMATION
#MNEM.UNIT       API CODE    CURVE DESCRIPTION
#----------   ------------   ------------------------------
 DEPT.F                  :   
 SPR .MV     07 010 01 00:   SPONTANEOUS POTENTIAL
 ILM .OHMM   07 120 44 00:   INDUCTION LOG MEDIUM
 ILD .OHMM   07 120 46 00:   INDUCTION LOG DEEP
 SFL .OHMM   07 220 01 00:   SHALLOW FOCUSED LOG RESISTIVITY
 CALD.IN     45 280 60 00:   CALIPER FROM DENSITY LOG
 GRD .GAPI   45 310 01 00:   GAMMA RAY FROM DENSITY LOG
 CORR.G/C3   45 356 01 00:   DENSITY CORRECTION
 DPHI.DEC    45 890 12 00:   DENSITY POROSITY SANDSTONE
 RHOB.G/C3   45 350 01 00:   BULK DENSITY
~PARAMETER INFORMATION
#MNEM.UNIT          VALUE    DESCRIPTION
#----------   ------------   ------------------------------
 PD  .                 GL:   PERMANENT DATUM
 EPD .F              5169:   ELEVATION PERMANENT DATUM
 LMF .                 GL:   LOG MEASURED FROM
 DMF .                 GL:   DRILLING MEASURED FROM
 EGL .F              5169:   GROUND LEVEL
 DATE.        12-MAR-1977:   RUN DATE
 RUN .                  1:   RUN NUMBER
 DD  .F               498:   DEPTH DRILLER
 DL  .F               492:   DEPTH LOGGER
 BLI .F               490:   BOTTOM LOG INTERVAL
 TLI .F               046:   TOP LOG INTERVAL
 CS  .IN            8.625:   CASING SIZE
 CBD .F                40:   CASING BOTTOM DRILLER
 CBL .F               046:   CASING BOTTOM LOGGER
 BS  .IN            7.875:   BIT SIZE
 BSD .F               498:   BIT SIZE AT DEPTH
 DFT .           CHEM GEL:   DRILLING FLUID TYPE
 DFD .                8.7:   DRILLING FLUID DENSITY
 DFV .                 35:   DRILLING FLUID VISCOSITY
 DFPH.                8.0:   DRILLING FLUID PH
 DFL .                7.2:   DRILLING FLUID LOSS
 MSS .           FLOWLINE:   MUD SAMPLE SOURCE
 RMS .OHMM            .35:   RESISTIVITY MUD SAMPLE
 MST .F                60:   MUD SAMPLE TEMPERATURE
 RMF .OHMM             .3:   RESISTIVITY MUD FILTRATE SAMPLE
 MFST.F                60:   MUD FILTRATE SAMPLE TEMPERATURE
 RMC .OHMM            .73:   RESISTIVITY MUD CAKE
 MCST.F                60:   MUD CAKE SAMPLE TEMPERATURE
 MFSS.               MEAS:   MUD FILTRATE SAMPLE SOURCE
 MCSS.               MEAS:   MUD CAKE SAMPLE SOURCE
 RMB .OHMM            .33:   RESISTIVITY MUD AT BHT
 BHT .F                63:   BOTTOM HOLE TEMPERATURE
 TCS .HRS            1400:   TIME CURCULATED STOPPED
 MRT .F                63:   MAXIMUM RECORDED TEMPERATURE
 LUN .               6134:   LOGGING UNIT NUMBER
 LUL .              GLTTE:   LOGGING UNIT LOCATION
 ENGI.              NOYER:   RECORDING ENGINEER
 WITN.         STUEBINGER:   WITNESSED BY
 CLNT.            A2DTECH:   CLIENT CODE
 ORIG.           5" PRINT:   ORIGIN OF DATA
 UWI .       490251028700:   UNIQUE WELL ID
 DICO. A2D Technologies, Inc.:   DIGITIZING COMPANY
~OTHER INFORMATION
~A   DEPT      SPR        ILM        ILD        SFL       CALD        GRD       CORR         DPHI       RHOB 
# ...
  155.5000   -68.0964     6.8652     6.8846     9.6918     7.8019   104.0240     0.0295     0.1007     2.4838
  156.0000   -68.5340     6.7340     6.7421     9.6967     7.8037   103.5688     0.0267     0.0943     2.4982
  156.5000   -69.7348     6.5097     6.5210     9.9724     7.8051   101.0534     0.0254     0.1033     2.4967
  157.0000   -70.1861     6.2049     6.3023     9.7646     7.8512   104.2117     0.0241     0.1003     2.4848
  157.5000   -70.3374     5.9569     6.0073     8.9987     7.8527   101.0797     0.0212     0.1087     2.4773
  158.0000   -70.1889     5.7180     5.6867     8.3434     7.8542   102.2861     0.0199     0.1144     2.4700
  158.5000   -69.7406     5.6425     5.5725     7.8435     7.8557    99.3068     0.0200     0.1192     2.4601
  159.0000   -69.5921     5.6848     5.5752     7.4762     7.8574    98.7167     0.0187     0.1233     2.4422
  159.5000   -68.9942     5.7280     5.6555     7.7421     7.8589    98.8811     0.0204     0.1197     2.4513
  160.0000   -68.3956     5.7708     5.7773     8.4730     7.8306   105.3299     0.0236     0.1170     2.4573
  160.5000   -67.7973     5.8948     5.8201     9.2732     7.8320   106.1886     0.0267     0.1089     2.4664
  161.0000   -67.1995     6.0215     5.9862     9.0865     7.8335   104.1557     0.0314     0.0893     2.5049
  161.5000   -66.7511     6.2365     6.1145     8.9662     7.8197   105.0973     0.0375     0.0857     2.5095
  162.0000   -66.7529     6.4147     6.2889     9.0320     7.8364   106.7964     0.0392     0.0869     2.5088
  162.5000   -67.2041     6.5980     6.5132     9.2249     7.8229   108.0831     0.0394     0.0920     2.5087
  163.0000   -68.8548     6.6474     6.6597     9.6859     7.8244   104.4105     0.0320     0.1004     2.5059
  163.5000   -70.9551     6.7910     6.7962     9.6924     7.8259   103.0809     0.0307     0.0940     2.4871
  164.0000   -72.0061     6.8418     6.7994     9.6269     7.8274   103.2416     0.0339     0.0879     2.5068
  164.5000   -69.7586     6.8929     6.8026     9.6317     7.8139   101.1639     0.0341     0.0868     2.5099
  165.0000   -67.5812     6.8966     6.8057     9.7024     7.8157   104.4572     0.0282     0.0991     2.5032
  165.5000   -66.3132     6.9003     6.8089     9.7062     7.8321   105.2111     0.0118     0.1120     2.4814
  166.0000   -66.6149     6.9040     6.8121     9.7774     7.8335   102.2451     0.0165     0.1083     2.4611
  166.5000   -66.6163     6.8129     6.7691     9.8492     7.8350    99.4251     0.0257     0.1002     2.4815
  167.0000   -66.3179     6.6776     6.7248     9.7853     7.8212    97.9465     0.0349     0.0900     2.5064
  167.5000   -66.0195     6.4990     6.6356     9.3186     7.8230    98.1222     0.0410     0.0831     2.5185
  168.0000   -65.7211     6.3252     6.4583     9.0773     7.8245    99.3115     0.0352     0.0931     2.5121
  168.5000   -66.7724     6.1561     6.3718     9.2711     7.8259    98.7296     0.0309     0.1016     2.4916
  169.0000   -67.5235     6.0330     6.2016     9.4039     7.8274    99.1883     0.0295     0.1082     2.4736
  169.5000   -68.4244     5.8717     6.0331     9.2776     7.8289   102.9258     0.0281     0.1085     2.4722
  170.0000   -69.1755     5.7147     5.7138     8.8440     7.8304   102.3413     0.0254     0.1073     2.4903
  170.5000   -69.6267     5.4757     5.3346     8.6055     7.8321   101.0117     0.0240     0.1117     2.4618
  171.0000   -69.9280     5.1583     5.0498     8.3568     7.8336    99.3841     0.0226     0.1173     2.4551
  171.5000   -69.3301     4.9174     4.8469     7.7660     7.8350    97.9054     0.0228     0.1234     2.4346
  172.0000   -68.5819     4.8518     4.7163     6.2280     7.8365    97.0200     0.0245     0.1360     2.4213
  172.5000   -67.5339     5.0606     4.7191     5.1696     7.8380    98.6739     0.0247     0.1393     2.4244
  173.0000   -66.7857     5.3881     4.8591     6.1900     7.8394   101.6662     0.0308     0.1384     2.4207
  173.5000   -66.1875     5.5805     5.1327     8.3927     7.8409   105.2658     0.0327     0.1268     2.4366
  174.0000   -65.5892     5.8199     5.3527     9.5080     7.8423   107.2221     0.0267     0.1143     2.4525
  174.5000   -64.9913     6.0703     5.5820     8.8156     7.8346   107.8115     0.0253     0.1066     2.4744
  175.0000   -64.8425     6.3306     5.8616     8.8200     7.8264   105.4416     0.0285     0.0995     2.4925
  175.5000   -64.3941     6.5115     6.0706     8.8236     7.8172   103.8139     0.0317     0.0925     2.5016
  176.0000   -64.2456     6.6975     6.2438     8.8271     7.8335   105.0178     0.0333     0.0860     2.5062
  176.5000   -63.9472     6.8889     6.4220     8.8306     7.8197   105.9208     0.0320     0.0866     2.5107
  177.0000   -63.7991     7.0369     6.5151     8.8341     7.8513   104.2960     0.0306     0.0887     2.5070
  177.5000   -63.8006     7.1882     6.5634     8.8378     7.8528   103.2616     0.0263     0.0904     2.5017
  178.0000   -63.8024     7.2487     6.6120     8.8421     7.8542   107.8961     0.0265     0.0910     2.5012
  178.5000   -63.9537     7.2970     6.6610     8.9070     7.8557   109.0045     0.0311     0.0838     2.5118
  179.0000   -64.2550     7.3009     6.7103     8.9723     7.8571   105.5151     0.0328     0.0814     2.5194
  179.5000   -64.7062     7.3554     6.8070     9.1008     7.8586   100.7242     0.0330     0.0864     2.5172
  180.0000   -64.8576     7.4104     6.9051     9.2311     7.8753    99.5970     0.0331     0.0921     2.5060
  180.5000   -64.8591     7.4658     7.0052     9.2988     7.8767   106.9142     0.0302     0.0957     2.4985
  181.0000   -65.0108     7.4698     7.0571     9.3672     7.8782   106.0316     0.0275     0.0918     2.4986
  181.5000   -65.4620     7.4739     7.1094     9.3717     7.8797   105.2952     0.0217     0.0925     2.4986
  182.0000   -65.4634     7.5828     7.1621     9.3755     7.8811   107.2472     0.0203     0.0996     2.4979
  182.5000   -65.1646     7.6395     7.2151     9.5098     7.8826   106.2157     0.0220     0.0983     2.4874
  183.0000   -64.8666     7.7499     7.3698     9.6459     7.8825   105.4822     0.0252     0.0947     2.4944
  183.5000   -64.4183     7.8078     7.4760     9.9202     7.8824   104.4506     0.0283     0.0899     2.5020
  184.0000   -64.5700     7.9205     7.6371    10.2023     7.8823   102.6739     0.0285     0.0863     2.5057
  184.5000   -64.8713     7.9257     7.7470     9.9201     7.8821   103.2817     0.0316     0.0853     2.5088
  185.0000   -65.0227     7.8743     7.7507     9.8637     7.8820   104.3468     0.0333     0.0859     2.5089
  185.5000   -64.8738     7.7714     7.6999     9.8687     7.8819   106.5952     0.0289     0.0865     2.5059
  186.0000   -64.8756     7.7210     7.7044     9.8726     7.8818   104.5119     0.0201     0.0967     2.5000
  186.5000   -64.4273     7.6719     7.6549     9.9450     7.8817   104.3716     0.0098     0.1003     2.4857
  187.0000   -63.9793     7.5717     7.5542     9.9490     7.8816   105.5785     0.0160     0.0896     2.5122
  187.5000   -63.8305     7.5236     7.5048     9.7488     7.8815   106.7824     0.0236     0.0621     2.5303
  188.0000   -63.6820     7.4243     7.4565     9.5335     7.8814   107.9863     0.0344     0.0404     2.5730
  188.5000   -63.6838     7.3771     7.4609     9.4253     7.8813   109.3392     0.0359     0.0278     2.6094
  189.0000   -63.8351     7.3820     7.4129     9.4300     7.8811   109.7980     0.0361     0.0305     2.5997
  189.5000   -63.9865     7.2837     7.3652     9.6314     7.8810   109.8097     0.0408     0.0284     2.5996
  190.0000   -64.3078     7.1875     7.2675     9.7693     7.8809   105.7975     0.0320     0.0401     2.6045
  190.5000   -64.8893     7.0927     7.1225     9.9092     7.8808   103.5737     0.0291     0.0463     2.5698
  191.0000   -65.4905     7.0485     6.9795     9.9819     7.8807   104.0328     0.0368     0.0436     2.5812
  191.5000   -66.0916     7.0038     6.8394     9.8498     7.8806   105.8354     0.0309     0.0544     2.5745
