~VERSION INFORMATION
 VERS.                2.0:   CWLS LOG ASCII STANDARD - VERSION 2.0
 WRAP.                 NO:   ONE LINE PER DEPTH STEP
~WELL INFORMATION
#MNEM.UNIT      DATA TYPE    INFORMATION
#----------   ------------   ------------------------------
 STRT.F           52.5000:   START DEPTH
 STOP.F         2929.0000:   STOP DEPTH
 STEP.F            0.5000:   STEP LENGTH
 NULL.          -999.2500:   NO VALUE
 COMP.   FLUOR DANIEL INC:   COMPANY
 WELL. NAVAL PETROLEUM RESERVE 3 X-23 #52-23:   WELL
 FLD .            WILDCAT:   FIELD
 LOC .      S23 T38N R78W:   LOCATION
 CNTY.            NATRONA:   COUNTY
 STAT.            WYOMING:   STATE
 CTRY. UNITED STATES OF AMERICA:   COUNTRY
 SRVC.            Unknown:   SERVICE COMPANY
 DATE.        23-APR-1995:   LOGDATE
 API .       490252271500:   API NUMBER
~CURVE INFORMATION
#MNEM.UNIT       API CODE    CURVE DESCRIPTION
#----------   ------------   ------------------------------
 DEPT.F                  :   
 ROP .MIN/FT 91 810 01 00:   RAT OF DRILLING PENETRATION
 TGAS.UNITS  91 830 01 00:   TOTAL GAS FROM HOTWIRE
~PARAMETER INFORMATION
#MNEM.UNIT          VALUE    DESCRIPTION
#----------   ------------   ------------------------------
 EKB .F              5344:   KELLING BUSHING
 EGL .F              5334:   GROUND LEVEL
 DATE.            4-23-95:   RUN DATE
 DD  .F              2929:   DEPTH DRILLER
 CS  .IN            9.625:   CASING SIZE
 CBD .F                53:   CASING BOTTOM DRILLER
 BS  .IN             8.75:   BIT SIZE
 BSD .F              2929:   BIT SIZE AT DEPTH
 ENGI.              TOWER:   RECORDING ENGINEER
 WITN.               HUSK:   WITNESSED BY
 CLNT.            A2DTECH:   CLIENT CODE
 ORIG.           5" PRINT:   ORIGIN OF DATA
 UWI .       490252271500:   UNIQUE WELL ID
 DICO. A2D Technologies, Inc.:   DIGITIZING COMPANY
~OTHER INFORMATION
~A   DEPT        ROP     TGAS   
# ...
 2482.5000     0.4414     2.1480
 2483.0000     0.4411     2.1480
 2483.5000     0.4409     2.1480
 2484.0000     0.4406     2.1480
 2484.5000     0.4403     2.1480
 2485.0000     0.4400     2.1480
 2485.5000     0.4506     2.1480
 2486.0000     0.4503     2.1480
 2486.5000     0.4500     2.1480
 2487.0000     0.4498     2.1480
 2487.5000     0.4495     2.1480
 2488.0000     0.4493     2.1480
 2488.5000     0.4490     2.1480
 2489.0000     0.4488     2.1480
 2489.5000     0.4486     2.1480
 2490.0000     0.4483     2.1480
 2490.5000     0.4481     2.1480
 2491.0000     0.4478     2.1480
 2491.5000     0.4476     2.1480
 2492.0000     0.4474     2.1480
 2492.5000     0.4471     2.1435
 2493.0000     0.4469     2.1279
 2493.5000     0.4466     2.1123
 2494.0000     0.5659     2.0966
 2494.5000     0.5664     2.0810
 2495.0000     0.5670     2.0654
 2495.5000     0.5675     2.0497
 2496.0000     0.5680     2.0341
 2496.5000     0.5686     2.0185
 2497.0000     0.5691     2.0028
 2497.5000     0.5652     1.9872
 2498.0000     0.4936     1.9716
 2498.5000     0.4414     1.9559
 2499.0000     0.4431     1.9403
 2499.5000     0.4447     1.9128
 2500.0000     0.4464     1.8753
 2500.5000     0.4480     1.8378
 2501.0000     0.4497     1.8003
 2501.5000     0.4513     1.7629
 2502.0000     0.4530     1.7254
 2502.5000     0.4547     1.6879
 2503.0000     0.4563     1.6504
 2503.5000     0.4584     1.6130
 2504.0000     0.4607     1.5755
 2504.5000     0.4631     1.5380
 2505.0000     0.4655     1.5036
 2505.5000     0.4679     1.5849
 2506.0000     0.4703     1.6601
 2506.5000     0.4727     1.7282
 2507.0000     0.4751     1.7720
 2507.5000     0.4775     1.8157
 2508.0000     0.4798     1.8595
 2508.5000     0.4822     1.9032
 2509.0000     0.4846     1.9470
 2509.5000     0.4857     1.9907
 2510.0000     0.4852     2.0344
 2510.5000     0.4847     2.0782
 2511.0000     0.4842     2.1219
 2511.5000     0.4836     2.1480
 2512.0000     0.4831     2.1480
 2512.5000     0.4826     2.1480
 2513.0000     0.4821     2.1480
 2513.5000     0.4815     2.1480
 2514.0000     0.4810     2.1480
 2514.5000     0.4805     2.1480
 2515.0000     0.4800     2.1480
 2515.5000     0.4794     2.1480
 2516.0000     0.4789     2.1480
 2516.5000     0.4784     2.1556
 2517.0000     0.4779     2.1801
 2517.5000     0.4773     2.2046
 2518.0000     0.4768     2.2292
 2518.5000     0.4763     2.2537
 2519.0000     0.4758     2.2782
 2519.5000     0.4752     2.3028
 2520.0000     0.4786     2.3273
 2520.5000     0.4826     2.3518
 2521.0000     0.4865     2.3628
 2521.5000     0.4905     2.3628
 2522.0000     0.4945     2.3628
 2522.5000     0.4984     2.3628
 2523.0000     0.5024     2.3628
 2523.5000     0.5063     2.3628
 2524.0000     0.5103     2.3628
 2524.5000     0.5142     2.3628
 2525.0000     0.5182     2.3413
 2525.5000     0.5221     2.3056
 2526.0000     0.5261     2.2700
 2526.5000     0.5300     2.2343
 2527.0000     0.5340     2.1987
 2527.5000     0.5379     2.1630
 2528.0000     0.5419     2.0821
 2528.5000     0.5459     1.9683
 2529.0000     0.5498     1.8546
 2529.5000     0.5497     1.7184
 2530.0000     0.5482     1.6905
 2530.5000     0.5468     1.6557
 2531.0000     0.5454     1.6210
 2531.5000     0.5439     1.5863
 2532.0000     0.5425     1.5516
 2532.5000     0.5411     1.5168
 2533.0000     0.5396     1.4758
 2533.5000     0.5382     1.4308
 2534.0000     0.5368     1.3859
 2534.5000     0.5353     1.3409
 2535.0000     0.5339     1.2960
 2535.5000     0.5325     1.2510
 2536.0000     0.5310     1.2061
 2536.5000     0.5296     1.1612
 2537.0000     0.5292     1.1162
 2537.5000     0.5292     1.0740
 2538.0000     0.5292     1.1753
 2538.5000     0.5292     1.2708
 2539.0000     0.5292     1.3663
 2539.5000     0.5292     1.4618
 2540.0000     0.5292     1.5185
 2540.5000     0.5292     1.5449
 2541.0000     0.5292     1.5714
 2541.5000     0.5292     1.5979
 2542.0000     0.5292     1.6244
 2542.5000     0.5292     1.6509
 2543.0000     0.5292     1.6773
 2543.5000     0.5292     1.7038
 2544.0000     0.5292     1.7432
 2544.5000     0.5292     1.7984
 2545.0000     0.5308     1.8536
 2545.5000     0.5326     1.9089
 2546.0000     0.5343     1.9332
 2546.5000     0.5361     1.9332
 2547.0000     0.5378     1.9332
 2547.5000     0.5396     1.9332
 2548.0000     0.5413     1.9332
 2548.5000     0.5431     1.9131
 2549.0000     0.5449     1.8840
 2549.5000     0.5466     1.8549
 2550.0000     0.5484     1.8258
 2550.5000     0.5501     1.7967
 2551.0000     0.5519     1.7676
 2551.5000     0.5536     1.7385
 2552.0000     0.5554     1.7100
 2552.5000     0.5572     1.6827
 2553.0000     0.5589     1.6554
 2553.5000     0.5607     1.6281
 2554.0000     0.5603     1.6008
 2554.5000     0.5579     1.5735
 2555.0000     0.5555     1.5462
 2555.5000     0.5530     1.5189
 2556.0000     0.5488     1.5773
 2556.5000     0.5183     1.7454
 2557.0000     0.5159     1.9134
 2557.5000     0.5135     2.0815
 2558.0000     0.5111     2.2496
 2558.5000     0.5087     2.3628
 2559.0000     0.5063     2.3628
 2559.5000     0.5039     2.3628
 2560.0000     0.5015     2.3628
 2560.5000     0.4991     2.3628
 2561.0000     0.4967     2.3628
 2561.5000     0.4943     2.3628
 2562.0000     0.4919     2.3628
 2562.5000     0.4895     2.3628
 2563.0000     0.4870     2.3628
 2563.5000     0.4866     2.3628
 2564.0000     0.4878     2.3437
 2564.5000     0.4889     2.3018
 2565.0000     0.4901     2.2599
 2565.5000     0.4913     2.2180
 2566.0000     0.4925     2.1761
 2566.5000     0.4936     2.1342
 2567.0000     0.4948     2.0923
 2567.5000     0.4960     2.0503
 2568.0000     0.4968     2.0084
 2568.5000     0.4968     1.9665
 2569.0000     0.4968     1.9332
 2569.5000     0.4968     1.9332
 2570.0000     0.4968     1.9332
 2570.5000     0.4968     1.9332
 2571.0000     0.4968     1.9332
 2571.5000     0.4968     1.9332
 2572.0000     0.4968     1.9332
 2572.5000     0.4968     1.9332
 2573.0000     0.4968     1.9332
 2573.5000     0.4968     1.9332
 2574.0000     0.4968     1.9332
 2574.5000     0.4968     1.9332
 2575.0000     0.4968     1.9332
 2575.5000     0.4968     1.9577
 2576.0000     0.4968     1.9862
 2576.5000     0.4968     2.0147
 2577.0000     0.4968     2.0432
 2577.5000     0.4968     2.0717
 2578.0000     0.4968     2.1002
 2578.5000     0.4968     2.1287
 2579.0000     0.4968     2.1572
 2579.5000     0.4968     2.1857
 2580.0000     0.4968     2.2142
 2580.5000     0.4968     2.2427
 2581.0000     0.4968     2.2713
 2581.5000     0.4968     2.2998
 2582.0000     0.4968     2.3283
 2582.5000     0.4968     2.3568
 2583.0000     0.4968     2.3628
 2583.5000     0.4968     2.3628
 2584.0000     0.4968     2.3628
 2584.5000     0.4968     2.3628
 2585.0000     0.4968     2.3628
 2585.5000     0.4968     2.3628
 2586.0000     0.4968     2.3628
 2586.5000     0.4968     2.3628
 2587.0000     0.4968     2.3628
 2587.5000     0.4987     2.3628
 2588.0000     0.5028     2.3628
 2588.5000     0.5070     2.3628
 2589.0000     0.5112     2.3628
 2589.5000     0.5154     2.3628
 2590.0000     0.5195     2.3628
 2590.5000     0.5237     2.3628
 2591.0000     0.5279     2.3628
 2591.5000     0.5321     2.3628
 2592.0000     0.5362     2.3628
 2592.5000     0.5404     2.3628
 2593.0000     0.5446     2.3628
 2593.5000     0.5488     2.3628
 2594.0000     0.5494     2.3628
 2594.5000     0.5467     2.3628
 2595.0000     0.5441     2.3628
 2595.5000     0.5414     2.3628
 2596.0000     0.5387     2.3628
 2596.5000     0.5361     2.3628
 2597.0000     0.5334     2.3628
 2597.5000     0.5308     2.3628
 2598.0000     0.5281     2.3537
 2598.5000     0.5255     2.3360
 2599.0000     0.5228     2.3184
 2599.5000     0.5202     2.3007
 2600.0000     0.7775     2.2831
 2600.5000     0.7775     2.2655
 2601.0000     0.7883     2.2478
 2601.5000     0.7883     2.2302
 2602.0000     0.7883     2.2126
 2602.5000     0.7019     2.1949
 2603.0000     0.7235     2.1773
 2603.5000     0.7343     2.1596
