~VERSION INFORMATION
 VERS.                2.0:   CWLS LOG ASCII STANDARD - VERSION 2.0
 WRAP.                 NO:   ONE LINE PER DEPTH STEP
~WELL INFORMATION
#MNEM.UNIT      DATA TYPE    INFORMATION
#----------   ------------   ------------------------------
 STRT.F            0.0000:   START DEPTH
 STOP.F          844.0000:   STOP DEPTH
 STEP.F            0.5000:   STEP LENGTH
 NULL.          -999.2500:   NO VALUE
 COMP. BROWN JOHN E&C INC:   COMPANY
 WELL. NAVAL PETROLEUM RESERVE 3 SX-1 #42-1-14:   WELL
 FLD .             TEAPOT:   FIELD
 LOC .      S14 T38N R78W:   LOCATION
 CNTY.            NATRONA:   COUNTY
 STAT.            WYOMING:   STATE
 CTRY. UNITED STATES OF AMERICA:   COUNTRY
 SRVC.     Atlas Wireline:   SERVICE COMPANY
 DATE.        11-JAN-1992:   LOGDATE
 API .       490252247700:   API NUMBER
~CURVE INFORMATION
#MNEM.UNIT       API CODE    CURVE DESCRIPTION
#----------   ------------   ------------------------------
 DEPT.F                  :   
 GRR .GAPI   07 310 01 00:   GAMMA RAY
 RFOC.OHMM   07 220 04 00:   RESISTIVITY FOCUSED LOG
 RILD.OHMM   07 120 46 00:   INDUCTION LOG DEEP RESISTIVITY
 RILM.OHMM   07 120 44 00:   INDUCTION LOG MEDIUM RESISTIVITY
 SPR .MV     07 010 01 00:   SPONTANEOUS POTENTIAL
~PARAMETER INFORMATION
#MNEM.UNIT          VALUE    DESCRIPTION
#----------   ------------   ------------------------------
 PD  .                 GL:   PERMANENT DATUM
 EPD .F              5201:   ELEVATION PERMANENT DATUM
 LMF .                 KB:   LOG MEASURED FROM
 DAPD.F                10:   FEET ABOVE PERMANENT DATUM
 DMF .                 KB:   DRILLING MEASURED FROM
 EKB .F              5211:   KELLING BUSHING
 EGL .F              5201:   GROUND LEVEL
 DATE.        11-JAN-1992:   RUN DATE
 RUN .                  1:   RUN NUMBER
 DD  .F               848:   DEPTH DRILLER
 DL  .F               847:   DEPTH LOGGER
 BLI .F               845:   BOTTOM LOG INTERVAL
 CS  .IN            10.75:   CASING SIZE
 CBD .F               101:   CASING BOTTOM DRILLER
 CBL .F               101:   CASING BOTTOM LOGGER
 BS  .IN             8.75:   BIT SIZE
 BSD .F               848:   BIT SIZE AT DEPTH
 DFT .               CHEM:   DRILLING FLUID TYPE
 DFD .                9.0:   DRILLING FLUID DENSITY
 DFV .                 40:   DRILLING FLUID VISCOSITY
 DFPH.                9.0:   DRILLING FLUID PH
 DFL .                8.4:   DRILLING FLUID LOSS
 MSS .           FLOWLINE:   MUD SAMPLE SOURCE
 RMS .OHMM           0.22:   RESISTIVITY MUD SAMPLE
 MST .F                78:   MUD SAMPLE TEMPERATURE
 RMF .OHMM           0.17:   RESISTIVITY MUD FILTRATE SAMPLE
 MFST.F                78:   MUD FILTRATE SAMPLE TEMPERATURE
 RMC .OHMM           0.28:   RESISTIVITY MUD CAKE
 MCST.F                78:   MUD CAKE SAMPLE TEMPERATURE
 MFSS.               MEAS:   MUD FILTRATE SAMPLE SOURCE
 MCSS.               CALC:   MUD CAKE SAMPLE SOURCE
 RMB .OHMM           0.14:   RESISTIVITY MUD AT BHT
 BHT .F               126:   BOTTOM HOLE TEMPERATURE
 TCS .HRS               3:   TIME CURCULATED STOPPED
 MRT .F               126:   MAXIMUM RECORDED TEMPERATURE
 LUN .            HL-6274:   LOGGING UNIT NUMBER
 LUL .         CASPER, WY:   LOGGING UNIT LOCATION
 ENGI.             ZIEGER:   RECORDING ENGINEER
 WITN.         MR. STRONG:   WITNESSED BY
 CLNT.            A2DTECH:   CLIENT CODE
 ORIG.           5" PRINT:   ORIGIN OF DATA
 UWI .       490252247700:   UNIQUE WELL ID
 DICO. A2D Technologies, Inc.:   DIGITIZING COMPANY
~OTHER INFORMATION
~A    DEPT      GRR      RFOC       RILD       RILM        SPR   
# ...
  671.0000    87.6091    11.1823    11.8251    11.7429   -14.0723
  671.5000    88.2012    11.1861    11.7452    11.6636   -14.3716
  672.0000    87.8680    10.9573    11.5856    11.6676   -14.6706
  672.5000    85.4788    10.8083    11.5895    11.6707   -14.9699
  673.0000    84.2689    10.6615    11.5120    11.5927   -15.1905
  673.5000    83.0591    10.7397    11.4358    11.5959   -15.2812
  674.0000    82.1495    11.0466    11.4388    11.5997   -15.8674
  674.5000    83.3420    11.1270    11.4313    11.5214   -16.1667
  675.0000    83.3333    11.1300    11.3646    11.6060   -16.1652
  675.5000    82.9779    10.9787    11.3685    11.6904   -15.8630
  676.0000    81.8123    10.8684    11.6934    11.7754   -15.2601
  676.5000    84.2060    10.8229    11.8715    12.0277   -14.6571
  677.0000    85.4007    10.6858    12.0316    12.0372   -14.3479
  677.5000    85.3899    10.6887    12.1191    12.2041   -13.9020
  678.0000    85.0809    10.9942    12.1224    12.2074   -13.4494
  678.5000    84.7718    11.7919    12.1256    12.2107   -13.1472
  679.0000    85.0636    13.7520    12.1288    12.2140   -12.9953
  679.5000    84.1518    15.0668    12.0478    12.2173   -12.8435
  680.0000    80.2385    15.1713    11.9672    12.1356   -12.9925
  680.5000    79.0286    12.7471    11.9713    12.0481   -13.2917
  681.0000    79.3203    10.4148    11.8080    11.7267   -13.4407
  681.5000    79.9143    10.1302    11.6472    10.8632   -13.4388
  682.0000    79.3029    10.2045    11.3305    10.4929   -13.2870
  682.5000    78.3933    10.3507    11.0249    10.3502   -12.9848
  683.0000    77.7477    10.4261    10.7542    10.4262   -12.6826
  683.5000    77.1726    10.5025    10.6397    10.4290   -12.5308
  684.0000    78.9657    10.5049    10.5782    10.4319   -12.5293
  684.5000    81.6597    10.5082    10.6558    10.4354   -12.6928
  685.0000    85.2547    10.5110    10.7331    10.4377   -12.9772
  685.5000    86.4474    10.4406    10.7361    10.4406   -13.1265
  686.0000    86.4384    10.4435    10.7391    10.4436   -12.9743
  686.5000    85.5268    10.3016    10.7427    10.4466   -12.9728
  687.0000    85.2178    10.2963    10.7451    10.4494   -12.9713
  687.5000    84.6085    10.1649    10.7481    10.3796   -13.1203
  688.0000    83.9992    10.1674    10.7514    10.3825   -13.1188
  688.5000    82.1888    10.1703    10.7543    10.3859   -13.1170
  689.0000    80.9789    10.1731    10.7571    10.3887   -13.1155
  689.5000    80.6356    10.1051    10.7601    10.3912   -12.9637
  690.0000    79.4579     9.9684    10.6881    10.3943   -12.9624
  690.5000    77.9477     9.9011    10.5435    10.3971   -12.9609
  691.0000    79.1402     9.9044    10.4723    10.3999   -12.9594
  691.5000    80.3349     9.8376    10.4023    10.4034   -12.8075
  692.0000    80.9247     9.7574    10.2616    10.4490   -12.8060
  692.5000    81.8366     9.7071    10.1930    10.4819   -12.8045
  693.0000    84.8091     9.6422    10.1248    10.4847   -12.8030
  693.5000    87.2028     9.6454    10.1282    10.5609   -12.8013
  694.0000    88.6956     9.5803    10.5615    10.5638   -12.8000
  694.5000    89.8881     9.5835    10.6352    10.6407   -12.7984
  695.0000    87.7773     9.6532    10.7094    10.6442   -12.7970
  695.5000    86.2672     9.5886    10.7090    10.7216   -12.9459
  696.0000    88.7570     9.7334    10.7086    10.7245   -12.9441
  696.5000    90.1537     9.9351    10.7082    10.7274   -12.9426
  697.0000    88.0408    10.1480    10.7829    10.6550   -12.7908
  697.5000    85.9300    10.2218    10.7825    10.6586   -12.7892
  698.0000    83.8192    10.1535    10.7821    10.5873   -12.6376
  698.5000    83.2099    10.1562    10.7067    10.5903   -12.4857
  699.0000    83.8097    10.1589    10.5579    10.5193   -12.4842
  699.5000    84.9922    10.1618    10.4840    10.4497   -12.3320
  700.0000    85.2862    10.1528    10.4107    10.3792   -12.4817
  700.5000    85.5750    10.0967    10.4816    10.2813   -12.3335
  701.0000    84.0590    10.0296    10.2617    10.1366   -12.0356
  701.5000    84.3478     9.9619    10.1882    10.0321   -11.8882
  702.0000    84.9369     9.9652    10.1155     9.9650   -11.8918
  702.5000    85.8609     9.9610     9.9730     9.9684   -12.0451
  703.0000    87.9138     9.9012     9.9710     9.9710   -12.0481
  703.5000    89.4038     9.9046     9.9690     9.9044   -12.0516
  704.0000    89.3922     9.9072    10.0367     9.9071   -11.9035
  704.5000    85.4767     9.9099    10.1051     9.9097   -11.9071
  705.0000    85.4355     9.9820    10.1733     9.9125   -12.0604
  705.5000    85.7539     9.9847    10.2430     9.9852   -12.3640
  706.0000    88.7425    10.0579    10.4572    10.5434   -12.6677
  706.5000    92.9351    10.3605    10.7513    10.8432   -13.1384
  707.0000    94.1276    10.5783    11.1320    11.1517   -13.7269
  707.5000    93.5126    10.8762    11.7108    11.5491   -14.3313
  708.0000    92.2998    11.4191    12.4411    11.9608   -15.3868
  708.5000    89.5846    12.4147    13.2454    12.6491   -17.1942
  709.0000    87.7713    13.8791    14.1016    13.6015   -19.1520
  709.5000    79.0510    15.5302    15.3311    14.7523   -21.1098
  710.0000    76.5966    17.0070    16.7845    16.2683   -22.6266
  710.5000    76.3223    17.3443    18.1261    17.9401   -22.4698
  711.0000    76.0104    17.3413    19.9250    19.7837   -21.5704
  711.5000    74.7977    17.3390    21.7185    21.2163   -20.5207
  712.0000    69.9813    18.0779    22.0206    22.2813   -19.3206
  712.5000    64.5643    20.2103    22.3246    22.1293   -18.5716
  713.0000    62.1502    27.0982    22.1648    21.8256   -18.4241
  713.5000    62.7365    27.4657    21.8530    21.3771   -18.5809
  714.0000    66.6289    19.5089    21.2429    20.2192   -19.0797
  714.5000    69.6203    17.9395    19.8836    19.1241   -20.2381
  715.0000    71.4105    16.4963    18.0861    18.2149   -20.9929
  715.5000    72.0000    15.4903    16.8629    17.4705   -21.5973
  716.0000    72.5886    15.4877    16.2810    16.9919   -22.2017
  716.5000    75.2769    15.5946    15.9402    16.5270   -22.3550
  717.0000    76.1662    15.7017    15.7160    16.0743   -22.6587
  717.5000    76.1547    15.6990    15.6017    15.8531   -22.9624
  718.0000    76.1431    15.4794    15.4916    15.7450   -22.9660
  718.5000    75.8312    15.0513    15.4879    15.6376   -22.9689
  719.0000    74.9188    14.6249    15.4847    15.4234   -22.9718
  719.5000    74.6066    14.0326    15.4816    15.3183   -22.8236
  720.0000    75.1931    14.3275    15.4785    15.2139   -22.5265
  720.5000    76.9833    14.9381    15.4753    15.2165   -22.2286
  721.0000    79.3742    15.1465    15.4722    15.2185   -22.0757
  721.5000    81.4647    14.9341    15.3613    15.2206   -21.7833
  722.0000    83.8555    14.4201    15.2507    15.2226   -21.1854
  722.5000    84.1443    13.9198    15.0361    15.1183   -20.8869
  723.0000    81.4271    13.4441    14.8246    15.0157   -20.2890
  723.5000    78.7129    13.2560    14.6161    14.8096   -19.9904
  724.0000    76.5992    13.1621    14.4102    14.6064   -19.9941
  724.5000    77.7889    13.1603    14.2075    14.4059   -19.8466
  725.0000    78.3784    13.1586    14.1058    14.2082   -19.5238
  725.5000    77.7657    13.0653    13.9572    14.0136   -18.9509
  726.0000    77.7978    12.8825    13.7116    13.7252   -18.3523
  726.5000    80.1421    12.6135    13.4240    13.5368   -17.9041
  727.0000    81.9324    12.3506    13.2352    13.3467   -17.4558
  727.5000    81.6205    12.1778    12.9582    13.0762   -17.0076
  728.0000    80.4078    12.1761    12.8654    12.8967   -16.7098
  728.5000    79.4953    12.3460    12.6844    12.7202   -16.2431
  729.0000    81.0631    12.1728    12.5936    12.6955   -15.8133
  729.5000    85.7756    12.0845    12.3300    12.5468   -15.5155
  730.0000    89.0673    11.8345    12.1560    12.3750   -15.2177
  730.5000    88.4552    11.6686    11.9850    12.2904   -14.9198
  731.0000    84.8400    11.5054    11.9825    12.2069   -14.6220
  731.5000    80.9245    11.3444    11.9801    12.3805   -14.3248
