~VERSION INFORMATION
 VERS.                2.0:   CWLS LOG ASCII STANDARD - VERSION 2.0
 WRAP.                 NO:   ONE LINE PER DEPTH STEP
~WELL INFORMATION
#MNEM.UNIT      DATA TYPE    INFORMATION
#----------   ------------   ------------------------------
 STRT.F           30.0000:   START DEPTH
 STOP.F          507.0000:   STOP DEPTH
 STEP.F            0.5000:   STEP LENGTH
 NULL.          -999.2500:   NO VALUE
 COMP. FENIX & SCISSON INC:   COMPANY
 WELL.      NPR-3 #42S-10:   WELL
 FLD .             TEAPOT:   FIELD
 LOC .      S10 T38N R78W:   LOCATION
 CNTY.            NATRONA:   COUNTY
 STAT.            WYOMING:   STATE
 CTRY. UNITED STATES OF AMERICA:   COUNTRY
 SRVC.            Unknown:   SERVICE COMPANY
 DATE.        15-JUL-1978:   LOGDATE
 API .       490251065700:   API NUMBER
~CURVE INFORMATION
#MNEM.UNIT       API CODE    CURVE DESCRIPTION
#----------   ------------   ------------------------------
 DEPT.F                  :   
 SPR .MV     07 010 01 00:   SPONTANEOUS POTENTIAL
 ILD .OHMM   07 120 46 00:   INDUCTION LOG DEEP
 SN  .OHMM   07 040 16 00:   SHORT NORMAL
 CALD.IN     45 280 60 00:   CALIPER FROM DENSITY LOG
 GRD .GAPI   45 310 01 00:   GAMMA RAY FROM DENSITY LOG
 CORR.G/C3   45 356 01 00:   DENSITY CORRECTION
 RHOB.G/C3   45 350 01 00:   BULK DENSITY
 DPHI.DEC    45 890 12 00:   DENSITY POROSITY SANDSTONE
~PARAMETER INFORMATION
#MNEM.UNIT          VALUE    DESCRIPTION
#----------   ------------   ------------------------------
 PD  .                 GL:   PERMANENT DATUM
 EPD .F              5204:   ELEVATION PERMANENT DATUM
 LMF .                 KB:   LOG MEASURED FROM
 DAPD.F                 4:   FEET ABOVE PERMANENT DATUM
 DMF .                 KB:   DRILLING MEASURED FROM
 EKB .F              5208:   KELLING BUSHING
 EGL .F              5204:   GROUND LEVEL
 DATE.        15-JUL-1978:   RUN DATE
 RUN .                  1:   RUN NUMBER
 DD  .F               500:   DEPTH DRILLER
 DL  .F               511:   DEPTH LOGGER
 BLI .F               504:   BOTTOM LOG INTERVAL
 TLI .F                30:   TOP LOG INTERVAL
 CS  .IN            8.625:   CASING SIZE
 CBD .F                40:   CASING BOTTOM DRILLER
 CBL .F                40:   CASING BOTTOM LOGGER
 BS  .IN            7.875:   BIT SIZE
 BSD .F               500:   BIT SIZE AT DEPTH
 DFT .                KCL:   DRILLING FLUID TYPE
 DFD .                8.7:   DRILLING FLUID DENSITY
 DFV .                 32:   DRILLING FLUID VISCOSITY
 DFPH.                9.0:   DRILLING FLUID PH
 RMS .OHMM           0.18:   RESISTIVITY MUD SAMPLE
 MST .F                78:   MUD SAMPLE TEMPERATURE
 RMF .OHMM           0.16:   RESISTIVITY MUD FILTRATE SAMPLE
 MFST.F                88:   MUD FILTRATE SAMPLE TEMPERATURE
 RMC .OHMM           0.28:   RESISTIVITY MUD CAKE
 MCST.F                88:   MUD CAKE SAMPLE TEMPERATURE
 MFSS.               MEAS:   MUD FILTRATE SAMPLE SOURCE
 MCSS.               MEAS:   MUD CAKE SAMPLE SOURCE
 TCS .HRS               1:   TIME CURCULATED STOPPED
 LUN .               2958:   LOGGING UNIT NUMBER
 LUL .               CASP:   LOGGING UNIT LOCATION
 ENGI.              HONEA:   RECORDING ENGINEER
 WITN.           MCGINLEY:   WITNESSED BY
 CLNT.            A2DTECH:   CLIENT CODE
 ORIG.           5" PRINT:   ORIGIN OF DATA
 UWI .       490251065700:   UNIQUE WELL ID
 DICO. A2D Technologies, Inc.:   DIGITIZING COMPANY
~OTHER INFORMATION
~A   DEPT      SPR        ILD         SN       CALD        GRD       CORR       RHOB       DPHI   
   30.0000  -999.2500  -999.2500  -999.2500  -999.2500  -999.2500  -999.2500  -999.2500  -999.2500
   30.5000  -999.2500  -999.2500  -999.2500  -999.2500    68.0738  -999.2500  -999.2500  -999.2500
   31.0000  -999.2500  -999.2500  -999.2500  -999.2500    66.4647  -999.2500  -999.2500  -999.2500
   31.5000  -999.2500  -999.2500  -999.2500  -999.2500    67.0793  -999.2500  -999.2500  -999.2500
   32.0000  -999.2500  -999.2500  -999.2500  -999.2500    67.0996  -999.2500  -999.2500  -999.2500
   32.5000  -999.2500  -999.2500  -999.2500  -999.2500    65.9312  -999.2500  -999.2500  -999.2500
   33.0000  -999.2500  -999.2500  -999.2500  -999.2500    63.8713  -999.2500  -999.2500  -999.2500
   33.5000  -999.2500  -999.2500  -999.2500  -999.2500    63.2921  -999.2500  -999.2500  -999.2500
   34.0000  -999.2500  -999.2500  -999.2500  -999.2500    64.2090  -999.2500  -999.2500  -999.2500
   34.5000  -999.2500  -999.2500  -999.2500  -999.2500    65.1209  -999.2500  -999.2500  -999.2500
   35.0000  -999.2500  -999.2500  -999.2500  -999.2500    65.4383  -999.2500  -999.2500  -999.2500
   35.5000  -999.2500  -999.2500  -999.2500  -999.2500    65.3100  -999.2500  -999.2500  -999.2500
   36.0000  -999.2500  -999.2500  -999.2500  -999.2500    64.8846  -999.2500  -999.2500  -999.2500
   36.5000  -999.2500  -999.2500  -999.2500  -999.2500    64.7563  -999.2500  -999.2500  -999.2500
   37.0000  -999.2500  -999.2500  -999.2500  -999.2500    65.5246  -999.2500  -999.2500  -999.2500
   37.5000  -999.2500  -999.2500  -999.2500  -999.2500    64.0590  -999.2500  -999.2500  -999.2500
   38.0000  -999.2500  -999.2500  -999.2500  -999.2500    63.3313  -999.2500  -999.2500  -999.2500
   38.5000  -999.2500  -999.2500  -999.2500  -999.2500    63.8024  -999.2500  -999.2500  -999.2500
   39.0000  -999.2500  -999.2500  -999.2500  -999.2500    65.1600  -999.2500  -999.2500  -999.2500
   39.5000  -999.2500  -999.2500  -999.2500  -999.2500    66.8148  -999.2500  -999.2500  -999.2500
   40.0000  -999.2500  -999.2500  -999.2500  -999.2500    68.4695  -999.2500  -999.2500  -999.2500
   40.5000  -999.2500  -999.2500  -999.2500  -999.2500    67.7920  -999.2500  -999.2500  -999.2500
   41.0000  -999.2500  -999.2500  -999.2500  -999.2500    65.8355  -999.2500  -999.2500  -999.2500
   41.5000  -999.2500  -999.2500  -999.2500  -999.2500    66.3067  -999.2500  -999.2500  -999.2500
   42.0000  -999.2500  -999.2500  -999.2500  -999.2500    66.6241  -999.2500  -999.2500  -999.2500
   42.5000  -999.2500  -999.2500  -999.2500  -999.2500    66.7930  -999.2500  -999.2500  -999.2500
   43.0000  -999.2500  -999.2500  -999.2500  -999.2500    65.0303  -999.2500  -999.2500  -999.2500
   43.5000  -999.2500  -999.2500  -999.2500  -999.2500    62.8217  -999.2500  -999.2500  -999.2500
   44.0000  -999.2500  -999.2500  -999.2500  -999.2500    61.9505  -999.2500  -999.2500  -999.2500
   44.5000  -999.2500  -999.2500  -999.2500     8.2396    62.7137    -0.5262     1.5860     0.3891
   45.0000  -999.2500  -999.2500  -999.2500     8.2270    65.7058    -0.3991     1.5853     0.3891
   45.5000  -999.2500  -999.2500  -999.2500     8.2245    71.2244    -0.1213     1.6315     0.3884
   46.0000  -999.2500  -999.2500  -999.2500     8.0241    79.5702     0.0774     2.4570     0.1342
   46.5000  -999.2500  -999.2500  -999.2500     7.9373    81.2249     0.0941     2.4780     0.1401
   47.0000  -999.2500  -999.2500  -999.2500     7.9543    81.3888     0.0756     2.4542     0.1464
   47.5000  -999.2500  -999.2500  -999.2500     7.9713    80.9633     0.0512     2.4461     0.1463
   48.0000  -999.2500  -999.2500  -999.2500     7.9581    80.6864     0.0425     2.4440     0.1445
   48.5000  -999.2500  -999.2500  -999.2500     7.8867    80.8604     0.0367     2.4486     0.1384
   49.0000  -999.2500  -999.2500  -999.2500     7.8734    82.3665     0.0354     2.4494     0.1303
   49.5000   -30.1175     2.8381     5.8570     8.0690    82.6840     0.0312     2.4555     0.1271
   50.0000   -30.2534     3.6120     5.9811     8.1899    81.8128     0.0254     2.4825     0.1243
   50.5000   -30.3974     8.1359     6.2352     8.2070    82.1456     0.0241     2.4736     0.1174
   51.0000   -30.5250     8.2496     6.5450     8.2245    83.3443     0.0243     2.4826     0.1063
   51.5000   -30.6608     8.3214     6.9176     8.2712    83.9590     0.0260     2.5037     0.1003
   52.0000   -30.7966     8.9697     7.4127     8.2882    81.6019     0.0247     2.5204     0.1060
   52.5000   -30.9324     9.4169     7.7277     8.2607    78.7990     0.0249     2.5096     0.1155
   53.0000   -30.9159     9.6846     7.9459     8.2035    77.4820     0.0222     2.5010     0.1238
   53.5000   -30.9026     9.8917     8.1144     8.1612    81.9599     0.0194     2.4802     0.1289
   54.0000   -30.8894    10.0341     8.2295     8.1782    85.2492     0.0196     2.4750     0.1319
   54.5000   -31.7720     9.9694     8.3464     8.2249    84.9723     0.0198     2.4714     0.1336
   55.0000   -32.0563     9.7726     8.4649     8.4496    84.6954     0.0200     2.4648     0.1332
   55.5000   -32.0431     9.4475     8.5262     8.4666    85.3106     0.0262     2.4671     0.1311
   56.0000   -32.0298     9.0708     8.5291     8.4539    85.3354     0.0294     2.4717     0.1332
   56.5000   -32.3147     8.7090     8.5909     8.4567    85.5043     0.0326     2.4673     0.1340
   57.0000   -32.5995     8.3044     8.5939     8.4588    85.9704     0.0373     2.4659     0.1319
   57.5000   -32.7353     8.1393     8.5974     8.4313    86.4313     0.0498     2.4722     0.1265
   58.0000   -33.0169     8.0879     8.6003     8.4033    84.3765     0.0676     2.4780     0.1151
   58.5000   -33.3017     8.0369     8.6032     8.3467    83.9459     0.0812     2.4871     0.1073
   59.0000   -33.4408     8.0968     8.5464     8.2895    84.4171     0.0889     2.4991     0.1076
   59.5000   -33.5766     8.1013     8.5500     8.2318    84.4374     0.0876     2.5037     0.1112
   60.0000   -33.7124     8.1066     8.5529     8.2196    83.5661     0.0684     2.5016     0.1227
   60.5000   -33.8482     8.1110     8.5558     8.2218    82.5463     0.0343     2.4748     0.1379
   61.0000   -33.8317     8.1154     8.5587     8.2240    83.0174     0.0151     2.4637     0.1513
   61.5000   -33.8185     8.1198     8.5616     8.2262    85.1180     0.0063     2.4369     0.1543
   62.0000   -33.8052     8.1242     8.5645     8.1987    86.7727     0.0050     2.4355     0.1495
   62.5000   -33.7920     8.1286     8.5674     8.1860    87.3874     0.0052     2.4388     0.1465
   63.0000   -33.7788     8.1330     8.5703     8.1591    86.5161     0.0054     2.4469     0.1443
   63.5000   -33.6165     8.1374     8.5732     8.1612    83.2675     0.0057     2.4530     0.1389
   64.0000   -33.6033     8.1418     8.5174     8.1480    84.9223     0.0059     2.4553     0.1401
   64.5000   -33.4411     8.1462     8.4576     8.1508    87.4686     0.0061     2.4554     0.1439
   65.0000   -33.4277     8.1506     8.1637     8.1529    89.2719     0.0063     2.4533     0.1394
   65.5000   -33.4143     8.1550     7.7974     8.1551    89.2927     0.0065     2.4534     0.1319
   66.0000   -33.5504     8.1595     7.4333     8.1573    88.4261     0.0052     2.4594     0.1244
   66.5000   -33.6862     8.1639     7.2840     8.1595    88.1441     0.0054     2.4752     0.1184
   67.0000   -33.8220     8.1684     7.1869     8.1791    88.9124     0.0056     2.4880     0.1175
   67.5000   -34.1036     8.1728     7.1893     8.2237    89.8242     0.0073     2.4896     0.1231
   68.0000   -34.2394     8.2337     7.1918     8.2852    88.8044     0.0122     2.4830     0.1243
   68.5000   -34.2261     8.2391     7.1942     8.3467    87.7846     0.0167     2.4793     0.1117
   69.0000   -34.3619     8.2436     7.1967     8.3934    87.9535     0.0199     2.4914     0.1140
   69.5000   -34.3487     8.3050     7.1991     8.4104    89.9054     0.0201     2.5012     0.1188
   70.0000   -34.3355     8.3095     7.2512     8.4126    90.9658     0.0203     2.4916     0.1184
