~VERSION INFORMATION
 VERS.                2.0:   CWLS LOG ASCII STANDARD - VERSION 2.0
 WRAP.                 NO:   ONE LINE PER DEPTH STEP
~WELL INFORMATION
#MNEM.UNIT      DATA TYPE    INFORMATION
#----------   ------------   ------------------------------
 STRT.F          936.5000:   START DEPTH
 STOP.F         2325.5000:   STOP DEPTH
 STEP.F            0.5000:   STEP LENGTH
 NULL.          -999.2500:   NO VALUE
 COMP. LAWRENCE/ALLISON INC:   COMPANY
 WELL.  NPR 3 #45-1-SHX-3:   WELL
 FLD .             TEAPOT:   FIELD
 LOC .       S3 T38N R78W:   LOCATION
 CNTY.            NATRONA:   COUNTY
 STAT.            WYOMING:   STATE
 CTRY. UNITED STATES OF AMERICA:   COUNTRY
 SRVC.            Unknown:   SERVICE COMPANY
 DATE.        10-OCT-1991:   LOGDATE
 API .       490251092300:   API NUMBER
~CURVE INFORMATION
#MNEM.UNIT       API CODE    CURVE DESCRIPTION
#----------   ------------   ------------------------------
 DEPT.F                  :   
 TGAS.UNITS  91 830 01 00:   TOTAL GAS FROM HOTWIRE
 ROP .MIN/FT 91 810 01 00:   RATE OF DRILLING PENETRATION
~PARAMETER INFORMATION
#MNEM.UNIT          VALUE    DESCRIPTION
#----------   ------------   ------------------------------
 EKB .F              5199:   KELLING BUSHING
 EGL .F              5189:   GROUND LEVEL
 DATE.           10-10-91:   RUN DATE
 DD  .F              2325:   DEPTH DRILLER
 BLI .F              2324:   BOTTOM LOG INTERVAL
 TLI .F              1920:   TOP LOG INTERVAL
 CS  .IN            9.625:   CASING SIZE
 CBD .F               498:   CASING BOTTOM DRILLER
 ENGI.               HUSK:   RECORDING ENGINEER
 WITN.              TOWER:   WITNESSED BY
 CLNT.            A2DTECH:   CLIENT CODE
 ORIG.           5" PRINT:   ORIGIN OF DATA
 UWI .       490251092300:   UNIQUE WELL ID
 DICO. A2D Technologies, Inc.:   DIGITIZING COMPANY
~OTHER INFORMATION
~A   DEPT     TGAS          ROP 
# ...
 1179.5000  -999.2500     0.5830
 1180.0000  -999.2500     0.5835
 1180.5000  -999.2500     0.5839
 1181.0000  -999.2500     0.5844
 1181.5000  -999.2500     0.5848
 1182.0000  -999.2500     0.5853
 1182.5000  -999.2500     0.5857
 1183.0000  -999.2500     0.5862
 1183.5000  -999.2500     0.5866
 1184.0000  -999.2500     0.5871
 1184.5000  -999.2500     0.5875
 1185.0000  -999.2500     0.5880
 1185.5000  -999.2500     0.5884
 1186.0000  -999.2500     0.5889
 1186.5000  -999.2500     0.5893
 1187.0000  -999.2500     0.5898
 1187.5000  -999.2500     0.5902
 1188.0000  -999.2500     0.5907
 1188.5000  -999.2500     0.5911
 1189.0000  -999.2500     0.5916
 1189.5000  -999.2500     0.5920
 1190.0000  -999.2500     0.5925
 1190.5000  -999.2500     0.5929
 1191.0000  -999.2500     0.5934
 1191.5000  -999.2500     0.5938
 1192.0000  -999.2500     0.5943
 1192.5000  -999.2500     0.5947
 1193.0000  -999.2500     0.5952
 1193.5000  -999.2500     0.5956
 1194.0000  -999.2500     0.5961
 1194.5000  -999.2500     0.5965
 1195.0000  -999.2500     0.5970
 1195.5000  -999.2500     0.5974
 1196.0000  -999.2500     0.5979
 1196.5000  -999.2500     0.5983
 1197.0000  -999.2500     0.5988
 1197.5000  -999.2500     0.5992
 1198.0000  -999.2500     0.5997
 1198.5000  -999.2500     0.6002
 1199.0000  -999.2500     0.6006
 1199.5000  -999.2500     0.8116
 1200.0000  -999.2500     0.8120
 1200.5000  -999.2500     0.8126
 1201.0000  -999.2500     0.8131
 1201.5000  -999.2500     0.8137
 1202.0000  -999.2500     0.8142
 1202.5000  -999.2500     0.8147
 1203.0000  -999.2500     0.8153
 1203.5000  -999.2500     0.8158
 1204.0000  -999.2500     0.8163
 1204.5000  -999.2500     0.8169
 1205.0000  -999.2500     0.8174
 1205.5000  -999.2500     0.8180
 1206.0000  -999.2500     0.8185
 1206.5000  -999.2500     0.8190
 1207.0000  -999.2500     0.8196
 1207.5000  -999.2500     0.8201
 1208.0000  -999.2500     0.8206
 1208.5000  -999.2500     0.8212
 1209.0000  -999.2500     0.8217
 1209.5000  -999.2500     0.8222
 1210.0000  -999.2500     0.8228
 1210.5000  -999.2500     0.8233
 1211.0000  -999.2500     0.8239
 1211.5000  -999.2500     0.8244
 1212.0000  -999.2500     0.8249
 1212.5000  -999.2500     0.8255
 1213.0000  -999.2500     0.8260
 1213.5000  -999.2500     0.8265
 1214.0000  -999.2500     0.8271
 1214.5000  -999.2500     0.8276
 1215.0000  -999.2500     0.8282
 1215.5000  -999.2500     0.8287
 1216.0000  -999.2500     0.8292
 1216.5000  -999.2500     0.8298
 1217.0000  -999.2500     0.8303
 1217.5000  -999.2500     0.8308
 1218.0000  -999.2500     0.8314
 1218.5000  -999.2500     0.8319
 1219.0000  -999.2500     0.8324
 1219.5000  -999.2500     0.8330
 1220.0000  -999.2500     0.8335
 1220.5000  -999.2500     0.8341
 1221.0000  -999.2500     0.8346
 1221.5000  -999.2500     0.8351
 1222.0000  -999.2500     0.8357
 1222.5000  -999.2500     0.8362
 1223.0000  -999.2500     0.8367
 1223.5000  -999.2500     0.8373
 1224.0000  -999.2500     0.8378
 1224.5000  -999.2500     0.8384
 1225.0000  -999.2500     0.8389
 1225.5000  -999.2500     0.8394
 1226.0000  -999.2500     0.8400
 1226.5000  -999.2500     0.8405
 1227.0000  -999.2500     0.8410
 1227.5000  -999.2500     0.8416
 1228.0000  -999.2500     0.8421
 1228.5000  -999.2500     0.8427
 1229.0000  -999.2500     0.8432
 1229.5000  -999.2500     0.7081
 1230.0000  -999.2500     0.7083
 1230.5000  -999.2500     0.7083
 1231.0000  -999.2500     0.7082
 1231.5000  -999.2500     0.7081
 1232.0000  -999.2500     0.7079
 1232.5000  -999.2500     0.7078
 1233.0000  -999.2500     0.7077
 1233.5000  -999.2500     0.7076
 1234.0000  -999.2500     0.7075
 1234.5000  -999.2500     0.7074
 1235.0000  -999.2500     0.7073
 1235.5000  -999.2500     0.7071
 1236.0000  -999.2500     0.7070
 1236.5000  -999.2500     0.7069
 1237.0000  -999.2500     0.7068
 1237.5000  -999.2500     0.7067
 1238.0000  -999.2500     0.7066
 1238.5000  -999.2500     0.7065
 1239.0000  -999.2500     0.7064
 1239.5000  -999.2500     0.7062
 1240.0000  -999.2500     0.7061
 1240.5000  -999.2500     0.7060
 1241.0000  -999.2500     0.7059
 1241.5000  -999.2500     0.7058
 1242.0000  -999.2500     0.7057
 1242.5000  -999.2500     0.7056
 1243.0000  -999.2500     0.7055
 1243.5000  -999.2500     0.7053
 1244.0000  -999.2500     0.7052
 1244.5000  -999.2500     0.7051
 1245.0000  -999.2500     0.7050
 1245.5000  -999.2500     0.7049
 1246.0000  -999.2500     0.7048
 1246.5000  -999.2500     0.7047
 1247.0000  -999.2500     0.7045
 1247.5000  -999.2500     0.7044
 1248.0000  -999.2500     0.7043
 1248.5000  -999.2500     0.7042
 1249.0000  -999.2500     0.7041
 1249.5000  -999.2500     0.7040
 1250.0000  -999.2500     0.7039
 1250.5000  -999.2500     0.7038
 1251.0000  -999.2500     0.7036
 1251.5000  -999.2500     0.7035
 1252.0000  -999.2500     0.7034
 1252.5000  -999.2500     0.7033
 1253.0000  -999.2500     0.7032
 1253.5000  -999.2500     0.7031
 1254.0000  -999.2500     0.7030
 1254.5000  -999.2500     0.7029
 1255.0000  -999.2500     0.7027
 1255.5000  -999.2500     0.7026
 1256.0000  -999.2500     0.7025
 1256.5000  -999.2500     0.7024
 1257.0000  -999.2500     0.7023
 1257.5000  -999.2500     0.7022
 1258.0000  -999.2500     0.7021
 1258.5000  -999.2500     0.7019
 1259.0000  -999.2500     0.9125
 1259.5000  -999.2500     0.9126
 1260.0000  -999.2500     0.9128
 1260.5000  -999.2500     0.9131
 1261.0000  -999.2500     0.9133
 1261.5000  -999.2500     0.9136
 1262.0000  -999.2500     0.9138
 1262.5000  -999.2500     0.9141
 1263.0000  -999.2500     0.9143
 1263.5000  -999.2500     0.9146
 1264.0000  -999.2500     0.9148
 1264.5000  -999.2500     0.9151
 1265.0000  -999.2500     0.9153
 1265.5000  -999.2500     0.9156
 1266.0000  -999.2500     0.9158
 1266.5000  -999.2500     0.9161
 1267.0000  -999.2500     0.9163
 1267.5000  -999.2500     0.9166
 1268.0000  -999.2500     0.9168
 1268.5000  -999.2500     0.9171
 1269.0000  -999.2500     0.9174
 1269.5000  -999.2500     0.9176
 1270.0000  -999.2500     0.9179
 1270.5000  -999.2500     0.9181
 1271.0000  -999.2500     0.9184
 1271.5000  -999.2500     0.9186
 1272.0000  -999.2500     0.9189
 1272.5000  -999.2500     0.9191
 1273.0000  -999.2500     0.9194
 1273.5000  -999.2500     0.9196
 1274.0000  -999.2500     0.9199
 1274.5000  -999.2500     0.9201
 1275.0000  -999.2500     0.9204
 1275.5000  -999.2500     0.9206
 1276.0000  -999.2500     0.9209
 1276.5000  -999.2500     0.9211
 1277.0000  -999.2500     0.9214
 1277.5000  -999.2500     0.9217
 1278.0000  -999.2500     0.9219
 1278.5000  -999.2500     0.9222
 1279.0000  -999.2500     0.9224
 1279.5000  -999.2500     0.9227
 1280.0000  -999.2500     0.9229
 1280.5000  -999.2500     0.9232
 1281.0000  -999.2500     0.9234
 1281.5000  -999.2500     0.9237
 1282.0000  -999.2500     0.9239
 1282.5000  -999.2500     0.9242
 1283.0000  -999.2500     0.9244
 1283.5000  -999.2500     0.9247
 1284.0000  -999.2500     0.9249
 1284.5000  -999.2500     0.9252
 1285.0000  -999.2500     0.9254
 1285.5000  -999.2500     0.9257
 1286.0000  -999.2500     0.9259
 1286.5000  -999.2500     0.9262
 1287.0000  -999.2500     0.9265
 1287.5000  -999.2500     0.7990
 1288.0000  -999.2500     0.7995
 1288.5000  -999.2500     0.8000
 1289.0000  -999.2500     0.8005
 1289.5000  -999.2500     0.8011
 1290.0000  -999.2500     0.8016
 1290.5000  -999.2500     0.8021
 1291.0000  -999.2500     0.8026
 1291.5000  -999.2500     0.8031
 1292.0000  -999.2500     0.8037
 1292.5000  -999.2500     0.8042
 1293.0000  -999.2500     0.8047
 1293.5000  -999.2500     0.8052
 1294.0000  -999.2500     0.8058
 1294.5000  -999.2500     0.8063
 1295.0000  -999.2500     0.8068
 1295.5000  -999.2500     0.8073
 1296.0000  -999.2500     0.8078
 1296.5000  -999.2500     0.8084
 1297.0000  -999.2500     0.8089
 1297.5000  -999.2500     0.8094
 1298.0000  -999.2500     0.8099
 1298.5000  -999.2500     0.8105
 1299.0000  -999.2500     0.8110
 1299.5000  -999.2500     0.8115
 1300.0000  -999.2500     0.8120
 1300.5000  -999.2500     0.8110
