~VERSION INFORMATION
 VERS.                2.0:   CWLS LOG ASCII STANDARD - VERSION 2.0
 WRAP.                 NO:   ONE LINE PER DEPTH STEP
~WELL INFORMATION
#MNEM.UNIT      DATA TYPE    INFORMATION
#----------   ------------   ------------------------------
 STRT.F            0.0000:   START DEPTH
 STOP.F          553.0000:   STOP DEPTH
 STEP.F            0.5000:   STEP LENGTH
 NULL.          -999.2500:   NO VALUE
 COMP.   FLUOR DANIEL INC:   COMPANY
 WELL. NAVAL PETROLEUM RESERVE 3 SX-3 #1-3:   WELL
 FLD .             TEAPOT:   FIELD
 LOC .       S3 T38N R78W:   LOCATION
 CNTY.            NATRONA:   COUNTY
 STAT.            WYOMING:   STATE
 CTRY. UNITED STATES OF AMERICA:   COUNTRY
 SRVC.      Western Atlas:   SERVICE COMPANY
 DATE.        28-DEC-1994:   LOGDATE
 API .       490252267700:   API NUMBER
~CURVE INFORMATION
#MNEM.UNIT       API CODE    CURVE DESCRIPTION
#----------   ------------   ------------------------------
 DEPT.F                  :   
 GRR .GAPI   07 310 01 00:   GAMMA RAY FROM RES. LOG.
 RILD.OHMM   07 120 46 00:   INDUCTION LOG DEEP RESISTIVITY
 RILM.OHMM   07 120 44 00:   INDUCTION LOG MEDIUM RESISTIVITY
~PARAMETER INFORMATION
#MNEM.UNIT          VALUE    DESCRIPTION
#----------   ------------   ------------------------------
 PD  .                 GL:   PERMANENT DATUM
 EPD .F              5174:   ELEVATION PERMANENT DATUM
 LMF .                 KB:   LOG MEASURED FROM
 DAPD.F                10:   FEET ABOVE PERMANENT DATUM
 DMF .                 KB:   DRILLING MEASURED FROM
 EKB .F              5184:   KELLING BUSHING
 EDF .F              5183:   DRILLING FLOOR
 EGL .F              5174:   GROUND LEVEL
 DATE.        28-DEC-1994:   RUN DATE
 RUN .                  1:   RUN NUMBER
 DD  .F               561:   DEPTH DRILLER
 DL  .F               562:   DEPTH LOGGER
 BLI .F               553:   BOTTOM LOG INTERVAL
 CS  .IN            9.625:   CASING SIZE
 CBD .F                54:   CASING BOTTOM DRILLER
 CBL .F                54:   CASING BOTTOM LOGGER
 BS  .IN             8.75:   BIT SIZE
 BSD .F               561:   BIT SIZE AT DEPTH
 DFT .                AIR:   DRILLING FLUID TYPE
 MRT .F                89:   MAXIMUM RECORDED TEMPERATURE
 LUN .            HL 6530:   LOGGING UNIT NUMBER
 LUL .             CASPER:   LOGGING UNIT LOCATION
 ENGI.      PAT RASMUSSEN:   RECORDING ENGINEER
 WITN.        STEVE HARDY:   WITNESSED BY
 CLNT.            A2DTECH:   CLIENT CODE
 ORIG.           5" PRINT:   ORIGIN OF DATA
 UWI .       490252267700:   UNIQUE WELL ID
 DICO. A2D Technologies, Inc.:   DIGITIZING COMPANY
~OTHER INFORMATION
~A    DEPT      GRR      RILD       RILM   
# ...
  273.0000   123.7196     8.1406     8.1966
  273.5000   123.0490     8.0694     8.1186
  274.0000   124.7396     7.9989     8.0413
  274.5000   129.7446     7.9289     7.9648
  275.0000   132.3451     7.8596     7.8889
  275.5000   130.8430     7.7908     7.8132
  276.0000   127.4218     7.7234     7.7652
  276.5000   123.6743     7.6673     7.8220
  277.0000   122.3222     7.5993     7.8797
  277.5000   122.9019     7.5315     7.9109
  278.0000   120.1931     7.3979     7.9842
  278.5000   113.3145     7.1203     7.6359
  279.0000   106.3588     6.8532     7.1454
  279.5000   102.3947     6.5960     6.6863
  280.0000   109.3603     6.3485     6.1662
  280.5000   117.0327     6.2039     6.1794
  281.0000   124.9662     6.1369     6.2035
  281.5000   127.7607     6.0706     6.2232
  282.0000   127.4518     6.0050     6.2755
  282.5000   125.5750     5.9404     6.3661
  283.0000   122.2539     6.1508     6.4461
  283.5000   120.7291     6.4054     6.6299
  284.0000   119.5616     6.6710     6.8190
  284.5000   120.3286     6.9520     7.0160
  285.0000   122.5675     6.9807     7.0450
  285.5000   124.6363     7.0192     7.0842
  286.0000   125.6174     7.0198     7.0816
  286.5000   128.0656     6.9139     6.9780
  287.0000   132.1398     6.8397     6.9031
  287.5000   130.3627     6.7662     6.8290
  288.0000   128.2228     6.6936     6.7556
  288.5000   127.9081     6.6217     6.6831
  289.0000   128.4881     6.5506     6.6114
  289.5000   129.0710     6.3242     6.4269
  290.0000   130.0236     5.9716     6.1494
  290.5000   130.9553     5.6384     5.8880
  291.0000   129.5691     5.3239     5.4612
  291.5000   126.0019     5.0271     5.0712
  292.0000   122.5753     4.6748     4.7090
  292.5000   120.2395     4.6929     4.4230
  293.0000   122.1040     4.7153     4.4230
  293.5000   125.0799     4.7398     4.7470
  294.0000   125.2664     4.7601     4.9961
  294.5000   124.9005     4.9190     5.2582
  295.0000   124.5360     5.0797     5.5341
  295.5000   124.2822     5.3167     5.8245
  296.0000   125.6344     5.6761     6.1301
  296.5000   127.8544     6.0599     6.4518
  297.0000   129.9726     6.4696     6.7633
  297.5000   131.4672     6.6360     6.8614
  298.0000   131.7419     6.7539     6.9541
  298.5000   131.8782     6.8739     7.0479
  299.0000   130.1723     6.9971     7.1432
  299.5000   128.3773     7.0840     7.2398
  300.0000   126.5851     7.1931     7.3377
  300.5000   124.8022     7.3026     7.4370
  301.0000   124.2958     7.4140     7.5375
  301.5000   124.4624     7.5270     7.6395
  302.0000   125.4224     7.6418     7.7428
  302.5000   126.3699     7.7584     7.8472
  303.0000   127.3249     7.8767     7.9536
  303.5000   128.2623     7.9167     7.9901
  304.0000   127.5117     7.9348     8.0083
  304.5000   126.6225     7.9528     8.0265
  305.0000   126.2233     7.9709     8.0448
  305.5000   129.2880     7.9890     8.0631
  306.0000   132.8358     8.0072     8.0814
  306.5000   136.4032     8.0254     8.0997
  307.0000   137.3018     8.0435     8.1180
  307.5000   133.2980     8.0576     8.1317
  308.0000   129.2853     8.0018     8.0075
  308.5000   128.6909     7.9552     7.9047
  309.0000   129.4710     7.9089     7.8032
  309.5000   130.6403     7.8628     7.7030
  310.0000   131.8176     7.8170     7.6041
  310.5000   132.9981     7.7714     7.5065
  311.0000   134.1885     7.7262     7.4101
  311.5000   133.7826     7.6812     7.3150
  312.0000   131.7482     7.6364     7.2135
  312.5000   128.5169     7.4228     7.0342
  313.0000   126.5391     7.0098     6.7943
  313.5000   125.8397     6.6627     6.5626
  314.0000   126.4095     6.4885     6.3390
  314.5000   129.4691     6.2339     6.0728
  315.0000   132.5083     5.8989     5.7431
  315.5000   134.8117     5.5818     5.4321
  316.0000   135.2486     5.2818     5.1380
  316.5000   134.8080     4.8287     4.6173
  317.0000   134.2615     4.3043     4.0950
  317.5000   132.1654     3.8370     3.6318
  318.0000   130.0740     3.4203     3.2209
  318.5000   128.5688     2.9454     2.8565
  319.0000   127.5271     2.6107     2.5334
  319.5000   125.3764     2.5359     2.3833
  320.0000   122.5493     2.4960     2.4579
  320.5000   119.6846     2.5530     2.5676
  321.0000   116.7488     2.6278     2.8527
  321.5000   117.0377     2.7023     3.1639
  322.0000   122.7403     2.8456     3.5116
  322.5000   129.6125     3.1492     3.9045
  323.0000   135.5412     3.6767     4.3430
  323.5000   138.5312     4.3411     4.8311
  324.0000   138.3407     5.1695     5.3749
  324.5000   135.6631     5.5265     5.9979
  325.0000   135.7168     5.9155     6.0969
  325.5000   138.9756     6.1386     6.1728
  326.0000   139.9535     6.2087     6.2496
  326.5000   136.0201     6.2797     6.3274
  327.0000   135.1499     6.3523     6.4062
  327.5000   140.5717     6.3994     6.4573
  328.0000   146.0559     6.3156     6.3724
  328.5000   145.7715     6.1661     6.2232
  329.0000   137.2589     5.9561     6.0114
  329.5000   137.4175     5.6336     5.6859
  330.0000   143.3770     5.3286     5.3780
  330.5000   146.2920     5.0405     5.0868
  331.0000   147.0934     4.7651     4.8093
  331.5000   147.6487     4.6351     4.6791
  332.0000   145.3874     4.5043     4.5462
  332.5000   141.3527     4.3771     4.4177
  333.0000   140.4968     4.3087     4.3421
  333.5000   139.5529     4.3824     4.5854
  334.0000   137.7613     4.5648     4.7770
  334.5000   135.5208     4.7519     5.0007
  335.0000   135.2011     4.9456     5.2524
  335.5000   136.4448     5.1588     5.5159
  336.0000   137.9488     5.4416     5.7928
  336.5000   140.2810     5.7417     6.0836
  337.0000   140.1905     6.0583     6.3888
  337.5000   139.9700     6.3924     6.7094
  338.0000   140.7531     6.7449     6.9520
  338.5000   141.4631     7.1472     7.0060
  339.0000   140.4018     7.2304     7.0564
  339.5000   140.0765     7.3463     7.1070
  340.0000   140.2712     7.4160     7.1472
  340.5000   141.0596     7.2843     7.1472
  341.0000   140.8551     7.1283     7.0266
  341.5000   141.5205     6.9752     6.9115
  342.0000   145.3868     6.8255     6.7983
  342.5000   149.0526     6.6790     6.6869
  343.0000   147.8120     6.5357     6.5774
  343.5000   145.2876     6.3296     6.3883
  344.0000   142.7728     6.0507     6.1069
  344.5000   140.9261     5.7841     5.8378
  345.0000   142.0188     5.5293     5.5806
  345.5000   143.1730     5.2856     5.3347
  346.0000   141.6210     5.0528     5.0996
  346.5000   141.8183     4.8301     4.8729
  347.0000   141.9522     4.6748     4.7153
  347.5000   136.3220     4.6748     4.7189
  348.0000   129.1895     4.7897     4.8758
  348.5000   125.2720     5.0076     5.1821
  349.0000   133.0366     5.2354     5.5069
  349.5000   140.8225     5.4736     5.8517
  350.0000   144.9953     5.7227     6.1274
  350.5000   148.7773     5.9830     6.3167
  351.0000   150.7921     6.2552     6.5118
  351.5000   152.9104     6.5398     6.7129
  352.0000   152.6580     6.7091     6.8364
  352.5000   150.2811     6.7432     6.8618
  353.0000   147.2778     6.7775     6.8873
  353.5000   146.7973     6.8119     6.9129
  354.0000   147.2923     6.8465     6.9385
  354.5000   146.7558     6.8814     6.9643
  355.0000   145.0056     6.9163     6.9903
  355.5000   143.5368     6.9520     7.0168
  356.0000   143.5694     6.9520     7.0165
  356.5000   143.5717     6.9179     6.9220
  357.0000   143.5410     6.8936     6.8555
  357.5000   145.3096     6.8695     6.7897
  358.0000   147.5688     6.8454     6.7246
  358.5000   146.3400     6.8215     6.6601
  359.0000   145.0318     6.7976     6.5963
  359.5000   146.6673     6.7739     6.5171
  360.0000   149.3409     6.7502     6.5431
  360.5000   150.6870     6.7266     6.5628
  361.0000   150.8374     6.7030     6.5826
  361.5000   151.7110     6.7003     6.6025
  362.0000   153.6364     6.6785     6.6242
  362.5000   150.5581     6.6385     6.6455
  363.0000   146.4823     6.3588     6.4325
  363.5000   145.3793     6.0291     6.0458
