~VERSION INFORMATION
 VERS.                2.0:   CWLS LOG ASCII STANDARD - VERSION 2.0
 WRAP.                 NO:   ONE LINE PER DEPTH STEP
~WELL INFORMATION
#MNEM.UNIT      DATA TYPE    INFORMATION
#----------   ------------   ------------------------------
 STRT.F           50.0000:   START DEPTH
 STOP.F         1020.0000:   STOP DEPTH
 STEP.F            0.5000:   STEP LENGTH
 NULL.          -999.2500:   NO VALUE
 COMP. LAWRENCE/ALLISON INC:   COMPANY
 WELL.      28 STX #14-14:   WELL
 FLD .             TEAPOT:   FIELD
 LOC .      S14 T38N R78W:   LOCATION
 CNTY.            NATRONA:   COUNTY
 STAT.            WYOMING:   STATE
 CTRY. UNITED STATES OF AMERICA:   COUNTRY
 SRVC.            Unknown:   SERVICE COMPANY
 DATE.        22-OCT-1984:   LOGDATE
 API .       490251099000:   API NUMBER
~CURVE INFORMATION
#MNEM.UNIT       API CODE    CURVE DESCRIPTION
#----------   ------------   ------------------------------
 DEPT.F                  :   
 SPR .MV     07 010 01 00:   SPONTANEOUS POTENTIAL
 RILD.OHMM   07 120 46 00:   INDUCTION LOG DEEP RESISTIVITY
 RILM.OHMM   07 120 44 00:   INDUCTION LOG MEDIUM RESISTIVITY
 RFOC.OHMM   07 220 04 00:   RESISTIVITY FOCUSED LOG
 GRD .GAPI   45 310 01 00:   GAMMA RAY FROM DENSITY LOG
 CALD.IN     45 280 60 00:   CALIPER
 DEN .G/C3   45 350 01 00:   COMPENSATED BULK DENSTIY
 CORR.G/C3   45 356 01 00:   DENSITY CORRECTION
 PORD.DEC    45 890 12 00:   POROSITY DENSITY SANDSTONE
 CNC .DEC    42 890 03 00:   NEUTRON POROSITY SANDSTONE
 AC  .US/F   60 520 00 00:   ACOUSTIC SONIC
~PARAMETER INFORMATION
#MNEM.UNIT          VALUE    DESCRIPTION
#----------   ------------   ------------------------------
 PD  .                 GL:   PERMANENT DATUM
 EPD .F              5257:   ELEVATION PERMANENT DATUM
 LMF .                 KB:   LOG MEASURED FROM
 DAPD.F                12:   FEET ABOVE PERMANENT DATUM
 DMF .                 KB:   DRILLING MEASURED FROM
 EKB .F              5269:   KELLING BUSHING
 EGL .F              5257:   GROUND LEVEL
 DATE.           10-22-84:   RUN DATE
 RUN .                  1:   RUN NUMBER
 DD  .F              1020:   DEPTH DRILLER
 DL  .F              1019:   DEPTH LOGGER
 BLI .F              1017:   BOTTOM LOG INTERVAL
 TLI .F                52:   TOP LOG INTERVAL
 CS  .IN               16:   CASING SIZE
 CBD .F                40:   CASING BOTTOM DRILLER
 CBL .F                52:   CASING BOTTOM LOGGER
 BS  .IN            12.25:   BIT SIZE
 BSD .F              1020:   BIT SIZE AT DEPTH
 DFT .          GEL/WATER:   DRILLING FLUID TYPE
 DFD .                9.1:   DRILLING FLUID DENSITY
 DFV .                 35:   DRILLING FLUID VISCOSITY
 MSS .           FLOWLINE:   MUD SAMPLE SOURCE
 RMS .OHMM           2.04:   RESISTIVITY MUD SAMPLE
 MST .F                76:   MUD SAMPLE TEMPERATURE
 RMF .OHMM           1.53:   RESISTIVITY MUD FILTRATE SAMPLE
 MFST.F                76:   MUD FILTRATE SAMPLE TEMPERATURE
 RMC .OHMM           2.55:   RESISTIVITY MUD CAKE
 MCST.F                76:   MUD CAKE SAMPLE TEMPERATURE
 MFSS.               CALC:   MUD FILTRATE SAMPLE SOURCE
 MCSS.               CALC:   MUD CAKE SAMPLE SOURCE
 TCS .HRS               3:   TIME CURCULATED STOPPED
 MRT .F               100:   MAXIMUM RECORDED TEMPERATURE
 LUN .            HL 6307:   LOGGING UNIT NUMBER
 LUL .           GILLETTE:   LOGGING UNIT LOCATION
 ENGI.          CROSSBERG:   RECORDING ENGINEER
 WITN.            JOHNSON:   WITNESSED BY
 CLNT.            A2DTECH:   CLIENT CODE
 ORIG.       2", 5" PRINT:   ORIGIN OF DATA
 UWI .       490251099000:   UNIQUE WELL ID
 DICO. A2D Technologies, Inc.:   DIGITIZING COMPANY
~OTHER INFORMATION
~A   DEPT      SPR       RILD       RILM       RFOC        GRD        CALD       DEN       CORR       PORD          CNC       AC   
# ...
  355.0000   -62.2553     2.1533     1.8857     2.2747    99.5621    12.1374     2.0170     0.0994     0.3597     0.3757   146.2375
  355.5000   -62.6808     2.7178     2.3022     2.5225    98.6279    12.0802     2.1149     0.0665     0.3003     0.3248   143.4072
  356.0000   -63.1063     3.4302     2.8107     3.1940    94.8585    12.1947     2.2072     0.0335     0.2530     0.2941   134.4255
  356.5000   -63.4364     4.3295     3.4315     4.0436    87.6437    12.3513     2.3040    -0.0003     0.1895     0.2819   121.3791
  357.0000   -63.6710     5.1985     4.1894     4.9973    80.3411    12.3615     2.3941    -0.0076     0.1554     0.2735   108.3327
  357.5000   -63.9050     6.4938     5.1146     5.2162    73.5535    12.3624     2.4251     0.0089     0.1477     0.2653    97.6476
  358.0000   -64.1172     8.7444     6.2443     5.4448    71.7072    12.3639     2.4292     0.0261     0.1488     0.2617    95.4200
  358.5000   -64.1942    12.0081     7.3179     5.6991    72.4081    12.3656     2.4281     0.0403     0.1532     0.2670    94.9009
  359.0000   -64.2664    12.8552     8.0327     6.0716    72.0245    12.3674     2.4212     0.0302     0.1582     0.2730    94.7405
  359.5000   -64.3125    13.4084     8.3137     6.4685    70.5933    12.3691     2.4142     0.0072     0.1610     0.2734    93.6906
  360.0000   -63.8962    13.4084     8.1537     6.9176    69.6678    12.3709     2.4107    -0.0125     0.1609     0.2684    92.6846
  360.5000   -63.4298    11.0684     7.6703     6.9176    72.9620    12.3726     2.4111    -0.0100     0.1586     0.2629    91.7406
  361.0000   -62.9629     8.7623     6.0091     6.9176    77.0656    12.3744     2.4131    -0.0042     0.1566     0.2625    92.0199
  361.5000   -62.4963     6.9355     4.7077     6.6645    79.0471    12.3762     2.4177     0.0016     0.1548     0.2882    92.5756
  362.0000   -62.0303     5.4864     3.6882     5.9190    80.4937    12.3781     2.4183     0.0074     0.1591     0.3025    93.1437
  362.5000   -61.5630     4.3428     2.9969     4.9232    82.8800    12.3726     2.3993     0.0126     0.1777     0.3110    98.2407
  363.0000   -61.3397     3.5675     3.0773     4.4795    86.4801    12.3234     2.3171     0.0287     0.2342     0.3195   106.4758
  363.5000   -61.6345     3.0526     3.3182     4.3853    94.9239    12.2151     2.2182     0.0837     0.2936     0.3280   116.3154
  364.0000   -62.7934     3.2510     3.5965     4.2880   102.0439    12.1060     2.0994     0.1381     0.3438     0.3402   127.5953
  364.5000   -63.9159     3.8478     4.0010     4.3445    99.1250    12.1069     2.1057     0.1380     0.3252     0.3294   128.1373
  365.0000   -65.0394     4.5527     4.4501     4.7181    92.8825    12.2832     2.1980     0.0710     0.3120     0.3099   120.0102
  365.5000   -66.2007     5.3874     4.9503     5.1237    82.3633    12.3525     2.2914     0.0422     0.1898     0.2994   110.9166
  366.0000   -66.6612     6.3769     5.3961     5.5641    81.1599    12.3447     2.3586     0.0424     0.1790     0.2749   101.4271
  366.5000   -66.9961     7.5447     6.0300     5.8627    80.4613    12.3354     2.3840     0.0393     0.1774     0.2634    95.1397
  367.0000   -67.3272     8.9282     6.7383     5.8627    79.6796    12.3259     2.3841     0.0239     0.1776     0.2722    95.6250
  367.5000   -68.0978    10.1303     7.5298     6.0266    81.2858    12.3167     2.3837     0.0124     0.1782     0.2810    96.5369
  368.0000   -68.8397    11.2598     7.9195     6.2443    83.3760    12.3081     2.3827     0.0176     0.1795     0.2785    96.6367
  368.5000   -69.5739    11.7678     8.1804     6.5385    81.8027    12.2975     2.3794     0.0227     0.1808     0.2712    96.0776
  369.0000   -70.3095    12.0024     8.4498     6.8467    78.7704    12.1935     2.3765     0.0216     0.1799     0.2662    95.5081
  369.5000   -70.6559    12.2416     8.7282     7.1694    79.4392    11.7168     2.3818     0.0153     0.1753     0.2698    94.9401
  370.0000   -70.2486    12.7295     9.0156     7.5072    80.7785    11.2328     2.3884     0.0091     0.1707     0.2733    94.7933
  370.5000   -69.8548    13.4154     9.2051     7.8015    82.1825    11.1517     2.3952     0.0065     0.1693     0.2749    94.7903
  371.0000   -69.4624    14.1394     9.2232     7.8342    81.7165    11.3780     2.3966     0.0164     0.1713     0.2727    94.8780
  371.5000   -69.0701    14.8281     9.2413     7.8676    79.9209    11.8331     2.3901     0.0258     0.1760     0.2672    95.0900
  372.0000   -68.6758    15.2499     9.2594     7.9074    76.4193    12.2925     2.3829     0.0349     0.1809     0.2634    95.7090
  372.5000   -68.2869    14.8054     9.2775     7.9479    72.9193    12.3993     2.3756     0.0493     0.1832     0.2700    96.3281
  373.0000   -67.8678    14.3688     9.2957     7.9887    74.1847    12.4076     2.3740     0.0640     0.1834     0.2768    96.5435
  373.5000   -67.9173    13.9451     9.3140     8.0179    77.3272    12.4135     2.3748     0.0786     0.1820     0.2836    96.1653
  374.0000   -68.5339    13.5322     9.3320     8.0292    80.4320    12.4229     2.3758     0.0793     0.1801     0.2866    95.6473
  374.5000   -69.1275    13.4084     9.3499     8.0404    82.0788    12.4466     2.3790     0.0797     0.1761     0.2819    95.0518
  375.0000   -69.7165    13.5876     9.3678     8.0515    81.3270    12.4701     2.3916     0.0855     0.1670     0.2772    94.4530
  375.5000   -70.3047    13.8155     9.4705     8.0624    80.8421    12.4939     2.4041     0.0875     0.1565     0.2725    93.8542
  376.0000   -70.8930    14.0469     9.5990     8.0741    81.4162    12.4943     2.4167     0.0812     0.1517     0.2678    93.3905
  376.5000   -71.4814    14.2827     9.7293     8.0854    81.8770    12.4897     2.4296     0.0746     0.1483     0.2618    93.7046
  377.0000   -72.0705    14.5223     9.8613     8.2842    80.2923    12.4851     2.4289     0.0768     0.1491     0.2644    94.2076
  377.5000   -72.6599    14.7659     9.9951     8.5348    78.6066    12.4804     2.4213     0.0818     0.1560     0.2688    94.7106
  378.0000   -73.2432    15.0133    10.1308     8.7929    78.0072    12.4758     2.4079     0.0868     0.1630     0.2721    95.0005
  378.5000   -73.6118    15.1388    10.2682     8.9480    78.6429    12.4712     2.3953     0.0871     0.1693     0.2737    94.7323
  379.0000   -73.3861    15.1853    10.4076     8.9203    79.3153    12.4666     2.3905     0.0784     0.1722     0.2754    94.4640
  379.5000   -73.1764    15.2320    10.5166     8.8975    79.9180    12.4619     2.3884     0.0697     0.1736     0.2851    94.3026
  380.0000   -72.9675    15.3193    10.6067     8.8691    79.2949    12.4564     2.3879     0.0606     0.1749     0.2914    94.6920
  380.5000   -72.7205    15.4862    10.6976     8.9606    78.9013    12.4470     2.3890     0.0609     0.1728     0.2875    95.0763
  381.0000   -72.4364    15.6549    10.7892     9.1147    79.6529    12.4376     2.3942     0.0630     0.1699     0.2828    95.4611
  381.5000   -72.1524    15.8210    10.8816     9.2715    80.3461    12.4283     2.4007     0.0649     0.1664     0.2733    95.5389
  382.0000   -71.8696    16.0848    10.9735     9.4310    80.5106    12.4190     2.4072     0.0618     0.1629     0.2609    95.1112
  382.5000   -71.6566    16.3461    11.0617     9.5932    80.6441    12.4098     2.4139     0.0488     0.1594     0.2490    94.5803
  383.0000   -71.6282    16.6117    11.1507     9.7198    80.4226    12.4011     2.4151     0.0418     0.1589     0.2460    94.0493
  383.5000   -71.5962    16.8741    11.2403     9.7198    78.7484    12.3678     2.4102     0.0520     0.1598     0.2570    93.5429
  384.0000   -71.5640    17.4001    11.3307     9.7198    77.1992    12.3306     2.4050     0.0620     0.1640     0.2690    94.0595
  384.5000   -71.5314    17.9238    11.5940     9.7198    78.4700    12.2929     2.3997     0.0629     0.1681     0.2686    94.5680
  385.0000   -71.4971    18.4640    11.9651     9.8095    80.4500    12.2823     2.3943     0.0536     0.1721     0.2557    94.8452
