~VERSION INFORMATION
 VERS.                2.0:   CWLS LOG ASCII STANDARD - VERSION 2.0
 WRAP.                 NO:   ONE LINE PER DEPTH STEP
~WELL INFORMATION
#MNEM.UNIT      DATA TYPE    INFORMATION
#----------   ------------   ------------------------------
 STRT.F           40.0000:   START DEPTH
 STOP.F          876.5000:   STOP DEPTH
 STEP.F            0.5000:   STEP LENGTH
 NULL.          -999.2500:   NO VALUE
 COMP. FENIX & SCISSON INC:   COMPANY
 WELL.     NPR 3 #41-S-14:   WELL
 FLD .             TEAPOT:   FIELD
 LOC .      S14 T38N R78W:   LOCATION
 CNTY.            NATRONA:   COUNTY
 STAT.            WYOMING:   STATE
 CTRY. UNITED STATES OF AMERICA:   COUNTRY
 SRVC.            Unknown:   SERVICE COMPANY
 DATE.        12-MAR-1978:   LOGDATE
 API .       490251060200:   API NUMBER
~CURVE INFORMATION
#MNEM.UNIT       API CODE    CURVE DESCRIPTION
#----------   ------------   ------------------------------
 DEPT.F                  :   
 CALD.IN     45 280 60 00:   CALIPER FROM DENSITY LOG
 GRD .GAPI   45 310 01 00:   GAMMA RAY FROM DENSITY LOG
 RHOB.G/C3   45 350 01 00:   BULK DENSITY
 DPHI.DEC    45 890 12 00:   DENSITY POROSITY SANDSTONE
 CORR.G/C3   45 356 01 00:   DENSITY CORRECTION
 SPR .MV     05 010 01 00:   SPONTANEOUS POTENTIAL FROM RES.
 IL  .OHMM   05 120 00 00:   INDUCTION LOG
 SN  .OHMM   05 040 16 00:   SHORT NORMAL 16"
~PARAMETER INFORMATION
#MNEM.UNIT          VALUE    DESCRIPTION
#----------   ------------   ------------------------------
 PD  .                 GL:   PERMANENT DATUM
 EPD .F              5211:   ELEVATION PERMANENT DATUM
 LMF .                 KB:   LOG MEASURED FROM
 DMF .                 KB:   DRILLING MEASURED FROM
 EKB .F              5215:   KELLING BUSHING
 EGL .F              5211:   GROUND LEVEL
 DATE.            3-12-78:   RUN DATE
 RUN .                  1:   RUN NUMBER
 DD  .F               870:   DEPTH DRILLER
 DL  .F               872:   DEPTH LOGGER
 BLI .F               866:   BOTTOM LOG INTERVAL
 TLI .F                50:   TOP LOG INTERVAL
 CS  .IN            8.625:   CASING SIZE
 CBD .F                40:   CASING BOTTOM DRILLER
 CBL .F                40:   CASING BOTTOM LOGGER
 BS  .IN            7.875:   BIT SIZE
 BSD .F               870:   BIT SIZE AT DEPTH
 DFT .                KCL:   DRILLING FLUID TYPE
 DFD .                8.6:   DRILLING FLUID DENSITY
 DFV .                 33:   DRILLING FLUID VISCOSITY
 DFPH.                 10:   DRILLING FLUID PH
 DFL .               12.1:   DRILLING FLUID LOSS
 MSS .           FLOWLINE:   MUD SAMPLE SOURCE
 RMS .OHMM            .32:   RESISTIVITY MUD SAMPLE
 MST .F                54:   MUD SAMPLE TEMPERATURE
 RMF .OHMM            .36:   RESISTIVITY MUD FILTRATE SAMPLE
 MFST.F                55:   MUD FILTRATE SAMPLE TEMPERATURE
 RMC .OHMM             .5:   RESISTIVITY MUD CAKE
 MCST.F                56:   MUD CAKE SAMPLE TEMPERATURE
 MFSS.           MEASURED:   MUD FILTRATE SAMPLE SOURCE
 MCSS.           MEASURED:   MUD CAKE SAMPLE SOURCE
 RMB .OHMM            .24:   RESISTIVITY MUD AT BHT
 BHT .F                72:   BOTTOM HOLE TEMPERATURE
 TCS .HRS               4:   TIME CURCULATED STOPPED
 MRT .F                72:   MAXIMUM RECORDED TEMPERATURE
 LUN .               2958:   LOGGING UNIT NUMBER
 LUL .               CASP:   LOGGING UNIT LOCATION
 ENGI.             MILLER:   RECORDING ENGINEER
 WITN.         HARRINGTON:   WITNESSED BY
 CLNT.            A2DTECH:   CLIENT CODE
 ORIG.        2" 5" PRINT:   ORIGIN OF DATA
 UWI .       490251060200:   UNIQUE WELL ID
 DICO. A2D Technologies, Inc.:   DIGITIZING COMPANY
~OTHER INFORMATION
~A   DEPT     CALD         GRD      RHOB       DPHI       CORR        SPR         IL         SN   
# ...
  364.0000     8.2639    90.5361     2.4338     0.1152     0.0065   -57.1572     6.5399     7.3451
  364.5000     8.2639    91.4140     2.4411     0.1109     0.0099   -57.1702     6.5399     7.3339
  365.0000     8.2639    92.5110     2.4515     0.1068     0.0134   -57.0987     6.5414     7.3226
  365.5000     8.2639    95.9007     2.4528     0.1043     0.0148   -57.0265     6.4783     7.3067
  366.0000     8.2639    96.0875     2.4559     0.1011     0.0151   -57.1516     6.4787     7.3963
  366.5000     8.2639    95.8695     2.4638     0.0996     0.0091   -57.5376     6.6884     7.5550
  367.0000     8.2639    91.9829     2.4623     0.0996     0.0031   -57.2261     6.8244     7.7172
  367.5000     8.2639    87.5543     2.4596     0.1037    -0.0033   -56.9709     6.9820     7.8828
  368.0000     8.2639    85.9419     2.4531     0.1052    -0.0019   -57.0279     7.1774     8.0523
  368.5000     8.2639    85.9234     2.4537     0.1052     0.0001   -57.0760     7.3783     8.1637
  369.0000     8.2639    85.9766     2.4482     0.1096     0.0021   -57.1231     7.5848     8.1630
  369.5000     8.2639    86.0255     2.4541     0.1052     0.0019   -57.1718     7.7231     8.1627
  370.0000     8.2639    86.0707     2.4572     0.1001     0.0002   -57.2086     7.7231     8.1643
  370.5000     8.2639    86.0988     2.4621     0.0948    -0.0014   -57.2459     7.6323     8.0324
  371.0000     8.2639    86.4348     2.4709     0.0936    -0.0031   -57.2833     7.5111     7.9362
  371.5000     8.2639    88.9718     2.4737     0.0948    -0.0021   -57.3209     7.3919     7.8411
  372.0000     8.2639    90.0032     2.4615     0.0998     0.0005   -57.3583     7.2745     7.7472
  372.5000     8.2639    89.8280     2.4636     0.1059    -0.0020   -57.3959     7.1512     7.6544
  373.0000     8.2639    89.7631     2.4518     0.1124    -0.0034   -57.4333     6.9740     7.5627
  373.5000     8.2639    91.5890     2.4410     0.1126    -0.0014   -57.4710     6.8012     7.4722
  374.0000     8.2639    93.1202     2.4367     0.1148     0.0009   -57.5086     6.6326     7.3745
  374.5000     8.2639    93.0786     2.4417     0.1142     0.0024   -57.5453     6.4683     7.4002
  375.0000     8.2639    93.0746     2.4416     0.1132     0.0012   -57.5569     6.2428     7.4286
  375.5000     8.2639    93.0330     2.4463     0.1100     0.0023   -57.4958     6.2731     7.4795
  376.0000     8.2639    94.6374     2.4434     0.1112     0.0091   -57.4365     6.3766     7.5537
  376.5000     8.2639    96.1521     2.4453     0.1073     0.0157   -57.3804     6.4817     7.6284
  377.0000     8.2639    94.2726     2.4562     0.1040     0.0208   -57.5483     6.5882     7.7040
  377.5000     8.2639    91.5908     2.4684     0.0987     0.0146   -57.7468     6.6960     7.7804
  378.0000     8.2639    88.8781     2.4797     0.0904     0.0053   -57.9251     6.8056     7.8574
  378.5000     8.2639    86.1390     2.4734     0.0994     0.0026   -57.8737     6.9170     7.9353
  379.0000     8.2639    83.8355     2.4607     0.1021     0.0025   -57.7337     6.9953     8.0139
  379.5000     8.2639    83.1891     2.4575     0.1044     0.0018   -57.5918     7.0359     8.0882
  380.0000     8.2639    86.5542     2.4620     0.1050     0.0001   -57.5443     7.0766     8.0882
  380.5000     8.2639    90.5915     2.4607     0.1056    -0.0015   -57.5121     7.1174     8.0882
  381.0000     8.2639    92.8373     2.4553     0.1060    -0.0032   -57.4802     7.1585     8.0882
  381.5000     8.2639    92.6488     2.4528     0.1050    -0.0021   -57.4482     7.1998     8.0882
  382.0000     8.2639    93.1136     2.4569     0.1056    -0.0003   -57.4162     7.2413     8.0882
  382.5000     8.2639    96.3007     2.4551     0.1050     0.0014   -57.3833     7.2831     8.0882
  383.0000     8.2639    96.1199     2.4628     0.0996     0.0000   -57.4004     7.3251     8.0885
  383.5000     8.2639    95.0379     2.4716     0.0940    -0.0070   -57.4433     7.3745     8.0891
  384.0000     8.2639    94.0475     2.4703     0.0940    -0.0140   -57.4862     7.3437     8.0488
  384.5000     8.2639    95.6137     2.4613     0.1045    -0.0149   -57.5287     7.3068     8.0114
  385.0000     8.2639    97.4269     2.4439     0.1167    -0.0110   -57.5765     7.2701     7.9738
  385.5000     8.2639    93.9834     2.4378     0.1228    -0.0075   -57.7556     7.2337     7.9365
  386.0000     8.2639    88.3696     2.4376     0.1124    -0.0081   -57.9390     7.1973     7.8994
  386.5000     8.2639    90.4570     2.4425     0.1108    -0.0093   -57.9323     7.1612     7.8623
  387.0000     8.2639    97.8228     2.4460     0.1112    -0.0105   -57.8716     7.1253     7.8255
  387.5000     8.2639    98.4182     2.4392     0.1183    -0.0115   -57.8118     7.0895     7.7887
  388.0000     8.2639    97.1252     2.4365     0.1155    -0.0109   -57.9793     7.0539     7.7520
  388.5000     8.2639    96.0739     2.4340     0.1144    -0.0097   -58.5130     7.0185     7.7233
  389.0000     8.2639    92.7973     2.4302     0.1196    -0.0084   -59.0402     6.9833     7.7566
  389.5000     8.2639    89.5153     2.4406     0.1143    -0.0072   -59.2913     6.9482     7.7854
  390.0000     8.2639    87.2944     2.4457     0.1126    -0.0059   -59.0582     6.9127     7.8140
  390.5000     8.2639    87.2206     2.4376     0.1136    -0.0047   -58.8584     6.9295     7.8426
  391.0000     8.2639    89.9381     2.4442     0.1128    -0.0035   -57.8823     6.9468     7.8714
  391.5000     8.2639    92.9779     2.4396     0.1144    -0.0035   -57.9108     6.9641     7.9003
  392.0000     8.2639    92.7184     2.4467     0.1141    -0.0035   -57.8773     6.9814     7.9293
  392.5000     8.2639    91.9193     2.4422     0.1108    -0.0019   -57.8281     6.9988     7.9584
  393.0000     8.2639    89.5844     2.4445     0.1108     0.0058   -57.7917     7.0162     7.9876
  393.5000     8.2639    87.0207     2.4519     0.1065     0.0135   -57.3945     7.0337     8.0170
  394.0000     8.2639    87.2192     2.4644     0.1011     0.0164   -56.9735     7.0512     8.0464
  394.5000     8.2639    89.9156     2.4711     0.0936     0.0094   -56.9725     7.0688     8.0759
  395.0000     8.2639    92.1053     2.4720     0.0967    -0.0022   -56.9727     7.0864     8.1056
  395.5000     8.2639    92.7281     2.4611     0.1052    -0.0095   -56.9721     7.1040     8.1353
  396.0000     8.2639    90.9184     2.4501     0.1088    -0.0128   -56.8383     7.1217     8.1652
  396.5000     8.2639    90.0830     2.4490     0.1072    -0.0155   -56.5914     7.1394     8.1952
  397.0000     8.2639    90.2779     2.4451     0.1104    -0.0111   -56.3725     7.1572     8.2253
  397.5000     8.2639    91.0239     2.4447     0.1096    -0.0064   -56.3474     7.1800     8.2555
  398.0000     8.2639    94.9393     2.4469     0.1107    -0.0016   -56.3244     7.2397     8.2858
  398.5000     8.2639    96.7120     2.4462     0.1113     0.0022   -56.3008     7.3000     8.3162
  399.0000     8.2639    94.6520     2.4494     0.1088     0.0006   -56.2771     7.3607     8.3467
  399.5000     8.2639    92.6742     2.4557     0.1043    -0.0021   -56.2535     7.4219     8.3773
  400.0000     8.2639    90.7009     2.4564     0.0984    -0.0021   -56.2298     7.4836     8.4221
  400.5000     8.2639    88.6945     2.4469     0.1083     0.0022   -56.2062     7.5458     8.4810
  401.0000     8.2648    88.2471     2.4411     0.1140    -0.0033   -56.1830     7.6086     8.5403
  401.5000     8.2657    93.0924     2.4483     0.1094    -0.0076   -56.1178     7.6718     8.6000
  402.0000     8.2666    96.9820     2.4384     0.1132    -0.0071   -56.0352     7.7356     8.6602
  402.5000     8.2675    99.4557     2.4366     0.1168    -0.0063   -55.9524     7.7948     8.7208
  403.0000     8.2684    99.9845     2.4497     0.1082    -0.0055   -55.8695     7.8285     8.7818
  403.5000     8.2693    99.6992     2.4600     0.1040    -0.0055   -55.7867     7.8599     8.8432
  404.0000     8.2702    99.4936     2.4601     0.1027    -0.0048   -55.7039     7.8914     8.9051
