~VERSION INFORMATION
 VERS.                2.0:   CWLS LOG ASCII STANDARD - VERSION 2.0
 WRAP.                 NO:   ONE LINE PER DEPTH STEP
~WELL INFORMATION
#MNEM.UNIT      DATA TYPE    INFORMATION
#----------   ------------   ------------------------------
 STRT.F           10.0000:   START DEPTH
 STOP.F          570.0000:   STOP DEPTH
 STEP.F            0.5000:   STEP LENGTH
 NULL.          -999.2500:   NO VALUE
 COMP. BROWN JOHN E&C INC:   COMPANY
 WELL.   STX 10 #85-14-10:   WELL
 FLD .             TEAPOT:   FIELD
 LOC .      S10 T38N R78W:   LOCATION
 CNTY.            NATRONA:   COUNTY
 STAT.            WYOMING:   STATE
 CTRY. UNITED STATES OF AMERICA:   COUNTRY
 SRVC.           Gearhart:   SERVICE COMPANY
 DATE.        29-JUN-1986:   LOGDATE
 API .       490251108400:   API NUMBER
~CURVE INFORMATION
#MNEM.UNIT       API CODE    CURVE DESCRIPTION
#----------   ------------   ------------------------------
 DEPT.F                  :   
 LL  .OHMM   07 220 00 00:   LATEROLOG RES.
 RILD.OHMM   07 120 46 00:   INDUCTION LOG DEEP RESISTIVITY
 RILM.OHMM   07 120 44 00:   INDUCTION LOG MEDIUM RESISTIVITY
 SPR .MV     07 010 01 00:   SPONTANEOUS POTENTIAL
 GRR .GAPI   07 310 01 00:   GAMMA RAY FROM RES. LOG.
~PARAMETER INFORMATION
#MNEM.UNIT          VALUE    DESCRIPTION
#----------   ------------   ------------------------------
 PD  .                 GL:   PERMANENT DATUM
 EPD .F              5191:   ELEVATION PERMANENT DATUM
 LMF .                 KB:   LOG MEASURED FROM
 DAPD.F                 5:   FEET ABOVE PERMANENT DATUM
 DMF .                 KB:   DRILLING MEASURED FROM
 EKB .F              5196:   KELLING BUSHING
 EGL .F              5191:   GROUND LEVEL
 DATE.          6-29-1986:   RUN DATE
 RUN .                  1:   RUN NUMBER
 DD  .F               579:   DEPTH DRILLER
 DL  .F               572:   DEPTH LOGGER
 BLI .F               570:   BOTTOM LOG INTERVAL
 CS  .IN            8.625:   CASING SIZE
 CBD .F                47:   CASING BOTTOM DRILLER
 CBL .F                46:   CASING BOTTOM LOGGER
 BS  .IN            7.875:   BIT SIZE
 BSD .F               579:   BIT SIZE AT DEPTH
 DFT .                MUD:   DRILLING FLUID TYPE
 DFD .                8.9:   DRILLING FLUID DENSITY
 DFV .                 32:   DRILLING FLUID VISCOSITY
 DFPH.                  9:   DRILLING FLUID PH
 MSS .           FLOWLINE:   MUD SAMPLE SOURCE
 RMS .OHMM            1.3:   RESISTIVITY MUD SAMPLE
 MST .F                62:   MUD SAMPLE TEMPERATURE
 RMF .OHMM             .9:   RESISTIVITY MUD FILTRATE SAMPLE
 MFST.F                63:   MUD FILTRATE SAMPLE TEMPERATURE
 RMC .OHMM            1.5:   RESISTIVITY MUD CAKE
 MCST.F                63:   MUD CAKE SAMPLE TEMPERATURE
 MFSS.               MEAS:   MUD FILTRATE SAMPLE SOURCE
 MCSS.               MEAS:   MUD CAKE SAMPLE SOURCE
 RMB .OHMM            1.3:   RESISTIVITY MUD AT BHT
 BHT .F                64:   BOTTOM HOLE TEMPERATURE
 TCS .HRS            1300:   TIME CURCULATED STOPPED
 TLAB.HRS            1600:   TIME LOGGER AT BOTTOM
 MRT .F                64:   MAXIMUM RECORDED TEMPERATURE
 LUN .               7609:   LOGGING UNIT NUMBER
 LUL .           GILLETTE:   LOGGING UNIT LOCATION
 ENGI.             WAGNER:   RECORDING ENGINEER
 WITN.            JENNING:   WITNESSED BY
 CLNT.            A2DTECH:   CLIENT CODE
 ORIG.      2" & 5" PRINT:   ORIGIN OF DATA
 UWI .       490251108400:   UNIQUE WELL ID
 DICO. A2D Technologies, Inc.:   DIGITIZING COMPANY
~OTHER INFORMATION
~A   DEPT       LL       RILD       RILM        SPR         GRR  
# ...
  132.0000     8.5241     9.2892     9.1883   -57.9294    93.3302
  132.5000     8.4801     9.4084     9.1789   -57.8484    95.2554
  133.0000     8.4438     9.5330     9.1819   -57.9331    96.6862
  133.5000     8.5136     9.5037     9.1835   -57.8417    96.9789
  134.0000     8.6055     9.4548     9.0521   -57.4040    97.2749
  134.5000     8.6832     9.3805     8.9181   -56.9716    98.6441
  135.0000     8.6832     9.2991     8.7862   -56.5392   100.3087
  135.5000     8.1347     9.2183     8.6563   -56.1064   101.9843
  136.0000     8.1498     9.1383     8.5229   -55.6823   103.6745
  136.5000     8.1769     9.0589     8.4438   -53.8249   105.3690
  137.0000     8.2041     8.9802     8.4420   -54.1120   103.6805
  137.5000     8.2878     8.8894     8.4438   -54.5901   101.7680
  138.0000     8.2892     8.7761     8.4437   -55.0742    99.8040
  138.5000     8.1986     8.6642     8.4447   -55.5602   100.2419
  139.0000     8.0367     8.5537     8.1837   -55.9738   101.7491
  139.5000     7.8774     8.4446     7.9954   -55.5198   101.8382
  140.0000     7.6295     8.3370     7.8114   -54.4469   100.5969
  140.5000     7.3419     8.2109     7.6318   -54.1516    98.3355
  141.0000     7.4386     8.2109     7.4564   -53.2034    96.0773
  141.5000     7.5501     8.1094     7.2849   -52.1629    94.0699
  142.0000     7.5747     8.0752     7.2063   -51.6277    94.3605
  142.5000     7.6083     8.0592     7.2063   -51.2021    96.2234
  143.0000     7.6421     8.0591     7.3811   -50.9769    98.0724
  143.5000     7.6760     8.1208     7.5746   -51.7364    97.0503
  144.0000     7.6922     8.2400     7.7732   -52.8604    95.8400
  144.5000     7.7713     8.3608     7.9772   -53.9653    97.9067
  145.0000     7.8579     8.4832     8.1840   -54.1747   100.2581
  145.5000     7.9454     8.6074     8.3296   -52.9466   101.8759
  146.0000     8.0339     8.7335     8.4058   -53.7763    99.4883
  146.5000     8.1347     8.8467     8.4843   -54.0500    96.1400
  147.0000     8.2508     8.8958     8.5636   -53.2639    96.1165
  147.5000     8.3735     8.9500     8.6437   -52.4633    97.5721
  148.0000     8.4468     9.0044     8.7245   -51.6737    99.0669
  148.5000     8.5208     9.0598     8.8060   -51.1086    99.0073
  149.0000     8.6832     9.0983     8.8467   -51.6228    97.5057
  149.5000     8.6182     9.0939     8.7948   -52.1397    96.3371
  150.0000     8.4903     9.0552     8.6927   -51.6530    98.3380
  150.5000     8.3644     9.0166     8.5918   -50.7051    99.1909
  151.0000     8.2402     8.9784     8.4920   -49.7521    96.9423
  151.5000     8.1180     8.9403     8.3934   -49.3101    94.6764
  152.0000     8.0592     8.9024     8.2878   -50.0081    93.6999
  152.5000     8.1908     8.8646     8.2878   -50.5691    93.0765
  153.0000     8.2923     8.8269     8.4022   -50.0412    91.8500
  153.5000     8.3950     8.7895     8.4901   -49.5279    90.3659
  154.0000     8.4438     8.7646     8.6027   -49.5683    90.0466
  154.5000     8.3740     8.8744     8.5788   -50.0784    90.7012
  155.0000     8.3216     8.9579     8.5343   -50.3908    92.3889
  155.5000     8.2741     9.0421     8.4901   -49.4581    94.6940
  156.0000     8.2330     9.1270     8.4438   -48.4992    97.2487
  156.5000     8.1927     9.2129     8.4438   -47.3790    99.3412
  157.0000     8.1524     9.3320     8.6935   -47.3113    97.9115
  157.5000     8.1347     9.5127     8.9356   -49.9594    93.3635
  158.0000     8.5514     9.6969     9.1903   -49.7486    88.7921
  158.5000     8.8717     9.8847     9.4524   -48.7172    85.6480
  159.0000     9.1354    10.0761     9.6518   -47.6833    86.0052
  159.5000     9.3592    10.2712     9.8342   -46.6922    88.2507
  160.0000     9.5885    10.4701    10.0200   -47.8950    89.6497
  160.5000     9.8234    10.6729    10.2093   -49.8144    88.1340
  161.0000    10.0641    10.8795    10.4023   -50.0947    86.8010
  161.5000    10.3148    11.0902    10.5988   -51.2049    87.9220
  162.0000    10.5666    11.3050    10.7597   -51.7667    89.7883
  162.5000    10.5583    11.5239    10.8015   -48.5925    88.6063
  163.0000    10.6801    11.7439    10.8438   -48.7148    86.7351
  163.5000    10.7597    11.9551    11.0648   -49.3762    85.2833
  164.0000    11.1034    12.1704    11.3148   -50.1862    87.4097
  164.5000    11.3786    12.3890    11.5685   -37.2807    90.9417
  165.0000    11.6524    12.6074    11.8278   -37.7737    93.7610
  165.5000    11.9216    12.7255    12.0332   -39.3870    91.9759
  166.0000    11.9216    12.9649    12.0332   -41.0530    87.7286
  166.5000    11.2563    12.9649    12.1459   -42.5743    83.4934
  167.0000    10.7597    12.7967    12.1459   -41.7450    82.3917
  167.5000    10.8165    12.6805    12.1459   -40.0583    84.2301
  168.0000    10.9062    12.5652    12.1457   -39.2940    85.1885
  168.5000    10.9966    12.4509    12.1468   -38.2624    82.8922
  169.0000    11.0648    12.3378    12.1508   -39.7547    80.6607
  169.5000    11.0648    12.2256    11.8991   -39.4461    81.0048
  170.0000    10.8604    12.1145    11.6668   -37.9312    82.0681
  170.5000    10.5400    11.9984    11.4398   -40.7283    84.4759
  171.0000    10.2162    11.8671    11.2173   -41.3640    84.7103
  171.5000     9.9024    11.7371    10.9994   -39.9572    82.6508
  172.0000     9.8020    11.5928    10.7601   -37.8401    80.7554
  172.5000     9.9864    11.6723    10.8807   -36.2781    82.2527
  173.0000     9.9351    11.7637    11.0205   -37.6558    83.5777
  173.5000     9.8848    11.8558    11.2437   -38.2853    84.0361
  174.0000    10.6082    11.9216    11.5093   -37.6900    82.3452
  174.5000    11.4707    12.2300    11.7818   -34.8628    80.7317
  175.0000    12.4904    12.6074    12.1502   -33.5490    79.1304
  175.5000    12.6074    12.4486    12.1446   -34.8163    77.4910
  176.0000    11.9216    12.2255    12.1459   -33.6238    77.9268
  176.5000    11.2731    12.0064    11.6079   -35.5191    80.8199
  177.0000    10.4149    11.7913    11.2639   -34.0231    83.8582
  177.5000     9.9872    11.5800    11.0249   -32.8472    84.4417
  178.0000     9.8912    11.3725    10.6960   -34.5181    84.9136
  178.5000     9.8020    11.1687    10.3770   -35.3728    85.6184
  179.0000     9.6261    10.9686    10.0675   -35.5689    87.2662
  179.5000     9.3567    10.7597     9.8938   -34.3568    87.6370
  180.0000     9.4812    10.6805    10.1038   -33.1106    85.7926
  180.5000     9.7265    10.5983    10.2315   -32.0904    83.0735
  181.0000     9.9852    10.5161    10.3674   -33.4476    80.6616
  181.5000     9.9233    10.4344    10.3701   -35.2007    82.7259
  182.0000     9.7795    10.3533    10.2179   -36.5073    85.3585
  182.5000     9.5765    10.2729    10.0734   -34.5442    87.9424
  183.0000     9.3777    10.1931     9.9310   -33.1436    85.7617
  183.5000     9.1830    10.1138     9.7906   -32.8015    82.3698
  184.0000     8.9924    10.0352     9.6215   -31.2633    79.1449
  184.5000     8.8057     9.9573     9.6482   -30.3283    78.7510
  185.0000     8.7248     9.8938     9.6825   -31.2947    79.7824
  185.5000     8.6832     9.8938     9.7110   -27.6193    81.1459
  186.0000     8.5437     9.9302     9.5778   -29.6388    80.7375
  186.5000     8.4421     9.9768     9.4443   -32.2584    80.3903
  187.0000     8.4428    10.0236     9.3126   -31.7883    80.7797
  187.5000     8.2878    10.0706     9.1828   -31.4730    81.1307
  188.0000     8.3722    10.0800     9.1824   -31.5721    79.4342
  188.5000     8.5145     9.9768     9.1818   -31.7247    74.4918
  189.0000     8.6591     9.9302     9.3226   -33.1607    72.3133
  189.5000     8.8062     9.8839     9.4375   -32.5274    73.4988
  190.0000     8.9558     9.8374     9.5293   -30.6712    75.7365
  190.5000     9.0131     9.7660     9.4465   -28.8591    78.7147
  191.0000     8.8659     9.6001     9.2696   -28.9203    80.4634
  191.5000     8.7637     9.4432     9.0699   -31.2702    83.8331
  192.0000     8.4754     9.3129     8.8793   -32.7114    86.6473
  192.5000     8.2092     9.1108     8.6933   -34.1050    87.1916
