~VERSION INFORMATION
 VERS.                2.0:   CWLS LOG ASCII STANDARD - VERSION 2.0
 WRAP.                 NO:   ONE LINE PER DEPTH STEP
~WELL INFORMATION
#MNEM.UNIT      DATA TYPE    INFORMATION
#----------   ------------   ------------------------------
 STRT.F          700.0000:   START DEPTH
 STOP.F         2111.0000:   STOP DEPTH
 STEP.F            0.5000:   STEP LENGTH
 NULL.          -999.2500:   NO VALUE
 COMP. FENIX & SCISSON INC:   COMPANY
 WELL.    35 SAX 34 #3-34:   WELL
 FLD .             TEAPOT:   FIELD
 LOC .      S34 T39N R78W:   LOCATION
 CNTY.            NATRONA:   COUNTY
 STAT.            WYOMING:   STATE
 CTRY. UNITED STATES OF AMERICA:   COUNTRY
 SRVC.            Unknown:   SERVICE COMPANY
 DATE.        29-MAY-1978:   LOGDATE
 API .       490251061700:   API NUMBER
~CURVE INFORMATION
#MNEM.UNIT       API CODE    CURVE DESCRIPTION
#----------   ------------   ------------------------------
 DEPT.F                  :   
 CALD.IN     45 280 60 00:   CALIPER FROM DENSITY LOG
 GRD .GAPI   45 310 01 00:   GAMMA RAY FROM DENSITY LOG
 RHOB.G/C3   45 350 01 00:   BULK DENSITY
 DPHI.DEC    45 890 00 00:   DENSITY POROSITY
 CORR.G/C3   45 356 01 00:   DENSITY CORRECTION
~PARAMETER INFORMATION
#MNEM.UNIT          VALUE    DESCRIPTION
#----------   ------------   ------------------------------
 PD  .                 GL:   PERMANENT DATUM
 EPD .F              5105:   ELEVATION PERMANENT DATUM
 LMF .                 KB:   LOG MEASURED FROM
 DAPD.F                10:   FEET ABOVE PERMANENT DATUM
 DMF .                 KB:   DRILLING MEASURED FROM
 EKB .F              5115:   KELLING BUSHING
 EGL .F              5105:   GROUND LEVEL
 DATE.          5-29-1978:   RUN DATE
 RUN .                  1:   RUN NUMBER
 DD  .F              2111:   DEPTH DRILLER
 DL  .F              2118:   DEPTH LOGGER
 BLI .F              2110:   BOTTOM LOG INTERVAL
 TLI .F               720:   TOP LOG INTERVAL
 CS  .IN            9.625:   CASING SIZE
 CBD .F               711:   CASING BOTTOM DRILLER
 CBL .F               721:   CASING BOTTOM LOGGER
 BS  .IN             8.75:   BIT SIZE
 BSD .F              2111:   BIT SIZE AT DEPTH
 DFT .                OIL:   DRILLING FLUID TYPE
 TCS .HRS               1:   TIME CURCULATED STOPPED
 LUN .               2958:   LOGGING UNIT NUMBER
 LUL .               CASP:   LOGGING UNIT LOCATION
 ENGI.             MILLER:   RECORDING ENGINEER
 WITN.           MCGINLEY:   WITNESSED BY
 CLNT.            A2DTECH:   CLIENT CODE
 ORIG.           5" PRINT:   ORIGIN OF DATA
 UWI .       490251061700:   UNIQUE WELL ID
 DICO. A2D Technologies, Inc.:   DIGITIZING COMPANY
~OTHER INFORMATION
~A   DEPT     CALD         GRD      RHOB       DPHI       CORR   
# ...
 1493.0000     9.5318    68.0857     2.4031     0.0829     0.2675
 1493.5000     9.5258    69.8255     2.4125     0.0802     0.2675
 1494.0000     9.5202    71.2461     2.4209     0.0942     0.2628
 1494.5000     9.5147    70.9619     2.4176     0.0927     0.2537
 1495.0000     9.4886    69.5927     2.4034     0.0931     0.2473
 1495.5000     9.4446    68.8530     2.4044     0.0995     0.2516
 1496.0000     9.4005    68.5927     2.4004     0.1010     0.2570
 1496.5000     9.3560    68.6902     2.3965     0.0958     0.2618
 1497.0000     9.3151    69.0147     2.4007     0.0905     0.2626
 1497.5000     9.3492    70.3061     2.4065     0.0852     0.2636
 1498.0000     9.3870    71.5907     2.4159     0.0813     0.2630
 1498.5000     9.3815    71.4936     2.4246     0.0778     0.2506
 1499.0000     9.3646    71.1588     2.4271     0.0743     0.2380
 1499.5000     9.3538    70.8400     2.4295     0.0707     0.2287
 1500.0000     9.3852    69.9586     2.4349     0.0683     0.2226
 1500.5000     9.4160    69.0260     2.4436     0.0663     0.2166
 1501.0000     9.4464    68.6249     2.4487     0.0587     0.2106
 1501.5000     9.4735    68.6784     2.4510     0.0587     0.2046
 1502.0000     9.4775    68.7382     2.4532     0.0734     0.1968
 1502.5000     9.4820    68.6912     2.4518     0.0628     0.1804
 1503.0000     9.4865    67.6303     2.4442     0.0575     0.1674
 1503.5000     9.4901    65.6839     2.4475     0.0654     0.1708
 1504.0000     9.5389    64.9990     2.4568     0.0703     0.1740
 1504.5000     9.5906    65.3717     2.4465     0.0718     0.1767
 1505.0000     9.5987    65.8174     2.4422     0.0798     0.1995
 1505.5000     9.6061    66.2933     2.4378     0.0810     0.2073
 1506.0000     9.6087    65.8094     2.4287     0.0811     0.2112
 1506.5000     9.5981    64.9808     2.4226     0.0812     0.2226
 1507.0000     9.5695    64.8263     2.4227     0.0813     0.2341
 1507.5000     9.5029    65.7243     2.4220     0.0814     0.2453
 1508.0000     9.4370    67.0043     2.4203     0.0814     0.2493
 1508.5000     9.3713    67.8519     2.4197     0.0851     0.2530
 1509.0000     9.3337    67.9988     2.4196     0.0908     0.2567
 1509.5000     9.3114    68.4064     2.4157     0.0964     0.2604
 1510.0000     9.2958    68.7656     2.4073     0.0982     0.2641
 1510.5000     9.2420    68.4565     2.3987     0.0900     0.2700
 1511.0000     9.1936    68.1376     2.3966     0.0843     0.2908
 1511.5000     9.1462    67.8211     2.4124     0.0674     0.2975
 1512.0000     9.0934    67.5049     2.4292     0.0582     0.2995
 1512.5000     9.0689    67.2014     2.4458     0.0034     0.2994
 1513.0000     9.0369    67.4654     2.4628    -0.0268     0.2996
 1513.5000     8.9877    68.8404     2.4895    -0.0198     0.2994
 1514.0000     8.8165    70.1799     2.5571    -0.0164     0.2883
 1514.5000     6.5560    70.8552     2.5917    -0.0287     0.2370
 1515.0000     5.9813    70.9488     2.5846    -0.0236     0.1987
 1515.5000     5.9950    72.0549     2.5914    -0.0132     0.1902
 1516.0000     6.3374    72.7595     2.5895    -0.0048     0.1581
 1516.5000     6.6014    72.5519     2.5779    -0.0102     0.1244
 1517.0000     6.8385    72.3472     2.5679    -0.0083     0.1257
 1517.5000     7.6426    72.1430     2.5670    -0.0081     0.1279
 1518.0000     8.4450    72.0575     2.5660    -0.0080     0.1301
 1518.5000     8.9108    72.7114     2.5648     0.0018     0.1301
 1519.0000     8.2207    73.3284     2.5639     0.0115     0.1215
 1519.5000     7.6654    73.4337     2.5537     0.0211     0.1132
 1520.0000     7.1112    72.4435     2.5396     0.0308     0.1062
 1520.5000     6.5559    71.5644     2.5250     0.0411     0.1149
 1521.0000     5.9998    72.0295     2.5138     0.0419     0.1251
 1521.5000     5.4883    73.0369     2.5032     0.0362     0.1352
 1522.0000     5.4601    72.6458     2.4925     0.0150     0.1585
 1522.5000     5.6677    71.2855     2.4943    -0.0025     0.1917
 1523.0000     6.2396    70.9803     2.5148    -0.0016     0.1999
 1523.5000     7.4139    71.0225     2.5385    -0.0017     0.1929
 1524.0000     8.5982    68.2781     2.5585    -0.0208     0.1712
 1524.5000     8.8592    65.9806     2.5622    -0.0132     0.1540
 1525.0000     8.8798    69.1050     2.5745    -0.0046     0.1478
 1525.5000     8.8755    71.3550     2.5833    -0.0010     0.1239
 1526.0000     8.8048    71.5643     2.5659    -0.0016     0.1055
 1526.5000     7.0431    72.1986     2.5557    -0.0028     0.1110
 1527.0000     5.2856    73.7737     2.5558    -0.0019     0.1202
 1527.5000     5.0896    74.2077     2.5562     0.0003     0.1281
 1528.0000     5.1157    72.1023     2.5554     0.0069     0.1289
 1528.5000     5.9520    71.0127     2.5502     0.0116     0.1299
 1529.0000     5.3108    72.7751     2.5451     0.0124     0.1308
 1529.5000     5.0438    73.7894     2.5400     0.0216     0.1322
 1530.0000     5.1553    73.2887     2.5346     0.0196     0.1436
 1530.5000     6.7948    70.6801     2.5242     0.0311     0.1553
 1531.0000     8.4907    67.9188     2.5157     0.0297     0.1686
 1531.5000     9.1811    65.6039     2.5133     0.0268     0.1850
 1532.0000     9.2035    65.0043     2.5017     0.0327     0.2063
 1532.5000     9.1503    65.0139     2.5050     0.0331     0.2279
 1533.0000     9.1426    65.7127     2.5024     0.0331     0.2314
 1533.5000     9.1610    68.0867     2.4986     0.0408     0.2262
 1534.0000     9.1797    70.7504     2.4965     0.0507     0.2207
 1534.5000     9.1985    73.4907     2.4970     0.0466     0.2154
 1535.0000     9.2171    73.4294     2.4825     0.0424     0.2146
 1535.5000     9.2358    70.6436     2.4771     0.0557     0.2272
 1536.0000     9.2546    69.2493     2.4818     0.0661     0.2344
 1536.5000     9.2724    68.7949     2.4691     0.0694     0.2322
 1537.0000     9.2732    69.9900     2.4510     0.0759     0.2370
 1537.5000     9.2724    70.4648     2.4416     0.0866     0.2417
 1538.0000     9.3210    70.7754     2.4336     0.0894     0.2421
 1538.5000     9.3719    70.7684     2.4188     0.0890     0.2475
 1539.0000     9.3641    70.2716     2.4154     0.0850     0.2569
 1539.5000     9.3575    69.2718     2.4157     0.0830     0.2663
 1540.0000     9.3508    68.8775     2.4181     0.0834     0.2679
 1540.5000     9.3442    69.8372     2.4195     0.0910     0.2684
 1541.0000     9.3376    70.7920     2.4186     0.0995     0.2688
 1541.5000     9.3310    71.0220     2.4071     0.1095     0.2693
 1542.0000     9.3244    71.0895     2.3911     0.1198     0.2742
 1542.5000     9.3177    71.1329     2.3749     0.1150     0.2804
 1543.0000     9.3126    70.4217     2.3694     0.1114     0.2867
 1543.5000     9.3127    66.7555     2.3722     0.1062     0.2915
 1544.0000     9.3127    63.2162     2.3752     0.1197     0.2886
 1544.5000     9.3128    62.2404     2.3774     0.1234     0.2822
 1545.0000     9.3208    62.1978     2.3707     0.1200     0.2806
 1545.5000     9.3478    62.2095     2.3648     0.1194     0.2799
 1546.0000     9.3745    62.2090     2.3666     0.1150     0.2660
 1546.5000     9.4014    62.2001     2.3683     0.1102     0.2474
 1547.0000     9.4076    62.2628     2.3727     0.1070     0.2423
 1547.5000     9.4001    63.9877     2.3777     0.1050     0.2467
 1548.0000     9.3922    65.4519     2.3829     0.1073     0.2475
 1548.5000     9.3844    65.5478     2.3837     0.1002     0.2465
 1549.0000     9.3769    66.0580     2.3838     0.1084     0.2412
 1549.5000     9.3862    67.0756     2.3835     0.1146     0.2362
 1550.0000     9.4154    67.6622     2.3788     0.1096     0.2351
 1550.5000     9.4445    67.8939     2.3747     0.1024     0.2383
 1551.0000     9.4736    68.5731     2.3828     0.0982     0.2414
 1551.5000     9.5029    68.3375     2.3926     0.0958     0.2407
 1552.0000     9.5307    68.1218     2.3995     0.0930     0.2350
 1552.5000     9.5185    68.1951     2.4016     0.1036     0.2293
 1553.0000     9.5045    68.7115     2.4019     0.1059     0.2235
 1553.5000     9.4933    68.7369     2.3950     0.1070     0.2212
