~VERSION INFORMATION
 VERS.                2.0:   CWLS LOG ASCII STANDARD - VERSION 2.0
 WRAP.                 NO:   ONE LINE PER DEPTH STEP
~WELL INFORMATION
#MNEM.UNIT      DATA TYPE    INFORMATION
#----------   ------------   ------------------------------
 STRT.F           70.0000:   START DEPTH
 STOP.F         1236.0000:   STOP DEPTH
 STEP.F            0.5000:   STEP LENGTH
 NULL.          -999.2500:   NO VALUE
 COMP. U S NAVY/INTEX OIL CO:   COMPANY
 WELL. NAVAL PETROLEUM TE ##3 75S-11:   WELL
 FLD .             TEAPOT:   FIELD
 LOC .      S11 T38N R78W:   LOCATION
 CNTY.            NATRONA:   COUNTY
 STAT.            WYOMING:   STATE
 CTRY. UNITED STATES OF AMERICA:   COUNTRY
 SRVC.         Lane Wells:   SERVICE COMPANY
 DATE.        04-MAR-1960:   LOGDATE
 API .       490250633900:   API NUMBER
~CURVE INFORMATION
#MNEM.UNIT       API CODE    CURVE DESCRIPTION
#----------   ------------   ------------------------------
 DEPT.F                  :   
 GR  .GAPI   30 310 01 00:   GAMMA RAY
 SPR .MV     05 010 01 00:   SPONTANEOUS POTENTIAL FROM RES.
 ILD .OHMM   05 120 46 00:   INDUCTION LOG DEEP
 CILD.MMHO   05 110 46 00:   CONDUCTIVITY INDUCTION LOG DEEP
 ASN .OHMM   05 041 18 00:   AMPLIFIED SHORT NORMAL 18"
~PARAMETER INFORMATION
#MNEM.UNIT          VALUE    DESCRIPTION
#----------   ------------   ------------------------------
 PD  .                 GL:   PERMANENT DATUM
 EPD .F              5252:   ELEVATION PERMANENT DATUM
 LMF .                 KB:   LOG MEASURED FROM
 DAPD.F                 5:   FEET ABOVE PERMANENT DATUM
 DMF .                 KB:   DRILLING MEASURED FROM
 EKB .F              5257:   KELLING BUSHING
 EGL .F              5252:   GROUND LEVEL
 DATE.             3-4-60:   RUN DATE
 RUN .                  1:   RUN NUMBER
 DD  .F              1239:   DEPTH DRILLER
 DL  .F              1238:   DEPTH LOGGER
 BLI .F              1236:   BOTTOM LOG INTERVAL
 TLI .F                70:   TOP LOG INTERVAL
 CS  .IN            8.625:   CASING SIZE
 CBD .F                12:   CASING BOTTOM DRILLER
 BS  .IN            7.875:   BIT SIZE
 BSD .F              1239:   BIT SIZE AT DEPTH
 DFT .                GEL:   DRILLING FLUID TYPE
 DFD .                9.2:   DRILLING FLUID DENSITY
 DFV .                 34:   DRILLING FLUID VISCOSITY
 DFPH.                7.5:   DRILLING FLUID PH
 DFL .                8.5:   DRILLING FLUID LOSS
 MSS .                PIT:   MUD SAMPLE SOURCE
 RMS .OHMM              3:   RESISTIVITY MUD SAMPLE
 MST .F                52:   MUD SAMPLE TEMPERATURE
 RMF .OHMM            2.8:   RESISTIVITY MUD FILTRATE SAMPLE
 MFST.F                55:   MUD FILTRATE SAMPLE TEMPERATURE
 RMC .OHMM            3.3:   RESISTIVITY MUD CAKE
 MCST.F                55:   MUD CAKE SAMPLE TEMPERATURE
 MFSS.                MUD:   MUD FILTRATE SAMPLE SOURCE
 MCSS.              PRESS:   MUD CAKE SAMPLE SOURCE
 RMB .OHMM            2.2:   RESISTIVITY MUD AT BHT
 BHT .F                77:   BOTTOM HOLE TEMPERATURE
 TCS .HRS              .5:   TIME CURCULATED STOPPED
 MRT .F                77:   MAXIMUM RECORDED TEMPERATURE
 LUN .               4474:   LOGGING UNIT NUMBER
 LUL .             CASPER:   LOGGING UNIT LOCATION
 ENGI.      GRIGGS/NELSON:   RECORDING ENGINEER
 WITN.  JORGENSEN/HOLLAND:   WITNESSED BY
 CLNT.            A2DTECH:   CLIENT CODE
 ORIG.       2", 5" PRINT:   ORIGIN OF DATA
 UWI .       490250633900:   UNIQUE WELL ID
 DICO. A2D Technologies, Inc.:   DIGITIZING COMPANY
~OTHER INFORMATION
~A   DEPT       GR        SPR          ILD      CILD         ASN 
# ...
 1046.0000    88.8610   -42.7614    10.9639    94.5429    11.9268
 1046.5000    81.1400   -43.0236    10.9923    94.7666    12.0072
 1047.0000    70.7011   -43.2863    11.0182    94.9903    12.0887
 1047.5000    60.1775   -43.5540    11.0745    95.2141    12.1698
 1048.0000    78.7835   -43.5030    11.1345    95.4378    12.2859
 1048.5000    68.8794   -43.3764    11.1940    95.6629    12.4479
 1049.0000    72.3086   -43.1907    11.2555    95.8875    12.6036
 1049.5000    75.3505   -43.0047    11.3762    96.1090    12.9522
 1050.0000    60.1003   -42.6945    11.6961    93.8881    13.3376
 1050.5000    56.6283   -41.9540    12.1659    89.1249    13.9615
 1051.0000    64.2101   -41.2381    12.6339    84.3618    14.5347
 1051.5000    75.0343   -40.7899    13.1035    79.5986    15.4676
 1052.0000    70.1676   -40.1303    13.5728    75.8656    16.4194
 1052.5000    68.3193   -39.3304    14.0391    74.1625    17.3781
 1053.0000    61.1326   -38.5366    14.4491    72.4595    18.3559
 1053.5000    64.6847   -38.0153    14.7310    69.2446    19.1651
 1054.0000    71.5132   -38.0229    14.8108    69.9746    19.2716
 1054.5000    67.6537   -38.0212    14.3084    74.0707    18.1504
 1055.0000    69.8014   -38.0262    13.6250    78.1669    16.9369
 1055.5000    61.8307   -38.2720    12.9430    82.2630    15.5480
 1056.0000    45.8556   -38.9020    12.2614    86.3592    14.1565
 1056.5000    49.7274   -39.5236    11.5802    90.4553    13.1234
 1057.0000    46.5998   -40.0176    10.8948    94.5514    12.5628
 1057.5000    53.7214   -40.0386    10.4977    98.6476    12.1410
 1058.0000    62.8392   -40.0679    10.2484   102.7437    11.7912
 1058.5000    63.6324   -40.0980    10.0737   106.8398    11.4653
 1059.0000    66.5135   -40.1284    10.0124   110.6115    11.3607
 1059.5000    59.1464   -40.1584     9.9826   110.8118    11.2647
 1060.0000    77.8605   -40.1746     9.9527   111.2247    11.1880
 1060.5000    70.8414   -40.1511     9.9228   111.6383    11.1250
 1061.0000    67.4253   -40.1289     9.8928   112.0492    11.0598
 1061.5000    57.3650   -40.1068     9.8628   112.4172    10.9942
 1062.0000    42.0937   -40.0846     9.8328   111.9347    10.9296
 1062.5000    45.7192   -40.0625     9.8028   111.2860    10.9627
 1063.0000    46.9190   -40.0407     9.7728   110.6115    11.0028
 1063.5000    60.5257   -40.0184     9.7428   110.6115    11.0426
 1064.0000    84.1504   -39.9749     9.7128   110.7668    11.0811
 1064.5000    76.5301   -39.8225     9.6828   111.1797    11.0702
 1065.0000    60.5801   -39.6741     9.6528   111.5922    10.9735
 1065.5000    47.7095   -39.3760     9.6229   112.0054    10.8781
 1066.0000    42.3834   -39.0437     9.5929   112.4183    10.7818
 1066.5000    50.9829   -38.8894     9.5629   112.8311    10.7318
 1067.0000    56.8050   -38.8350     9.5329   113.2439    10.7075
 1067.5000    54.4483   -38.7809     9.5029   113.6568    10.6836
 1068.0000    53.1407   -38.6733     9.4729   114.0696    10.6603
 1068.5000    59.0940   -38.3614     9.4429   114.2086    10.6347
 1069.0000    54.3541   -38.0585     9.4129   114.2086    10.6090
 1069.5000    53.1456   -37.7560     9.3974   114.2088    10.5847
 1070.0000    62.4699   -37.4502     9.3975   114.2086    10.6041
 1070.5000    62.9003   -37.1180     9.3975   114.2086    10.7629
 1071.0000    64.3591   -36.7786     9.3974   114.2086    10.8584
 1071.5000    57.5203   -36.6754     9.3910   114.2086    10.9054
 1072.0000    52.9215   -36.5928     9.3701   114.2086    10.9266
 1072.5000    58.7283   -36.9233     9.3495   114.2086    10.8989
 1073.0000    63.1374   -37.2882     9.3291   114.2086    10.8649
 1073.5000    66.1001   -37.6526     9.3066   114.2086    10.8196
 1074.0000    77.0399   -38.0182     9.2292   114.2086    10.1332
 1074.5000    71.6609   -38.3691     9.1479   114.2086     9.9517
 1075.0000    77.0049   -38.3175     9.0666   115.5921     9.8981
 1075.5000    68.2281   -38.2471     8.9855   116.9895     9.8486
 1076.0000    70.9387   -38.1784     8.9049   118.3868     9.7990
 1076.5000    64.5090   -38.1103     8.8575   119.7842     9.7500
 1077.0000    59.0634   -38.0422     8.8537   121.1815     9.7049
 1077.5000    67.4719   -37.9740     8.8323   122.5789     9.6757
 1078.0000    61.4590   -37.9054     8.8117   123.9762     9.6434
 1078.5000    53.9493   -37.8456     8.7908   124.7302     9.6137
 1079.0000    41.9914   -37.8932     8.7694   123.7205     9.6129
 1079.5000    52.0590   -37.9421     8.8021   122.7134     9.6247
 1080.0000    80.4455   -37.9881     8.8411   121.7021     9.6410
 1080.5000    70.9836   -37.9494     8.8801   120.6935     9.6687
 1081.0000    65.4222   -37.6978     8.9191   119.6043     9.7078
 1081.5000    70.4930   -37.4889     8.9580   119.3430     9.7471
 1082.0000    72.2880   -37.5896     8.9971   119.0591     9.8078
 1082.5000    84.7727   -37.6861     9.0349   118.7753     9.8769
 1083.0000    77.1602   -37.7831     9.0902   118.4915     9.9488
 1083.5000    73.1629   -37.9756     9.1596   118.2076    10.1749
 1084.0000    69.8953   -38.3480     9.2634   117.9238    10.6922
 1084.5000    56.0461   -38.7178     9.5507   116.2452    11.1911
 1085.0000    59.0672   -39.0865     9.8918   113.5739    11.4417
 1085.5000    66.7721   -39.4505    10.2326   110.9025    11.6846
 1086.0000    69.1524   -39.8560    10.5733   108.0132    12.1033
 1086.5000    66.0070   -41.1776    10.9139   104.3414    12.5586
 1087.0000    76.4769   -42.5226    11.2545   100.6697    13.0124
 1087.5000    61.5056   -43.8616    11.5938    96.9979    13.4574
 1088.0000    45.4504   -45.0385    11.9272    93.3262    13.9887
 1088.5000    59.1023   -45.5755    12.3183    89.6544    14.5238
 1089.0000    69.6196   -45.3614    12.7010    85.9833    15.0559
 1089.5000    63.7169   -45.2741    13.0833    82.3074    15.5775
 1090.0000    57.8100   -45.5358    13.4685    78.6392    16.0640
 1090.5000    65.2263   -45.6683    13.8827    74.6403    16.4305
 1091.0000    48.3701   -44.8421    13.8774    75.5595    16.4655
 1091.5000    50.2040   -44.0128    13.7069    76.5687    16.4956
 1092.0000    61.4342   -43.1856    13.5376    77.5779    16.4349
 1092.5000    58.0715   -42.3334    13.3695    78.5871    16.0501
 1093.0000    55.6577   -42.2170    13.2006    79.5963    15.5632
 1093.5000    47.4813   -42.2931    13.0301    80.9147    15.0735
 1094.0000    50.7206   -42.3751    12.7632    82.4717    14.7405
 1094.5000    55.5910   -42.4539    12.3722    84.0288    14.4075
 1095.0000    37.1005   -42.4755    12.1707    85.5858    14.2234
 1095.5000    32.2662   -42.2279    11.9774    87.1429    14.0718
 1096.0000    40.3404   -41.9849    11.8217    88.6999    13.9398
 1096.5000    52.6380   -41.7291    11.8251    90.2569    13.8351
 1097.0000    64.7198   -41.4043    11.8255    90.9679    13.7292
 1097.5000    72.7296   -41.0817    11.8256    91.1909    13.7336
 1098.0000    62.8624   -40.7566    11.8259    91.4120    13.7634
 1098.5000    69.2016   -40.7466    11.8280    91.6335    13.7950
 1099.0000    61.9176   -41.3814    11.7424    91.8553    13.7689
 1099.5000    77.2760   -42.0131    11.6465    92.0768    13.7219
 1100.0000    78.3276   -42.6330    11.5505    92.2981    13.5968
 1100.5000    59.7444   -42.4062    11.4527    92.5209    13.4328
 1101.0000    64.7766   -41.8283    11.3637    93.1161    13.2664
 1101.5000    44.9861   -41.2506    11.2722    94.0471    13.1008
 1102.0000    45.8707   -40.6733    11.1806    94.9781    12.9422
 1102.5000    50.4169   -40.0965    11.0890    95.9090    12.7994
 1103.0000    55.2980   -39.5188    10.9977    96.8400    12.6562
 1103.5000    51.0364   -38.9391    10.9059    97.7710    12.5178
 1104.0000    61.8514   -38.3966    10.8065    98.7020    12.3924
 1104.5000    53.8093   -38.4412    10.6694    99.6330    12.2674
 1105.0000    61.0878   -38.5075    10.5341   100.5640    12.1421
 1105.5000    59.7629   -38.5470    10.4008   101.4955    12.0184
 1106.0000    69.0906   -38.2376    10.4008   102.4307    12.0121
 1106.5000    78.5377   -37.9298    10.4174   103.4119    12.0367
