~VERSION INFORMATION
 VERS.                2.0:   CWLS LOG ASCII STANDARD - VERSION 2.0
 WRAP.                 NO:   ONE LINE PER DEPTH STEP
~WELL INFORMATION
#MNEM.UNIT      DATA TYPE    INFORMATION
#----------   ------------   ------------------------------
 STRT.F           80.5000:   START DEPTH
 STOP.F          768.0000:   STOP DEPTH
 STEP.F            0.5000:   STEP LENGTH
 NULL.          -999.2500:   NO VALUE
 COMP. U S NAVY/INTEX OIL CO:   COMPANY
 WELL. N.P.R. #3 #84-S-34:   WELL
 FLD .             TEAPOT:   FIELD
 LOC .      S34 T39N R78W:   LOCATION
 CNTY.            NATRONA:   COUNTY
 STAT.            WYOMING:   STATE
 CTRY. UNITED STATES OF AMERICA:   COUNTRY
 SRVC. Schlumberger Well Surveying Corp:   SERVICE COMPANY
 DATE.        17-FEB-1961:   LOGDATE
 API .       490250654000:   API NUMBER
~CURVE INFORMATION
#MNEM.UNIT       API CODE    CURVE DESCRIPTION
#----------   ------------   ------------------------------
 DEPT.F                  :   
 SPR .MV     05 010 01 00:   SPONTANEOUS POTENTIAL
 ASN .OHMM   05 041 16 00:   AMPLIFIED SHORT NORMAL 16"
 ILD .OHMM   05 120 46 00:   INDUCTION LOG DEEP
 CILD.MMHO   05 110 46 00:   CONDUCTIVITY INDUCTION LOG DEEP
 GR  .GAPI   30 310 01 00:   GAMMA RAY
~PARAMETER INFORMATION
#MNEM.UNIT          VALUE    DESCRIPTION
#----------   ------------   ------------------------------
 PD  .                 GL:   PERMANENT DATUM
 EPD .F              5083:   ELEVATION PERMANENT DATUM
 LMF .                 KB:   LOG MEASURED FROM
 DAPD.F                 4:   FEET ABOVE PERMANENT DATUM
 DMF .                 KB:   DRILLING MEASURED FROM
 EKB .F              5087:   KELLING BUSHING
 EGL .F              5083:   GROUND LEVEL
 DATE.            2-17-61:   RUN DATE
 RUN .                  1:   RUN NUMBER
 DD  .F               770:   DEPTH DRILLER
 DL  .F               769:   DEPTH LOGGER
 BLI .F               768:   BOTTOM LOG INTERVAL
 TLI .F                80:   TOP LOG INTERVAL
 CBD .F                12:   CASING BOTTOM DRILLER
 BS  .IN            7.875:   BIT SIZE
 BSD .F               770:   BIT SIZE AT DEPTH
 DFT .       GEL/OIL EMUL:   DRILLING FLUID TYPE
 DFD .                9.5:   DRILLING FLUID DENSITY
 DFV .                 50:   DRILLING FLUID VISCOSITY
 DFPH.                  8:   DRILLING FLUID PH
 DFL .                1.8:   DRILLING FLUID LOSS
 MSS .           FLOWLINE:   MUD SAMPLE SOURCE
 RMS .OHMM             .9:   RESISTIVITY MUD SAMPLE
 MST .F                69:   MUD SAMPLE TEMPERATURE
 RMF .OHMM            .54:   RESISTIVITY MUD FILTRATE SAMPLE
 MFST.F                69:   MUD FILTRATE SAMPLE TEMPERATURE
 RMC .OHMM           1.64:   RESISTIVITY MUD CAKE
 MCST.F                69:   MUD CAKE SAMPLE TEMPERATURE
 MFSS.                  M:   MUD FILTRATE SAMPLE SOURCE
 MCSS.                  M:   MUD CAKE SAMPLE SOURCE
 RMB .OHMM             .8:   RESISTIVITY MUD AT BHT
 BHT .F                78:   BOTTOM HOLE TEMPERATURE
 TCS .HRS               1:   TIME CURCULATED STOPPED
 MRT .F                78:   MAXIMUM RECORDED TEMPERATURE
 LUN .               2523:   LOGGING UNIT NUMBER
 LUL .               CSPR:   LOGGING UNIT LOCATION
 ENGI.             KNOBEL:   RECORDING ENGINEER
 WITN.          JORGENSEN:   WITNESSED BY
 CLNT.            A2DTECH:   CLIENT CODE
 ORIG.       2", 5" PRINT:   ORIGIN OF DATA
 UWI .       490250654000:   UNIQUE WELL ID
 DICO. A2D Technologies, Inc.:   DIGITIZING COMPANY
~OTHER INFORMATION
~A   DEPT      SPR        ASN        ILD       CILD         GR   
# ...
  385.5000   -22.3787     9.2084     6.7335   147.7390  -999.2500
  386.0000   -22.3516     9.0525     6.7323   147.7265  -999.2500
  386.5000   -22.3245     9.1119     6.7607   145.8150  -999.2500
  387.0000   -22.2973     9.2328     6.9248   143.0132  -999.2500
  387.5000   -22.2702     9.6604     7.0880   140.2227  -999.2500
  388.0000   -22.2431    10.0323     7.2507   137.4321  -999.2500
  388.5000   -22.2160    10.0768     7.4135   134.6416  -999.2500
  389.0000   -22.1888    10.1324     7.5763   131.8511  -999.2500
  389.5000   -22.1617    10.2180     7.7393   129.0605  -999.2500
  390.0000   -22.1346    10.4275     7.9027   126.2700  -999.2500
  390.5000   -22.1075    10.6371     8.0640   123.4569  -999.2500
  391.0000   -22.0791    10.8547     8.1813   122.2591  -999.2500
  391.5000   -22.0807    10.8328     8.0864   121.7410  -999.2500
  392.0000   -22.0943    10.7305     7.9963   122.7363  -999.2500
  392.5000   -22.1084    10.6253     7.9068   124.3530  -999.2500
  393.0000   -22.1224    10.5202     7.8168   125.9662  -999.2500
  393.5000   -22.1365    10.4158     7.7266   127.5793  -999.2500
  394.0000   -22.1505    10.3110     7.6383   129.1961  -999.2500
  394.5000   -22.1645    10.1985     7.5952   130.7973  -999.2500
  395.0000   -22.1785    10.3735     7.7434   132.0459  -999.2500
  395.5000   -22.1925    10.6402     7.8877   129.7677  -999.2500
  396.0000   -22.2066    10.9099     8.0314   126.6284  -999.2500
  396.5000   -22.2206    11.1795     8.1753   123.4890  -999.2500
  397.0000   -22.2346    11.4482     8.3195   120.3497  -999.2500
  397.5000   -22.2486    11.7177     8.4639   117.2103  -999.2500
  398.0000   -22.2627    12.0096     8.6061   116.0543  -999.2500
  398.5000   -22.2796    11.8767     8.6929   114.6590  -999.2500
  399.0000   -22.1870    11.6400     8.5678   113.2637  -999.2500
  399.5000   -22.0616    11.3991     8.4478   113.0443  -999.2500
  400.0000   -21.9352    11.1585     8.3278   116.4117  -999.2500
  400.5000   -21.8084    10.9186     8.2327   119.7791  -999.2500
  401.0000   -21.6810    10.6781     8.1446   123.1465  -999.2500
  401.5000   -21.6933    10.4324     8.0568   126.5139  -999.2500
  402.0000   -21.8649    10.4577     7.9689   128.6392  -999.2500
  402.5000   -22.0334    10.5463     7.8809   127.6808  -999.2500
  403.0000   -22.2016    10.6373     7.7929   126.7223  -999.2500
  403.5000   -22.3699    10.7281     7.7589   125.7639  -999.2500
  404.0000   -22.5381    10.8184     7.7370   124.8055  -999.2500
  404.5000   -22.7065    10.9094     7.7152   123.8470  -999.2500
  405.0000   -22.8766    10.9997     7.6935   124.9374  -999.2500
  405.5000   -22.9104    10.9148     7.6717   126.4134  -999.2500
  406.0000   -22.8299    10.8000     7.6498   127.8884  -999.2500
  406.5000   -22.7332    10.6844     7.6280   129.3663  -999.2500
  407.0000   -22.6357    10.5698     7.6062   130.8429  -999.2500
  407.5000   -22.5386    10.4566     7.5844   130.7763  -999.2500
  408.0000   -22.4416    10.4292     7.5626   130.2011  -999.2500
  408.5000   -22.3445    10.5346     7.5408   129.6249  -999.2500
  409.0000   -22.2475    10.6381     7.5189   129.0498  -999.2500
  409.5000   -22.1505    10.6467     7.4972   128.4770  -999.2500
  410.0000   -22.0534    10.5258     7.4755   127.8706  -999.2500
  410.5000   -21.9564    10.4048     7.4576   128.5779  -999.2500
  411.0000   -21.8592    10.2868     7.4443   129.3221  -999.2500
  411.5000   -21.7619    10.3321     7.4311   130.0663  -999.2500
  412.0000   -21.6657    10.3844     7.4179   130.8105  -999.2500
  412.5000   -21.6866    10.3675     7.4047   131.5546  -999.2500
  413.0000   -21.7809    10.3289     7.3915   132.2990  -999.2500
  413.5000   -21.8744    10.2906     7.3785   133.0450  -999.2500
  414.0000   -21.9679    10.2521     7.3653   133.7923  -999.2500
  414.5000   -22.0614    10.2132     7.3734   134.8131  -999.2500
  415.0000   -22.1549    10.1801     7.3995   136.0702  -999.2500
  415.5000   -22.2484    10.2387     7.4261   137.2550  -999.2500
  416.0000   -22.3416    10.2984     7.4527   135.4568  -999.2500
  416.5000   -22.4344    10.3575     7.5128   133.7499  -999.2500
  417.0000   -22.4883    10.4165     7.5964   132.0430  -999.2500
  417.5000   -22.4170    10.4756     7.6805   130.3360  -999.2500
  418.0000   -22.3384    10.5346     7.7649   128.6291  -999.2500
  418.5000   -22.2594    10.5936     7.8493   126.9222  -999.2500
  419.0000   -22.1804    10.6527     7.9336   125.2152  -999.2500
  419.5000   -22.1016    10.7118     8.0180   123.5083  -999.2500
  420.0000   -22.0226    10.7707     8.1022   121.8014  -999.2500
  420.5000   -21.9433    10.8297     8.1865   120.0944  -999.2500
  421.0000   -21.8647    10.8920     8.2748   119.5198  -999.2500
  421.5000   -21.8838    10.8581     8.2623   119.5198  -999.2500
  422.0000   -21.9328    10.7857     8.2107   120.4365  -999.2500
  422.5000   -21.9814    10.7122     8.1578   121.7783  -999.2500
  423.0000   -22.0299    10.6388     8.1059   123.1201  -999.2500
  423.5000   -22.0784    10.5654     7.9918   124.4620  -999.2500
  424.0000   -21.6527    10.6061     8.2027   126.9593  -999.2500
  424.5000   -21.6690    10.6061     8.1033   126.9593  -999.2500
  425.0000   -21.7844    10.6061     7.9235   128.2565  -999.2500
  425.5000   -21.8997    10.5495     7.7437   130.5875  -999.2500
  426.0000   -21.9856    10.3665     7.6089   132.3357  -999.2500
  426.5000   -22.0655    10.2724     7.4288   134.6667  -999.2500
  427.0000   -22.0289    10.1568     7.2489   136.9977  -999.2500
  427.5000   -21.9953     9.9165     7.0701   139.4984  -999.2500
  428.0000   -21.9619     9.7479     6.9515   141.9299  -999.2500
  428.5000   -21.9285     9.5906     6.9721   144.5523  -999.2500
  429.0000   -21.8956     9.4991     6.9895   147.1747  -999.2500
  429.5000   -21.8593     9.4086     7.0069   148.7976  -999.2500
  430.0000   -21.7410     9.3450     7.0244   148.4891  -999.2500
  430.5000   -21.6206     9.4413     7.0422   148.1806  -999.2500
  431.0000   -21.5008     9.5341     7.0803   147.8579  -999.2500
  431.5000   -21.3808     9.7164     7.1597   145.9053  -999.2500
  432.0000   -21.2581     9.8596     7.2383   143.8591  -999.2500
  432.5000   -21.2705     9.9892     7.3170   141.8124  -999.2500
  433.0000   -21.3157    10.0947     7.3957   139.7651  -999.2500
  433.5000   -21.3622    10.1869     7.4744   137.7181  -999.2500
  434.0000   -21.4085    10.2584     7.5531   135.6716  -999.2500
  434.5000   -21.4546    10.3302     7.6318   133.6249  -999.2500
  435.0000   -21.5007    10.4021     7.7137   131.5781  -999.2500
  435.5000   -21.5469    10.4741     7.8012   130.1091  -999.2500
  436.0000   -21.5930    10.5461     7.8886   128.9630  -999.2500
  436.5000   -21.6391    10.6181     7.9759   128.5134  -999.2500
  437.0000   -21.6853    10.6901     8.0641   128.0639  -999.2500
  437.5000   -21.7314    10.7620     8.0800   127.6143  -999.2500
  438.0000   -21.7775    10.8343     8.0509   127.1648  -999.2500
  438.5000   -21.8237    10.9084     8.0215   126.7152  -999.2500
  439.0000   -21.8698    10.8728     7.9918   126.2657  -999.2500
  439.5000   -21.9160    10.8163     7.9623   126.1937  -999.2500
  440.0000   -21.9621    10.7587     7.9327   127.4729  -999.2500
  440.5000   -22.0081    10.7014     7.9032   128.7521  -999.2500
  441.0000   -22.0564    10.6442     7.8736   130.0313  -999.2500
  441.5000   -21.9661    10.5870     7.8441   131.3105  -999.2500
  442.0000   -21.8033    10.5298     7.8145   132.5897  -999.2500
  442.5000   -21.6390    10.4725     7.7849   133.8689  -999.2500
  443.0000   -21.4721    10.4153     7.7553   135.1481  -999.2500
  443.5000   -21.4831    10.3576     7.7260   136.3636  -999.2500
  444.0000   -21.5308    10.3006     7.6970   135.2484  -999.2500
  444.5000   -21.5799    10.3704     7.7323   133.9372  -999.2500
  445.0000   -21.6287    10.4613     7.8464   132.6260  -999.2500
  445.5000   -21.6774    10.5525     7.9601   131.3148  -999.2500
  446.0000   -21.7260    10.6447     8.0739   129.0786  -999.2500
