~VERSION INFORMATION
 VERS.                2.0:   CWLS LOG ASCII STANDARD - VERSION 2.0
 WRAP.                 NO:   ONE LINE PER DEPTH STEP
~WELL INFORMATION
#MNEM.UNIT      DATA TYPE    INFORMATION
#----------   ------------   ------------------------------
 STRT.F          660.0000:   START DEPTH
 STOP.F         2899.5000:   STOP DEPTH
 STEP.F            0.5000:   STEP LENGTH
 NULL.          -999.2500:   NO VALUE
 COMP. LAWRENCE/ALLISON INC:   COMPANY
 WELL. NPR #3 22 X 10 #22-10:   WELL
 FLD .             TEAPOT:   FIELD
 LOC .      S10 T38N R78W:   LOCATION
 CNTY.            NATRONA:   COUNTY
 STAT.            WYOMING:   STATE
 CTRY. UNITED STATES OF AMERICA:   COUNTRY
 SRVC.            Unknown:   SERVICE COMPANY
 DATE.        11-SEP-1986:   LOGDATE
 API .       490251106200:   API NUMBER
~CURVE INFORMATION
#MNEM.UNIT       API CODE    CURVE DESCRIPTION
#----------   ------------   ------------------------------
 DEPT.F                  :   
 ROP .MIN/FT 91 810 01 00:   RATE OF DRILLING PENETRATION
 TGAS.UNITS  91 830 01 00:   TOTAL GAS FROM HOTWIRE
~PARAMETER INFORMATION
#MNEM.UNIT          VALUE    DESCRIPTION
#----------   ------------   ------------------------------
 DATE.          9-11-1986:   RUN DATE
 DD  .F              2900:   DEPTH DRILLER
 TLI .F              1380:   TOP LOG INTERVAL
 WITN. R. HUSK/K. FREDERICK:   WITNESSED BY
 CLNT.            A2DTECH:   CLIENT CODE
 ORIG.           5" PRINT:   ORIGIN OF DATA
 UWI .       490251106200:   UNIQUE WELL ID
 DICO. A2D Technologies, Inc.:   DIGITIZING COMPANY
~OTHER INFORMATION
~A   DEPT      ROP         TGAS 
# ...
 2482.5000     1.2634   200.3926
 2483.0000     1.2601   200.2953
 2483.5000     1.2569   200.1936
 2484.0000     1.2522   200.0911
 2484.5000     1.1669   199.9886
 2485.0000     1.0928   199.4588
 2485.5000     1.0376   197.7335
 2486.0000     1.0504   197.6310
 2486.5000     1.1138   197.5285
 2487.0000     1.1718   197.4260
 2487.5000     1.2343   196.3412
 2488.0000     1.2741   195.1708
 2488.5000     1.2772   195.0683
 2489.0000     1.2718   193.6501
 2489.5000     1.2726   191.3867
 2490.0000     1.2734   189.1225
 2490.5000     1.2803   188.4889
 2491.0000     1.2788   188.3917
 2491.5000     1.2757   186.2443
 2492.0000     1.2765   188.1972
 2492.5000     1.2773   188.0980
 2493.0000     1.2782   187.9954
 2493.5000     1.2790   187.6281
 2494.0000     1.2797   185.7403
 2494.5000     1.2493   185.6378
 2495.0000     1.1773   185.5353
 2495.5000     1.0833   184.7237
 2496.0000     1.0332   183.2802
 2496.5000     1.0918   183.1777
 2497.0000     1.1500   183.0752
 2497.5000     1.2349   182.9727
 2498.0000     1.3676   181.6055
 2498.5000     1.5212   179.3416
 2499.0000     1.6231   178.5649
 2499.5000     1.7324   178.4624
 2500.0000     1.8191   176.2936
 2500.5000     1.7427   176.1964
 2501.0000     1.6129   176.0991
 2501.5000     1.4702   176.0019
 2502.0000     1.3410  -999.2500
 2502.5000     1.3656  -999.2500
 2503.0000     1.4325  -999.2500
 2503.5000     1.5044  -999.2500
 2504.0000     1.5489  -999.2500
 2504.5000     1.5489  -999.2500
 2505.0000     1.5489  -999.2500
 2505.5000     1.5489  -999.2500
 2506.0000     1.5489  -999.2500
 2506.5000     1.5440  -999.2500
 2507.0000     1.5385  -999.2500
 2507.5000     1.5385  -999.2500
 2508.0000     1.5499  -999.2500
 2508.5000     1.6074  -999.2500
 2509.0000     1.6867  -999.2500
 2509.5000     1.7616  -999.2500
 2510.0000     1.8018  -999.2500
 2510.5000     1.8087  -999.2500
 2511.0000     1.8087  -999.2500
 2511.5000     1.8087  -999.2500
 2512.0000     1.8413  -999.2500
 2512.5000     2.0660  -999.2500
 2513.0000     2.3620  -999.2500
 2513.5000     2.6624  -999.2500
 2514.0000     2.9376  -999.2500
 2514.5000     3.0561  -999.2500
 2515.0000     3.0609  -999.2500
 2515.5000     3.0716  -999.2500
 2516.0000     3.0769  -999.2500
 2516.5000     3.0769  -999.2500
 2517.0000     3.0769  -999.2500
 2517.5000     3.0706  -999.2500
 2518.0000     3.0336  -999.2500
 2518.5000     2.9526  -999.2500
 2519.0000     2.8132  -999.2500
 2519.5000     2.6377  -999.2500
 2520.0000     2.5053  -999.2500
 2520.5000     2.5060  -999.2500
 2521.0000     2.4964  -999.2500
 2521.5000     2.4972  -999.2500
 2522.0000     2.4875  -999.2500
 2522.5000     2.5626  -999.2500
 2523.0000     2.6377  -999.2500
 2523.5000     2.7095  -999.2500
 2524.0000     2.7297  -999.2500
 2524.5000     2.6731  -999.2500
 2525.0000     2.6234  -999.2500
 2525.5000     2.5909  -999.2500
 2526.0000     2.5544  -999.2500
 2526.5000     2.5446  -999.2500
 2527.0000     2.5369  -999.2500
 2527.5000     2.5353  -999.2500
 2528.0000     2.5281  -999.2500
 2528.5000     2.5288  -999.2500
 2529.0000     2.5296  -999.2500
 2529.5000     2.5272  -999.2500
 2530.0000     2.5208  -999.2500
 2530.5000     2.5216  -999.2500
 2531.0000     2.5223  -999.2500
 2531.5000     2.5231  -999.2500
 2532.0000     2.5239  -999.2500
 2532.5000     2.5292  -999.2500
 2533.0000     2.5359  -999.2500
 2533.5000     2.5366  -999.2500
 2534.0000     2.5374  -999.2500
 2534.5000     2.5382  -999.2500
 2535.0000     2.5446  -999.2500
 2535.5000     2.5560  -999.2500
 2536.0000     2.5613  -999.2500
 2536.5000     2.5872  -999.2500
 2537.0000     2.6434  -999.2500
 2537.5000     2.7079  -999.2500
 2538.0000     2.7654  -999.2500
 2538.5000     2.8193  -999.2500
 2539.0000     2.8878  -999.2500
 2539.5000     2.9477  -999.2500
 2540.0000     3.0171  -999.2500
 2540.5000     3.0042  -999.2500
 2541.0000     3.0146  -999.2500
 2541.5000     3.0160  -999.2500
 2542.0000     3.0249  -999.2500
 2542.5000     2.9604  -999.2500
 2543.0000     2.8082  -999.2500
 2543.5000     2.6627  -999.2500
 2544.0000     2.5284  -999.2500
 2544.5000     2.3828  -999.2500
 2545.0000     2.2354  -999.2500
 2545.5000     2.0993  -999.2500
 2546.0000     2.0146  -999.2500
 2546.5000     1.9958  -999.2500
 2547.0000     1.9958  -999.2500
 2547.5000     1.9958  -999.2500
 2548.0000     1.9958  -999.2500
 2548.5000     1.9716  -999.2500
 2549.0000     1.8919  -999.2500
 2549.5000     1.8191  -999.2500
 2550.0000     1.7568  -999.2500
 2550.5000     1.8295  -999.2500
 2551.0000     1.9134  -999.2500
 2551.5000     1.9992  -999.2500
 2552.0000     2.0645  -999.2500
 2552.5000     2.1312  -999.2500
 2553.0000     2.2073  -999.2500
 2553.5000     2.2735  -999.2500
 2554.0000     2.2973  -999.2500
 2554.5000     2.3007  -999.2500
 2555.0000     2.3116  -999.2500
 2555.5000     2.3181  -999.2500
 2556.0000     2.3084  -999.2500
 2556.5000     2.2547  -999.2500
 2557.0000     2.1677  -999.2500
 2557.5000     2.0745  -999.2500
 2558.0000     2.0712  -999.2500
 2558.5000     2.2123  -999.2500
 2559.0000     2.4280  -999.2500
 2559.5000     2.6645  -999.2500
 2560.0000     2.9418  -999.2500
 2560.5000     3.0873  -999.2500
 2561.0000     3.3264  -999.2500
 2561.5000     3.4615  -999.2500
 2562.0000     3.5967  -999.2500
 2562.5000     3.3485  -999.2500
 2563.0000     3.2252  -999.2500
 2563.5000     3.1210  -999.2500
 2564.0000     3.0771  -999.2500
 2564.5000     3.1769  -999.2500
 2565.0000     3.3186  -999.2500
 2565.5000     3.4384  -999.2500
 2566.0000     3.5316  -999.2500
 2566.5000     3.5725  -999.2500
 2567.0000     3.5722  -999.2500
 2567.5000     3.5720  -999.2500
 2568.0000     3.5717  -999.2500
 2568.5000     3.5715  -999.2500
 2569.0000     3.5712  -999.2500
 2569.5000     3.5709  -999.2500
 2570.0000     3.5984  -999.2500
 2570.5000     3.6409   132.3104
 2571.0000     3.6835   132.2027
 2571.5000     3.7260   132.1013
 2572.0000     3.7685   132.0000
 2572.5000     3.8292   131.8966
 2573.0000     3.8705   131.7973
 2573.5000     3.9327   135.8340
 2574.0000     3.9844   135.7241
 2574.5000     3.9945   135.6207
 2575.0000     3.9943   135.2584
 2575.5000     3.9940   133.0426
 2576.0000     3.9938   131.1724
 2576.5000     3.9935   131.0690
 2577.0000     3.9940   130.9655
 2577.5000     4.0034   130.8620
 2578.0000     4.0031   130.2411
 2578.5000     4.0029   128.5862
 2579.0000     4.0026   128.4828
 2579.5000     4.0023   128.3793
 2580.0000     4.0026   127.5862
 2580.5000     4.0044   125.3712
 2581.0000     4.0062   123.9310
 2581.5000     4.0080   123.8276
 2582.0000     4.0098   122.8629
 2582.5000     4.0115   121.5517
 2583.0000     4.0133   121.4483
 2583.5000     4.0151   121.3448
 2584.0000     4.0169   121.2414
 2584.5000     4.0187   121.1379
 2585.0000     4.0205   121.0345
 2585.5000     4.0223   119.7672
 2586.0000     4.0442   118.7586
 2586.5000     4.3147   117.4051
 2587.0000     4.5274   116.4827
 2587.5000     4.7499   116.3793
 2588.0000     4.9773   116.2759
 2588.5000     4.9654   116.1724
 2589.0000     4.9162   114.6033
 2589.5000     4.8779   113.8966
 2590.0000     4.7812   113.7931
 2590.5000     4.5942   113.6897
 2591.0000     4.4367   113.5862
 2591.5000     4.2574   113.4637
 2592.0000     4.1102   113.3624
 2592.5000     4.1234   111.1921
 2593.0000     4.2378   111.0908
 2593.5000     4.3325   110.9895
 2594.0000     4.4437   108.8192
 2594.5000     4.4269   106.6488
 2595.0000     4.3166   106.5475
 2595.5000     4.2304   106.4462
 2596.0000     4.1185   108.4138
 2596.5000     3.8626   108.3103
 2597.0000     3.4402   108.2069
 2597.5000     3.1219   108.1035
 2598.0000     2.8756   108.0000
 2598.5000     2.7699   107.8965
 2599.0000     2.6996   107.5343
 2599.5000     2.6306   105.6207
 2600.0000     2.5882   107.5779
 2600.5000     2.5355    99.9073
 2601.0000     2.4516    87.0528
 2601.5000     2.3365    75.5302
 2602.0000     2.2941    70.2240
 2602.5000     2.2934    68.7931
 2603.0000     2.2926    68.8965
 2603.5000     2.2815    69.0000
