~VERSION INFORMATION
 VERS.                2.0:   CWLS LOG ASCII STANDARD - VERSION 2.0
 WRAP.                 NO:   ONE LINE PER DEPTH STEP
~WELL INFORMATION
#MNEM.UNIT      DATA TYPE    INFORMATION
#----------   ------------   ------------------------------
 STRT.F            0.0000:   START DEPTH
 STOP.F          752.0000:   STOP DEPTH
 STEP.F            0.1000:   STEP LENGTH
 NULL.          -999.2500:   NO VALUE
 COMP. BROWN JOHN E&C INC:   COMPANY
 WELL. N P R 3 STX-34 #53-1-34:   WELL
 FLD .             TEAPOT:   FIELD
 LOC .      S34 T39N R78W:   LOCATION
 CNTY.            NATRONA:   COUNTY
 STAT.            WYOMING:   STATE
 CTRY. UNITED STATES OF AMERICA:   COUNTRY
 SRVC.     Atlas Wireline:   SERVICE COMPANY
 DATE.        29-OCT-1991:   LOGDATE
 API .       490252248700:   API NUMBER
~CURVE INFORMATION
#MNEM.UNIT       API CODE    CURVE DESCRIPTION
#----------   ------------   ------------------------------
 DEPT.F                  :   
 GRR .GAPI   07 310 01 00:   GAMMA RAY
 RILD.OHMM   07 120 46 00:   INDUCTION LOG DEEP RESISTIVITY
 RILM.OHMM   07 120 44 00:   RESITIVITY LONG MEDIUM
~PARAMETER INFORMATION
#MNEM.UNIT          VALUE    DESCRIPTION
#----------   ------------   ------------------------------
 PD  .                 GL:   PERMANENT DATUM
 EPD .F              5067:   ELEVATION PERMANENT DATUM
 LMF .                 KB:   LOG MEASURED FROM
 DAPD.F                10:   FEET ABOVE PERMANENT DATUM
 DMF .                 KB:   DRILLING MEASURED FROM
 EKB .F              5077:   KELLING BUSHING
 EGL .F              5067:   GROUND LEVEL
 DATE.        29-OCT-1991:   RUN DATE
 RUN .                  1:   RUN NUMBER
 DD  .F               760:   DEPTH DRILLER
 DL  .F               760:   DEPTH LOGGER
 BLI .F               758:   BOTTOM LOG INTERVAL
 TLI .F                 0:   TOP LOG INTERVAL
 CS  .IN            9.625:   CASING SIZE
 CBD .F                52:   CASING BOTTOM DRILLER
 CBL .F                52:   CASING BOTTOM LOGGER
 BS  .IN             8.75:   BIT SIZE
 BSD .F               760:   BIT SIZE AT DEPTH
 DFT .        AIR DRILLED:   DRILLING FLUID TYPE
 MRT .F               154:   MAXIMUM RECORDED TEMPERATURE
 LUN .            HL 6307:   LOGGING UNIT NUMBER
 LUL .             CASPER:   LOGGING UNIT LOCATION
 ENGI.          RASMUSSEN:   RECORDING ENGINEER
 WITN.        GARY STRONG:   WITNESSED BY
 CLNT.            A2DTECH:   CLIENT CODE
 ORIG.           5" PRINT:   ORIGIN OF DATA
 UWI .       490252248700:   UNIQUE WELL ID
 DICO. A2D Technologies, Inc.:   DIGITIZING COMPANY
~OTHER INFORMATION
~A    DEPT      GRR      RILD       RILM   
# ...
  182.0000   134.4830     6.7970     6.9166
  182.1000   133.3308     6.8315     6.9162
  182.2000   132.4769     6.8310     6.9158
  182.3000   132.2239     6.8307     6.9154
  182.4000   132.4724     6.8583     6.9151
  182.5000   132.7231     6.8777     6.9147
  182.6000   132.9739     6.8773     6.9157
  182.7000   133.3176     6.8769     6.9623
  182.8000   133.9013     6.8765     6.9620
  182.9000   134.9471     6.8761     6.9616
  183.0000   136.6275     6.8758     6.9781
  183.1000   138.0061     6.8754     7.0096
  183.2000   139.3960     6.8750     7.0092
  183.3000   141.0694     6.8746     7.0087
  183.4000   142.9447     6.8742     7.0084
  183.5000   144.0242     6.8738     7.0322
  183.6000   144.4873     6.8735     7.0567
  183.7000   144.6293     6.8912     7.0563
  183.8000   144.3736     6.9208     7.0559
  183.9000   143.9481     6.9222     7.0555
  184.0000   143.6490     6.9684     7.0237
  184.1000   142.8139     6.9680     7.0057
  184.2000   142.3677     6.9676     7.0053
  184.3000   141.6950     6.9673     7.0049
  184.4000   141.0622     6.9669     7.0045
  184.5000   140.4932     6.9665     7.0041
  184.6000   139.7568     6.9660     7.0037
  184.7000   139.1831     6.9657     6.9816
  184.8000   138.7538     6.9653     6.9542
  184.9000   138.2523     6.9649     6.9538
  185.0000   137.8618     6.9645     6.9534
  185.1000   137.6111     6.9641     6.9530
  185.2000   137.3676     6.9638     6.9815
  185.3000   137.3676     6.9634     7.0010
  185.4000   137.1615     6.9630     7.0006
  185.5000   136.7565     6.9626     7.0002
  185.6000   136.1526     6.9622     6.9997
  185.7000   135.3497     6.9618     6.9994
  185.8000   134.3419     6.9614     6.9990
  185.9000   133.8428     6.9610     6.9986
  186.0000   133.7368     6.9607     6.9982
  186.1000   133.8826     6.9603     6.9978
  186.2000   134.2273     6.9599     6.9974
  186.3000   134.6866     6.9595     7.0321
  186.4000   134.9471     6.9591     7.0457
  186.5000   135.4292     6.9587     7.0453
  186.6000   135.9306     6.9583     7.0549
  186.7000   136.2947     6.9579     7.0939
  186.8000   136.5454     6.9575     7.0934
  186.9000   136.7962     6.9571     7.0931
  187.0000   137.0650     6.9568     7.0927
  187.1000   137.2976     6.9564     7.0923
  187.2000   137.1869     6.9560     7.0919
  187.3000   136.9362     6.9556     7.0915
  187.4000   136.6854     6.9552     7.0910
  187.5000   136.4599     6.9548     7.1238
  187.6000   136.4599     6.9544     7.1400
  187.7000   136.2358     6.9821     7.1396
  187.8000   135.8128     7.0023     7.1469
  187.9000   135.4318     7.0135     7.1888
  188.0000   135.1810     7.0506     7.1884
  188.1000   134.8968     7.0501     7.1880
  188.2000   134.0393     7.0497     7.1876
  188.3000   133.8237     7.0493     7.2024
  188.4000   133.4092     7.0490     7.2438
  188.5000   133.0197     7.0486     7.2874
  188.6000   132.7089     7.0482     7.2871
  188.7000   132.2074     7.0477     7.2867
  188.8000   131.6188     7.0474     7.2862
  188.9000   131.4116     7.0470     7.3000
  189.0000   131.0055     7.0466     7.3365
  189.1000   130.5041     7.0462     7.3360
  189.2000   130.0027     7.0458     7.3750
  189.3000   129.5008     7.0453     7.3867
  189.4000   129.2502     7.0450     7.3862
  189.5000   128.9995     7.0446     7.3858
  189.6000   128.7488     7.0442     7.3854
  189.7000   128.4980     7.0438     7.3850
  189.8000   128.2905     7.0435     7.4229
  189.9000   128.2905     7.0430     7.4359
  190.0000   128.2905     7.0427     7.4355
  190.1000   128.2905     7.0423     7.4232
  190.2000   128.5672     7.0419     7.3829
  190.3000   129.0687     7.0415     7.3825
  190.4000   129.6048     7.0411     7.3821
  190.5000   130.4085     7.0407     7.3817
  190.6000   131.1093     7.0403     7.3813
  190.7000   132.0432     7.0399     7.3703
  190.8000   133.1760     7.0395     7.3273
  190.9000   134.2735     7.0391     7.2776
  191.0000   135.0781     7.0387     7.2773
  191.1000   136.4599     7.0383     7.2769
  191.2000   138.4859     7.0226     7.2587
  191.3000   140.3959     7.0019     7.2163
  191.4000   142.1510     6.9744     7.1748
  191.5000   143.4191     6.9393     7.1743
  191.6000   143.3657     6.9389     7.1406
  191.7000   142.5114     6.9386     7.0989
  191.8000   141.8614     6.9382     7.0737
  191.9000   141.4388     6.9378     7.0733
  192.0000   141.1881     6.9245     7.0729
  192.1000   140.9985     6.8888     7.0725
  192.2000   140.9985     6.8884     7.0403
  192.3000   140.9985     6.8518     6.9993
  192.4000   140.9985     6.8398     6.9732
  192.5000   140.9985     6.8394     6.9664
  192.6000   140.9985     6.8273     6.9239
  192.7000   140.9985     6.7875     6.8854
  192.8000   140.9985     6.7435     6.8453
  192.9000   140.9985     6.7432     6.8054
  193.0000   140.7988     6.7163     6.7789
  193.1000   140.5481     6.6772     6.7734
  193.2000   140.3933     6.6487     6.7309
  193.3000   140.3492     6.6483     6.6946
  193.4000   140.0908     6.6479     6.6834
  193.5000   139.6046     6.6145     6.6830
  193.6000   138.5295     6.6010     6.6707
  193.7000   137.4152     6.6007     6.6318
  193.8000   136.5874     6.5908     6.5892
  193.9000   136.1573     6.5541     6.5889
  194.0000   136.1573     6.5537     6.5885
  194.1000   136.3919     6.5534     6.5513
  194.2000   136.4599     6.5530     6.4964
  194.3000   136.4599     6.5364     6.4933
  194.4000   136.4599     6.4983     6.4504
  194.5000   136.4327     6.4612     6.4178
  194.6000   136.1573     6.4607     6.4049
  194.7000   135.9312     6.4604     6.4045
  194.8000   135.6805     6.4601     6.3949
  194.9000   135.4298     6.4446     6.3592
  195.0000   135.1790     6.4145     6.3588
  195.1000   134.9096     6.4141     6.3585
  195.2000   134.3419     6.4138     6.3349
  195.3000   133.9066     6.4134     6.3136
  195.4000   133.4051     6.3914     6.3132
  195.5000   132.6757     6.3681     6.3129
  195.6000   131.6727     6.3743     6.3124
  195.7000   130.7007     6.4120     6.3419
  195.8000   130.4085     6.4116     6.3560
  195.9000   130.4085     6.4113     6.3557
  196.0000   130.5658     6.4109     6.3553
  196.1000   131.0275     6.4105     6.3550
  196.2000   131.8870     6.4102     6.3546
  196.3000   133.1426     6.4098     6.3543
  196.4000   134.9471     6.4095     6.3539
  196.5000   135.5492     6.4091     6.3535
  196.6000   136.0036     6.3889     6.3472
  196.7000   136.1573     6.3639     6.3086
  196.8000   136.0670     6.3635     6.3083
  196.9000   135.5522     6.3631     6.3079
  197.0000   135.3081     6.3628     6.3076
  197.1000   135.2496     6.3625     6.3072
  197.2000   135.1092     6.3432     6.3020
  197.3000   134.9471     6.3175     6.2626
  197.4000   134.9471     6.3134     6.2287
  197.5000   134.9471     6.2729     6.2184
  197.6000   135.1826     6.2726     6.2180
  197.7000   135.2496     6.2723     6.2177
  197.8000   135.3815     6.2542     6.2135
  197.9000   135.7124     6.2280     6.1737
  198.0000   136.1573     6.2247     6.1734
  198.1000   136.1573     6.1840     6.1730
  198.2000   136.6116     6.1837     6.1553
  198.3000   137.6390     6.1833     6.1294
  198.4000   138.6458     6.1830     6.1290
  198.5000   139.6128     6.1826     6.1287
  198.6000   141.0775     6.1823     6.1284
  198.7000   142.2088     6.1819     6.1280
  198.8000   142.6461     6.1513     6.1277
  198.9000   143.1476     6.1154     6.1364
  199.0000   143.6490     6.0953     6.1716
  199.1000   144.0873     6.0950     6.2128
  199.2000   144.3381     6.0946     6.2125
  199.3000   144.6293     6.0942     6.2351
  199.4000   144.8395     6.1232     6.2710
  199.5000   144.9319     6.1363     6.2988
  199.6000   144.8254     6.1359     6.2984
  199.7000   144.6293     6.1432     6.2980
  199.8000   144.6293     6.1783     6.3275
  199.9000   144.6293     6.1899     6.3639
  200.0000   144.4022     6.2015     6.3856
  200.1000   144.1198     6.2131     6.3925
