~VERSION INFORMATION
 VERS.                2.0:   CWLS LOG ASCII STANDARD - VERSION 2.0
 WRAP.                 NO:   ONE LINE PER DEPTH STEP
~WELL INFORMATION
#MNEM.UNIT      DATA TYPE    INFORMATION
#----------   ------------   ------------------------------
 STRT.F           90.0000:   START DEPTH
 STOP.F          928.0000:   STOP DEPTH
 STEP.F            0.5000:   STEP LENGTH
 NULL.          -999.2500:   NO VALUE
 COMP.  UNITED STATE NAVY:   COMPANY
 WELL.      NPR 3 #58-S-2:   WELL
 FLD .             TEAPOT:   FIELD
 LOC .       S2 T38N R78W:   LOCATION
 CNTY.            NATRONA:   COUNTY
 STAT.            WYOMING:   STATE
 CTRY. UNITED STATES OF AMERICA:   COUNTRY
 SRVC.       Schlumberger:   SERVICE COMPANY
 DATE.        26-JUN-1962:   LOGDATE
 API .       490250639500:   API NUMBER
~CURVE INFORMATION
#MNEM.UNIT       API CODE    CURVE DESCRIPTION
#----------   ------------   ------------------------------
 DEPT.F                  :   
 ASN .OHMM   05 041 16 00:   AMPLIFIED SHORT NORMAL 16"
 ILD .OHMM   05 120 46 00:   INDUCTION LOG DEEP
 CILD.MMHO   05 110 46 00:   CONDUCTIVITY INDUCTION LOG DEEP
 SPR .MV     05 010 01 00:   SPONTANEOUS POTENTIAL FROM RES.
 GR  .GAPI   30 310 01 00:   GAMMA RAY
~PARAMETER INFORMATION
#MNEM.UNIT          VALUE    DESCRIPTION
#----------   ------------   ------------------------------
 PD  .                 KB:   PERMANENT DATUM
 EKB .F              5189:   KELLING BUSHING
 EGL .F              5184:   GROUND LEVEL
 DATE.        26-JUN-1962:   RUN DATE
 RUN .                  1:   RUN NUMBER
 DD  .F               925:   DEPTH DRILLER
 DL  .F               929:   DEPTH LOGGER
 BLI .F               928:   BOTTOM LOG INTERVAL
 TLI .F                90:   TOP LOG INTERVAL
 BS  .IN             6.75:   BIT SIZE
 BSD .F               925:   BIT SIZE AT DEPTH
 DFT .       OIL EMULSION:   DRILLING FLUID TYPE
 DFD .                 10:   DRILLING FLUID DENSITY
 DFV .                 50:   DRILLING FLUID VISCOSITY
 DFL .                3.7:   DRILLING FLUID LOSS
 RMS .OHMM            4.7:   RESISTIVITY MUD SAMPLE
 MST .F                83:   MUD SAMPLE TEMPERATURE
 RMF .OHMM            3.8:   RESISTIVITY MUD FILTRATE SAMPLE
 MFST.F                83:   MUD FILTRATE SAMPLE TEMPERATURE
 RMC .OHMM            4.4:   RESISTIVITY MUD CAKE
 MCST.F                83:   MUD CAKE SAMPLE TEMPERATURE
 TCS .HRS               1:   TIME CURCULATED STOPPED
 LUN .               2503:   LOGGING UNIT NUMBER
 LUL .               CSPR:   LOGGING UNIT LOCATION
 ENGI.             DANNER:   RECORDING ENGINEER
 WITN.          JORGENSEN:   WITNESSED BY
 CLNT.            A2DTECH:   CLIENT CODE
 ORIG.      2" & 5" PRINT:   ORIGIN OF DATA
 UWI .       490250639500:   UNIQUE WELL ID
 DICO. A2D Technologies, Inc.:   DIGITIZING COMPANY
~OTHER INFORMATION
~A   DEPT        ASN        ILD      CILD       SPR         GR   
# ...
  395.0000    17.4048    15.5771    59.4744   -66.7913  -999.2500
  395.5000    17.0301    15.5036    60.2188   -66.6344  -999.2500
  396.0000    17.1053    15.3556    60.2094   -65.8487  -999.2500
  396.5000    16.8805    15.2817    60.2018   -64.9498  -999.2500
  397.0000    16.6558    15.2836    60.1943   -64.0627  -999.2500
  397.5000    16.5060    15.3601    60.1868   -63.3109  -999.2500
  398.0000    16.5062    15.5115    60.1792   -62.8577  -999.2500
  398.5000    16.3563    15.5130    60.1717   -62.4045  -999.2500
  399.0000    16.2066    15.4395    60.9179   -62.1045  -999.2500
  399.5000    16.0568    15.2907    60.9085   -61.9478  -999.2500
  400.0000    15.8578    15.1047    61.9285   -61.9403  -999.2500
  400.5000    15.5178    14.6532    65.3813   -62.6777  -999.2500
  401.0000    15.2184    14.1727    72.1184   -63.8697  -999.2500
  401.5000    14.5441    13.2005    79.6074   -63.6836  -999.2500
  402.0000    13.2702    11.5535    90.1040   -62.1612  -999.2500
  402.5000    11.4716    10.4313   101.3524   -60.5174  -999.2500
  403.0000    10.3378     9.3841   111.8489   -58.9881  -999.2500
  403.5000     9.7333     8.3368   123.8492   -56.5563  -999.2500
  404.0000     8.8042     7.8143   139.6089   -52.7742  -999.2500
  404.5000     8.1150     7.4417   150.8971   -51.2609  -999.2500
  405.0000     7.6357     7.2185   160.7013   -50.9535  -999.2500
  405.5000     7.3063     6.9964   165.9149   -50.6461  -999.2500
  406.0000     7.0819     6.9237   168.8131   -50.4879  -999.2500
  406.5000     7.0074     6.9259   168.7819   -50.4790  -999.2500
  407.0000     7.0078     6.9281   165.7386   -50.3209  -999.2500
  407.5000     7.1137     7.0053   162.7013   -50.4635  -999.2500
  408.0000     7.1286     7.0825   160.4159   -50.6016  -999.2500
  408.5000     7.1441     7.0847   160.3861   -50.5927  -999.2500
  409.0000     7.1445     7.1619   160.3563   -50.5838  -999.2500
  409.5000     7.1451     7.1642   160.3266   -50.5749  -999.2500
  410.0000     7.1304     7.0914   160.2968   -50.5660  -999.2500
  410.5000     7.0110     7.0187   160.2670   -50.5571  -999.2500
  411.0000     6.8765     7.0105   160.2372   -50.5482  -999.2500
  411.5000     6.8169     6.9482   159.4556   -50.3900  -999.2500
  412.0000     6.8023     7.0259   159.4258   -50.2319  -999.2500
  412.5000     6.8479     7.1031   159.3960   -50.0737  -999.2500
  413.0000     6.9533     7.2553   157.8625   -50.0648  -999.2500
  413.5000     7.0737     7.2575   154.8252   -50.0559  -999.2500
  414.0000     7.1041     7.3347   153.2917   -50.0470  -999.2500
  414.5000     7.1045     7.3369   152.5100   -50.1896  -999.2500
  415.0000     7.0899     7.3391   153.2331   -50.3277  -999.2500
  415.5000     7.0904     7.3414   155.4579   -50.3188  -999.2500
  416.0000     7.0759     7.2681   156.9319   -50.3099  -999.2500
  416.5000     7.0164     7.1209   158.4059   -50.3010  -999.2500
  417.0000     6.9568     7.0477   160.6516   -50.2921  -999.2500
  417.5000     6.8523     6.8256   162.8576   -50.2832  -999.2500
  418.0000     6.7776     6.6779   164.3316   -50.2743  -999.2500
  418.5000     6.7324     6.6801   165.8056   -50.1161  -999.2500
  419.0000     6.6871     6.7573   166.5277   -50.1072  -999.2500
  419.5000     6.6742     6.7595   166.4905   -50.0983  -999.2500
  420.0000     6.6748     6.8367   165.7088   -49.9402  -999.2500
  420.5000     6.7202     6.9139   164.9272   -50.0806  -999.2500
  421.0000     6.7956     6.9911   162.6418   -50.2209  -999.2500
  421.5000     6.9310     6.9933   160.3563   -50.3612  -999.2500
  422.0000     7.0513     7.0705   158.8228   -50.3522  -999.2500
  422.5000     7.1118     7.0727   156.5374   -50.4926  -999.2500
  423.0000     7.1272     7.2249   153.5001   -50.4835  -999.2500
  423.5000     7.1426     7.3021   151.2147   -50.4746  -999.2500
  424.0000     7.1431     7.3793   149.6811   -50.4656  -999.2500
  424.5000     7.2035     7.5315   148.1476   -50.3075  -999.2500
  425.0000     7.3239     7.6087   146.6141   -50.2985  -999.2500
  425.5000     7.4443     7.6864   145.8324   -50.2896  -999.2500
  426.0000     7.5646     7.7635   144.2989   -50.2788  -999.2500
  426.5000     7.6251     7.9157   142.0135   -50.2699  -999.2500
  427.0000     7.6705     7.9929   139.7280   -50.2610  -999.2500
  427.5000     7.7159     8.0701   136.6908   -50.2521  -999.2500
  428.0000     7.7613     8.0723   135.1572   -50.2432  -999.2500
  428.5000     7.8217     8.1495   135.1274   -50.2343  -999.2500
  429.0000     7.8822     8.1517   135.0976   -50.0762  -999.2500
  429.5000     7.8976     8.1540   135.8395   -50.0673  -999.2500
  430.0000     7.8341     8.0063   137.3431   -50.0584  -999.2500
  430.5000     7.7282     7.9335   138.8472   -50.0495  -999.2500
  431.0000     7.5992     7.7109   142.7172   -50.0406  -999.2500
  431.5000     7.4647     7.5632   146.9788   -50.0317  -999.2500
  432.0000     7.3901     7.3405   149.9491   -50.0228  -999.2500
  432.5000     7.3007     7.2672   151.4231   -50.0139  -999.2500
  433.0000     7.1362     7.1945   152.9045   -50.0049  -999.2500
  433.5000     7.0467     7.1217   154.3785   -49.9960  -999.2500
  434.0000     6.9872     7.1245   154.3413   -49.9871  -999.2500
  434.5000     6.9876     7.1268   154.3115   -49.9782  -999.2500
  435.0000     7.0030     7.1290   153.5299   -49.9693  -999.2500
  435.5000     7.0335     7.1312   152.7482   -49.9604  -999.2500
  436.0000     7.0339     7.2084   151.9666   -50.1030  -999.2500
  436.5000     7.0344     7.2106   151.9368   -50.0919  -999.2500
  437.0000     7.0498     7.2878   151.1551   -50.2345  -999.2500
  437.5000     7.0353     7.2964   150.3735   -50.3748  -999.2500
  438.0000     7.1107     7.3673   149.5918   -50.5152  -999.2500
  438.5000     7.1861     7.3813   148.8102   -50.5040  -999.2500
  439.0000     7.2315     7.4472   148.7804   -50.6448  -999.2500
  439.5000     7.2922     7.4495   147.9987   -50.6355  -999.2500
  440.0000     7.3223     7.4517   147.2170   -50.6266  -999.2500
  440.5000     7.3211     7.4539   146.4354   -50.6177  -999.2500
  441.0000     7.2585     7.4561   146.4056   -50.6088  -999.2500
  441.5000     7.1739     7.4584   146.3758   -50.5999  -999.2500
  442.0000     7.2043     7.4606   146.3459   -50.5910  -999.2500
  442.5000     7.2497     7.5378   145.5639   -50.4328  -999.2500
  443.0000     7.3401     7.6150   144.7819   -50.4239  -999.2500
  443.5000     7.4605     7.6922   144.0000   -50.4149  -999.2500
  444.0000     7.6408     7.7694   143.9699   -50.4060  -999.2500
  444.5000     7.7312     7.6961   143.9341   -50.3970  -999.2500
  445.0000     7.7017     7.6989   144.6562   -50.2388  -999.2500
  445.5000     7.6422     7.6261   145.3783   -50.2298  -999.2500
  446.0000     7.4477     7.4779   146.8523   -50.2209  -999.2500
  446.5000     7.1933     7.2558   151.3338   -50.2119  -999.2500
  447.0000     6.9988     7.1825   155.0634   -50.1742  -999.2500
  447.5000     6.8643     7.1102   159.5449   -50.0430  -999.2500
  448.0000     6.8198     6.9626   161.0263   -49.8849  -999.2500
  448.5000     6.7753     6.8898   162.5003   -49.8760  -999.2500
  449.0000     6.7607     6.8171   163.2224   -49.8671  -999.2500
  449.5000     6.7312     6.8194   163.9445   -49.8582  -999.2500
  450.0000     6.7466     6.8216   164.1912   -49.8515  -999.2500
  450.5000     6.7767     6.9723   166.1479   -49.9968  -999.2500
  451.0000     6.8066     6.9730   166.8885   -49.9938  -999.2500
  451.5000     6.7911     6.9738   167.6215   -49.8415  -999.2500
  452.0000     6.7459     6.8995   169.8621   -49.8385  -999.2500
  452.5000     6.7007     6.9003   170.6027   -49.8356  -999.2500
  453.0000     6.6396     6.9010   170.5839   -49.8326  -999.2500
  453.5000     6.4906     6.8268   169.8169   -49.8296  -999.2500
  454.0000     6.4618     6.8276   167.5463   -49.6773  -999.2500
  454.5000     6.5083     6.8283   166.0275   -49.6744  -999.2500
  455.0000     6.6354     6.9040   164.5086   -49.6714  -999.2500
  455.5000     6.8404     6.9798   162.2380   -49.6684  -999.2500
