~VERSION INFORMATION
 VERS.                2.0:   CWLS LOG ASCII STANDARD - VERSION 2.0
 WRAP.                 NO:   ONE LINE PER DEPTH STEP
~WELL INFORMATION
#MNEM.UNIT      DATA TYPE    INFORMATION
#----------   ------------   ------------------------------
 STRT.F           90.0000:   START DEPTH
 STOP.F         1032.5000:   STOP DEPTH
 STEP.F            0.5000:   STEP LENGTH
 NULL.          -999.2500:   NO VALUE
 COMP. U S NAVY/INTEX OIL CO:   COMPANY
 WELL. NAVAL PETROLEUM RESERVE 3  #62-S-14:   WELL
 FLD .        TEAPOT DOME:   FIELD
 LOC .      S14 T38N R78W:   LOCATION
 CNTY.            NATRONA:   COUNTY
 STAT.            WYOMING:   STATE
 CTRY. UNITED STATES OF AMERICA:   COUNTRY
 SRVC.       Schlumberger:   SERVICE COMPANY
 DATE.        04-JUL-1962:   LOGDATE
 API .       490250631700:   API NUMBER
~CURVE INFORMATION
#MNEM.UNIT       API CODE    CURVE DESCRIPTION
#----------   ------------   ------------------------------
 DEPT.F                  :   
 GR  .GAPI   30 310 01 00:   GAMMA RAY
 CALM.IN     15 280 01 00:   CALIPER FROM MICRO LOG
 SPR .MV     06 010 01 00:   SPONTANEOUS POTENTIAL FROM RES.
 ASN .OHMM   06 041 16 00:   AMPLIFIED SHORT NORMAL 16"
 ILD .OHMM   06 120 46 00:   INDUCTION LOG DEEP
 CILD.MMHO   06 110 46 00:   CONDUCTIVITY INDUCTION LOG DEEP
~PARAMETER INFORMATION
#MNEM.UNIT          VALUE    DESCRIPTION
#----------   ------------   ------------------------------
 PD  .                 GL:   PERMANENT DATUM
 EPD .F              5246:   ELEVATION PERMANENT DATUM
 LMF .                 KB:   LOG MEASURED FROM
 DAPD.F                 5:   FEET ABOVE PERMANENT DATUM
 DMF .                 KB:   DRILLING MEASURED FROM
 EKB .F              5251:   KELLING BUSHING
 EGL .F              5246:   GROUND LEVEL
 DATE.             7-4-62:   RUN DATE
 RUN .                  1:   RUN NUMBER
 DD  .F              1036:   DEPTH DRILLER
 DL  .F              1033:   DEPTH LOGGER
 BLI .F              1032:   BOTTOM LOG INTERVAL
 TLI .F                90:   TOP LOG INTERVAL
 CBD .F                10:   CASING BOTTOM DRILLER
 BS  .IN             6.75:   BIT SIZE
 BSD .F              1036:   BIT SIZE AT DEPTH
 DFT .                GEL:   DRILLING FLUID TYPE
 DFD .               10.2:   DRILLING FLUID DENSITY
 DFV .                 48:   DRILLING FLUID VISCOSITY
 DFL .                4.8:   DRILLING FLUID LOSS
 MSS .          FLOW LINE:   MUD SAMPLE SOURCE
 RMS .OHMM            5.6:   RESISTIVITY MUD SAMPLE
 MST .F                70:   MUD SAMPLE TEMPERATURE
 RMF .OHMM           5.57:   RESISTIVITY MUD FILTRATE SAMPLE
 MFST.F                70:   MUD FILTRATE SAMPLE TEMPERATURE
 RMC .OHMM           5.32:   RESISTIVITY MUD CAKE
 MCST.F                70:   MUD CAKE SAMPLE TEMPERATURE
 MFSS.                  M:   MUD FILTRATE SAMPLE SOURCE
 MCSS.                  M:   MUD CAKE SAMPLE SOURCE
 RMB .OHMM            4.3:   RESISTIVITY MUD AT BHT
 BHT .F                90:   BOTTOM HOLE TEMPERATURE
 TCS .HRS               1:   TIME CURCULATED STOPPED
 MRT .F                90:   MAXIMUM RECORDED TEMPERATURE
 LUN .               2503:   LOGGING UNIT NUMBER
 LUL .               CSPR:   LOGGING UNIT LOCATION
 ENGI.             KNOBEL:   RECORDING ENGINEER
 WITN.          JORGENSEN:   WITNESSED BY
 CLNT.            A2DTECH:   CLIENT CODE
 ORIG.   1", 2", 5" PRINT:   ORIGIN OF DATA
 UWI .       490250631700:   UNIQUE WELL ID
 DICO. A2D Technologies, Inc.:   DIGITIZING COMPANY
~OTHER INFORMATION
~A   DEPT       GR       CALM        SPR          ASN        ILD      CILD  
# ...
  974.0000    42.3999     6.5666   -34.7786    11.2705    10.1125    95.1080
  974.5000    40.5861     6.5679   -34.6245    11.6183    10.5342    90.4543
  975.0000    44.1313     6.5678   -34.8012    11.9930    11.0349    85.2354
  975.5000    43.8006     6.5676   -35.1709    12.9660    11.8995    80.0096
  976.0000    31.9445     6.5685   -35.6234    13.9699    12.7571    74.7857
  976.5000    21.2327     6.5054   -37.9745    14.9249    13.6139    69.5628
  977.0000    20.4917     6.4057   -40.4287    15.8765    14.4700    64.3399
  977.5000    22.1058     6.3063   -42.8748    17.1761    15.3479    59.1170
  978.0000    24.6661     6.2733   -45.3611    18.6580    16.2914    53.8941
  978.5000    20.8199     6.3977   -46.6653    19.8661    16.6635    51.3237
  979.0000    28.3737     6.5181   -43.7745    19.6701    16.7917    50.8256
  979.5000    31.6754     6.6056   -40.4610    19.3237    16.7808    51.0574
  980.0000    29.1521     6.5121   -40.3110    19.4420    16.7142    52.3679
  980.5000    32.2565     6.4198   -42.7204    19.5900    16.4161    53.6784
  981.0000    28.9664     6.4257   -44.3679    19.1666    16.0602    54.9889
  981.5000    27.9460     6.4468   -43.8272    18.5912    15.7017    56.2994
  982.0000    33.7191     6.4069   -43.5522    18.0094    15.3444    57.6100
  982.5000    37.6461     6.3598   -45.0156    17.4138    14.9756    58.9205
  983.0000    25.8803     6.3129   -46.5249    17.2339    14.7154    60.2310
  983.5000    21.2644     6.3125   -46.5318    17.0756    14.5765    61.1208
  984.0000    33.4785     6.3601   -45.1310    16.9149    14.4419    61.8322
  984.5000    36.6370     6.4075   -43.7701    16.7533    14.3075    62.5437
  985.0000    32.5695     6.4570   -42.4186    16.5919    14.1729    63.2551
  985.5000    28.7714     6.4605   -41.1783    16.4303    14.0381    63.9665
  986.0000    25.7895     6.4504   -41.9318    16.2673    13.9035    64.6779
  986.5000    29.1478     6.4399   -42.4821    16.0812    13.7814    65.3894
  987.0000    24.3016     6.4295   -41.9556    15.8629    13.7057    66.1008
  987.5000    20.9436     6.4188   -41.9332    15.6452    13.6242    66.8122
  988.0000    24.4026     6.4097   -42.2813    15.4425    13.5727    67.5236
  988.5000    27.6145     6.4560   -41.5812    15.2194    13.4653    68.5191
  989.0000    37.0865     6.5065   -40.3611    14.9719    13.3557    69.5676
  989.5000    37.5060     6.5595   -39.1376    14.7232    13.0563    70.6160
  990.0000    43.2107     6.4910   -38.3497    14.4723    12.7862    71.6433
  990.5000    40.1252     6.4531   -39.4130    14.3490    12.5678    71.9778
  991.0000    35.8062     6.5218   -38.9080    14.2982    12.5117    72.7811
  991.5000    35.1027     6.5812   -37.8375    14.2480    12.4514    73.5843
  992.0000    47.1373     6.5477   -36.9796    14.2004    12.3934    74.3875
  992.5000    41.8928     6.5202   -37.8930    13.9897    12.2238    75.1907
  993.0000    35.9293     6.4933   -38.8376    13.6759    12.1318    75.9939
  993.5000    35.1279     6.4730   -39.7337    13.3605    12.0418    76.6533
  994.0000    40.4313     6.5148   -39.2561    13.0447    11.8490    78.3325
  994.5000    42.6725     6.5488   -38.6884    12.7302    11.6568    80.0616
  995.0000    44.9010     6.5688   -38.8662    12.4122    11.4649    81.7881
  995.5000    45.6068     6.5729   -38.9961    12.3566    11.2716    83.5088
  996.0000    37.1500     6.5771   -37.6634    12.4958    11.0823    85.2558
  996.5000    35.3273     6.5813   -37.2949    12.6384    11.1831    84.9897
  997.0000    44.0363     6.5854   -37.1803    12.8890    11.3036    84.0865
  997.5000    39.8577     6.5896   -37.0729    13.1775    11.4232    83.1790
  998.0000    38.4091     6.5938   -36.8225    13.4690    11.5423    82.2715
  998.5000    38.3849     6.5979   -35.6205    13.7492    11.6614    81.3641
  999.0000    34.8508     6.6021   -34.4091    13.5004    11.7806    80.4566
  999.5000    39.1444     6.6064   -33.2259    13.3016    11.8992    79.5491
 1000.0000    37.2625     6.6076   -32.7355    13.6479    12.0194    78.6327
 1000.5000    46.9666     6.6075   -34.1111    13.7509    11.9951    77.6645
 1001.0000    44.1511     6.6087   -35.4294    13.3951    11.8506    78.3797
 1001.5000    39.2565     6.5731   -36.3704    13.1461    11.7051    79.6165
 1002.0000    34.3180     6.5316   -36.2823    12.8964    11.5592    80.8403
 1002.5000    28.2851     6.4908   -36.2189    12.6472    11.4135    82.0641
 1003.0000    26.6549     6.5357   -36.1885    12.3976    11.2678    83.2880
 1003.5000  -999.2500     6.5856   -36.3325    12.1376    11.1221    84.5118
 1004.0000  -999.2500     6.5880   -36.4764    12.0589    10.9762    85.7356
 1004.5000  -999.2500     6.5877   -36.6202    12.0349    10.8293    86.9582
 1005.0000  -999.2500     6.5876   -36.7635    12.0129    10.6791    88.1941
 1005.5000  -999.2500     6.5876   -36.9072    11.9903    10.6770    89.6779
 1006.0000  -999.2500     6.5876   -36.9794    11.9677    10.6854    89.3960
 1006.5000  -999.2500     6.5876   -36.6111    11.9451    10.6931    89.1018
 1007.0000  -999.2500     6.5876   -36.3926    11.9224    10.7007    88.8067
 1007.5000  -999.2500     6.5876   -36.1348    11.8998    10.7082    88.5134
 1008.0000  -999.2500     6.5876   -35.9010    11.8771    10.7157    88.2201
 1008.5000  -999.2500     6.5876   -35.6614    11.8545    10.7232    87.9268
 1009.0000  -999.2500     6.5877   -35.4233    11.8318    10.7307    87.6335
 1009.5000  -999.2500     6.5876   -35.1853    11.8092    10.7382    87.3401
 1010.0000  -999.2500     6.5877   -34.9472    11.7866    10.7457    87.0468
 1010.5000  -999.2500     6.5798   -34.7094    11.7639    10.7532    86.7535
 1011.0000  -999.2500     6.5642   -34.4708    11.7413    10.7606    86.9353
 1011.5000  -999.2500     6.5486   -34.2628    11.7186    10.7683    87.5649
 1012.0000  -999.2500     6.5468   -34.0745    11.6960    10.7544    88.1944
 1012.5000  -999.2500     6.5457   -33.8871    11.6732    10.7238    88.8240
 1013.0000  -999.2500     6.5445   -33.6997    11.6457    10.6931    89.4535
 1013.5000  -999.2500     6.5433   -33.5123    11.6180    10.6624    90.0831
 1014.0000  -999.2500     6.5421   -33.3249    11.5904    10.6317    90.7126
 1014.5000  -999.2500     6.5409   -33.1375    11.5627    10.6014    91.3422
 1015.0000  -999.2500     6.5398   -32.9501    11.5351    10.5681    91.9717
 1015.5000  -999.2500     6.5385   -32.7627    11.5074    10.4693    92.6013
 1016.0000  -999.2500     6.5374   -32.5751    11.4798    10.3694    93.2309
 1016.5000  -999.2500     6.5361   -32.3854    11.4521    10.2696    93.8604
 1017.0000  -999.2500     6.5350   -32.1816    11.4245    10.1731    94.4900
 1017.5000  -999.2500     6.5338   -32.7658    11.3968    10.1901    94.5871
 1018.0000  -999.2500     6.5326   -33.5095    11.3662    10.2195    94.3124
 1018.5000  -999.2500     6.5314   -34.2572    11.3207    10.2490    94.0379
 1019.0000  -999.2500     6.5302   -35.0035    11.2746    10.2784    93.7633
 1019.5000  -999.2500     6.5292   -35.7488    11.2283    10.3077    93.4887
 1020.0000  -999.2500     6.5267   -36.4993    11.1808    10.3370    93.2141
 1020.5000  -999.2500     6.5035   -36.8852    11.1909    10.3664    92.9395
 1021.0000  -999.2500     6.4810   -37.0756    11.2143    10.3955    92.6649
 1021.5000  -999.2500     6.4586   -37.4828    11.2380    10.4259    92.3903
 1022.0000  -999.2500     6.4362   -38.2056    11.2617    10.4573    92.1157
 1022.5000  -999.2500     6.4131   -38.9172    11.2852    10.5779    91.8411
 1023.0000  -999.2500     6.4113   -39.8857    11.3089    10.5729    91.5665
 1023.5000  -999.2500     6.4151   -40.9717    11.3325    10.5710    91.2917
 1024.0000  -999.2500     6.4190   -42.0651    11.3561    10.5711    91.0175
 1024.5000  -999.2500     6.4229   -43.1584    11.3797    10.5711    90.7400
 1025.0000  -999.2500     6.4268   -44.1935    11.4033    10.5711    90.7331
 1025.5000  -999.2500     6.4306   -44.7203    11.4270    10.5712    90.7979
