~VERSION INFORMATION
 VERS.                2.0:   CWLS LOG ASCII STANDARD - VERSION 2.0
 WRAP.                 NO:   ONE LINE PER DEPTH STEP
~WELL INFORMATION
#MNEM.UNIT      DATA TYPE    INFORMATION
#----------   ------------   ------------------------------
 STRT.F           88.0000:   START DEPTH
 STOP.F          893.0000:   STOP DEPTH
 STEP.F            0.5000:   STEP LENGTH
 NULL.          -999.2500:   NO VALUE
 COMP.          U.S. NAVY:   COMPANY
 WELL. RES 3 TEAPOT DOM #24S-35:   WELL
 FLD .        TEAPOT DOME:   FIELD
 LOC .      S35 T39N R78W:   LOCATION
 CNTY.            NATRONA:   COUNTY
 STAT.            WYOMING:   STATE
 CTRY. UNITED STATES OF AMERICA:   COUNTRY
 SRVC.       Schlumberger:   SERVICE COMPANY
 DATE.        26-JUL-1963:   LOGDATE
 API .       490250654800:   API NUMBER
~CURVE INFORMATION
#MNEM.UNIT       API CODE    CURVE DESCRIPTION
#----------   ------------   ------------------------------
 DEPT.F                  :   
 CALS.IN     60 280 50 00:   CALIPER FROM SONIC LOG
 DT  .US/F   60 520 00 00:   INTERVAL TRANSIT TIME
 GR  .GAPI   30 310 01 00:   GAMMA RAY
 ASN .OHMM   05 041 16 00:   AMPLIFIED SHORT NORMAL 16"
 CILD.MMHO   05 110 46 00:   CONDUCTIVITY INDUCTION LOG DEEP
 ILD .OHMM   05 120 46 00:   INDUCTION LOG DEEP
 SPR .MV     05 010 01 00:   SPONTANEOUS POTENTIAL FROM RES.
~PARAMETER INFORMATION
#MNEM.UNIT          VALUE    DESCRIPTION
#----------   ------------   ------------------------------
 PD  .                 GL:   PERMANENT DATUM
 EPD .F              5116:   ELEVATION PERMANENT DATUM
 LMF .                 KB:   LOG MEASURED FROM
 DAPD.F                 5:   FEET ABOVE PERMANENT DATUM
 DMF .                 KB:   DRILLING MEASURED FROM
 EKB .F              5121:   KELLING BUSHING
 EGL .F              5116:   GROUND LEVEL
 DATE.        26-JUL-1963:   RUN DATE
 RUN .                  1:   RUN NUMBER
 DD  .F               900:   DEPTH DRILLER
 DL  .F               894:   DEPTH LOGGER
 BLI .F               893:   BOTTOM LOG INTERVAL
 TLI .F                88:   TOP LOG INTERVAL
 CBD .F                10:   CASING BOTTOM DRILLER
 BS  .IN             6.75:   BIT SIZE
 BSD .F               900:   BIT SIZE AT DEPTH
 DFT .            GEL-OIL:   DRILLING FLUID TYPE
 DFD .                9.5:   DRILLING FLUID DENSITY
 DFV .                 92:   DRILLING FLUID VISCOSITY
 DFPH.                9.5:   DRILLING FLUID PH
 DFL .                5.8:   DRILLING FLUID LOSS
 MSS .           FLOWLINE:   MUD SAMPLE SOURCE
 RMS .OHMM           4.05:   RESISTIVITY MUD SAMPLE
 MST .F                75:   MUD SAMPLE TEMPERATURE
 RMF .OHMM           3.91:   RESISTIVITY MUD FILTRATE SAMPLE
 MFST.F                75:   MUD FILTRATE SAMPLE TEMPERATURE
 RMC .OHMM           3.54:   RESISTIVITY MUD CAKE
 MCST.F                75:   MUD CAKE SAMPLE TEMPERATURE
 MFSS.               MEAS:   MUD FILTRATE SAMPLE SOURCE
 MCSS.               MEAS:   MUD CAKE SAMPLE SOURCE
 TCS .HRS             0.5:   TIME CURCULATED STOPPED
 LUN .               4507:   LOGGING UNIT NUMBER
 LUL .               CSPR:   LOGGING UNIT LOCATION
 ENGI.             KNOBEL:   RECORDING ENGINEER
 WITN.          JORGENSON:   WITNESSED BY
 CLNT.            A2DTECH:   CLIENT CODE
 ORIG.           5" PRINT:   ORIGIN OF DATA
 UWI .       490250654800:   UNIQUE WELL ID
 DICO. A2D Technologies, Inc.:   DIGITIZING COMPANY
~OTHER INFORMATION
~A   DEPT     CALS         DT         GR          ASN      CILD         ILD      SPR   
# ...
  133.5000  -999.2500  -999.2500  -999.2500     6.5961   177.0325     5.5881   -27.4530
  134.0000  -999.2500  -999.2500  -999.2500     6.5507   178.5429     5.5105   -27.4572
  134.5000  -999.2500  -999.2500  -999.2500     6.5507   182.3622     5.4328   -27.6124
  135.0000  -999.2500  -999.2500  -999.2500     6.5658   187.6315     5.2795   -27.6176
  135.5000  -999.2500  -999.2500  -999.2500     6.5356   192.1767     5.2562   -27.4700
  136.0000  -999.2500  -999.2500  -999.2500     6.4750   195.2063     5.1994   -27.3243
  136.5000  -999.2500  -999.2500  -999.2500     6.3540   198.3384     5.1216   -27.0270
  137.0000  -999.2500  -999.2500  -999.2500     6.1725   199.7426     5.1950   -26.8804
  137.5000  -999.2500  -999.2500  -999.2500     6.0061   198.2162     5.2684   -26.7338
  138.0000  -999.2500  -999.2500  -999.2500     5.8396   196.9727     5.4174   -26.4375
  138.5000  -999.2500  -999.2500  -999.2500     5.9002   194.7509     5.5658   -26.2909
  139.0000  -999.2500  -999.2500  -999.2500     6.0514   191.3645     5.7147   -26.2962
  139.5000  -999.2500  -999.2500  -999.2500     6.1880   188.3225     5.7881   -26.3004
  140.0000  -999.2500  -999.2500  -999.2500     6.3389   185.2805     5.7854   -26.3047
  140.5000  -999.2500  -999.2500  -999.2500     6.3843   182.9970     5.7832   -26.3100
  141.0000  -999.2500  -999.2500  -999.2500     6.4145   181.4708     5.7806   -26.4650
  141.5000  -999.2500  -999.2500  -999.2500     6.3687   180.7050     5.8546   -26.4693
  142.0000  -999.2500  -999.2500  -999.2500     6.2632   184.4915     5.8519   -26.4736
  142.5000  -999.2500  -999.2500  -999.2500     6.2027   188.2762     5.8492   -26.6297
  143.0000  -999.2500  -999.2500  -999.2500     6.2179   190.5452     5.7716   -26.7847
  143.5000  -999.2500  -999.2500  -999.2500     6.2330   192.0573     5.7695   -26.7890
  144.0000  -999.2500  -999.2500  -999.2500     6.1422   194.2640     5.7673   -26.7934
  144.5000  -999.2500  -999.2500  -999.2500     6.0514   196.5936     5.7647   -26.7985
  145.0000  -999.2500  -999.2500  -999.2500     6.0212   195.8260     5.7625   -26.7019
  145.5000  -999.2500  -999.2500  -999.2500     6.0052   194.7117     5.8365   -26.5053
  146.0000  -999.2500  -999.2500  -999.2500     5.9909   192.0181     5.9451   -26.6615
  146.5000  -999.2500  -999.2500  -999.2500     6.0212   187.4568     6.0577   -26.6657
  147.0000  -999.2500  -999.2500  -999.2500     6.0817   184.4148     6.1317   -26.5181
  147.5000  -999.2500  -999.2500  -999.2500     6.1745   180.6141     6.1290   -26.5234
  148.0000  -999.2500  -999.2500  -999.2500     6.2935   176.8133     6.2779   -26.0762
  148.5000  -999.2500  -999.2500  -999.2500     6.5507   172.2520     6.3513   -25.9285
  149.0000  -999.2500  -999.2500  -999.2500     6.8684   169.2100     6.4247   -25.6311
  149.5000  -999.2500  -999.2500  -999.2500     7.0197   167.6854     6.5737   -25.6365
  150.0000  -999.2500  -999.2500  -999.2500     6.9591   166.9196     6.5710   -25.9434
  150.5000  -999.2500  -999.2500  -999.2500     6.9439   169.9545     6.4164   -25.7997
  151.0000  -999.2500  -999.2500  -999.2500     6.9135   176.7830     6.1869   -25.6575
  151.5000  -999.2500  -999.2500  -999.2500     6.8679   184.3703     6.0330   -25.6682
  152.0000  -999.2500  -999.2500  -999.2500     6.7618   195.7511     5.9546   -25.6789
  152.5000  -999.2500  -999.2500  -999.2500     6.5499   201.0622     5.8761   -25.3837
  153.0000  -999.2500  -999.2500  -999.2500     6.1715   206.3733     5.9489   -25.3945
  153.5000  -999.2500  -999.2500  -999.2500     5.9899   213.2018     5.9453   -25.4027
  154.0000  -999.2500  -999.2500  -999.2500     5.7618   213.2018     6.0187   -25.4118
  154.5000  -999.2500  -999.2500  -999.2500     5.6870   204.8558     6.0906   -25.5732
  155.0000  -999.2500  -999.2500  -999.2500     5.6868   182.8528     6.1633   -25.7326
  155.5000  -999.2500  -999.2500  -999.2500     5.7169   178.3005     6.2360   -25.7412
  156.0000  -999.2500  -999.2500  -999.2500     5.8378   203.3384     6.3842   -25.5988
  156.5000  -999.2500  -999.2500  -999.2500     6.0109   187.8275     6.6827   -25.4570
  157.0000  -999.2500  -999.2500  -999.2500     6.1552   161.6085     7.1425   -25.3974
  157.5000  -999.2500  -999.2500  -999.2500     6.2610   142.6404     8.0358   -25.2803
  158.0000  -999.2500  -999.2500  -999.2500     6.3516   124.4310     9.5435   -25.1825
  158.5000  -999.2500  -999.2500  -999.2500     6.4273   106.9803    11.2023   -24.8899
  159.0000  -999.2500  -999.2500  -999.2500     6.5328    69.0440    15.0514   -24.9006
  159.5000  -999.2500  -999.2500  -999.2500     6.6234   113.0501     9.4587   -24.9092
  160.0000  -999.2500  -999.2500  -999.2500     6.7594    97.8756    13.0057   -24.9178
  160.5000  -999.2500  -999.2500  -999.2500     6.8652    67.5266    16.8548   -24.9263
  161.0000  -999.2500  -999.2500  -999.2500     6.8469    69.0440    12.8489   -25.2368
  161.5000  -999.2500  -999.2500  -999.2500     6.6531   143.3991     6.8276   -25.5490
  162.0000  -999.2500  -999.2500  -999.2500     6.3957   160.0910     6.2714   -25.7084
  162.5000  -999.2500  -999.2500  -999.2500     6.7284   165.4021     6.2686   -25.7170
  163.0000  -999.2500  -999.2500  -999.2500     6.6829   176.7830     6.1902   -25.8764
  163.5000  -999.2500  -999.2500  -999.2500     6.4861   190.4451     6.0363   -25.8854
  164.0000  -999.2500  -999.2500  -999.2500     6.0926   194.9924     5.9572   -25.8957
  164.5000  -999.2500  -999.2500  -999.2500     5.3814   188.1639     5.7277   -26.0551
  165.0000  -999.2500  -999.2500  -999.2500     5.2602   181.3354     5.5738   -26.0637
  165.5000  -999.2500  -999.2500  -999.2500     5.4734   213.9605     5.3444   -26.0724
  166.0000  -999.2500  -999.2500  -999.2500     5.5322   216.2367     5.2659   -26.2339
  166.5000  -999.2500  -999.2500  -999.2500     5.4867   216.2367     5.1113   -26.2424
  167.0000  -999.2500  -999.2500  -999.2500     5.2596   213.9605     5.1085   -26.1002
  167.5000  -999.2500  -999.2500  -999.2500     5.5620   206.3733     5.1056   -26.1088
  168.0000  -999.2500  -999.2500  -999.2500     5.7888   198.0273     5.1813   -25.9467
  168.5000  -999.2500  -999.2500  -999.2500     5.5012   188.8441     5.4013   -25.5248
  169.0000  -999.2500  -999.2500  -999.2500     5.5162   182.8528     5.6250   -25.3804
  169.5000  -999.2500  -999.2500  -999.2500     5.1681   180.5766     5.8495   -25.0873
  170.0000  -999.2500  -999.2500  -999.2500     5.5613   178.3005     6.1480   -25.0980
  170.5000  -999.2500  -999.2500  -999.2500     6.7714   176.0243     6.2955   -25.1088
  171.0000  -999.2500  -999.2500  -999.2500     7.0436   175.1492     6.3689   -25.1174
  171.5000  -999.2500  -999.2500  -999.2500     6.9375   172.9894     6.4415   -25.1259
  172.0000  -999.2500  -999.2500  -999.2500     6.4079   170.7132     6.4379   -25.1345
  172.5000  -999.2500  -999.2500  -999.2500     7.1339   170.7132     6.4350   -25.1433
  173.0000  -999.2500  -999.2500  -999.2500     6.9673   172.2307     6.4315   -25.1538
  173.5000  -999.2500  -999.2500  -999.2500     6.8007   172.9894     6.4286   -25.1624
  174.0000  -999.2500  -999.2500  -999.2500     6.7250   173.7481     6.4258   -25.1710
  174.5000  -999.2500  -999.2500  -999.2500     6.7248   173.7481     6.4229   -25.1796
  175.0000  -999.2500  -999.2500  -999.2500     6.7701   172.9894     6.4193   -25.1903
  175.5000  -999.2500  -999.2500  -999.2500     6.8304   171.4390     6.4165   -25.1989
  176.0000  -999.2500  -999.2500  -999.2500     6.8605   169.1958     6.4899   -25.0558
  176.5000  -999.2500  -999.2500  -999.2500     6.9209   167.5611     6.5625   -24.9123
  177.0000  -999.2500  -999.2500  -999.2500     6.9666   166.1608     6.7100   -24.7697
  177.5000  -999.2500  -999.2500  -999.2500     7.0416   163.8847     6.8582   -24.6179
  178.0000  -999.2500  -999.2500  -999.2500     7.1171   160.7789     6.9302   -24.4887
  178.5000  -999.2500  -999.2500  -999.2500     7.4346   157.0562     7.0035   -24.4131
