~VERSION INFORMATION
 VERS.                2.0:   CWLS LOG ASCII STANDARD - VERSION 2.0
 WRAP.                 NO:   ONE LINE PER DEPTH STEP
~WELL INFORMATION
#MNEM.UNIT      DATA TYPE    INFORMATION
#----------   ------------   ------------------------------
 STRT.F           24.0000:   START DEPTH
 STOP.F          609.0000:   STOP DEPTH
 STEP.F            0.5000:   STEP LENGTH
 NULL.          -999.2500:   NO VALUE
 COMP. FENIX & SCISSON INC:   COMPANY
 WELL.        S 34 #48-34:   WELL
 FLD .            NPR - 3:   FIELD
 LOC .      S34 T39N R78W:   LOCATION
 CNTY.            NATRONA:   COUNTY
 STAT.            WYOMING:   STATE
 CTRY. UNITED STATES OF AMERICA:   COUNTRY
 SRVC.              Welex:   SERVICE COMPANY
 DATE.        03-MAY-1977:   LOGDATE
 API .       490251035700:   API NUMBER
~CURVE INFORMATION
#MNEM.UNIT       API CODE    CURVE DESCRIPTION
#----------   ------------   ------------------------------
 DEPT.F                  :   
 CALD.IN     45 280 60 00:   CALIPER FROM DENSITY LOG
 CORR.G/C3   45 356 01 00:   DENSITY CORRECTION
 DPHI.DEC    45 890 12 00:   DENSITY POROSITY SANDSTONE
 GRD .GAPI   45 310 01 00:   GAMMA RAY FROM DENSITY LOG
 RHOB.G/C3   45 350 01 00:   BULK DENSITY
 GURD.OHMM   07 220 05 00:   SHALLOW GUARD RESISTIVITY
 ILD .OHMM   07 120 46 00:   INDUCTION LOG DEEP
 ILM .OHMM   07 120 44 00:   INDUCTION LOG MEDIUM
 SPR .MV     07 010 01 00:   SPONTANEOUS POTENTIAL FROM RES.
~PARAMETER INFORMATION
#MNEM.UNIT          VALUE    DESCRIPTION
#----------   ------------   ------------------------------
 PD  .                 GL:   PERMANENT DATUM
 EPD .F              5160:   ELEVATION PERMANENT DATUM
 LMF .                 GL:   LOG MEASURED FROM
 DMF .                 GL:   DRILLING MEASURED FROM
 EGL .F              5160:   GROUND LEVEL
 DATE.        03-MAY-1977:   RUN DATE
 RUN .                  1:   RUN NUMBER
 DD  .F               610:   DEPTH DRILLER
 DL  .F               611:   DEPTH LOGGER
 BLI .F               609:   BOTTOM LOG INTERVAL
 TLI .F                30:   TOP LOG INTERVAL
 CS  .IN            8.625:   CASING SIZE
 CBD .F                40:   CASING BOTTOM DRILLER
 CBL .F                32:   CASING BOTTOM LOGGER
 BS  .IN            7.875:   BIT SIZE
 BSD .F               610:   BIT SIZE AT DEPTH
 DFT .            KCL GEL:   DRILLING FLUID TYPE
 DFD .                8.9:   DRILLING FLUID DENSITY
 DFV .                 33:   DRILLING FLUID VISCOSITY
 DFPH.                8.0:   DRILLING FLUID PH
 DFL .                7.2:   DRILLING FLUID LOSS
 MSS .            MUD PIT:   MUD SAMPLE SOURCE
 RMS .OHMM           0.19:   RESISTIVITY MUD SAMPLE
 MST .F                65:   MUD SAMPLE TEMPERATURE
 RMF .OHMM           0.16:   RESISTIVITY MUD FILTRATE SAMPLE
 MFST.F                65:   MUD FILTRATE SAMPLE TEMPERATURE
 RMC .OHMM           0.24:   RESISTIVITY MUD CAKE
 MCST.F                65:   MUD CAKE SAMPLE TEMPERATURE
 MFSS.               MEAS:   MUD FILTRATE SAMPLE SOURCE
 MCSS.               MEAS:   MUD CAKE SAMPLE SOURCE
 RMB .OHMM           0.17:   RESISTIVITY MUD AT BHT
 BHT .F                72:   BOTTOM HOLE TEMPERATURE
 TCS .HRS               2:   TIME CURCULATED STOPPED
 MRT .F                72:   MAXIMUM RECORDED TEMPERATURE
 LUN .               8766:   LOGGING UNIT NUMBER
 LUL .             CASPER:   LOGGING UNIT LOCATION
 ENGI.          T. JOYNER:   RECORDING ENGINEER
 WITN.           ROB LYON:   WITNESSED BY
 CLNT.            A2DTECH:   CLIENT CODE
 ORIG.           5" PRINT:   ORIGIN OF DATA
 UWI .       490251035700:   UNIQUE WELL ID
 DICO. A2D Technologies, Inc.:   DIGITIZING COMPANY
~OTHER INFORMATION
~A   DEPT       CALD      CORR        DPHI      GRD         RHOB     GURD        ILD        ILM        SPR   
# ...
  352.5000     7.8046     0.0136     0.1188   123.6675     2.4847    11.9575     6.2201     7.8864   -29.8120
  353.0000     7.8059     0.0137     0.1182   127.3911     2.4855    11.9691     6.3128     7.8368   -29.7929
  353.5000     7.7924     0.0138     0.1179   130.9663     2.4841    11.9807     6.3182     8.0096   -29.9226
  354.0000     7.7940     0.0155     0.1175   134.7145     2.4864    11.9924     6.3243     8.1281   -30.3499
  354.5000     7.7953     0.0171     0.1172   136.9572     2.4872    11.9940     6.3305     8.1348   -30.9260
  355.0000     7.7966     0.0172     0.1172   138.6065     2.4865    11.9815     6.3372     8.1416   -31.6510
  355.5000     7.7979     0.0173     0.1174   138.6237     2.4874    11.9690     6.3433     7.8710   -32.0783
  356.0000     7.7840     0.0205     0.1180   137.4539     2.4867    11.9552     6.3494     7.6095   -32.0592
  356.5000     7.7796     0.0236     0.1195   136.2621     2.4808    11.8812     6.3555     7.7220   -32.0401
  357.0000     7.7721     0.0237     0.1203   134.5253     2.4786    11.8106     6.3162     7.9455   -32.0208
  357.5000     7.7734     0.0298     0.1206   132.7621     2.4786    11.5816     6.2369     8.0630   -32.1507
  358.0000     7.7747     0.0299     0.1242   130.9989     2.4750    11.5099     6.1995     8.1822   -32.1316
  358.5000     7.7763     0.0241     0.1313   128.6422     2.4638    11.5237     6.0783     8.0764   -32.2613
  359.0000     7.8721     0.0227     0.1376   130.2914     2.4541    11.6149     6.0005     7.9702   -32.3910
  359.5000     7.8588     0.0183     0.1490   135.2048     2.4384    11.7069     5.8829     7.8671   -32.5207
  360.0000     7.8604     0.0124     0.1585   140.1181     2.4125    11.7995     5.7278     7.7134   -32.7992
  360.5000     7.8322     0.0080     0.1609   138.8043     2.4089    11.7293     5.5768     7.4056   -32.9241
  361.0000     7.8487     0.0066     0.1519   137.9313     2.4247    11.5791     5.3551     7.0610   -32.9050
  361.5000     7.8354     0.0038     0.1453   136.9099     2.4390    11.3463     5.2131     6.5033   -33.0395
  362.0000     7.8374     0.0009     0.1410   135.8843     2.4436    10.7384     5.0397     6.1155   -33.0156
  362.5000     7.8390     0.0010     0.1392   134.4221     2.4437     7.7131     4.8692     5.9110   -32.9965
  363.0000     7.7960     0.0011     0.1404   132.9556     2.4430     6.1468     4.6738     5.9171   -33.1262
  363.5000     7.7823     0.0043     0.1416   135.6165     2.4469     8.5216     4.5506     6.0884   -33.1071
  364.0000     7.7843     0.0119     0.1382   143.9735     2.4515    10.4269     4.4630     6.2646   -33.2416
  364.5000     7.7859     0.0330     0.1358   144.8766     2.4530    10.6560     4.3806     6.4014   -33.2177
  365.0000     7.7878     0.0376     0.1376   141.9308     2.4509    10.6662     4.4163     6.4512   -33.1986
  365.5000     7.7894     0.0392     0.1381   138.3872     2.4502    10.7506     4.5133     6.5015   -33.1795
  366.0000     7.7910     0.0393     0.1276   131.8762     2.4578    10.9868     4.5490     6.4606   -32.8628
  366.5000     7.7926     0.0380     0.1222   129.3711     2.4744    10.9974     4.4598     6.2906   -32.8437
  367.0000     7.7942     0.0381     0.1214   127.2838     2.4790    10.5599     4.3423     5.9154   -32.5218
  367.5000     7.7957     0.0337     0.1281   125.7006     2.4700     8.7069     4.2857     5.3733   -32.2098
  368.0000     7.7973     0.0293     0.1317   124.8276     2.4648     5.4800     4.2908     5.3396   -32.0218
  368.5000     7.7840     0.0205     0.1332   127.8122     2.4597     6.9897     4.2950     5.7682   -31.7247
  369.0000     7.7860     0.0131     0.1334   135.5445     2.4568     8.8538     4.3289     6.1442   -31.5529
  369.5000     7.7874     0.0117     0.1325   136.1552     2.4553    10.2495     4.3632     6.4996   -31.5338
  370.0000     7.7893     0.0148     0.1316   134.3920     2.4577    10.8437     4.4590     6.8281   -31.5147
  370.5000     7.8055     0.0149     0.1309   129.6182     2.4615    10.9296     4.5886     7.0745   -31.4956
  371.0000     7.8071     0.0211     0.1300   125.9737     2.4639    10.8644     4.7547     7.2290   -31.4765
  371.5000     7.8088     0.0212     0.1297   124.9480     2.4647    10.8750     4.9955     7.3869   -31.4574
  372.0000     7.8104     0.0228     0.1318   126.1565     2.4565    10.8896     5.2849     7.3420   -31.4382
  372.5000     7.8123     0.0214     0.1356   129.7345     2.4476    10.9718     5.5525     7.2959   -31.4191
  373.0000     7.7842     0.0215     0.1404   133.3125     2.4409    10.9063     5.4815     7.3035   -31.4000
  373.5000     7.7705     0.0216     0.1449   134.5167     2.4357    10.9193     5.1912     7.1592   -31.6785
  374.0000     7.7572     0.0218     0.1367   131.3156     2.4388    10.9298     4.9849     6.9213   -31.8130
  374.5000     7.7591     0.0159     0.1282   125.6533     2.4644    10.9403     4.7868     6.3747   -31.4915
  375.0000     7.7608     0.0130     0.1242   124.3352     2.4758     9.8703     4.5965     5.7906   -31.3236
  375.5000     7.7624     0.0101     0.1211   123.3138     2.4818     7.9711     4.4445     5.6362   -31.0069
  376.0000     7.7643     0.0133     0.1186   122.7376     2.4849     5.6828     4.3273     5.4481   -30.6902
  376.5000     7.7659     0.0149     0.1165   123.3482     2.4895     5.4178     4.2424     5.4898   -30.5222
  377.0000     7.7675     0.0165     0.1144   126.3328     2.4941     7.7219     4.2466     5.9284   -30.3492
  377.5000     7.7691     0.0166     0.1119   128.7438     2.4972     9.1881     4.2506     6.2703   -30.1860
  378.0000     7.7706     0.0167     0.1110   128.1519     2.4950     8.2915     4.3750     6.5863   -30.0179
  378.5000     7.7722     0.0169     0.1149   126.3887     2.4928    10.4303     4.6276     6.8704   -29.8224
  379.0000     7.7738     0.0170     0.1164   125.8124     2.4899    11.0351     4.7670     7.1668   -29.3803
  379.5000     7.7758     0.0171     0.1175   125.5329     2.4868    11.3559     4.9417     7.4760   -28.9147
  380.0000     7.7774     0.0172     0.1184   124.6599     2.4841    11.4458     5.2039     7.7447   -28.7468
  380.5000     7.7789     0.0173     0.1190   123.4902     2.4826    11.6165     5.6974     7.9677   -28.7277
  381.0000     7.7804     0.0174     0.1182   122.9139     2.4857    11.7898     6.0568     8.1983   -28.4110
  381.5000     7.7821     0.0176     0.1141   122.4639     2.4911    11.8831     6.2689     8.3787   -28.3919
  382.0000     7.7837     0.0177     0.1117   122.3548     2.4949    11.8945     6.4065     8.5567   -28.3728
  382.5000     7.7853     0.0193     0.1101   124.1567     2.4980    11.9088     6.5927     8.5034   -28.3537
  383.0000     7.7869     0.0239     0.1095   128.9217     2.4996    12.0004     6.7842     8.6293   -28.3346
  383.5000     7.7886     0.0300     0.1110   131.0118     2.4982    12.0955     6.8854     8.6953   -28.3155
  384.0000     7.7902     0.0336     0.1146   128.3627     2.4952    12.1072     6.8920     8.7012   -28.2963
  384.5000     7.7920     0.0303     0.1166   125.4125     2.4923    12.1212     6.8986     8.7072   -28.2772
  385.0000     7.7935     0.0244     0.1157   125.1330     2.4901    12.0462     6.9053     8.7131   -28.2581
  385.5000     7.7951     0.0185     0.1153   129.4571     2.4902    12.0607     6.9599     8.7191   -28.2390
  386.0000     7.7818     0.0142     0.1183   130.2119     2.4866    12.0723     6.9666     8.7857   -28.2199
  386.5000     7.7834     0.0098     0.1207   124.8921     2.4837    12.0838     6.9733     8.7917   -28.2008
  387.0000     7.7703     0.0069     0.1197   118.3811     2.4822    12.0954     7.0285     8.8589   -28.1815
  387.5000     7.7721     0.0040     0.1191   116.0245     2.4823    12.1911     7.0352     8.8038   -28.1622
  388.0000     7.7737     0.0071     0.1209   113.0743     2.4802    12.2028     7.0909     8.8098   -28.1429
  388.5000     7.7753     0.0134     0.1218   111.0143     2.4772    11.9634     7.1470     8.8159   -28.1235
