~VERSION INFORMATION
 VERS.                2.0:   CWLS LOG ASCII STANDARD - VERSION 2.0
 WRAP.                 NO:   ONE LINE PER DEPTH STEP
~WELL INFORMATION
#MNEM.UNIT      DATA TYPE    INFORMATION
#----------   ------------   ------------------------------
 STRT.F           85.5000:   START DEPTH
 STOP.F         1080.5000:   STOP DEPTH
 STEP.F            0.5000:   STEP LENGTH
 NULL.          -999.2500:   NO VALUE
 COMP.         U.S.  NAVY:   COMPANY
 WELL.  N.P.R. #3 #67-S-2:   WELL
 FLD .             TEAPOT:   FIELD
 LOC .       S2 T38N R78W:   LOCATION
 CNTY.            NATRONA:   COUNTY
 STAT.            WYOMING:   STATE
 CTRY. UNITED STATES OF AMERICA:   COUNTRY
 SRVC.       Schlumberger:   SERVICE COMPANY
 DATE.        20-JUL-1964:   LOGDATE
 API .       490250639700:   API NUMBER
~CURVE INFORMATION
#MNEM.UNIT       API CODE    CURVE DESCRIPTION
#----------   ------------   ------------------------------
 DEPT.F                  :   
 GR  .GAPI   30 310 01 00:   GAMMA RAY
 DT  .US/F   60 520 33 00:   INTERVAL TRANSIT TIME
 SPR .MV     06 010 01 00:   SPONTANEOUS POTENTIAL
 CILD.MMHO   06 110 46 00:   CONDUCTIVITY INDUCTION LOG DEEP
 ASN .OHMM   06 041 16 00:   AMPLIFIED SHORT NORMAL 16"
 ILD .OHMM   06 120 46 00:   INDUCTION LOG DEEP
~PARAMETER INFORMATION
#MNEM.UNIT          VALUE    DESCRIPTION
#----------   ------------   ------------------------------
 PD  .                 GL:   PERMANENT DATUM
 EPD .F              5207:   ELEVATION PERMANENT DATUM
 LMF .                 KB:   LOG MEASURED FROM
 DAPD.F                 5:   FEET ABOVE PERMANENT DATUM
 DMF .                 KB:   DRILLING MEASURED FROM
 EKB .F              5212:   KELLING BUSHING
 EGL .F              5207:   GROUND LEVEL
 DATE.          7-20-1964:   RUN DATE
 RUN .                  1:   RUN NUMBER
 DD  .F              1080:   DEPTH DRILLER
 DL  .F              1081:   DEPTH LOGGER
 BLI .F              1080:   BOTTOM LOG INTERVAL
 TLI .F                86:   TOP LOG INTERVAL
 CS  .IN            8.625:   CASING SIZE
 CBD .F                10:   CASING BOTTOM DRILLER
 BS  .IN             6.75:   BIT SIZE
 BSD .F              1080:   BIT SIZE AT DEPTH
 DFT .            GEL-OIL:   DRILLING FLUID TYPE
 DFD .                9.5:   DRILLING FLUID DENSITY
 DFV .                 43:   DRILLING FLUID VISCOSITY
 MSS .           FLOWLINE:   MUD SAMPLE SOURCE
 RMS .OHMM           1.85:   RESISTIVITY MUD SAMPLE
 MST .F                83:   MUD SAMPLE TEMPERATURE
 RMF .OHMM           1.29:   RESISTIVITY MUD FILTRATE SAMPLE
 MFST.F                83:   MUD FILTRATE SAMPLE TEMPERATURE
 RMC .OHMM           2.49:   RESISTIVITY MUD CAKE
 MCST.F                83:   MUD CAKE SAMPLE TEMPERATURE
 MFSS.                 FP:   MUD FILTRATE SAMPLE SOURCE
 MCSS.                 FP:   MUD CAKE SAMPLE SOURCE
 TCS .HRS               2:   TIME CURCULATED STOPPED
 LUN .               4507:   LOGGING UNIT NUMBER
 LUL .               CSPR:   LOGGING UNIT LOCATION
 ENGI.             DANNER:   RECORDING ENGINEER
 WITN.          JORGENSEN:   WITNESSED BY
 CLNT.            A2DTECH:   CLIENT CODE
 ORIG.           2" PRINT:   ORIGIN OF DATA
 UWI .       490250639700:   UNIQUE WELL ID
 DICO. A2D Technologies, Inc.:   DIGITIZING COMPANY
~OTHER INFORMATION
~A   DEPT       GR         DT        SPR       CILD        ASN        ILD   
# ...
  761.5000    43.4372    93.0941   -23.1188   106.0759    11.2196     9.7178
  762.0000    46.4152    93.1421   -23.1474   107.1510    11.1379     9.6479
  762.5000    45.5434    92.7968   -23.1757   108.0113    11.0556     9.5778
  763.0000    44.6140    92.2952   -23.2044   108.8713    10.9738     9.5079
  763.5000    47.3195    92.1456   -23.2326   109.7317    10.8916     9.4379
  764.0000    48.0784    91.9932   -23.2613   110.5917    10.8097     9.3679
  764.5000    47.2152    92.3054   -23.2895   111.4521    10.7276     9.2979
  765.0000    44.0311    92.6226   -23.3181   112.3120    10.6456     9.2280
  765.5000    46.4983    93.0034   -23.3441   113.1724    10.5636     9.1579
  766.0000    45.5693    93.7254   -23.2123   114.0324    10.4816     9.0880
  766.5000    44.8772    94.5411   -23.0896   114.8927    10.3996     9.0180
  767.0000    45.1893    94.8746   -22.9672   115.7527    10.3175     8.9481
  767.5000    39.5141    94.8193   -22.8446   116.6130    10.2356     8.8780
  768.0000    40.9469    94.9860   -22.7221   117.4731    10.1535     8.8081
  768.5000    38.9343    95.5956   -22.5996   118.3333    10.0716     8.7381
  769.0000    40.8512    95.3723   -22.6443   119.1934    10.0099     8.6682
  769.5000    48.1704    95.1377   -22.8036   120.0539     9.9305     8.6156
  770.0000    50.6911    94.9031   -22.9628   120.9141     9.8240     8.5508
  770.5000    39.7849    94.9846   -23.1221   121.7743     9.7182     8.4987
  771.0000    37.9853    95.3325   -23.2813   122.6345     9.6115     8.4469
  771.5000    44.8470    95.6806   -23.2975   123.4947     9.5323     8.3947
  772.0000    43.4392    96.0299   -23.2205   124.3549     9.4223     8.3429
  772.5000    42.1868    96.3134   -23.1434   125.0000     9.3133     8.2907
  773.0000    51.9550    96.5358   -23.0665   125.4150     9.3325     8.2389
  773.5000    52.1694    96.4932   -22.9894   125.7470     9.2634     8.1866
  774.0000    56.2415    96.3436   -22.9125   126.0790     9.1929     8.1350
  774.5000    51.5335    96.1985   -22.8350   126.4110     9.1339     8.0826
  775.0000    52.1134    96.3145   -22.7584   126.7430     9.0633     8.0181
  775.5000    50.7399    97.0396   -22.6807   126.9920     9.0143     8.0175
  776.0000    54.2526    97.6977   -22.6042   125.9960     9.0813     8.1011
  776.5000    47.9051    97.1972   -22.5264   125.1992     9.1365     8.1668
  777.0000    43.7387    95.7504   -22.4503   124.4024     9.1900     8.2339
  777.5000    46.4381    95.5467   -22.3723   123.6056     9.2450     8.2995
  778.0000    45.6240    95.4907   -22.2962   123.0080     9.3123     8.3667
  778.5000    49.9198    94.9218   -22.2181   124.7866     9.2431     8.4157
  779.0000    53.6248    94.3921   -22.1532   126.2094     9.1729     8.1053
  779.5000    54.4701    93.8621   -22.5572   127.9881     9.2231     7.8557
  780.0000    51.0614    94.8168   -22.9122   132.7191     9.2726     7.6074
  780.5000    61.0124    96.5117   -23.2651   139.0272     9.0366     7.3579
  781.0000    58.9519    98.2066   -23.6201   146.9124     8.7214     7.1095
  781.5000    64.0775    99.4011   -23.6697   148.2404     8.4065     6.9225
  782.0000    57.5296   100.1978   -23.5620   150.0111     8.0914     6.8587
  782.5000    51.5482   100.5606   -23.4527   151.7818     7.7764     6.7732
  783.0000    53.3424   100.8098   -23.3447   153.5525     7.5402     6.6880
  783.5000    53.9324   100.7427   -23.2356   154.8805     7.4904     6.6240
  784.0000    57.0405   100.4934   -23.1459   152.8884     7.4607     6.6659
  784.5000    59.4759   100.3217   -23.3318   151.2948     7.5800     6.7221
  785.0000    57.4602   100.1963   -23.4913   149.6992     7.6758     6.7779
  785.5000    55.6287   100.1351   -23.4081   148.1062     7.7713     6.8341
  786.0000    49.7321   100.3023   -23.2092   146.9109     7.8670     6.8900
  786.5000    44.7417   100.4685   -23.0100   146.9111     7.9386     6.9461
  787.0000    45.0914   100.1910   -22.8109   146.9112     7.9137     7.0019
  787.5000    50.7778    99.8075   -22.6119   146.9113     7.8989     7.0579
  788.0000    48.1760    99.4831   -22.6355   146.9115     8.0779     7.1139
  788.5000    51.6023    99.4126   -22.7601   145.4182     8.0519     7.1698
  789.0000    53.9880    99.3426   -22.8845   143.9242     8.0167     7.2258
  789.5000    49.9091    99.2069   -23.0088   142.6606     7.9821     7.2817
  790.0000    50.0001    98.9667   -23.1333   140.9746     7.9381     7.3378
  790.5000    55.5704    98.7267   -23.2575   139.2900     8.1575     7.3936
  791.0000    56.0877    98.4867   -23.3821   137.6038     8.3761     7.4498
  791.5000    62.6410    98.2467   -23.5062   135.9194     8.4960     7.5196
  792.0000    61.1887    97.9990   -23.5132   134.2327     8.6151     7.5198
  792.5000    59.5046    97.9599   -23.4709   132.9681     8.6155     7.5066
  793.0000    59.0587    97.9195   -23.4295   134.0748     8.6002     7.4895
  793.5000    51.7545    98.2167   -23.3869   134.9602     8.5806     7.4720
  794.0000    47.5516    98.7919   -23.3457   135.8455     8.5604     7.4549
  794.5000    56.9729    99.3994   -23.3029   136.7309     8.5359     7.4374
  795.0000    57.5882    99.5105   -23.2619   137.6162     8.4720     7.4203
  795.5000    56.9962    99.6601   -23.2190   138.5016     8.3877     7.4028
  796.0000    53.0802    99.8096   -23.1781   139.3869     8.3028     7.3856
  796.5000    55.3990    99.9592   -23.1450   140.2722     8.1973     7.3682
  797.0000    57.0770    99.9738   -22.8657   140.9362     8.1970     7.3510
  797.5000    53.2166    99.9239   -22.6372   140.9362     8.2546     7.3336
  798.0000    63.0290    99.8047   -22.4106   140.9362     8.3004     7.2709
  798.5000    51.5800    99.6211   -22.3053   140.9362     8.3466     7.2211
  799.0000    55.0895    99.4374   -22.2449   140.9362     8.3924     7.2097
  799.5000    58.1566    99.2538   -22.1829   140.9362     8.4384     7.2006
  800.0000    59.1299    98.8913   -22.1223   140.9362     8.4958     7.1914
  800.5000    46.6095    98.4464   -22.0604   140.9362     8.4279     7.1823
  801.0000    50.7777    97.9908   -21.9996   141.1454     8.3166     7.1731
  801.5000    45.3495    97.9238   -21.9693   141.9278     8.3399     7.1640
  802.0000    53.6239    97.8568   -22.0309   142.7103     8.3763     7.1548
  802.5000    59.9194    97.7257   -22.0918   143.4927     8.3463     7.1457
  803.0000    62.4462    97.1227   -22.1533   144.2751     8.2458     7.1365
  803.5000    63.0648    96.6674   -22.2143   145.0576     8.1451     7.1274
  804.0000    62.2646    97.2228   -22.2759   145.8400     8.0445     7.1047
  804.5000    64.1688    97.7782   -22.3507   146.6224     7.9623     7.0546
  805.0000    67.6474    98.3336   -22.2997   147.4048     7.9163     7.0042
  805.5000    58.7810    98.9570   -22.2330   148.3182     7.8705     6.9541
  806.0000    57.6509    99.7107   -22.1670   149.4678     7.8186     6.9037
  806.5000    59.4849   100.5005   -22.1003   150.6175     7.7379     6.8537
  807.0000    50.3849   100.4263   -22.0342   151.8924     7.6448     6.7571
  807.5000    46.7597   100.2923   -21.9534   156.6306     7.5525     6.5882
  808.0000    51.1878   100.1583   -21.8090   161.9479     7.4591     6.4184
  808.5000    53.4952   100.5062   -21.6248   167.2652     7.3668     6.2495
  809.0000    50.5150   101.2241   -21.4414   172.5825     7.2734     6.0797
  809.5000    50.0189   101.9419   -21.2572   177.8998     7.1263     5.9108
  810.0000    55.5519   103.6637   -21.0738   183.2171     6.9065     5.7409
  810.5000    53.7854   105.4434   -20.8897   188.7450     6.6883     5.5720
  811.0000    61.4107   105.7225   -20.8025   188.1929     6.4684     5.4022
  811.5000    66.6471   105.2479   -20.9350   187.6181     6.2460     5.2299
  812.0000    66.5304   104.7733   -21.0680   187.0433     6.2252     5.3290
  812.5000    70.8911   104.2987   -21.2006   185.4250     6.2062     5.5153
  813.0000    67.5539   102.9648   -21.3335   182.7689     6.4694     5.7026
