~VERSION INFORMATION
 VERS.                2.0:   CWLS LOG ASCII STANDARD - VERSION 2.0
 WRAP.                 NO:   ONE LINE PER DEPTH STEP
~WELL INFORMATION
#MNEM.UNIT      DATA TYPE    INFORMATION
#----------   ------------   ------------------------------
 STRT.F           20.0000:   START DEPTH
 STOP.F          672.0000:   STOP DEPTH
 STEP.F            0.5000:   STEP LENGTH
 NULL.          -999.2500:   NO VALUE
 COMP.              FENIX:   COMPANY
 WELL.    NPR ##3 23-S-11:   WELL
 FLD .        TEAPOT DOME:   FIELD
 LOC .      S11 T38N R78W:   LOCATION
 CNTY.            NATRONA:   COUNTY
 STAT.            WYOMING:   STATE
 CTRY. UNITED STATES OF AMERICA:   COUNTRY
 SRVC.           BIRDWELL:   SERVICE COMPANY
 DATE.        05-FEB-1978:   LOGDATE
 API .       490251057300:   API NUMBER
~CURVE INFORMATION
#MNEM.UNIT       API CODE    CURVE DESCRIPTION
#----------   ------------   ------------------------------
 DEPT.F                  :   
 ILD .OHMM   05 120 46 00:   INDUCTION LOG DEEP
 SN  .OHMM   05 040 16 00:   SHORT NORMAL 16"
 SPR .MV     05 010 01 00:   SPONTANEOUS POTENTIAL FROM RES.
 CALD.IN     45 280 60 00:   CALIPER FROM DENSITY LOG
 CORR.G/C3   45 356 01 00:   DENSITY CORRECTION
 DPHI.DEC    45 890 10 00:   DENSITY POROSITY LIMESTONE
 GRD .GAPI   45 310 01 00:   GAMMA RAY FROM DENSITY LOG
 RHOB.G/C3   45 350 01 00:   BULK DENSITY
~PARAMETER INFORMATION
#MNEM.UNIT          VALUE    DESCRIPTION
#----------   ------------   ------------------------------
 PD  .                 GL:   PERMANENT DATUM
 EPD .F              5175:   ELEVATION PERMANENT DATUM
 LMF .                 KB:   LOG MEASURED FROM
 DMF .                 KB:   DRILLING MEASURED FROM
 EKB .F              5178:   KELLING BUSHING
 EGL .F              5175:   GROUND LEVEL
 DATE.        05-FEB-1978:   RUN DATE
 RUN .                  1:   RUN NUMBER
 DD  .F               670:   DEPTH DRILLER
 DL  .F               675:   DEPTH LOGGER
 BLI .F               670:   BOTTOM LOG INTERVAL
 TLI .F                40:   TOP LOG INTERVAL
 CS  .IN            8.625:   CASING SIZE
 CBD .F                39:   CASING BOTTOM DRILLER
 CBL .F                40:   CASING BOTTOM LOGGER
 BS  .IN            7.875:   BIT SIZE
 BSD .F               670:   BIT SIZE AT DEPTH
 DFT .                KCL:   DRILLING FLUID TYPE
 DFD .                8.4:   DRILLING FLUID DENSITY
 DFV .                 32:   DRILLING FLUID VISCOSITY
 DFPH.                  8:   DRILLING FLUID PH
 DFL .                8.8:   DRILLING FLUID LOSS
 MSS .           FLOWLINE:   MUD SAMPLE SOURCE
 RMS .OHMM           0.58:   RESISTIVITY MUD SAMPLE
 MST .F                62:   MUD SAMPLE TEMPERATURE
 RMF .OHMM           0.58:   RESISTIVITY MUD FILTRATE SAMPLE
 MFST.F                62:   MUD FILTRATE SAMPLE TEMPERATURE
 RMC .OHMM            0.9:   RESISTIVITY MUD CAKE
 MCST.F                66:   MUD CAKE SAMPLE TEMPERATURE
 MFSS.               MEAS:   MUD FILTRATE SAMPLE SOURCE
 RMB .OHMM           0.55:   RESISTIVITY MUD AT BHT
 BHT .F                72:   BOTTOM HOLE TEMPERATURE
 TCS .HRS               1:   TIME CURCULATED STOPPED
 MRT .F                72:   MAXIMUM RECORDED TEMPERATURE
 LUN .               2958:   LOGGING UNIT NUMBER
 LUL .               CASP:   LOGGING UNIT LOCATION
 ENGI.            POINTER:   RECORDING ENGINEER
 WITN.         HARRINGTON:   WITNESSED BY
 CLNT.            A2DTECH:   CLIENT CODE
 ORIG.           5" PRINT:   ORIGIN OF DATA
 UWI .       490251057300:   UNIQUE WELL ID
 DICO. A2D Technologies, Inc.:   DIGITIZING COMPANY
~OTHER INFORMATION
~A   DEPT      ILD         SN        SPR       CALD       CORR       DPHI         GRD      RHOB   
# ...
  627.5000     5.2176     5.3235   -49.8253     7.9338     0.0331     0.1045    89.7031     2.4688
  628.0000     5.3994     5.5891   -49.5894     7.9331     0.0218     0.1088    94.0479     2.4613
  628.5000     5.7055     5.9745   -49.3885     7.9475     0.0120     0.1195    91.9116     2.4433
  629.0000     6.4728     7.0698   -49.0965     7.9469     0.0188     0.1360    84.1460     2.4192
  629.5000     7.7896     7.7352   -48.8003     7.9464     0.0233     0.1402    78.8956     2.4222
  630.0000     8.2312     8.2316   -48.5073     7.9458     0.0210     0.1186    73.1954     2.4478
  630.5000     8.3434     8.4616   -48.2127     7.9451     0.0180     0.1045    71.0866     2.4816
  631.0000     8.3406     8.5776   -48.2230     7.9445     0.0143     0.1021    70.7898     2.4771
  631.5000     8.3958     8.6345   -48.0808     7.9590     0.0135     0.1024    71.0866     2.4741
  632.0000     8.4698     8.6321   -47.9386     7.9735     0.0143     0.1036    72.2830     2.4711
  632.5000     8.5666     8.6898   -47.7991     7.9728     0.0165     0.1099    73.1795     2.4673
  633.0000     8.7206     8.8166   -47.6543     7.9723     0.0188     0.1093    73.4763     2.4658
  633.5000     8.9239     8.9297   -47.5147     7.9716     0.0210     0.1072    73.4725     2.4718
  634.0000     9.0628     9.1145   -47.3726     7.9560     0.0240     0.1006    73.4695     2.4846
  634.5000     9.2977     9.2401   -47.1606     7.9554     0.0240     0.0979    73.4664     2.4884
  635.0000     9.5552     9.4319   -47.0882     7.9548     0.0210     0.0955    73.4626     2.4929
  635.5000     9.7529     9.6272   -47.1011     7.9541     0.0240     0.0961    73.3097     2.4853
  636.0000     9.9637     9.6916   -47.1098     7.9385     0.0255     0.0964    73.1567     2.4915
  636.5000    10.0902     9.8244   -47.1204     7.9380     0.0240     0.0916    73.1537     2.4981
  637.0000    10.2278     9.9590   -47.1311     7.9222     0.0201     0.0919    73.1506     2.4929
  637.5000    10.3672    10.0949   -47.1422     7.9216     0.0172     0.0967    72.9969     2.4823
  638.0000    10.4349    10.3045   -47.1525     7.9361     0.0225     0.1015    72.5441     2.4808
  638.5000    10.4315    10.5192   -47.1631     7.9204     0.0262     0.0952    71.9414     2.4906
  639.0000    10.4279    10.7369   -47.1738     7.9048     0.0285     0.0895    70.7311     2.4929
  639.5000    10.4243    10.8095   -47.0912     7.8891     0.0284     0.0850    70.2854     2.5034
  640.0000    10.4201    10.9569   -47.0427     7.8734     0.0292     0.0823    69.9825     2.5049
  640.5000    10.3447    11.1070   -46.8626     7.8728     0.0277     0.0898    69.9795     2.4974
  641.0000    10.3412    11.1039   -46.6069     7.8723     0.0254     0.0928    70.3276     2.5064
  641.5000    10.3377    11.1784   -46.6174     7.8868     0.0194     0.0871    71.0699     2.5079
  642.0000    10.1919    11.2529   -46.4751     7.8710     0.0209     0.0943    71.9189     2.4876
  642.5000    10.1885    11.3278   -46.4879     7.8704     0.0224     0.1027    72.5209     2.4658
  643.0000    10.1139    11.3250   -46.4982     7.8699     0.0239     0.1127    72.9623     2.4643
  643.5000    10.1105    11.3218   -46.5085     7.8692     0.0261     0.1082    72.9585     2.4666
  644.0000    10.1071    11.3186   -46.6712     7.8686     0.0254     0.1066    72.8055     2.4726
  644.5000    10.1037    11.3943   -46.6815     7.8681     0.0179     0.1139    72.8025     2.4763
  645.0000    10.1004    11.3124   -46.6921     7.8674     0.0111     0.1145    72.3489     2.4733
  645.5000    10.0970    11.2305   -46.7046     7.8668     0.0119     0.1193    71.2964     2.4598
  646.0000    10.1638    11.1498   -46.7149     7.8662     0.0156     0.1247    69.4943     2.4448
  646.5000    10.1596    11.0697   -46.7251     7.8958     0.0186     0.1238    68.7416     2.4478
  647.0000    10.1562    10.9901   -46.7354     7.8951     0.0209     0.1217    69.0377     2.4538
  647.5000    10.2243    10.9112   -46.8981     7.8946     0.0216     0.1169    69.7843     2.4651
  648.0000    10.2201    10.8973   -47.2134     7.8956     0.0208     0.1097    70.5309     2.4711
  648.5000    10.2167    10.9053   -47.3786     7.9085     0.0208     0.1049    70.9777     2.4688
  649.0000    10.1426    10.9023   -47.8462     7.8927     0.0201     0.1052    70.6747     2.4673
  649.5000     9.9988    10.9746   -48.0089     7.8922     0.0201     0.1073    70.0713     2.4658
  650.0000     9.9263    10.9717   -48.3240     7.8915     0.0208     0.1085    70.0682     2.4711
  650.5000     9.7863    10.8928   -48.4867     7.8909     0.0218     0.1049    70.3650     2.4748
  651.0000     9.6483    10.7398   -48.3446     7.8904     0.0223     0.1019    71.1180     2.4778
  651.5000     9.4465    10.5889   -48.3552     7.8897     0.0223     0.1080    72.7570     2.4740
  652.0000     9.3132    10.3679   -48.2127     7.8891     0.0201     0.1127    73.3537     2.4672
  652.5000     9.1818    10.1515   -48.0705     7.8885     0.0178     0.1115    73.8004     2.4687
  653.0000     9.1146    10.0051   -47.9309     7.8878     0.0170     0.1103    73.9473     2.4695
  653.5000     9.0486     9.8680   -47.8841     7.8873     0.0193     0.1097    73.9435     2.4694
  654.0000     8.9830     9.8653   -47.7988     7.8867     0.0216     0.1091    74.5402     2.4702
  654.5000     8.9800     9.7890   -47.6569     7.8861     0.0238     0.1052    75.1368     2.4702
  655.0000     8.8534     9.6562   -47.8222     7.9005     0.0208     0.1016    75.2838     2.4709
  655.5000     8.4897     9.5205   -47.9849     7.9152     0.0200     0.1025    75.1300     2.4739
  656.0000     8.1975     9.3867   -48.1476     7.9446     0.0223     0.1053    75.1270     2.4731
  656.5000     7.9700     9.2548   -48.3103     7.9439     0.0238     0.1091    75.1242     2.4685
  657.0000     7.8032     9.0617   -48.6255     7.9433     0.0245     0.1079    75.1209     2.4678
  657.5000     7.7467     9.0592   -48.7882     7.9578     0.0245     0.1046    74.9518     2.4753
  658.0000     7.7443     8.9319   -48.9512     8.0023     0.0252     0.1006    74.3645     2.4805
  658.5000     7.7415     8.8677   -49.1162     8.0017     0.0282     0.1034    73.9117     2.4835
  659.0000     7.7389     8.8653   -49.2789     8.0614     0.0267     0.0989    74.6582     2.4865
  659.5000     7.7357     8.8624   -49.2881     8.1812     0.0237     0.0953    75.7197     2.4857
  660.0000     7.7331     8.9223   -49.4519     8.2710     0.0275     0.0962    78.2496     2.4820
  660.5000     7.6771     8.9193   -49.4622     8.3158     0.0312     0.0944    80.3455     2.4850
  661.0000     7.6215     8.9169   -49.4726     8.1783     0.0305     0.0935    81.6918     2.4924
  661.5000     7.5140     8.9145   -49.4853     8.1487     0.0282     0.0935    81.2390     2.4954
  662.0000     7.4596     8.7892   -49.4956     8.1482     0.0259     0.0953    78.3867     2.4924
  662.5000     7.3035     8.4284   -49.5046     8.1551     0.0268     0.0905    77.1842     2.4894
  663.0000     7.1007     8.1387   -49.5161     8.1772     0.0282     0.0887    78.2307     2.4940
  663.5000     7.0493     7.9684   -49.5264     8.1917     0.0289     0.0923    79.2771     2.4931
  664.0000     6.9982     7.8564   -49.5367     8.2060     0.0289     0.0920    80.4727     2.4901
  664.5000     6.9476     7.8415   -49.6997     8.2356     0.0289     0.0881    81.3692     2.4923
  665.0000     6.8972     7.7439   -50.0171     8.2048     0.0282     0.0875    81.3662     2.4968
  665.5000     6.8949     7.6884   -50.0579     8.2042     0.0289     0.0872    81.0633     2.4998
  666.0000     6.8925     7.6862   -50.1901     8.2035     0.0312     0.0929    80.2934     2.5005
  666.5000     6.8897     7.6310   -50.2004     8.2029     0.0319     0.0987    79.5572     2.4975
  667.0000     6.8874     7.6289   -50.2107     8.2024     0.0311     0.0944    79.4043     2.4802
  667.5000     6.8851     7.6264   -50.2210     8.2018     0.0334     0.0923    79.5519     2.4854
