~VERSION INFORMATION
 VERS.                2.0:   CWLS LOG ASCII STANDARD - VERSION 2.0
 WRAP.                 NO:   ONE LINE PER DEPTH STEP
~WELL INFORMATION
#MNEM.UNIT      DATA TYPE    INFORMATION
#----------   ------------   ------------------------------
 STRT.F           70.0000:   START DEPTH
 STOP.F          884.0000:   STOP DEPTH
 STEP.F            0.5000:   STEP LENGTH
 NULL.          -999.2500:   NO VALUE
 COMP. U S NAVY/INTEX OIL CO:   COMPANY
 WELL.   NPR#3 "S" #16-35:   WELL
 FLD .             TEAPOT:   FIELD
 LOC .      S35 T39N R78W:   LOCATION
 CNTY.            NATRONA:   COUNTY
 STAT.            WYOMING:   STATE
 CTRY. UNITED STATES OF AMERICA:   COUNTRY
 SRVC.         Lane Wells:   SERVICE COMPANY
 DATE.        21-MAR-1960:   LOGDATE
 API .       490250651800:   API NUMBER
~CURVE INFORMATION
#MNEM.UNIT       API CODE    CURVE DESCRIPTION
#----------   ------------   ------------------------------
 DEPT.F                  :   
 SPR .MV     05 010 01 00:   SPONTANEOUS POTENTIAL FROM RES.
 ASN .OHMM   05 040 16 00:   AMPLIFIED SHORT NORMAL 16"
 ILD .OHMM   05 120 46 00:   INDUCTION LOG DEEP
 CILD.MMHO   05 110 46 00:   CONDUCTIVITY INDUCTION LOG DEEP
 GR  .GAPI   30 310 01 00:   GAMMA RAY
~PARAMETER INFORMATION
#MNEM.UNIT          VALUE    DESCRIPTION
#----------   ------------   ------------------------------
 PD  .                 GL:   PERMANENT DATUM
 EPD .F              5091:   ELEVATION PERMANENT DATUM
 LMF .                 KB:   LOG MEASURED FROM
 DAPD.F                 5:   FEET ABOVE PERMANENT DATUM
 DMF .                 KB:   DRILLING MEASURED FROM
 EKB .F              5096:   KELLING BUSHING
 EGL .F              5091:   GROUND LEVEL
 DATE.          3-21-1960:   RUN DATE
 RUN .                  1:   RUN NUMBER
 DD  .F               913:   DEPTH DRILLER
 DL  .F               885:   DEPTH LOGGER
 BLI .F               883:   BOTTOM LOG INTERVAL
 TLI .F                70:   TOP LOG INTERVAL
 CS  .IN            8.625:   CASING SIZE
 CBD .F                12:   CASING BOTTOM DRILLER
 BS  .IN            7.875:   BIT SIZE
 BSD .F               913:   BIT SIZE AT DEPTH
 DFT .   GEL-OIL EMULSION:   DRILLING FLUID TYPE
 DFD .                9.9:   DRILLING FLUID DENSITY
 DFV .                 40:   DRILLING FLUID VISCOSITY
 MSS .           FLOWLINE:   MUD SAMPLE SOURCE
 RMS .OHMM              3:   RESISTIVITY MUD SAMPLE
 MST .F                64:   MUD SAMPLE TEMPERATURE
 RMF .OHMM            2.2:   RESISTIVITY MUD FILTRATE SAMPLE
 MFST.F                64:   MUD FILTRATE SAMPLE TEMPERATURE
 RMC .OHMM              4:   RESISTIVITY MUD CAKE
 MCST.F                64:   MUD CAKE SAMPLE TEMPERATURE
 MFSS.                MUD:   MUD FILTRATE SAMPLE SOURCE
 MCSS.              PRESS:   MUD CAKE SAMPLE SOURCE
 RMB .OHMM            2.7:   RESISTIVITY MUD AT BHT
 BHT .F                70:   BOTTOM HOLE TEMPERATURE
 MRT .F                70:   MAXIMUM RECORDED TEMPERATURE
 LUN .             L-4474:   LOGGING UNIT NUMBER
 LUL .             CASPER:   LOGGING UNIT LOCATION
 ENGI.             NELSON:   RECORDING ENGINEER
 WITN.          JORGENSEN:   WITNESSED BY
 CLNT.            A2DTECH:   CLIENT CODE
 ORIG.      2" & 5" PRINT:   ORIGIN OF DATA
 UWI .       490250651800:   UNIQUE WELL ID
 DICO. A2D Technologies, Inc.:   DIGITIZING COMPANY
~OTHER INFORMATION
~A   DEPT      SPR          ASN      ILD        CILD        GR   
# ...
  741.0000   -23.8173     9.8427     6.8072   154.9287    71.8113
  741.5000   -24.0404     9.9641     7.2222   149.7039    75.6986
  742.0000   -24.5164    10.1148     7.5658   143.3967    82.0584
  742.5000   -24.5240    10.1578     7.7657   138.0052    84.6684
  743.0000   -24.7275    10.2318     7.9781   135.4343    86.8002
  743.5000   -25.4039    10.1894     8.1241   132.9346    87.6178
  744.0000   -26.0633    10.6369     8.4943   128.0764    89.3649
  744.5000   -27.3122    11.5124     8.7429   122.6149    62.3312
  745.0000   -29.7803    13.5852    10.0636   110.7897    69.1707
  745.5000   -31.9537    16.8731    11.6551    96.4887    66.8281
  746.0000   -34.2272    20.3660    13.4791    79.6017    51.7098
  746.5000   -36.3548    23.4962    14.6932    70.2979    51.9972
  747.0000   -38.7375    25.8341    18.7302    61.4623    62.8822
  747.5000   -39.8508    27.1685    20.7500    47.1226    57.9817
  748.0000   -39.5782    25.4080    22.6535    46.1339    51.7653
  748.5000   -38.0230    25.9457    24.0664    45.0584    32.9909
  749.0000   -37.6377    24.6014    25.3238    43.9830    32.4854
  749.5000   -39.8019    26.9316    26.6144    42.9075    35.5659
  750.0000   -40.0456    25.3184    26.8225    41.7453    55.6242
  750.5000   -38.1864    25.7665    26.9961    40.9662    50.0129
  751.0000   -37.6799    25.6518    27.4727    40.1188    51.9663
  751.5000   -38.0042    25.2288    28.5315    39.2713    49.7311
  752.0000   -38.7721    25.4193    28.5062    38.4239    53.3393
  752.5000   -38.8028    25.7164    28.3329    37.5765    36.0947
  753.0000   -38.4586    26.0135    28.2844    36.7290    29.7141
  753.5000   -38.6037    26.4835    28.6142    35.8816    40.5577
  754.0000   -38.6436    26.2044    28.8593    35.0342    44.1484
  754.5000   -38.7820    25.6082    28.4898    34.5755    57.8563
  755.0000   -37.9706    25.9287    28.4560    34.5755    56.8149
  755.5000   -36.8384    25.4257    29.8882    34.5755    49.8072
  756.0000   -36.1975    24.9078    31.5214    34.5755    40.1201
  756.5000   -36.2803    24.7139    30.9072    34.5755    37.6164
  757.0000   -35.4172    25.2979    30.7211    34.5755    36.1728
  757.5000   -35.8700    25.8537    30.7374    34.5755    37.7491
  758.0000   -37.6031    26.4269    31.0015    34.5755    41.8585
  758.5000   -39.2040    26.9808    31.4294    34.2966    46.8886
  759.0000   -38.8167    27.5370    31.8843    33.9374    51.9440
  759.5000   -38.2612    28.1700    32.2013    33.5856    52.6581
  760.0000   -37.5959    28.0172    33.2992    33.2178    59.3472
  760.5000   -38.6111    27.8764    35.0407    32.8495    57.7028
  761.0000   -39.9521    29.1340    35.2160    32.4637    46.7149
  761.5000   -39.1984    29.6648    35.1705    32.0645    48.3442
  762.0000   -38.8224    28.7059    35.2300    31.6685    48.6375
  762.5000   -38.3564    27.7830    34.1272    31.4214    46.6888
  763.0000   -39.1880    26.8491    32.5580    30.9906    45.9008
  763.5000   -39.0229    25.7631    30.6001    28.8755    42.8017
  764.0000   -38.8635    24.4638    28.1948    34.5755    41.1392
  764.5000   -37.5136    23.1645    25.9059    39.0631    45.9178
  765.0000   -35.4162    21.8652    23.6367    44.1570    42.6403
  765.5000   -33.6550    20.5684    21.3337    49.2508    38.3270
  766.0000   -31.7366    19.0187    19.2520    54.3446    44.3635
  766.5000   -32.2436    17.4831    15.5033    59.4384    45.5700
  767.0000   -33.2874    15.8307    15.1484    64.5322    47.9625
  767.5000   -33.4903    15.4464    14.7836    67.7684    52.9814
  768.0000   -32.7880    15.0304    14.3838    69.4664    54.8926
  768.5000   -32.5732    14.6130    13.7615    71.3933    46.4566
  769.0000   -32.5891    14.3817    13.5203    73.6168    45.1472
  769.5000   -32.5825    14.2444    13.3123    75.8403    46.6144
  770.0000   -32.5832    14.1089    13.0645    78.0638    53.6659
  770.5000   -32.4408    13.9742    13.0329    79.3868    51.2896
  771.0000   -32.8007    13.8396    13.0395    79.3868    50.7183
  771.5000   -33.3378    13.7040    13.0379    79.3868    57.7938
  772.0000   -33.8558    13.6707    13.0390    79.3868    59.9295
  772.5000   -34.3693    13.6776    13.0395    79.3868    60.3104
  773.0000   -34.9122    13.6844    13.0396    79.3868    53.8431
  773.5000   -35.1012    13.6913    13.0399    79.3868    45.9046
  774.0000   -34.7622    13.6978    13.0401    79.3868    49.0985
  774.5000   -34.3405    13.7049    13.0401    79.3868    53.7215
  775.0000   -33.9240    13.7116    13.0402    79.5265    54.6889
  775.5000   -33.5005    13.7186    13.0402    79.6478    58.2083
  776.0000   -33.0866    13.7253    13.0404    79.7690    56.5050
  776.5000   -32.6373    13.7317    13.0402    79.8903    64.0090
  777.0000   -32.5783    13.7389    13.0406    80.0116    56.1745
  777.5000   -32.5878    13.7438    13.0404    80.1329    59.9927
  778.0000   -32.5840    13.7556    13.0384    80.2542    55.7097
  778.5000   -32.5862    13.7371    12.9959    80.3754    71.5882
  779.0000   -32.5852    13.5475    12.9412    80.4967    77.6048
  779.5000   -32.5855    13.3346    12.8885    80.6180    75.1056
  780.0000   -32.6127    13.3047    12.8349    80.7393    66.1537
  780.5000   -33.0270    13.3130    12.7814    80.8606    66.6542
  781.0000   -33.5773    13.2941    12.7300    80.9818    64.7744
  781.5000   -34.0696    13.1425    12.6664    81.1031    75.2609
  782.0000   -34.6573    12.9906    12.4893    80.4838    63.3378
  782.5000   -34.8177    12.8374    12.3214    80.1773    59.0935
  783.0000   -34.4563    12.6860    12.1510    82.0929    67.3690
  783.5000   -34.1729    12.5332    11.9827    84.0086    64.2484
  784.0000   -33.8683    12.3817    11.8130    85.9242    61.9845
  784.5000   -33.9222    12.2273    11.6438    87.8398    61.9359
  785.0000   -34.0119    12.0695    11.4756    89.7554    65.0982
  785.5000   -34.1006    11.9430    11.3030    91.6711    70.2682
  786.0000   -34.1800    11.8718    11.1639    93.7264    73.9636
  786.5000   -34.0813    11.8987    11.1490    93.8167    57.0468
  787.0000   -33.9435    11.9092    11.1420    93.9396    58.8131
  787.5000   -33.8165    11.9288    11.1358    94.0625    56.1237
  788.0000   -33.6782    11.9434    11.1285    94.1854    60.1367
  788.5000   -33.5578    11.9610    11.1220    94.3083    56.7320
  789.0000   -33.3861    11.9768    11.1152    94.4311    49.3828
  789.5000   -33.4489    11.9935    11.1086    94.5540    53.1000
  790.0000   -34.0262    12.0097    11.1021    94.6769    55.7946
  790.5000   -34.0608    12.0250    11.0947    94.7998    48.1489
  791.0000   -33.6420    12.0455    11.0891    94.9226    60.0090
  791.5000   -33.2571    12.0288    11.0798    95.0455    66.3946
  792.0000   -32.8756    11.7738    11.0786    95.1684    59.7148
  792.5000   -32.4416    11.5920    11.0269    95.2913    55.2977
  793.0000   -32.2400    11.5184    10.8723    95.4141    56.7463
  793.5000   -32.3237    11.4486    10.7173    95.5189    51.0334
  794.0000   -32.4024    11.3790    10.5618    96.6063    56.7715
  794.5000   -32.2313    11.3090    10.4031    97.5537    64.9227
  795.0000   -31.8821    11.2394    10.2537    98.5011    73.4471
  795.5000   -31.5643    11.1695    10.0804    99.4485    75.4341
  796.0000   -31.5038    11.1002     9.9883   100.3959    60.7189
  796.5000   -31.5284    11.0301    10.0173   101.3433    60.2292
  797.0000   -31.5031    10.9610    10.0246   102.2907    50.7976
  797.5000   -31.5503    10.8900    10.0459   103.2381    49.8780
  798.0000   -31.1912    10.8228    10.0547   104.1855    49.8327
  798.5000   -30.6579    10.7469    10.0805   105.1329    42.3354
  799.0000   -30.8025    10.7025    10.0249   106.0803    50.9208
  799.5000   -30.9665    10.6989     9.8599   107.0277    59.7267
  800.0000   -31.1215    10.6879     9.7331   108.0660    57.7738
  800.5000   -30.6869    10.6806     9.7229   108.1223    64.7394
  801.0000   -30.1488    10.6712     9.7226   108.1790    65.3596
  801.5000   -29.6126    10.6629     9.7355   108.2450    66.5790
