~VERSION INFORMATION
 VERS.                2.0:   CWLS LOG ASCII STANDARD - VERSION 2.0
 WRAP.                 NO:   ONE LINE PER DEPTH STEP
~WELL INFORMATION
#MNEM.UNIT      DATA TYPE    INFORMATION
#----------   ------------   ------------------------------
 STRT.F           20.0000:   START DEPTH
 STOP.F          677.0000:   STOP DEPTH
 STEP.F            0.5000:   STEP LENGTH
 NULL.          -999.2500:   NO VALUE
 COMP. FENIX & SCISSON INC:   COMPANY
 WELL. 11 WI NPR 3 #36-26 SX:   WELL
 FLD .             TEAPOT:   FIELD
 LOC .      S11 T38N R78W:   LOCATION
 CNTY.            NATRONA:   COUNTY
 STAT.            WYOMING:   STATE
 CTRY. UNITED STATES OF AMERICA:   COUNTRY
 SRVC.      Dresser Atlas:   SERVICE COMPANY
 DATE.        06-AUG-1980:   LOGDATE
 API .       490251084100:   API NUMBER
~CURVE INFORMATION
#MNEM.UNIT       API CODE    CURVE DESCRIPTION
#----------   ------------   ------------------------------
 DEPT.F                  :   
 SPR .MV     07 010 01 00:   SPONTANEOUS POTENTIAL
 SFL .OHMM   07 220 01 00:   SHALLOW FOCUSED LOG RESISTIVITY
 ILD .OHMM   07 120 46 00:   INDUCTION LOG DEEP
 ILM .OHMM   07 120 44 00:   INDUCTION LOG MEDIUM
 GRD .GAPI   45 310 01 00:   GAMMA RAY FROM DENSITY LOG
 RHOB.G/C3   45 350 01 00:   BULK DENSITY
 CALD.IN     45 280 60 00:   CALIPER
 CORR.G/C3   45 356 01 00:   DENSITY CORRECTION
 DPOR.DEC    45 890 12 00:   DENSITY POROSITY SANDSTONE
 NPOR.DEC    42 890 03 00:   NEUTRON POROSITY SANDSTONE
~PARAMETER INFORMATION
#MNEM.UNIT          VALUE    DESCRIPTION
#----------   ------------   ------------------------------
 PD  .                 GL:   PERMANENT DATUM
 EPD .F              5191:   ELEVATION PERMANENT DATUM
 LMF .                 KB:   LOG MEASURED FROM
 DAPD.F                 5:   FEET ABOVE PERMANENT DATUM
 DMF .                 KB:   DRILLING MEASURED FROM
 EKB .F              5196:   KELLING BUSHING
 EGL .F              5191:   GROUND LEVEL
 DATE.             8-6-80:   RUN DATE
 RUN .                  1:   RUN NUMBER
 DD  .F               680:   DEPTH DRILLER
 DL  .F               679:   DEPTH LOGGER
 BLI .F               676:   BOTTOM LOG INTERVAL
 TLI .F                20:   TOP LOG INTERVAL
 BS  .IN            7.875:   BIT SIZE
 BSD .F               680:   BIT SIZE AT DEPTH
 DFT .                KCL:   DRILLING FLUID TYPE
 DFD .                9.4:   DRILLING FLUID DENSITY
 DFV .                 45:   DRILLING FLUID VISCOSITY
 DFPH.                 12:   DRILLING FLUID PH
 MSS .           FLOWLINE:   MUD SAMPLE SOURCE
 RMS .OHMM            .11:   RESISTIVITY MUD SAMPLE
 MST .F                65:   MUD SAMPLE TEMPERATURE
 RMF .OHMM             .1:   RESISTIVITY MUD FILTRATE SAMPLE
 MFST.F                60:   MUD FILTRATE SAMPLE TEMPERATURE
 RMC .OHMM            .17:   RESISTIVITY MUD CAKE
 MCST.F                65:   MUD CAKE SAMPLE TEMPERATURE
 MFSS.               MEAS:   MUD FILTRATE SAMPLE SOURCE
 MCSS.              CHART:   MUD CAKE SAMPLE SOURCE
 TCS .HRS              .5:   TIME CURCULATED STOPPED
 MRT .F               100:   MAXIMUM RECORDED TEMPERATURE
 LUN .               6240:   LOGGING UNIT NUMBER
 LUL .               RVTN:   LOGGING UNIT LOCATION
 ENGI.            K. RALL:   RECORDING ENGINEER
 WITN.     AMAND/MCINTYRE:   WITNESSED BY
 CLNT.            A2DTECH:   CLIENT CODE
 ORIG.        2" 5" PRINT:   ORIGIN OF DATA
 UWI .       490251084100:   UNIQUE WELL ID
 DICO. A2D Technologies, Inc.:   DIGITIZING COMPANY
~OTHER INFORMATION
~A   DEPT       SPR       SFL         ILD         ILM      GRD       RHOB       CALD       CORR       DPOR       NPOR   
# ...
  288.0000   -73.1936     8.6951     8.1500     7.4914   124.3117     2.4767     8.1487    -0.0007     0.0958     0.2998
  288.5000   -73.1930     8.7606     8.2683     7.5599   121.7341     2.4383     8.1487    -0.0214     0.1185     0.2803
  289.0000   -73.1928     8.8266     8.2327     7.6292   120.3021     2.4003     8.1487    -0.0300     0.1406     0.2687
  289.5000   -73.1928     8.8931     8.1926     7.6991   119.9257     2.4194     8.1487    -0.0274     0.1645     0.2605
  290.0000   -73.1928     8.9099     8.1925     7.7697   120.5620     2.4529     8.1487     0.0101     0.1645     0.2615
  290.5000   -73.1939     8.9294     8.1925     7.8409   121.1962     2.4699     8.1487     0.0114     0.1425     0.2867
  291.0000   -73.1930     8.9490     8.1925     7.8965   120.9998     2.4666     8.1487     0.0114     0.1232     0.3086
  291.5000   -73.1107     8.9689     8.1925     7.8436   119.5858     2.4696     8.1487     0.0111     0.1249     0.3128
  292.0000   -72.7442     8.9816     8.1925     7.8008   118.4960     2.4828     8.1487     0.0209     0.1258     0.3146
  292.5000   -72.3975     8.9188     8.1925     7.7582   118.4869     2.5050     8.1487     0.0324     0.1215     0.3078
  293.0000   -72.5115     8.8713     8.1926     7.7158   117.3687     2.5260     8.1487     0.0440     0.1073     0.2952
  293.5000   -72.6714     8.8183     8.1927     7.6736   115.5003     2.5477     8.1487     0.0531     0.0931     0.2837
  294.0000   -72.8302     9.1363     8.1929     7.6317   113.2685     2.5694     8.1487     0.0518     0.0788     0.2743
  294.5000   -72.9894     9.2335     8.1653     7.5900   112.7378     2.5889     8.1487     0.0458     0.0646     0.2706
  295.0000   -73.1204     8.9892     8.0893     7.5485   113.9358     2.5822     8.1487     0.0279     0.0531     0.2784
  295.5000   -73.2532     8.7449     8.0136     7.4740   114.0289     2.5412     8.1487     0.0104     0.0599     0.2914
  296.0000   -73.3864     8.5782     7.9389     7.3933   112.2194     2.4969     8.1487    -0.0027     0.0858     0.2992
  296.5000   -73.2660     8.5782     7.8648     7.3136   110.2104     2.4643     8.1487    -0.0031     0.1144     0.2864
  297.0000   -73.1223     8.5782     7.7914     7.2347   110.5117     2.4475     8.1487    -0.0037     0.1358     0.2744
  297.5000   -73.0018     8.5782     7.7187     7.1566   113.5771     2.4398     8.1487    -0.0044     0.1425     0.2828
  298.0000   -73.1985     8.4397     7.6351     7.0794   118.3546     2.4412     8.1487    -0.0054     0.1379     0.3126
  298.5000   -73.3990     8.2386     7.5405     7.0030   123.1289     2.4495     8.1492    -0.0016     0.1360     0.3057
  299.0000   -73.5900     8.0424     7.4466     6.9421   126.2095     2.4502     8.1507     0.0076     0.1357     0.3034
  299.5000   -73.5662     7.8508     7.3541     6.9784   126.1085     2.4551     8.1522     0.0146     0.1310     0.3091
  300.0000   -73.5288     7.7525     7.2628     7.0233   122.4111     2.4716     8.1538     0.0197     0.1161     0.3198
  300.5000   -73.4924     7.8177     7.2023     7.0686   118.5616     2.4821     8.1553     0.0225     0.1218     0.3044
  301.0000   -73.4572     7.9441     7.2663     7.1141   119.0510     2.4729     8.1568     0.0198     0.1242     0.3028
  301.5000   -73.4200     8.0725     7.3229     7.1599   121.5284     2.4698     8.1584     0.0179     0.1160     0.3058
  302.0000   -73.2987     8.2041     7.3800     7.2026   123.2070     2.4857     8.1599     0.0283     0.1036     0.3114
  302.5000   -72.8888     8.3440     7.4375     7.2359   122.4070     2.5028     8.1614     0.0222     0.1018     0.3019
  303.0000   -72.4943     8.2523     7.4955     7.2672   119.6450     2.5052     8.1629     0.0123     0.1172     0.2910
  303.5000   -72.0998     8.1526     7.5536     7.2986   116.7709     2.4846     8.1645    -0.0032     0.1213     0.2822
  304.0000   -71.6999     8.1175     7.6118     7.3301   114.7425     2.4758     8.1660    -0.0008     0.1264     0.2918
  304.5000   -71.5843     8.2123     7.6702     7.3618   116.3191     2.4700     8.1676     0.0075     0.1305     0.3290
  305.0000   -71.5957     8.2784     7.7292     7.3935   119.2534     2.4597     8.1690     0.0121     0.1254     0.3332
  305.5000   -72.0350     8.3451     7.7886     7.4255   120.4593     2.4729     8.1691     0.0159     0.1154     0.3328
  306.0000   -72.5017     8.4123     7.8484     7.4576   120.8516     2.4876     8.1691     0.0266     0.1138     0.3308
  306.5000   -72.9711     8.5151     7.9088     7.4898   123.4205     2.4755     8.1690     0.0149     0.1297     0.3229
  307.0000   -72.9446     8.6251     7.9695     7.5221   124.0213     2.4614     8.1685     0.0100     0.1246     0.3151
  307.5000   -72.8853     8.7375     8.0431     7.5547   122.1125     2.4724     8.1680     0.0106     0.1214     0.3093
  308.0000   -72.8302     8.7725     8.0382     7.5872   120.5133     2.4698     8.1675     0.0090     0.1360     0.3057
  308.5000   -72.8340     8.8302     8.0302     7.6111   121.8762     2.4506     8.1670    -0.0020     0.1467     0.3022
  309.0000   -72.9866     8.8884     8.0221     7.5528   122.2176     2.4317     8.1664    -0.0084     0.1509     0.3034
  309.5000   -73.1387     8.9469     8.0141     7.4992   119.7598     2.4235     8.1659    -0.0100     0.1521     0.3054
  310.0000   -73.1418     8.9821     8.0061     7.4459   116.5396     2.4281     8.1654    -0.0093     0.1422     0.3018
  310.5000   -73.0646     8.6400     7.9981     7.3930   116.0428     2.4545     8.1649    -0.0086     0.1353     0.2920
  311.0000   -72.9854     8.3447     7.9901     7.3405   117.3435     2.4505     8.1644    -0.0078     0.1409     0.2858
  311.5000   -72.9063     8.3426     7.9821     7.2884   118.6568     2.4344     8.1639    -0.0071     0.1473     0.2850
  312.0000   -72.8274     8.5436     7.9736     7.2366   119.6600     2.4306     8.1634    -0.0065     0.1465     0.2966
  312.5000   -72.7482     8.6595     7.9431     7.1852   119.5235     2.4515     8.1629    -0.0051     0.1357     0.2930
  313.0000   -72.6670     8.2706     7.8822     7.1341   117.8311     2.4512     8.1624    -0.0036     0.1370     0.2878
  313.5000   -72.6029     8.3445     7.8217     7.0835   117.4653     2.4475     8.1619    -0.0020     0.1358     0.2898
  314.0000   -72.9370     8.5009     7.7618     7.0710   118.9553     2.4571     8.1614    -0.0006     0.1297     0.3050
  314.5000   -73.1697     8.4378     7.7022     7.1935   120.8789     2.4608     8.1609    -0.0042     0.1348     0.3026
  315.0000   -73.0443     8.3403     7.6815     7.3196   120.7927     2.4419     8.1603    -0.0133     0.1441     0.3011
  315.5000   -72.7949     8.4471     7.7525     7.4479   119.1855     2.4346     8.1599    -0.0074     0.1465     0.3013
  316.0000   -72.4447     8.6987     7.9611     7.5785   118.1154     2.4452     8.1593     0.0031     0.1361     0.3058
  316.5000   -72.0918     8.9446     8.1504     7.7113   118.2866     2.4639     8.1588     0.0173     0.1247     0.3102
  317.0000   -71.8563     9.0866     8.3442     7.8465   118.4339     2.4922     8.1583     0.0325     0.1081     0.3008
  317.5000   -71.6668     9.1354     8.5426     7.9884   118.4006     2.5089     8.1578     0.0346     0.0998     0.2936
  318.0000   -71.4782     9.4203     8.7457     8.1709   116.3842     2.4911     8.1573     0.0163     0.1176     0.2698
  318.5000   -71.2895     9.8554     8.9538     8.3576   114.1033     2.4543     8.1568    -0.0023     0.1320     0.2532
  319.0000   -71.1006     9.8950     9.1673     8.5485   110.8839     2.4329     8.1563    -0.0019     0.1469     0.2593
  319.5000   -70.9115     9.9348     9.3828     8.7438   110.5817     2.4341     8.1558    -0.0008     0.1493     0.2747
  320.0000   -70.7230     9.9747     9.5449     8.9436   114.4181     2.4536     8.1553     0.0060     0.1371     0.2866
  320.5000   -70.5659    10.0328     9.7021     9.1479   118.8214     2.4855     8.1548     0.0240     0.1179     0.2675
  321.0000   -70.5067    10.0268     9.8640     9.3568   118.8319     2.5175     8.1543     0.0413     0.0987     0.2529
