~VERSION INFORMATION
 VERS.                2.0:   CWLS LOG ASCII STANDARD - VERSION 2.0
 WRAP.                 NO:   ONE LINE PER DEPTH STEP
~WELL INFORMATION
#MNEM.UNIT      DATA TYPE    INFORMATION
#----------   ------------   ------------------------------
 STRT.F           70.0000:   START DEPTH
 STOP.F         1043.0000:   STOP DEPTH
 STEP.F            0.5000:   STEP LENGTH
 NULL.          -999.2500:   NO VALUE
 COMP. U S NAVY/INTEX OIL CO:   COMPANY
 WELL.       NPR 3 #54S-2:   WELL
 FLD .             TEAPOT:   FIELD
 LOC .       S2 T38N R78W:   LOCATION
 CNTY.            NATRONA:   COUNTY
 STAT.            WYOMING:   STATE
 CTRY. UNITED STATES OF AMERICA:   COUNTRY
 SRVC.         Lane Wells:   SERVICE COMPANY
 DATE.        14-JUN-1960:   LOGDATE
 API .       490250643300:   API NUMBER
~CURVE INFORMATION
#MNEM.UNIT       API CODE    CURVE DESCRIPTION
#----------   ------------   ------------------------------
 DEPT.F                  :   
 CILD.MMHO   05 110 46 00:   CONDUCTIVITY INDUCTION LOG DEEP
 ILD .OHMM   05 120 46 00:   INDUCTION LOG DEEP
 ASN .OHMM   05 041 16 00:   AMPLIFIED SHORT NORMAL 16"
 SPR .MV     05 010 01 00:   SPONTANEOUS POTENTIAL FROM RES.
~PARAMETER INFORMATION
#MNEM.UNIT          VALUE    DESCRIPTION
#----------   ------------   ------------------------------
 PD  .                 GL:   PERMANENT DATUM
 EPD .F              6164:   ELEVATION PERMANENT DATUM
 LMF .                 KB:   LOG MEASURED FROM
 DAPD.F                 5:   FEET ABOVE PERMANENT DATUM
 DMF .                 KB:   DRILLING MEASURED FROM
 EKB .F              6169:   KELLING BUSHING
 EGL .F              6164:   GROUND LEVEL
 DATE.            6-14-60:   RUN DATE
 RUN .                  1:   RUN NUMBER
 DD  .F              1045:   DEPTH DRILLER
 DL  .F              1045:   DEPTH LOGGER
 BLI .F              1043:   BOTTOM LOG INTERVAL
 TLI .F                70:   TOP LOG INTERVAL
 CS  .IN            8.625:   CASING SIZE
 CBD .F                12:   CASING BOTTOM DRILLER
 BS  .IN            7.875:   BIT SIZE
 BSD .F              1045:   BIT SIZE AT DEPTH
 DFT .   GEL/OIL EMULSION:   DRILLING FLUID TYPE
 DFD .                9.7:   DRILLING FLUID DENSITY
 DFV .                 45:   DRILLING FLUID VISCOSITY
 DFPH.                  8:   DRILLING FLUID PH
 DFL .               11.6:   DRILLING FLUID LOSS
 MSS .          FLOW LINE:   MUD SAMPLE SOURCE
 RMS .OHMM            1.6:   RESISTIVITY MUD SAMPLE
 MST .F                62:   MUD SAMPLE TEMPERATURE
 RMF .OHMM            1.4:   RESISTIVITY MUD FILTRATE SAMPLE
 MFST.F                60:   MUD FILTRATE SAMPLE TEMPERATURE
 RMC .OHMM           1.75:   RESISTIVITY MUD CAKE
 MCST.F                60:   MUD CAKE SAMPLE TEMPERATURE
 MFSS.                MUD:   MUD FILTRATE SAMPLE SOURCE
 MCSS.              PRESS:   MUD CAKE SAMPLE SOURCE
 RMB .OHMM            1.4:   RESISTIVITY MUD AT BHT
 BHT .F                72:   BOTTOM HOLE TEMPERATURE
 MRT .F                72:   MAXIMUM RECORDED TEMPERATURE
 LUN .             C-4474:   LOGGING UNIT NUMBER
 LUL .             CASPER:   LOGGING UNIT LOCATION
 ENGI.      NELSON/GRIGGS:   RECORDING ENGINEER
 WITN.   JORGENSEN/HUDSON:   WITNESSED BY
 CLNT.            A2DTECH:   CLIENT CODE
 ORIG.       2", 5" PRINT:   ORIGIN OF DATA
 UWI .       490250643300:   UNIQUE WELL ID
 DICO. A2D Technologies, Inc.:   DIGITIZING COMPANY
~OTHER INFORMATION
~A   DEPT     CILD          ILD        ASN      SPR   
# ...
  946.0000    97.8842     9.6179    11.0439   -44.9995
  946.5000    98.1319     9.5838    11.0368   -45.0015
  947.0000    98.3795     9.5503    11.0315   -44.9978
  947.5000    98.6271     9.5158    11.0289   -45.0050
  948.0000    98.8747     9.4888    11.0000   -44.9882
  948.5000    99.1223     9.4691    10.9645   -45.0865
  949.0000    99.3699     9.4483    10.9308   -45.2050
  949.5000    99.6176     9.4280    10.8952   -45.3418
  950.0000    99.8652     9.4074    10.8620   -44.8416
  950.5000   100.1128     9.3870    10.8249   -44.9090
  951.0000   100.3604     9.3666    10.7961   -45.1168
  951.5000   100.6080     9.3460    10.7308   -45.1271
  952.0000   100.8557     9.3262    10.4049   -45.3336
  952.5000   101.1033     9.3150    10.1409   -44.6246
  953.0000   101.3509     9.3081    10.0875   -44.6000
  953.5000   101.5985     9.3012    10.0471   -44.8657
  954.0000   101.8461     9.2944    10.0059   -45.0619
  954.5000   102.0937     9.2875     9.9953   -45.3071
  955.0000   102.3413     9.2807     9.9898   -45.4900
  955.5000   102.5890     9.2738     9.9648   -45.5612
  956.0000   102.7014     9.2670     9.9276   -45.2094
  956.5000   102.7014     9.2600     9.9022   -44.6842
  957.0000   102.7014     9.2535     9.8773   -44.8768
  957.5000   102.7014     9.2459     9.8457   -44.9867
  958.0000   102.7014     9.2403     9.8098   -44.9017
  958.5000   102.7014     9.2309     9.7756   -44.8402
  959.0000   102.7014     9.2450     9.7655   -44.9380
  959.5000   102.5542     9.2787     9.8279   -45.1125
  960.0000   102.1611     9.3078     9.8969   -45.2641
  960.5000   101.7681     9.3394    10.0237   -45.4378
  961.0000   101.3750     9.3689    10.0627   -45.5872
  961.5000   100.9005     9.4009    10.6823   -45.7066
  962.0000    99.0995     9.4286    10.9948   -45.6833
  962.5000    98.5592     9.4627    11.0113   -45.7428
  963.0000    98.1072     9.5042    11.3039   -45.3479
  963.5000    97.6552     9.8626    11.6138   -44.8191
  964.0000    95.4976    10.2999    12.0609   -44.6911
  964.5000    90.7740    10.5938    12.4716   -44.7904
  965.0000    84.9621    11.0674    13.2178   -45.2303
  965.5000    79.2891    11.6372    14.0178   -45.6102
  966.0000    75.0814    12.1632    14.9073   -46.0356
  966.5000    70.2844    12.7897    15.7968   -46.4041
  967.0000    66.2308    13.4467    16.6863   -46.8430
  967.5000    61.3627    14.2007    17.5758   -48.0179
  968.0000    57.6777    14.5815    18.4653   -48.7564
  968.5000    57.3910    14.5228    19.1730   -49.3023
  969.0000    57.0862    14.4793    19.7320   -49.5600
  969.5000    56.7985    14.4059    19.8105   -49.4314
  970.0000    56.5243    14.3520    19.8566   -49.1765
  970.5000    56.2563    14.2881    19.6959   -48.7808
  971.0000    56.0006    14.2278    19.3465   -48.6568
  971.5000    60.2401    14.0977    18.9961   -48.5741
  972.0000    63.0143    13.7556    18.6016   -48.5580
  972.5000    65.1617    13.5021    18.2409   -48.2169
  973.0000    66.1662    13.3295    17.9747   -47.6776
  973.5000    67.1707    13.1577    17.7349   -47.1950
  974.0000    68.1752    13.0125    17.4964   -46.7846
  974.5000    69.1798    12.8227    17.2564   -46.8126
  975.0000    70.2844    12.7377    17.0176   -46.8823
  975.5000    69.7592    12.8043    16.7778   -46.9067
  976.0000    69.1759    12.8542    16.6743   -46.8059
  976.5000    68.5926    12.9117    16.6292   -46.5194
  977.0000    68.0094    12.9667    16.5904   -46.0217
  977.5000    67.4261    13.0196    16.5566   -46.0200
  978.0000    66.8428    13.0805    16.5338   -46.3519
  978.5000    66.8811    13.0853    16.6527   -46.6829
  979.0000    67.1551    13.0215    16.7943   -46.6448
  979.5000    67.4290    12.9627    16.9396   -46.8179
  980.0000    67.7030    12.9029    16.9377   -47.2461
  980.5000    67.9770    12.8399    16.8611   -47.1702
  981.0000    68.2509    12.7851    16.7972   -46.9021
  981.5000    68.4834    12.6564    16.7424   -46.5538
  982.0000    70.0142    12.5015    16.5856   -46.1692
  982.5000    71.3437    12.3803    16.3275   -45.7531
  983.0000    72.6733    12.2499    16.0988   -45.6982
  983.5000    74.0028    12.1243    15.8605   -45.4586
  984.0000    75.3323    11.9961    15.4994   -44.7240
  984.5000    76.6618    11.8560    15.1575   -44.7104
  985.0000    77.4882    11.7657    14.8234   -45.2379
  985.5000    78.3766    11.6727    14.5765   -45.4434
  986.0000    79.1300    11.5756    14.3383   -46.0783
  986.5000    79.8834    11.4887    14.0992   -46.0512
  987.0000    80.6368    11.4800    13.8581   -45.2259
  987.5000    80.4897    11.4811    13.6223   -45.0576
  988.0000    78.9829    11.4831    13.3788   -44.8955
  988.5000    77.4882    11.4686    13.1972   -44.8896
  989.0000    79.0550    11.2624    13.1952   -45.1476
  989.5000    80.9923    10.9474    13.1811   -45.3979
  990.0000    82.8910    10.9065    13.0956   -45.9931
  990.5000    82.8910    10.8689    13.0009   -46.8970
  991.0000    82.8910    10.7453    12.9174   -47.4079
  991.5000    83.7724    10.6264    12.7802   -47.7102
  992.0000    84.8360    10.5051    12.6447   -47.7815
  992.5000    85.8996    10.3698    12.5084   -47.9526
  993.0000    86.4929    10.3095    12.3710   -47.9542
  993.5000    89.9610    10.2561    12.2352   -47.9049
  994.0000    91.8957    10.1072    12.0967   -46.5437
  994.5000    92.6001     9.9755    11.9630   -45.2114
  995.0000    93.2698     9.8341    11.8194   -45.3673
  995.5000    93.9395     9.6964    11.7192   -45.6550
  996.0000    94.6092     9.6908    11.6666   -46.0788
  996.5000    95.2788     9.7117    11.6046   -46.2150
  997.0000    96.5692     9.7279    11.5475   -46.2061
  997.5000    99.0995     9.7426    11.4823   -45.7196
  998.0000    97.3397     9.7657    11.4059   -45.6720
  998.5000    95.4976     9.7417    11.3175   -46.3651
  999.0000    95.8453     9.6829    11.2339   -46.8830
  999.5000    96.2365     9.6122    11.1451   -47.8248
 1000.0000    96.6278     9.6554    11.1327   -47.8136
 1000.5000    97.0191     9.7052    11.1643   -47.4865
 1001.0000    97.2986     9.7150    11.1868   -47.6010
 1001.5000    97.2986     9.7408    11.2139   -47.7528
 1002.0000    97.2986     9.7582    11.2971   -47.6634
 1002.5000    97.2986     9.7800    11.3848   -47.2152
 1003.0000    97.2986     9.7998    11.3773   -47.2171
 1003.5000    96.0157     9.8204    11.3591   -47.3874
 1004.0000    93.0284     9.8410    11.3427   -46.7041
 1004.5000    91.9059     9.8579    11.3244   -45.7166
 1005.0000    94.2280     9.8358    11.3095   -45.6347
 1005.5000    96.1150     9.8032    11.2817   -46.1446
 1006.0000    99.0447     9.7726    11.2442   -46.2490
 1006.5000    98.0503     9.7411    11.2102   -46.8633
 1007.0000    97.0700     9.7101    11.1748   -46.8238
 1007.5000    96.0987     9.6787    11.1402   -46.5662
 1008.0000    95.1245     9.6477    11.1051   -46.0956
 1008.5000    94.1390     9.6161    11.0702   -46.0041
 1009.0000    93.6945     9.5891    11.0353   -46.6222
 1009.5000    94.9612     9.5685    11.0001   -47.2211
 1010.0000    96.2923     9.5500    10.9657   -47.2149
 1010.5000    97.6277     9.5314    10.9298   -47.1264
 1011.0000    99.0995     9.5128    10.8966   -47.0341
 1011.5000    99.0995     9.4942    10.8590   -46.9786
 1012.0000    99.0995     9.4756    10.8678   -46.8042
 1012.5000    99.0995     9.4570    10.9039   -47.3033
 1013.0000    99.0995     9.4385    10.9322   -47.6025
 1013.5000    99.0995     9.4198    10.9642   -47.3663
 1014.0000    99.0995     9.4014    10.9944   -47.1454
 1014.5000    99.0995     9.3825    11.0253   -45.6767
 1015.0000    99.0974     9.3645    11.0562   -45.0410
 1015.5000    99.0949     9.3448    11.0861   -46.1808
 1016.0000    99.0896     9.3288    11.1159   -46.3252
 1016.5000    99.0816     9.2989    11.0496   -46.6833
 1017.0000    99.0729     9.2464    10.9384   -47.0335
 1017.5000    99.0666     9.1959    10.5823   -47.0626
 1018.0000    99.9207     9.1442    10.1550   -46.8270
 1018.5000   101.3365     9.0932    10.0464   -46.4897
