~VERSION INFORMATION
 VERS.                2.0:   CWLS LOG ASCII STANDARD - VERSION 2.0
 WRAP.                 NO:   ONE LINE PER DEPTH STEP
~WELL INFORMATION
#MNEM.UNIT      DATA TYPE    INFORMATION
#----------   ------------   ------------------------------
 STRT.F          148.5000:   START DEPTH
 STOP.F          882.5000:   STOP DEPTH
 STEP.F            0.5000:   STEP LENGTH
 NULL.          -999.2500:   NO VALUE
 COMP.               NAVY:   COMPANY
 WELL. RES 3 TEAPOT DOM #55S-11:   WELL
 FLD .             TEAPOT:   FIELD
 LOC .      S11 T38N R78W:   LOCATION
 CNTY.            NATRONA:   COUNTY
 STAT.            WYOMING:   STATE
 CTRY. UNITED STATES OF AMERICA:   COUNTRY
 SRVC.       Schlumberger:   SERVICE COMPANY
 DATE.        05-AUG-1961:   LOGDATE
 API .       490250634000:   API NUMBER
~CURVE INFORMATION
#MNEM.UNIT       API CODE    CURVE DESCRIPTION
#----------   ------------   ------------------------------
 DEPT.F                  :   
 GR  .GAPI   30 310 01 00:   GAMMA RAY
 SPR .MV     05 010 01 00:   SPONTANEOUS POTENTIAL FROM RES.
 CILD.MMHO   05 110 46 00:   CONDUCTIVITY INDUCTION LOG DEEP
 ASN .OHMM   05 041 16 00:   AMPLIFIED SHORT NORMAL 16"
 ILD .OHMM   05 120 46 00:   INDUCTION LOG DEEP
~PARAMETER INFORMATION
#MNEM.UNIT          VALUE    DESCRIPTION
#----------   ------------   ------------------------------
 PD  .                 GL:   PERMANENT DATUM
 EPD .F              5201:   ELEVATION PERMANENT DATUM
 LMF .                 KB:   LOG MEASURED FROM
 DAPD.F                 6:   FEET ABOVE PERMANENT DATUM
 DMF .                 KB:   DRILLING MEASURED FROM
 EKB .F              5207:   KELLING BUSHING
 EGL .F              5201:   GROUND LEVEL
 DATE.             8-5-61:   RUN DATE
 RUN .                  1:   RUN NUMBER
 DD  .F               880:   DEPTH DRILLER
 DL  .F               882:   DEPTH LOGGER
 BLI .F               881:   BOTTOM LOG INTERVAL
 TLI .F               150:   TOP LOG INTERVAL
 BS  .IN            7.875:   BIT SIZE
 BSD .F               880:   BIT SIZE AT DEPTH
 DFT .       OIL EMULSION:   DRILLING FLUID TYPE
 DFV .                 40:   DRILLING FLUID VISCOSITY
 MSS .           FLOWLINE:   MUD SAMPLE SOURCE
 RMS .OHMM            .96:   RESISTIVITY MUD SAMPLE
 MST .F                74:   MUD SAMPLE TEMPERATURE
 TCS .HRS               1:   TIME CURCULATED STOPPED
 LUN .               2544:   LOGGING UNIT NUMBER
 LUL .                 NC:   LOGGING UNIT LOCATION
 ENGI.            EARNEST:   RECORDING ENGINEER
 WITN.          JORGENSEN:   WITNESSED BY
 CLNT.            A2DTECH:   CLIENT CODE
 ORIG.       2", 5" PRINT:   ORIGIN OF DATA
 UWI .       490250634000:   UNIQUE WELL ID
 DICO. A2D Technologies, Inc.:   DIGITIZING COMPANY
~OTHER INFORMATION
~A   DEPT       GR        SPR       CILD        ASN        ILD   
# ...
  453.5000  -999.2500   -52.0347   140.8772     8.2994     7.7037
  454.0000  -999.2500   -52.0245   140.4402     8.3959     7.7131
  454.5000  -999.2500   -51.9436   140.0032     8.5181     7.7312
  455.0000  -999.2500   -51.6816   139.5663     8.6373     7.7485
  455.5000  -999.2500   -51.4374   139.1293     8.7534     7.7637
  456.0000  -999.2500   -51.1801   138.6923     8.8729     7.7844
  456.5000  -999.2500   -50.9319   138.2553     8.9174     7.7929
  457.0000  -999.2500   -50.6750   137.8183     8.9079     7.8289
  457.5000  -999.2500   -50.4237   137.3813     8.8806     7.9171
  458.0000  -999.2500   -50.2651   136.9443     8.8541     7.9537
  458.5000  -999.2500   -50.2129   136.5073     8.8277     8.0021
  459.0000  -999.2500   -50.5101   136.0703     8.8443     8.0433
  459.5000  -999.2500   -50.8540   134.4663     8.8791     8.0880
  460.0000  -999.2500   -51.1951   132.4270     8.9952     8.1314
  460.5000  -999.2500   -51.5345   130.3877     9.1815     8.1751
  461.0000  -999.2500   -51.8805   128.3484     9.3360     8.2499
  461.5000  -999.2500   -52.1910   126.3092     9.5036     8.3874
  462.0000  -999.2500   -52.1567   124.2699     9.6660     8.5316
  462.5000  -999.2500   -52.0785   122.2306     9.8361     8.6727
  463.0000  -999.2500   -52.0017   120.1913     9.8939     8.8220
  463.5000  -999.2500   -51.9357   118.1521     9.9870     8.9885
  464.0000  -999.2500   -51.8433   116.1128    10.0844     9.1813
  464.5000  -999.2500   -51.8365   114.0735    10.1818     9.3926
  465.0000  -999.2500   -51.6195   112.0342    10.2774     9.5874
  465.5000  -999.2500   -51.1793   109.9950    10.3770     9.8120
  466.0000  -999.2500   -50.7794   107.9557    10.4688     9.9321
  466.5000  -999.2500   -50.3739   105.7402    10.5774     9.9154
  467.0000  -999.2500   -49.9485   105.7402    10.6103     9.9256
  467.5000  -999.2500   -49.8061   106.4955    10.5494     9.9163
  468.0000  -999.2500   -50.1003   108.2281    10.4989     9.9287
  468.5000  -999.2500   -50.3620   109.9791    10.4368     9.8507
  469.0000  -999.2500   -50.6422   111.7357    10.3779     9.6807
  469.5000  -999.2500   -50.9097   113.4954    10.3170     9.5184
  470.0000  -999.2500   -51.1900   115.2546    10.2573     9.3578
  470.5000  -999.2500   -51.4169   117.0111    10.1967     9.1853
  471.0000  -999.2500   -51.5353   117.8540    10.1371     9.1067
  471.5000  -999.2500   -51.6372   117.7141    10.0759     9.1056
  472.0000  -999.2500   -51.7410   117.5584    10.0236     9.0754
  472.5000  -999.2500   -51.8213   117.4268    10.0192     9.0575
  473.0000  -999.2500   -51.6910   117.2953    10.0192     9.0307
  473.5000  -999.2500   -51.4080   117.1637    10.0199     9.0159
  474.0000  -999.2500   -51.0116   117.0321    10.0178     9.0079
  474.5000  -999.2500   -50.6883   116.9006    10.0218     9.0565
  475.0000  -999.2500   -50.3696   116.7690    10.0140     9.1457
  475.5000  -999.2500   -50.0055   116.6374    10.0422     9.2249
  476.0000  -999.2500   -49.7673   116.5059    10.1769     9.3071
  476.5000  -999.2500   -49.8716   116.3743    10.3251     9.3894
  477.0000  -999.2500   -50.0889   116.2427    10.5255     9.4196
  477.5000  -999.2500   -50.3300   116.1112    10.6878     9.4165
  478.0000  -999.2500   -50.5581   115.9796    10.8986     9.4166
  478.5000  -999.2500   -50.7990   115.8480    10.8210     9.4191
  479.0000  -999.2500   -51.0218   115.8107    10.6073     9.4125
  479.5000  -999.2500   -51.2826   116.6595    10.4349     9.4276
  480.0000  -999.2500   -51.4292   117.8248    10.2460     9.3641
  480.5000  -999.2500   -51.4104   118.9901    10.0462     8.9580
  481.0000  -999.2500   -51.4198   120.1554    10.0071     8.5604
  481.5000  -999.2500   -51.4144   121.3207    10.0000     8.4990
  482.0000  -999.2500   -51.4187   122.4860     9.9902     8.5141
  482.5000  -999.2500   -51.4022   123.6513     9.9362     8.5076
  483.0000  -999.2500   -51.1938   124.8166     9.7980     8.5048
  483.5000  -999.2500   -50.9358   125.9819     9.6502     8.3823
  484.0000  -999.2500   -50.6857   127.1472     9.5564     8.2172
  484.5000  -999.2500   -50.4348   128.9260     9.4531     8.0651
  485.0000  -999.2500   -50.1800   131.8050     9.3703     7.8944
  485.5000  -999.2500   -49.9330   134.6840     9.3211     7.7582
  486.0000  -999.2500   -49.6263   137.5629     9.2431     7.6377
  486.5000  -999.2500   -49.6423   140.4419     8.9766     7.4693
  487.0000  -999.2500   -49.7895   143.3209     8.7712     7.3033
  487.5000  -999.2500   -49.9103   146.1999     8.5791     7.1363
  488.0000  -999.2500   -50.0441   149.0789     8.3856     6.9660
  488.5000  -999.2500   -50.1717   152.0645     8.1819     6.8214
  489.0000  -999.2500   -50.3015   152.0645     8.0542     6.9424
  489.5000  -999.2500   -50.4326   150.0504     8.0478     7.1064
  490.0000  -999.2500   -50.5584   148.8755     8.0519     7.2599
  490.5000  -999.2500   -50.6955   146.4963     8.1347     7.4209
  491.0000  -999.2500   -50.7966   144.1172     8.2883     7.5732
  491.5000  -999.2500   -50.8238   141.7380     8.4338     7.7392
  492.0000  -999.2500   -50.6795   139.3589     8.5804     7.8118
  492.5000  -999.2500   -50.4045   136.9797     8.7310     7.8033
  493.0000  -999.2500   -50.1630   135.9517     8.8147     7.8062
  493.5000  -999.2500   -49.9048   136.6818     8.8426     7.8066
  494.0000  -999.2500   -49.6577   137.3615     8.8721     7.7842
  494.5000  -999.2500   -49.3997   138.0413     8.8712     7.7386
  495.0000  -999.2500   -49.1953   138.7211     8.8156     7.6994
  495.5000  -999.2500   -49.2148   139.4008     8.7441     7.6575
  496.0000  -999.2500   -49.4439   139.9799     8.6792     7.6175
  496.5000  -999.2500   -49.6648   141.3178     8.6135     7.5996
  497.0000  -999.2500   -49.8847   142.4831     8.5672     7.6119
  497.5000  -999.2500   -50.1063   143.6484     8.5295     7.6818
  498.0000  -999.2500   -50.3247   141.9940     8.4950     7.7517
  498.5000  -999.2500   -50.5441   140.9725     8.4580     7.8065
  499.0000  -999.2500   -50.6145   139.5209     8.4487     7.8396
  499.5000  -999.2500   -50.6047   138.0693     8.4458     7.8691
  500.0000  -999.2500   -50.6098   136.6177     8.4829     7.8976
  500.5000  -999.2500   -50.6063   135.1661     8.5821     7.9277
  501.0000  -999.2500   -50.6048   133.7145     8.7282     7.9549
  501.5000  -999.2500   -50.5063   131.9235     8.8361     7.9884
  502.0000  -999.2500   -50.3649   131.9235     8.8796     8.0049
  502.5000  -999.2500   -50.2315   132.4037     8.9490     7.9911
  503.0000  -999.2500   -50.0933   133.0320     8.9394     7.9812
  503.5000  -999.2500   -49.9588   133.6524     8.8912     7.9692
  504.0000  -999.2500   -49.8167   134.2780     8.8415     7.9583
  504.5000  -999.2500   -49.8664   134.9064     8.7954     7.9468
  505.0000  -999.2500   -49.9665   135.5341     8.7393     7.9356
  505.5000  -999.2500   -50.0559   135.9706     8.7124     7.9243
  506.0000  -999.2500   -50.1504   135.9669     8.7398     7.9131
  506.5000  -999.2500   -50.2423   135.2024     8.7565     7.9018
  507.0000  -999.2500   -50.3361   134.2598     8.7778     7.8906
  507.5000  -999.2500   -50.4285   133.3256     8.7995     7.8793
  508.0000  -999.2500   -50.5229   132.3914     8.8131     7.8681
  508.5000  -999.2500   -50.6132   131.4571     8.8112     7.8569
  509.0000  -999.2500   -50.7113   130.5229     8.8109     7.8456
  509.5000  -999.2500   -50.7945   129.9094     8.7868     7.8344
  510.0000  -999.2500   -50.8247   131.4657     8.7556     7.8231
  510.5000  -999.2500   -50.6830   133.3059     8.7256     7.8119
  511.0000  -999.2500   -50.3490   135.1460     8.6941     7.7955
  511.5000  -999.2500   -50.0240   136.9862     8.6913     7.7712
  512.0000  -999.2500   -49.7037   138.8263     8.7043     7.7465
  512.5000  -999.2500   -49.3559   139.9799     8.7224     7.7218
  513.0000  -999.2500   -49.1684   140.0626     8.7320     7.6971
  513.5000  -999.2500   -49.2494   140.2814     8.7285     7.6724
  514.0000  -999.2500   -49.3696   140.5003     8.6856     7.6477
