~VERSION INFORMATION
 VERS.                2.0:   CWLS LOG ASCII STANDARD - VERSION 2.0
 WRAP.                 NO:   ONE LINE PER DEPTH STEP
~WELL INFORMATION
#MNEM.UNIT      DATA TYPE    INFORMATION
#----------   ------------   ------------------------------
 STRT.F           16.0000:   START DEPTH
 STOP.F         1254.0000:   STOP DEPTH
 STEP.F            0.5000:   STEP LENGTH
 NULL.          -999.2500:   NO VALUE
 COMP. FENIX & SCISSON INC:   COMPANY
 WELL. NAVAL PET RESERVE 3   75-S-14 #75-14:   WELL
 FLD .             TEAPOT:   FIELD
 LOC .      S14 T38N R78W:   LOCATION
 CNTY.            NATRONA:   COUNTY
 STAT.            WYOMING:   STATE
 CTRY. UNITED STATES OF AMERICA:   COUNTRY
 SRVC.              Welex:   SERVICE COMPANY
 DATE.        17-FEB-1977:   LOGDATE
 API .       490251027400:   API NUMBER
~CURVE INFORMATION
#MNEM.UNIT       API CODE    CURVE DESCRIPTION
#----------   ------------   ------------------------------
 DEPT.F                  :   
 SGRD.OHMM   07 220 05 00:   SHALLOW RESISTIVITY
 ILM .OHMM   07 120 44 00:   INDUCTION LOG MEDIUM
 SPR .MV     07 010 01 00:   SPONTANEOUS POTENTIAL
 ILD .OHMM   07 120 46 00:   INDUCTION LOG DEEP
 CALD.IN     45 280 60 00:   CALIPER
 GRD .GAPI   45 310 01 00:   GAMMA RAY FROM DENSITY LOG
 DPHI.DEC    45 890 12 00:   DENSITY POROSITY SANDSTONE
 RHOB.G/C3   45 350 01 00:   BULK DENSITY
 CORR.G/C3   45 356 01 00:   DENSITY CORRECTION
~PARAMETER INFORMATION
#MNEM.UNIT          VALUE    DESCRIPTION
#----------   ------------   ------------------------------
 PD  .                 GL:   PERMANENT DATUM
 EPD .F              5336:   ELEVATION PERMANENT DATUM
 LMF .                 GL:   LOG MEASURED FROM
 DMF .                 GL:   DRILLING MEASURED FROM
 EKB .F              5341:   KELLING BUSHING
 EGL .F              5336:   GROUND LEVEL
 DATE.          2-17-1977:   RUN DATE
 RUN .                  1:   RUN NUMBER
 DD  .F              1260:   DEPTH DRILLER
 DL  .F              1258:   DEPTH LOGGER
 BLI .F              1256:   BOTTOM LOG INTERVAL
 TLI .F                30:   TOP LOG INTERVAL
 CS  .IN            8.625:   CASING SIZE
 CBD .F                42:   CASING BOTTOM DRILLER
 CBL .F                42:   CASING BOTTOM LOGGER
 BS  .IN            7.875:   BIT SIZE
 BSD .F              1260:   BIT SIZE AT DEPTH
 DFT .          KCL WATER:   DRILLING FLUID TYPE
 DFD .                9.5:   DRILLING FLUID DENSITY
 DFV .                 34:   DRILLING FLUID VISCOSITY
 MSS .          FLOW LINE:   MUD SAMPLE SOURCE
 RMS .OHMM            .30:   RESISTIVITY MUD SAMPLE
 MST .F                43:   MUD SAMPLE TEMPERATURE
 RMF .OHMM            .28:   RESISTIVITY MUD FILTRATE SAMPLE
 MFST.F                43:   MUD FILTRATE SAMPLE TEMPERATURE
 RMC .OHMM            .40:   RESISTIVITY MUD CAKE
 MCST.F                43:   MUD CAKE SAMPLE TEMPERATURE
 MFSS.           MEASURED:   MUD FILTRATE SAMPLE SOURCE
 MCSS.           MEASURED:   MUD CAKE SAMPLE SOURCE
 RMB .OHMM            .13:   RESISTIVITY MUD AT BHT
 BHT .F               101:   BOTTOM HOLE TEMPERATURE
 TCS .HRS               5:   TIME CURCULATED STOPPED
 MRT .F               101:   MAXIMUM RECORDED TEMPERATURE
 LUN .               8611:   LOGGING UNIT NUMBER
 LUL .           GILLETTE:   LOGGING UNIT LOCATION
 ENGI.             LAWSON:   RECORDING ENGINEER
 WITN.         STUEBINGER:   WITNESSED BY
 CLNT.            A2DTECH:   CLIENT CODE
 ORIG.       2", 5" PRINT:   ORIGIN OF DATA
 UWI .       490251027400:   UNIQUE WELL ID
 DICO. A2D Technologies, Inc.:   DIGITIZING COMPANY
~OTHER INFORMATION
~A   DEPT     SGRD        ILM        SPR        ILD       CALD         GRD      DPHI       RHOB       CORR   
# ...
 1001.5000     9.8801     7.0869   -41.7277     5.7175     8.1861   122.3132     0.1010     2.4797     0.0465
 1002.0000     9.9035     7.0022   -41.7915     5.6740     8.1935   122.9423     0.0960     2.4884     0.0489
 1002.5000     9.9271     6.9190   -41.8551     5.6180     8.1989   121.5174     0.0909     2.4972     0.0513
 1003.0000     9.9509     6.8369   -41.9186     5.6368     8.2210   120.0479     0.0859     2.5060     0.0537
 1003.5000     9.9747     6.7557   -41.9822     5.6741     8.2397   118.5120     0.0809     2.5148     0.0560
 1004.0000     9.9985     6.6914   -42.0457     5.7116     8.2153   119.7318     0.0786     2.5221     0.0561
 1004.5000    10.0224     6.6907   -42.1094     5.7493     8.1878   121.7401     0.0809     2.5145     0.0561
 1005.0000    10.0464     6.6912   -42.1720     5.7873     8.1613   123.7688     0.0826     2.5084     0.0562
 1005.5000    10.0706     6.6912   -42.2148     5.8256     8.1457   125.7885     0.0795     2.5155     0.0586
 1006.0000    10.0945     6.6912   -42.2206     5.8641     8.1538   127.8039     0.0780     2.5226     0.0610
 1006.5000    10.2170     6.6914   -42.4363     5.9028     8.1690   129.2266     0.0801     2.5179     0.0619
 1007.0000    10.0695     6.6922   -42.6639     5.9419     8.1838   130.7150     0.0822     2.5104     0.0612
 1007.5000     9.8319     6.6912   -42.8906     5.9811     8.1985   132.2430     0.0834     2.5043     0.0606
 1008.0000     9.5999     6.5657   -43.1170     6.0206     8.2132   130.0880     0.0804     2.5083     0.0601
 1008.5000     9.4919     6.4503   -43.3435     6.1030     8.2212   127.2390     0.0786     2.5128     0.0638
 1009.0000     9.5226     6.3369   -43.5700     5.9336     8.2202   126.4090     0.0795     2.5176     0.0688
 1009.5000     9.5552     6.2255   -43.7964     5.7603     8.2120   127.4195     0.0820     2.5144     0.0716
 1010.0000     9.5796     6.1160   -44.0228     5.5917     8.2041   128.5641     0.0869     2.5054     0.0700
 1010.5000     9.3675     6.0076   -44.2490     5.4281     8.1677   129.7177     0.0918     2.4963     0.0685
 1011.0000     9.2013     5.9357   -44.4767     5.2693     8.1303   130.6852     0.0967     2.4872     0.0669
 1011.5000     9.0379     5.9163   -44.7631     5.1152     8.0938   128.7966     0.1004     2.4781     0.0676
 1012.0000     8.8775     5.8850   -45.1433     4.9656     8.0608   126.8650     0.1035     2.4690     0.0703
 1012.5000     8.5850     5.7787   -45.5223     4.7169     8.0618   124.9501     0.1066     2.4599     0.0731
 1013.0000     8.0799     5.5299   -45.9017     4.4592     8.0563   123.0372     0.1126     2.4509     0.0739
 1013.5000     7.5999     5.3085   -46.2809     4.2168     8.0491   121.1244     0.1203     2.4417     0.0735
 1014.0000     7.1490     5.1218   -46.6601     3.8619     8.0419   119.2099     0.1300     2.4292     0.0731
 1014.5000     6.7284     4.6071   -47.0394     3.4463     8.0347   117.4533     0.1398     2.4076     0.0727
 1015.0000     6.1928     4.1232   -47.4187     3.0747     8.0276   117.0827     0.1496     2.3861     0.0723
 1015.5000     5.5123     3.6915   -47.7967     2.7435     8.0204   116.9250     0.1614     2.3646     0.0699
 1016.0000     4.9050     3.3050   -48.1827     2.4479     8.0132   116.8746     0.1748     2.3432     0.0663
 1016.5000     4.3420     2.9590   -48.5692     2.1842     8.0061   117.4827     0.1881     2.3217     0.0627
 1017.0000     3.5885     2.6492   -48.2504     2.0196     8.0072   118.2369     0.2000     2.3112     0.0580
 1017.5000     2.9397     2.3719   -47.8630     1.9184     8.0193   118.9882     0.1984     2.3145     0.0510
 1018.0000     2.4081     2.2802   -47.4861     1.8284     8.0312   122.1087     0.1873     2.3463     0.0441
 1018.5000     2.2593     2.5292   -47.1109     1.8116     8.0432   127.4522     0.1624     2.3855     0.0418
 1019.0000     3.5129     2.7464   -46.7355     1.8886     8.0552   132.5898     0.1374     2.4249     0.0509
 1019.5000     5.5156     2.9822   -46.3601     2.0820     8.0672   133.5480     0.1138     2.4658     0.0544
 1020.0000     4.5885     3.2383   -45.9843     2.2961     8.0792   134.3508     0.1014     2.4789     0.0570
 1020.5000     6.9259     3.5163   -45.6091     2.5320     8.0912   135.1805     0.0972     2.4838     0.0596
 1021.0000     7.8965     3.8182   -45.2405     2.7919     8.1019   136.2292     0.0938     2.4885     0.0622
 1021.5000     7.8965     4.1446   -44.9586     3.0786     8.1016   137.7500     0.0938     2.4934     0.0648
 1022.0000     7.7360     4.4263   -44.8601     3.3946     8.1016   139.2379     0.0938     2.4981     0.0663
 1022.5000     7.3051     4.6550   -44.9077     3.7431     8.1017   139.4628     0.0943     2.5017     0.0668
 1023.0000     7.0714     4.8968   -44.9642     4.1125     8.0972   137.8057     0.0949     2.4966     0.0672
 1023.5000     7.3966     5.1241   -45.0426     4.1072     8.0906   137.3793     0.0958     2.4900     0.0676
 1024.0000     7.8257     4.9264   -45.2418     4.1493     8.0838   139.1889     0.0991     2.4834     0.0680
 1024.5000     8.2029     4.7133   -45.4419     3.9964     8.0771   140.9178     0.1027     2.4767     0.0684
 1025.0000     8.0431     4.5094   -45.6336     3.8994     8.0704   142.6769     0.1063     2.4701     0.0689
 1025.5000     6.3096     4.3144   -45.6626     3.8048     8.0637   142.5082     0.1098     2.4634     0.0693
 1026.0000     4.5885     4.1278   -45.4857     3.7124     8.0570   141.2239     0.1110     2.4650     0.0697
 1026.5000     5.7747     4.0339   -45.2785     3.6225     8.0503   139.9107     0.1053     2.4749     0.0701
 1027.0000     6.8155     4.1996   -45.0672     3.5109     8.0433   138.6016     0.1006     2.4801     0.0678
 1027.5000     5.5662     4.3314   -44.8552     3.5483     8.0432   137.2992     0.1043     2.4696     0.0623
 1028.0000     4.7605     4.4673   -44.6434     3.6718     8.0456   137.4270     0.1082     2.4590     0.0568
 1028.5000     7.4724     4.6075   -44.4315     3.8051     8.0480   139.1658     0.1071     2.4647     0.0518
 1029.0000     7.3557     4.7521   -44.2198     3.9424     8.0504   140.8990     0.1037     2.4720     0.0510
 1029.5000     6.8785     4.9012   -44.0080     4.0845     8.0529   142.7908     0.1035     2.4736     0.0500
 1030.0000     7.8190     5.0550   -43.7957     4.2317     8.0553   140.7200     0.1076     2.4664     0.0458
 1030.5000     8.7375     5.2136   -43.5441     4.3842     8.0577   138.0064     0.1064     2.4618     0.0422
 1031.0000     8.9239     5.3773   -43.2101     4.5422     8.0601   138.8701     0.1036     2.4705     0.0448
 1031.5000     9.0987     5.5460   -43.2750     4.7059     8.0625   140.8535     0.1009     2.4790     0.0474
 1032.0000     9.2733     5.7200   -43.3738     4.8754     8.0650   139.2583     0.0981     2.4874     0.0499
 1032.5000     9.4518     5.8995   -43.4751     5.0511     8.0674   137.7309     0.0954     2.4958     0.0524
 1033.0000     9.6682     6.0471   -43.5760     5.2332     8.0698   136.2048     0.0946     2.5032     0.0549
 1033.5000     9.6109     6.0471   -43.6767     5.3373     8.0723   134.6858     0.0963     2.4973     0.0575
 1034.0000     9.5196     6.1030   -43.7775     5.4667     8.0747   133.4265     0.0989     2.4913     0.0600
 1034.5000     9.4291     6.1030   -43.8783     5.4676     8.0771   132.5896     0.1015     2.4855     0.0609
 1035.0000     9.3188     5.9953   -43.9790     5.4632     8.0795   131.7600     0.1024     2.4796     0.0616
 1035.5000     9.4050     5.8803   -44.0798     5.5156     8.0836   131.3473     0.0997     2.4805     0.0624
 1036.0000     8.9838     5.7676   -44.1806     5.2785     8.1007   132.9893     0.0970     2.4874     0.0632
 1036.5000     8.7264     5.6572   -44.2813     5.0872     8.1179   134.6311     0.0938     2.4944     0.0640
 1037.0000     8.4764     5.5489   -44.3821     4.9029     8.1350   136.2713     0.0967     2.4924     0.0629
 1037.5000     8.2540     5.4426   -44.4829     4.7253     8.1524   137.9097     0.0997     2.4832     0.0613
