~VERSION INFORMATION
 VERS.                2.0:   CWLS LOG ASCII STANDARD - VERSION 2.0
 WRAP.                 NO:   ONE LINE PER DEPTH STEP
~WELL INFORMATION
#MNEM.UNIT      DATA TYPE    INFORMATION
#----------   ------------   ------------------------------
 STRT.F           40.0000:   START DEPTH
 STOP.F          462.0000:   STOP DEPTH
 STEP.F            0.5000:   STEP LENGTH
 NULL.          -999.2500:   NO VALUE
 COMP.    FENIX & SCISSON:   COMPANY
 WELL.        NPR #68-S-3:   WELL
 FLD .             TEAPOT:   FIELD
 LOC .       S3 T38N R78W:   LOCATION
 CNTY.            NATRONA:   COUNTY
 STAT.            WYOMING:   STATE
 CTRY. UNITED STATES OF AMERICA:   COUNTRY
 SRVC.      Dresser Atlas:   SERVICE COMPANY
 DATE.        28-MAR-1977:   LOGDATE
 API .       490251031900:   API NUMBER
~CURVE INFORMATION
#MNEM.UNIT       API CODE    CURVE DESCRIPTION
#----------   ------------   ------------------------------
 DEPT.F                  :   
 SPR .MV     07 010 01 00:   SPONTANEOUS POTENTIAL
 ILD .OHMM   07 120 46 00:   INDUCTION LOG DEEP
 ILM .OHMM   07 120 44 00:   INDUCTION LOG MEDIUM
 SFL .OHMM   07 220 01 00:   SHALLOW FOCUSED LOG RESISTIVITY
 CALD.IN     45 280 60 00:   CALIPER FROM DENSITY LOG
 GRD .GAPI   45 310 01 00:   GAMMA RAY FROM DENSITY LOG
 CORR.G/C3   45 356 01 00:   DENSITY CORRECTION
 RHOB.G/C3   45 350 01 00:   BULK DENSITY
 DPHI.DEC    45 890 12 00:   DENSITY POROSITY SANDSTONE
~PARAMETER INFORMATION
#MNEM.UNIT          VALUE    DESCRIPTION
#----------   ------------   ------------------------------
 PD  .                 GL:   PERMANENT DATUM
 EPD .F              5162:   ELEVATION PERMANENT DATUM
 LMF .                 KB:   LOG MEASURED FROM
 DAPD.F                 5:   FEET ABOVE PERMANENT DATUM
 DMF .                 KB:   DRILLING MEASURED FROM
 EKB .F              5167:   KELLING BUSHING
 EGL .F              5162:   GROUND LEVEL
 DATE.        28-MAR-1977:   RUN DATE
 RUN .                  1:   RUN NUMBER
 DD  .F               452:   DEPTH DRILLER
 DL  .F               464:   DEPTH LOGGER
 BLI .F               462:   BOTTOM LOG INTERVAL
 TLI .F                40:   TOP LOG INTERVAL
 CS  .IN               10:   CASING SIZE
 CBD .F                40:   CASING BOTTOM DRILLER
 CBL .F                40:   CASING BOTTOM LOGGER
 BS  .IN            7.875:   BIT SIZE
 BSD .F               452:   BIT SIZE AT DEPTH
 DFT .           CHEM GEL:   DRILLING FLUID TYPE
 DFD .                8.9:   DRILLING FLUID DENSITY
 DFV .                 34:   DRILLING FLUID VISCOSITY
 DFPH.                8.0:   DRILLING FLUID PH
 DFL .                8.2:   DRILLING FLUID LOSS
 MSS .         CIRCULATED:   MUD SAMPLE SOURCE
 RMS .OHMM           .223:   RESISTIVITY MUD SAMPLE
 MST .F                51:   MUD SAMPLE TEMPERATURE
 RMF .OHMM           .161:   RESISTIVITY MUD FILTRATE SAMPLE
 MFST.F                51:   MUD FILTRATE SAMPLE TEMPERATURE
 RMC .OHMM           .285:   RESISTIVITY MUD CAKE
 MCST.F                51:   MUD CAKE SAMPLE TEMPERATURE
 MFSS.               MEAS:   MUD FILTRATE SAMPLE SOURCE
 MCSS.               MEAS:   MUD CAKE SAMPLE SOURCE
 RMB .OHMM           .186:   RESISTIVITY MUD AT BHT
 BHT .F                61:   BOTTOM HOLE TEMPERATURE
 TCS .HRS            0500:   TIME CURCULATED STOPPED
 MRT .F                61:   MAXIMUM RECORDED TEMPERATURE
 LUN .               6145:   LOGGING UNIT NUMBER
 LUL .              GLTTE:   LOGGING UNIT LOCATION
 ENGI.              GOULD:   RECORDING ENGINEER
 WITN.               LYON:   WITNESSED BY
 CLNT.            A2DTECH:   CLIENT CODE
 ORIG.           5" PRINT:   ORIGIN OF DATA
 UWI .       490251031900:   UNIQUE WELL ID
 DICO. A2D Technologies, Inc.:   DIGITIZING COMPANY
~OTHER INFORMATION
~A   DEPT      SPR        ILD        ILM        SFL       CALD        GRD       CORR       RHOB       DPHI   
# ...
  222.5000   -23.2515     4.5238     5.0066     6.4047     7.9707   132.8250     0.0444     2.5094     0.0952
  223.0000   -23.5337     4.4944     4.8051     6.3639     7.9577   129.5678     0.0401     2.5087     0.0864
  223.5000   -23.8135     4.4964     4.8071     6.1503     7.9602   129.1439     0.0342     2.5065     0.0891
  224.0000   -24.0932     4.4982     4.8760     5.7025     7.9617   123.3541     0.0358     2.5013     0.0930
  224.5000   -24.2046     4.5628     5.0149     4.7668     7.9637   121.4391     0.0375     2.4947     0.0996
  225.0000   -24.0079     4.6283     5.2294     4.2692     7.9656   120.4182     0.0361     2.4827     0.1080
  225.5000   -23.7083     4.7623     5.5291     5.2552     7.9525   122.6761     0.0332     2.4625     0.1133
  226.0000   -23.5374     4.9343     5.6865     6.7422     7.9546   124.7849     0.0349     2.4581     0.1168
  226.5000   -23.2176     5.1481     5.8484     7.0304     7.9565   122.1247     0.0395     2.4741     0.1067
  227.0000   -23.0466     5.4459     6.0149     6.9849     7.9584   122.0925     0.0457     2.5050     0.0934
  227.5000   -23.0245     5.7145     6.1012     6.8919     7.9604   124.2559     0.0488     2.5215     0.0828
  228.0000   -23.0023     5.8710     6.1887     6.8465     7.9773   126.9608     0.0504     2.5231     0.0780
  228.5000   -22.9802     5.9553     6.1913     6.8022     7.9643   125.0458     0.0521     2.5299     0.0725
  229.0000   -22.9580     5.9578     6.1511     6.8057     7.9662   119.2559     0.0537     2.5368     0.0689
  229.5000   -23.2390     5.9185     6.0273     6.8557     7.9682   115.9996     0.0539     2.5444     0.0662
  230.0000   -23.5145     5.6415     5.7059     6.9539     7.9552   116.7671     0.0510     2.5396     0.0700
  230.5000   -23.7844     5.2665     5.4010     7.0050     7.9571   121.7076     0.0496     2.5309     0.0739
  231.0000   -24.0654     4.8825     4.9730     6.7699     7.9441   125.9028     0.0513     2.5257     0.0790
  231.5000   -24.4842     4.4953     4.6749     6.3206     7.9461   130.5451     0.0529     2.5214     0.0811
  232.0000   -24.7596     4.3442     4.5803     5.5837     7.9480   132.0522     0.0560     2.5199     0.0804
  232.5000   -24.8918     4.2858     4.5827     4.6353     7.9500   129.2486     0.0592     2.5177     0.0822
  233.0000   -24.5665     4.2881     4.6806     4.1233     7.9519   128.8183     0.0608     2.5133     0.0855
  233.5000   -24.0979     4.3798     4.8473     4.6713     7.9539   128.6916     0.0594     2.5071     0.0891
  234.0000   -23.7781     4.5046     5.1606     6.7399     7.9558   126.1861     0.0551     2.4976     0.0945
  234.5000   -23.3096     4.7301     5.5324     6.2925     7.9578   124.8672     0.0492     2.4971     0.0901
  235.0000   -23.1386     5.0711     5.6899     6.3388     7.9597   125.4857     0.0448     2.5254     0.0781
  235.5000   -22.6700     5.2518     5.8925     6.7065     7.9617   122.6764     0.0389     2.5359     0.0717
  236.0000   -22.3502     5.5530     6.1446     7.0889     7.9636   119.7182     0.0361     2.5419     0.0684
  236.5000   -22.1793     5.9123     6.4075     7.2923     7.9656   117.3561     0.0332     2.5471     0.0663
  237.0000   -22.0083     6.2083     6.5899     7.4429     7.9675   115.2920     0.0318     2.5501     0.0644
  237.5000   -21.9861     6.5191     6.7308     7.4546     7.9695   113.9675     0.0320     2.5509     0.0626
  238.0000   -21.9640     6.6586     6.8274     7.6057     7.9714   117.5722     0.0321     2.5517     0.0605
  238.5000   -21.9418     6.8010     6.9253     7.6616     7.9734   120.4262     0.0337     2.5488     0.0650
  239.0000   -21.9196     6.8986     6.9762     7.6648     7.9599   120.5920     0.0369     2.5507     0.0608
  239.5000   -21.8973     6.9015     6.9791     7.6679     7.9623   120.3163     0.0415     2.5575     0.0552
  240.0000   -21.8750     7.0006     6.9819     7.6711     7.9643   121.3875     0.0432     2.5641     0.0525
  240.5000   -21.8527     7.0035     6.9848     7.6742     7.9508   123.7944     0.0418     2.5627     0.0538
  241.0000   -21.8115     7.0063     6.9877     7.6237     7.9532   126.2012     0.0389     2.5530     0.0581
  241.5000   -21.6592     6.9609     6.9906     7.6276     7.9402   124.5843     0.0375     2.5478     0.0632
  242.0000   -21.4881     6.9638     6.9935     7.6837     7.9571   123.2654     0.0377     2.5449     0.0666
  242.5000   -21.3126     6.9186     6.9963     7.6869     7.9591   120.7542     0.0363     2.5420     0.0674
  243.0000   -21.1417     6.9221     6.9510     7.8511     7.9607   121.3671     0.0364     2.5421     0.0671
  243.5000   -20.8219     6.8765     6.9539     7.9080     7.9615   118.7125     0.0351     2.5436     0.0664
  244.0000   -20.3533     6.8801     6.9574     7.8034     7.9623   117.0899     0.0367     2.5407     0.0661
  244.5000   -19.5871     6.9307     7.0085     7.6987     7.9630   117.7084     0.0369     2.5385     0.0685
  245.0000   -18.6721     6.9335     7.0114     7.5446     7.9638   115.9480     0.0355     2.5364     0.0691
  245.5000   -20.4356     6.9364     7.0143     7.4442     7.9646   114.9272     0.0356     2.5357     0.0705
  246.0000   -22.7944     6.9392     7.0172     7.3443     7.9654   115.0986     0.0358     2.5380     0.0720
  246.5000   -22.6235     6.9421     7.0201     7.4503     7.9662   114.5248     0.0389     2.5464     0.0620
  247.0000   -22.4525     6.9450     7.0230     7.7153     7.9670   113.2059     0.0406     2.5547     0.0605
  247.5000   -22.2815     6.8523     6.9774     8.1572     7.9678   112.3341     0.0392     2.5526     0.0602
  248.0000   -22.4137     6.7602     6.8837     8.6243     7.9686   110.5681     0.0348     2.5466     0.0655
  248.5000   -22.5404     6.5337     6.7927     8.8696     7.9694   106.4176     0.0304     2.5385     0.0712
  249.0000   -22.6615     6.1417     6.5645     8.8733     7.9702   104.9441     0.0290     2.5325     0.0739
  249.5000   -22.6394     5.6939     6.2138     8.6948     7.9564   106.1643     0.0352     2.5318     0.0727
  250.0000   -22.6768     5.2930     5.7090     8.2306     7.9579   109.4292     0.0404     2.5342     0.0723
  250.5000   -23.0039     4.9375     5.3973     6.9199     7.9585   119.0739     0.0468     2.5343     0.0729
  251.0000   -23.1846     4.8283     5.0923     5.6092     7.9590   125.4923     0.0522     2.5291     0.0765
  251.5000   -23.3172     4.9663     5.2888     4.1279     7.9596   124.6111     0.0553     2.5149     0.0858
  252.0000   -23.1482     5.0726     5.8825     5.9466     7.9601   115.3116     0.0510     2.4805     0.1053
  252.5000   -22.6856     5.2533     6.4981     8.0375     7.9606   109.8801     0.0406     2.4287     0.1234
  253.0000   -22.3718     5.4405     6.8715    10.5003     7.9612   110.0953     0.0347     2.4438     0.1321
  253.5000   -22.2068     5.7526     7.3167    10.2169     7.9617   109.9315     0.0364     2.4920     0.1131
  254.0000   -22.1905     6.2101     7.7371     9.9411     7.9623   105.7238     0.0396     2.5409     0.0652
  254.5000   -22.6463     6.9882     8.1816     9.7398     7.9628   104.9138     0.0367     2.5508     0.0622
  255.0000   -23.8343     7.7557     8.5328     9.6747     7.9634   101.8078     0.0384     2.5554     0.0604
  255.5000   -25.2247     8.2006     8.8378     9.6107     7.9639   102.1296     0.0415     2.5562     0.0598
  256.0000   -19.4433     8.4342     8.9040     9.6140     7.9639   103.1965     0.0417     2.5541     0.0594
  256.5000   -19.4271     8.6745     9.1588     9.6833     7.9614   102.4751     0.0433     2.5564     0.0579
  257.0000   -19.2621     8.9216     9.3559     9.6859     7.9590    99.6672     0.0450     2.5602     0.0570
  257.5000   -18.7995     9.1758     9.6903     9.9601     7.9565    93.9014     0.0481     2.5588     0.0588
  258.0000   -18.3369     9.5027    10.1063    10.2420     7.9541    84.8095     0.0498     2.5544     0.0615
  258.5000   -17.8743    10.0477    10.7611    10.9777     7.9516    74.2520     0.0529     2.5530     0.0630
