~VERSION INFORMATION
 VERS.                2.0:   CWLS LOG ASCII STANDARD - VERSION 2.0
 WRAP.                 NO:   ONE LINE PER DEPTH STEP
~WELL INFORMATION
#MNEM.UNIT      DATA TYPE    INFORMATION
#----------   ------------   ------------------------------
 STRT.F           38.0000:   START DEPTH
 STOP.F          517.0000:   STOP DEPTH
 STEP.F            0.5000:   STEP LENGTH
 NULL.          -999.2500:   NO VALUE
 COMP. FENIX & SCISSON U.S. NAVY:   COMPANY
 WELL.     NPR 3 #88 S -3:   WELL
 FLD .             TEAPOT:   FIELD
 LOC .       S3 T38N R78W:   LOCATION
 CNTY.            NATRONA:   COUNTY
 STAT.            WYOMING:   STATE
 CTRY. UNITED STATES OF AMERICA:   COUNTRY
 SRVC.              Welex:   SERVICE COMPANY
 DATE.        10-APR-1977:   LOGDATE
 API .       490251033000:   API NUMBER
~CURVE INFORMATION
#MNEM.UNIT       API CODE    CURVE DESCRIPTION
#----------   ------------   ------------------------------
 DEPT.F                  :   
 GRD .GAPI   45 310 01 00:   GAMMA RAY FROM DENSITY LOG
 CALD.IN     45 280 60 00:   CALIPER FROM DENSITY LOG
 CORR.G/C3   45 356 01 00:   DENSITY CORRECTION
 RHOB.G/C3   45 350 01 00:   BULK DENSITY
 DPHI.DEC    45 890 12 00:   DENSITY POROSITY SANDSTONE
 SPR .MV     07 010 01 00:   SPONTANEOUS POTENTIAL
 ILD .OHMM   07 120 46 00:   INDUCTION LOG DEEP
 ILM .OHMM   07 120 44 00:   INDUCTION LOG MEDIUM
 SGRD.OHMM   07 221 05 00:   SHALLOW SHORT GUARD RESISTIVITY
~PARAMETER INFORMATION
#MNEM.UNIT          VALUE    DESCRIPTION
#----------   ------------   ------------------------------
 PD  .                 GL:   PERMANENT DATUM
 EPD .F              5120:   ELEVATION PERMANENT DATUM
 LMF .                 GL:   LOG MEASURED FROM
 DMF .                 GL:   DRILLING MEASURED FROM
 EGL .F              5120:   GROUND LEVEL
 DATE.        10-APR-1977:   RUN DATE
 RUN .                  1:   RUN NUMBER
 DD  .F               520:   DEPTH DRILLER
 DL  .F               519:   DEPTH LOGGER
 BLI .F               517:   BOTTOM LOG INTERVAL
 TLI .F                40:   TOP LOG INTERVAL
 CS  .IN            8.625:   CASING SIZE
 CBD .F                40:   CASING BOTTOM DRILLER
 CBL .F                42:   CASING BOTTOM LOGGER
 BS  .IN            7.875:   BIT SIZE
 BSD .F               520:   BIT SIZE AT DEPTH
 DFT .           KCL- GEL:   DRILLING FLUID TYPE
 DFD .                8.8:   DRILLING FLUID DENSITY
 DFV .                 38:   DRILLING FLUID VISCOSITY
 DFPH.                8.0:   DRILLING FLUID PH
 DFL .                6.4:   DRILLING FLUID LOSS
 MSS .            MUD PIT:   MUD SAMPLE SOURCE
 RMS .OHMM            .28:   RESISTIVITY MUD SAMPLE
 MST .F                55:   MUD SAMPLE TEMPERATURE
 RMF .OHMM            .23:   RESISTIVITY MUD FILTRATE SAMPLE
 MFST.F                55:   MUD FILTRATE SAMPLE TEMPERATURE
 RMC .OHMM            .32:   RESISTIVITY MUD CAKE
 MCST.F                55:   MUD CAKE SAMPLE TEMPERATURE
 MFSS.               MEAS:   MUD FILTRATE SAMPLE SOURCE
 MCSS.               MEAS:   MUD CAKE SAMPLE SOURCE
 RMB .OHMM            .24:   RESISTIVITY MUD AT BHT
 BHT .F                65:   BOTTOM HOLE TEMPERATURE
 TCS .HRS            0300:   TIME CURCULATED STOPPED
 MRT .F                65:   MAXIMUM RECORDED TEMPERATURE
 LUN .               0716:   LOGGING UNIT NUMBER
 LUL .             VERNAL:   LOGGING UNIT LOCATION
 ENGI.        E. CALLAHAN:   RECORDING ENGINEER
 WITN.            R. LYON:   WITNESSED BY
 CLNT.            A2DTECH:   CLIENT CODE
 ORIG.           5" PRINT:   ORIGIN OF DATA
 UWI .       490251033000:   UNIQUE WELL ID
 DICO. A2D Technologies, Inc.:   DIGITIZING COMPANY
~OTHER INFORMATION
~A   DEPT       GRD        CALD     CORR         RHOB     DPHI        SPR        ILD        ILM       SGRD   
# ...
  257.0000   128.9184     7.9272    -0.0076     2.3899     0.1556   -33.3856     5.3102     5.2734     7.5106
  257.5000   130.4251     7.9284     0.0000     2.4061     0.1495   -33.2529     5.3440     5.3058     6.6183
  258.0000   131.7829     7.9296     0.0017     2.4231     0.1321   -33.2711     5.4513     5.3770     7.0401
  258.5000   131.6503     7.9159    -0.0012     2.4367     0.1246   -33.2892     5.5619     5.5620     9.2956
  259.0000   129.4312     7.9171    -0.0055     2.4420     0.1245   -33.3072     5.7545     5.7948    10.5283
  259.5000   128.5534     7.9182    -0.0069     2.4402     0.1251   -33.4759     6.0373     6.1650    10.9675
  260.0000   129.4640     7.9194    -0.0097     2.4346     0.1251   -33.6647     6.4229     6.5132    11.2667
  260.5000   130.2256     7.9206    -0.0096     2.4297     0.1254   -33.9639     6.6004     6.6467    11.3373
  261.0000   129.4969     7.9069    -0.0049     2.4328     0.1248   -33.9819     6.6411     6.6877    11.2448
  261.5000   126.8307     7.8932    -0.0003     2.4464     0.1202   -33.6979     6.6342     6.6807    11.0014
  262.0000   125.0588     7.8944     0.0029     2.4633     0.1127   -33.4146     6.7232     6.8640    10.8866
  262.5000   124.6281     7.8956     0.0045     2.4713     0.1091   -33.2820     6.9062     7.0522    11.7729
  263.0000   124.9426     7.8818     0.0017     2.4743     0.1082   -33.1494     7.0463     7.1455    11.9271
  263.5000   126.4493     7.8681     0.0003     2.4770     0.1099   -33.1718     7.1396     7.1394    11.9151
  264.0000   127.2109     7.8693    -0.0025     2.4695     0.1132   -33.4910     7.1835     7.1335    11.9035
  264.5000   126.4822     7.8556    -0.0054     2.4621     0.1156   -33.6596     7.1773     7.1775    11.8919
  265.0000   126.0515     7.8568    -0.0067     2.4569     0.1177   -33.5224     7.1713     7.3231    11.8804
  265.5000   127.1111     7.8580    -0.0081     2.4622     0.1156   -33.5449     7.1654     7.4717    11.8689
  266.0000   128.9159     7.8592    -0.0064     2.4690     0.1128   -33.5629     7.1594     7.4101    11.8573
  266.5000   129.5285     7.8604    -0.0033     2.4638     0.1122   -33.4258     7.1535     7.3558    11.9287
  267.0000   129.5449     7.8616     0.0029     2.4616     0.1125   -33.5988     7.1475     7.3497    11.9171
  267.5000   130.0084     7.8777     0.0090     2.4654     0.1095   -33.7674     7.0919     7.3435    11.9055
  268.0000   130.6210     7.8789     0.0122     2.4775     0.1058   -33.9360     7.0368     7.3362    11.8938
  268.5000   131.6806     7.8801     0.0108     2.4745     0.1076   -34.1045     7.0309     7.3814    11.8822
  269.0000   133.0383     7.8813     0.0050     2.4641     0.1112   -34.2731     7.0250     7.4788    11.7805
  269.5000   132.6076     7.8825     0.0021     2.4566     0.1175   -34.4417     7.0191     7.6306    11.5238
  270.0000   132.0279     7.8837     0.0030     2.4649     0.1154   -34.6102     7.0121     7.7329    11.4416
  270.5000   131.8953     7.8849     0.0039     2.4695     0.1136   -34.7788     7.0553     7.3058    11.6846
  271.0000   132.8059     7.8861     0.0055     2.4695     0.1132   -35.0980     7.0494     7.5062    12.0050
  271.5000   133.4185     7.8723     0.0042     2.4651     0.1156   -35.5677     7.0436     7.5540    12.4043
  272.0000   133.2859     7.8735     0.0036     2.4531     0.1219   -35.4306     6.9888     7.1867    12.0485
  272.5000   132.5571     7.8747    -0.0008     2.4321     0.1258   -35.4531     6.8385     7.1808    11.9531
  273.0000   131.0832     7.8759    -0.0066     2.4239     0.1303   -35.3160     6.6914     7.1250    11.9415
  273.5000   128.8642     7.8771    -0.0170     2.4067     0.1365   -35.3384     6.5019     7.0205    11.7647
  274.0000   127.3903     7.8783    -0.0250     2.3879     0.1545   -35.2013     6.3179     6.6805    11.7533
  274.5000   126.8106     7.8795    -0.0264     2.3745     0.1659   -35.0723     6.1390     6.0542    11.5793
  275.0000   127.2741     7.8807    -0.0248     2.3700     0.1629   -35.0911     5.9652     5.7210    10.3470
  275.5000   128.7808     7.8819    -0.0208     2.3919     0.1542   -35.1091     5.8369     5.7163     6.7089
  276.0000   129.8405     7.8831    -0.0117     2.4152     0.1343   -35.1270     5.7513     5.8730     5.9547
  276.5000   129.8569     7.8843    -0.0010     2.4438     0.1217   -34.9940     5.7066     5.9922    10.3890
  277.0000   128.5320     7.8855     0.0088     2.4529     0.1169   -34.8615     5.5838     6.0304    10.5273
  277.5000   127.9523     7.8867     0.0172     2.4574     0.1181   -34.8797     5.5408     6.1089    10.2968
  278.0000   127.5217     7.8879     0.0159     2.4455     0.1219   -34.8977     5.5362     6.1037    11.0297
  278.5000   127.3890     7.8891     0.0115     2.4365     0.1279   -34.9157     5.5719     5.9309    11.3333
  279.0000   127.5545     7.8903     0.0110     2.4283     0.1327   -34.9337     5.6466     5.7229    10.9318
  279.5000   127.7199     7.8915     0.0111     2.4223     0.1381   -34.9518     5.7183     5.6784     9.3030
  280.0000   128.4050     7.8925     0.0127     2.4186     0.1351   -34.8190     5.7991     5.7937     7.1308
  280.5000   129.9117     7.8938     0.0129     2.4277     0.1266   -34.8373     5.9593     6.0375     5.9442
  281.0000   131.2694     7.8949     0.0130     2.4360     0.1206   -34.7043     6.1240     6.2916     9.7399
  281.5000   132.1800     7.8960     0.0147     2.4526     0.1182   -34.7229     6.2401     6.4702    11.2647
  282.0000   133.4632     7.8973     0.0148     2.4549     0.1191   -34.7409     6.2336     6.6445    11.2538
  282.5000   134.5228     7.8984     0.0165     2.4505     0.1215   -34.7590     6.2733     6.7809    11.2429
  283.0000   136.0295     7.8996     0.0166     2.4460     0.1226   -34.7807     6.2668     7.0062    11.2320
  283.5000   137.0146     7.9158     0.0183     2.4430     0.1223   -34.6435     6.3953     7.1484    11.0657
  284.0000   137.8508     7.9171     0.0184     2.4514     0.1190   -34.5154     6.4797     7.2934    10.9781
  284.5000   138.9104     7.9181     0.0186     2.4477     0.1211   -34.5334     6.4730     7.2874    10.9675
  285.0000   139.5229     7.9193     0.0157     2.4409     0.1235   -34.5513     6.3781     7.1805    10.9568
  285.5000   139.5393     7.9206     0.0129     2.4478     0.1207   -34.5693     6.1544     6.9772    11.0255
  286.0000   137.3949     7.9218     0.0100     2.4448     0.1213   -34.7379     5.8564     6.7797    11.2448
  286.5000   134.8032     7.9229     0.0087     2.4321     0.1282   -34.9064     5.6118     6.3621    11.3944
  287.0000   133.6274     7.9241     0.0073     2.4194     0.1357   -34.9244     5.3774     5.9287    10.8385
  287.5000   133.1967     7.9254     0.0090     2.4172     0.1393   -34.7918     5.2985     5.5248     9.0959
  288.0000   133.2877     7.9265     0.0091     2.4217     0.1338   -34.6546     5.2941     5.7161     5.5778
  288.5000   133.6767     7.9277     0.0093     2.4436     0.1236   -34.5220     5.3640     5.9565     6.0587
  289.0000   134.0656     7.9290     0.0094     2.4684     0.1131   -34.2433     5.4360     5.8272    11.1018
  289.5000   134.0820     7.9302     0.0096     2.4655     0.1122   -34.2612     5.5066     5.8631     9.8514
  290.0000   133.4565     7.9313     0.0097     2.4595     0.1145   -34.2792     5.6576     6.1513     9.3032
  290.5000   132.7238     7.9326     0.0084     2.4746     0.1127   -34.2972     5.8535     6.5442    11.1470
  291.0000   133.0343     7.9338     0.0055     2.4686     0.1070   -34.3151     6.1411     7.0109    11.6120
  291.5000   134.3881     7.9349     0.0027     2.4627     0.1148   -34.3331     6.4880     7.1049    11.8458
  292.0000   136.0399     7.9361    -0.0002     2.4612     0.1150   -34.3511     6.9507     6.9993    11.9182
  292.5000   138.1388     7.9374     0.0015     2.4725     0.1081   -34.3690     7.1914     7.1306    12.0727
  293.0000   139.6415     7.9385     0.0031     2.4741     0.1054   -34.5376     7.3374     7.3885    12.2304
