~VERSION INFORMATION
 VERS.                2.0:   CWLS LOG ASCII STANDARD - VERSION 2.0
 WRAP.                 NO:   ONE LINE PER DEPTH STEP
~WELL INFORMATION
#MNEM.UNIT      DATA TYPE    INFORMATION
#----------   ------------   ------------------------------
 STRT.F            0.0000:   START DEPTH
 STOP.F          530.0000:   STOP DEPTH
 STEP.F            0.5000:   STEP LENGTH
 NULL.          -999.2500:   NO VALUE
 COMP.   LAWRENCE-ALLISON:   COMPANY
 WELL. NPR 3 #51-56SX10 OB3:   WELL
 FLD .             TEAPOT:   FIELD
 LOC .      S10 T38N R78W:   LOCATION
 CNTY.            NATRONA:   COUNTY
 STAT.            WYOMING:   STATE
 CTRY. UNITED STATES OF AMERICA:   COUNTRY
 SRVC.           Gearhart:   SERVICE COMPANY
 DATE.        28-JUN-1987:   LOGDATE
 API .       490251100800:   API NUMBER
~CURVE INFORMATION
#MNEM.UNIT       API CODE    CURVE DESCRIPTION
#----------   ------------   ------------------------------
 DEPT.F                  :   
 CALD.IN     45 280 60 00:   CALIPER ROM DENSITY LOG
 CNC .DEC    45 890 03 00:   NEUTRON POROSITY SANDSTONE
 CORR.G/C3   45 356 01 00:   DENSITY CORRECTION
 DEN .G/C3   45 350 01 00:   COMPENSATED BULK DENSTIY
 PORD.DEC    45 890 12 00:   POROSITY DENSITY SANDSTONE
 GRR .GAPI   07 310 01 00:   GAMMA RAY
 ILD .OHMM   07 120 46 00:   INDUCTION LOG DEEP
 ILM .OHMM   07 120 44 00:   INDUCTION LOG MEDIUM
 LL  .OHMM   07 220 00 00:   LATEROLOG RESISTIVITY
 SPR .MV     07 010 01 00:   SPONTANEOUS POTENTIAL
 DT  .US/F   60 520 00 00:   INTERVAL TRANSIT TIME
~PARAMETER INFORMATION
#MNEM.UNIT          VALUE    DESCRIPTION
#----------   ------------   ------------------------------
 PD  .                 GL:   PERMANENT DATUM
 EPD .F              5198:   ELEVATION PERMANENT DATUM
 LMF .                 KB:   LOG MEASURED FROM
 DAPD.F                 8:   FEET ABOVE PERMANENT DATUM
 DMF .                 KB:   DRILLING MEASURED FROM
 EKB .F              5206:   KELLING BUSHING
 EDF .F              5204:   DRILLING FLOOR
 EGL .F              5198:   GROUND LEVEL
 DATE.        28-JUN-1987:   RUN DATE
 RUN .                  1:   RUN NUMBER
 DD  .F               535:   DEPTH DRILLER
 DL  .F               536:   DEPTH LOGGER
 BLI .F               533:   BOTTOM LOG INTERVAL
 BS  .IN             7.87:   BIT SIZE
 BSD .F               535:   BIT SIZE AT DEPTH
 DFT .                MUD:   DRILLING FLUID TYPE
 RMS .OHMM           0.84:   RESISTIVITY MUD SAMPLE
 MST .F                57:   MUD SAMPLE TEMPERATURE
 RMF .OHMM           0.63:   RESISTIVITY MUD FILTRATE SAMPLE
 MFST.F                57:   MUD FILTRATE SAMPLE TEMPERATURE
 RMC .OHMM           1.05:   RESISTIVITY MUD CAKE
 MCST.F                57:   MUD CAKE SAMPLE TEMPERATURE
 MFSS.               CALC:   MUD FILTRATE SAMPLE SOURCE
 MCSS.               CALC:   MUD CAKE SAMPLE SOURCE
 RMB .OHMM           0.59:   RESISTIVITY MUD AT BHT
 BHT .F                80:   BOTTOM HOLE TEMPERATURE
 TCS .HRS            1200:   TIME CURCULATED STOPPED
 TLAB.HRS            1322:   TIME LOGGER AT BOTTOM
 LUN .               7650:   LOGGING UNIT NUMBER
 LUL .           GILLETTE:   LOGGING UNIT LOCATION
 ENGI. JOHNSTON/HUCKFELDT:   RECORDING ENGINEER
 WITN.             STRONG:   WITNESSED BY
 CLNT.            A2DTECH:   CLIENT CODE
 ORIG.      2.5" 5" PRINT:   ORIGIN OF DATA
 UWI .       490251100800:   UNIQUE WELL ID
 DICO. A2D Technologies, Inc.:   DIGITIZING COMPANY
~OTHER INFORMATION
~A    DEPT    CALD        CNC       CORR        DEN       PORD         GRR         ILD        ILM       LL        SPR         DT   
# ...
   30.5000     6.3759     0.3058     0.0463     2.4371     0.1456    74.6579     5.8000     3.8834  1953.1315   -46.6101   113.7213
   31.0000     6.3772     0.2948     0.0448     2.4333     0.1474    74.0601     5.4888     3.7362  1415.5469   -45.0499   115.9297
   31.5000     6.3785     0.2979     0.0405     2.4334     0.1467    72.2613     5.0349     3.7051  1079.3138   -44.1544   116.6799
   32.0000     6.3798     0.3307     0.0377     2.4410     0.1425    72.2643     4.6279     3.6970   519.8739   -43.7187   117.6583
   32.5000     6.3811     0.3236     0.0439     2.4486     0.1382    72.2673     4.2744     3.6861    66.6497   -43.4129   118.9507
   33.0000     6.3823     0.3034     0.0531     2.4547     0.1339    72.8709     4.0825     3.6751    26.8351   -43.7092   120.6210
   33.5000     6.3836     0.2978     0.0592     2.4615     0.1305    73.6226     3.8386     3.6641    32.1117   -44.3613   121.0064
   34.0000     6.3700     0.2897     0.0458     2.4646     0.1294    75.2552     3.4651     3.5590    34.8905   -45.2345   120.9364
   34.5000     6.3416     0.2875     0.0293     2.4646     0.1297    81.2682     3.0221     3.2233    33.4584   -45.4824   121.0969
   35.0000     6.3577     0.2892     0.0280     2.4628     0.1305    85.4955     2.7736     2.8780    31.9080   -44.8771   121.9358
   35.5000     6.3887     0.2959     0.0402     2.4489     0.1362    86.0991     2.3737     2.6764    27.9293   -45.5140   121.9432
   36.0000     6.4366     0.2959     0.0358     2.4369     0.1437    87.3039     2.1263     2.4660    24.5564   -45.7626   121.5727
   36.5000     6.4510     0.2950     0.0269     2.4392     0.1455    88.5080     1.8276     2.2382    24.0773   -45.6537   121.7314
   37.0000     6.4523     0.3115     0.0210     2.4385     0.1440    88.5109     1.7540     1.9401    24.6678   -45.0200   122.2679
   37.5000     6.4536     0.3214     0.0227     2.4325     0.1457    87.9132     1.7068     1.7405    29.6722   -44.6856   123.5603
   38.0000     6.4397     0.3111     0.0454     2.4266     0.1511    85.5136     1.6608     1.6026    39.5334   -44.5364   123.4922
   38.5000     6.4113     0.3021     0.0486     2.4251     0.1517    86.1171     1.6136     1.5170    46.7254   -44.5300   123.1217
   39.0000     6.3977     0.3039     0.0237     2.4327     0.1468    86.0561     1.5483     1.4965    52.9128   -44.5237   122.9024
   39.5000     6.3993     0.3132     0.0127     2.4358     0.1447    84.8458     1.5052     1.4695    55.1621   -44.8170   122.9428
   40.0000     6.4006     0.3240     0.0128     2.4373     0.1456    82.7628     1.4889     1.4365    49.4142   -44.8104   123.5223
   40.5000     6.4315     0.3234     0.0069     2.4374     0.1449    79.3584     1.4963     1.4369    46.1347   -44.7754   123.3801
   41.0000     6.4625     0.3143     0.0071     2.4382     0.1440    78.9244     1.5615     1.4433    44.2611   -43.8423   123.0096
   41.5000     6.4935     0.3005     0.0012     2.4382     0.1470    78.6757     1.6173     1.4859    41.2899   -43.1916   123.3194
   42.0000     6.4948     0.2949    -0.0047     2.4278     0.1516    78.9309     1.7371     1.5511    40.2248   -42.4325   123.2513
   42.5000     6.4664     0.2826     0.0256     2.4218     0.1529    78.9339     1.9646     1.6509    41.0615   -42.5087   122.8052
   43.0000     6.4082     0.2823     0.0393     2.4264     0.1496    79.5381     2.1943     1.7449    43.1204   -43.2859   121.2254
   43.5000     6.4095     0.2908     0.0229     2.4339     0.1441    80.1416     2.2875     1.8958    39.5862   -43.5672   118.4362
   44.0000     6.4111     0.2943     0.0199     2.4453     0.1359    80.7451     2.4179     2.0597    32.0680   -43.4331   116.2516
   44.5000     6.4421     0.3192     0.0231     2.4605     0.1242    81.3485     2.5911     2.2379    27.3432   -42.0459   114.2183
   45.0000     6.4434     0.3216     0.0263     2.4742     0.1211    75.9460     2.8154     2.4365    15.9973   -39.3534   113.7722
   45.5000     6.4447     0.3090     0.0385     2.4717     0.1241    71.1321     3.0187     2.6243    11.1808   -36.6524   113.5529
   46.0000     6.4459     0.2976     0.0446     2.4711     0.1244    68.6006     3.1548     2.8520    10.2696   -34.2509   113.1824
   46.5000     6.4472     0.2905     0.0448     2.4720     0.1258    66.2533     3.3036     3.0072     9.4809   -32.9686   113.0386
   47.0000     6.4485     0.2920     0.0352     2.4705     0.1276    65.7474     3.4421     3.1593     9.4834   -33.9088   113.0461
   47.5000     6.4497     0.2938     0.0180     2.4653     0.1279    65.9309     3.6134     3.2768     9.4859   -39.5210   113.0537
   48.0000     6.4362     0.2896     0.0061     2.4653     0.1275    67.4034     3.6843     3.3899     9.4885   -39.5383   113.2124
   48.5000     6.4223     0.2895     0.0092     2.4729     0.1179    68.4274     3.8204     3.4855     9.4911   -39.9498   113.1441
   49.0000     6.4239     0.3016     0.0546     2.4850     0.1154    69.0510     3.8214     3.5346     9.4937   -40.4663   112.9266
   49.5000     6.4252     0.3259     0.0562     2.4866     0.1169    68.7658     3.9296     3.6342     9.4964   -40.7186   112.8566
   50.0000     6.4292     0.3226     0.0458     2.4836     0.1201    68.7692     3.9852     3.6927     9.4990   -39.8204   112.8703
   50.5000     6.4342     0.3026     0.0384     2.4799     0.1236    68.7721     4.0416     3.8246     9.5016   -39.5210   112.9458
   51.0000     6.4393     0.3009     0.0268     2.4702     0.1334    69.3756     4.1557     3.8257     9.5042   -39.6758   113.0303
   51.5000     6.4431     0.2993     0.0101     2.4552     0.1367    71.1803     4.2730     3.8267     8.9843   -40.8408   113.0369
   52.0000     6.4288     0.3037     0.0027     2.4507     0.1370    69.9820     4.3335     3.8280     8.7544   -41.7417   113.1192
   52.5000     6.4294     0.3089     0.0073     2.4508     0.1339    68.7437     4.4569     3.8821     8.6369   -41.7417   113.1258
   53.0000     6.4450     0.3133     0.0225     2.4598     0.1306    65.7836     4.6566     4.0472     8.6396   -41.4414   113.1325
   53.5000     6.4456     0.3233     0.0347     2.4598     0.1327    65.7868     5.0001     4.2192     8.7618   -42.3423   113.0635
   54.0000     6.4312     0.3215     0.0273     2.4499     0.1381    65.7898     5.3124     4.6479     8.7642   -42.9429   112.9866
   54.5000     6.4319     0.3004     0.0199     2.4472     0.1404    65.7928     5.7340     5.0568     9.3922   -43.5435   112.5155
   55.0000     6.4325     0.2949     0.0050     2.4480     0.1398    65.7958     6.3305     5.6726     9.6664   -44.1441   110.1373
   55.5000     6.4331     0.2623     0.0006     2.4488     0.1383    65.1982     6.8223     6.3962     9.7942   -42.0420   108.9346
   56.0000     6.4337     0.2599     0.0113     2.4534     0.1345    64.6006     7.5447     7.1121     9.5302   -39.7397   108.9413
   56.5000     6.4343     0.2707     0.0372     2.4602     0.1307    60.3999     7.7520     7.5065     8.6576   -39.3393   108.7951
   57.0000     6.4348     0.2779     0.0449     2.4648     0.1283    59.8018     7.6483     7.6479     7.5731   -39.9399   108.6506
   57.5000     6.4354     0.2803     0.0479     2.4671     0.1273    59.2045     7.4423     7.5453     7.1966   -40.2903   108.2054
   58.0000     6.4360     0.2710     0.0450     2.4687     0.1270    59.2074     7.0448     7.4440     7.0928   -41.4414   107.5317
   58.5000     6.4366     0.2592     0.0331     2.4680     0.1267    59.2103     6.7611     6.6688     6.8949   -41.9874   106.7070
   59.0000     6.4372     0.2579     0.0242     2.4650     0.1273    58.6126     6.4889     6.1409     6.4891   -42.6699   105.9577
   59.5000     6.4378     0.2555     0.0078     2.4583     0.1393    58.6156     6.3141     5.7333     6.2279   -42.3423   105.1298
   60.0000     6.4384     0.2570    -0.0252     2.4455     0.1450    59.2192     6.1329     5.0656     6.0601   -40.2402   104.6121
   60.5000     6.4390     0.2681    -0.0492     2.4396     0.1444    59.2222     5.9674     4.9291     5.8161   -41.1411   104.0130
