~VERSION INFORMATION
 VERS.                2.0:   CWLS LOG ASCII STANDARD - VERSION 2.0
 WRAP.                 NO:   ONE LINE PER DEPTH STEP
~WELL INFORMATION
#MNEM.UNIT      DATA TYPE    INFORMATION
#----------   ------------   ------------------------------
 STRT.F           12.5000:   START DEPTH
 STOP.F          688.0000:   STOP DEPTH
 STEP.F            0.5000:   STEP LENGTH
 NULL.          -999.2500:   NO VALUE
 COMP. FENIX & SCISSON INC:   COMPANY
 WELL. 26-66 SX 11 WO #26-11:   WELL
 FLD .             TEAPOT:   FIELD
 LOC .      S11 T38N R78W:   LOCATION
 CNTY.            NATRONA:   COUNTY
 STAT.            WYOMING:   STATE
 CTRY. UNITED STATES OF AMERICA:   COUNTRY
 SRVC.      Dresser Atlas:   SERVICE COMPANY
 DATE.        28-AUG-1980:   LOGDATE
 API .       490251084700:   API NUMBER
~CURVE INFORMATION
#MNEM.UNIT       API CODE    CURVE DESCRIPTION
#----------   ------------   ------------------------------
 DEPT.F                  :   
 SFL .OHMM   07 220 01 00:   SHALLOW FOCUSED LOG RESISTIVITY
 ILD .OHMM   07 120 46 00:   INDUCTION LOG DEEP
 ILM .OHMM   07 120 44 00:   INDUCTION LOG MEDIUM
 SPR .MV     07 010 01 00:   SPONTANEOUS POTENTIAL
 CORR.G/C3   45 356 01 00:   DENSITY CORRECTION
 RHOB.G/C3   45 350 01 00:   BULK DENSITY
 DPOR.DEC    45 890 12 00:   DENSITY POROSITY SANDSTONE
 NPOR.DEC    42 890 03 00:   NEUTRON POROSITY SANDSTONE
 GRD .GAPI   45 310 01 00:   GAMMA RAY FROM DENSITY LOG
~PARAMETER INFORMATION
#MNEM.UNIT          VALUE    DESCRIPTION
#----------   ------------   ------------------------------
 PD  .                 GL:   PERMANENT DATUM
 EPD .F              5194:   ELEVATION PERMANENT DATUM
 LMF .                 KB:   LOG MEASURED FROM
 DAPD.F                 5:   FEET ABOVE PERMANENT DATUM
 DMF .                 KB:   DRILLING MEASURED FROM
 EKB .F              5199:   KELLING BUSHING
 EGL .F              5194:   GROUND LEVEL
 DATE.          8-28-1980:   RUN DATE
 RUN .                  1:   RUN NUMBER
 DD  .F               700:   DEPTH DRILLER
 DL  .F               689:   DEPTH LOGGER
 BLI .F               688:   BOTTOM LOG INTERVAL
 TLI .F                14:   TOP LOG INTERVAL
 BS  .IN             8.75:   BIT SIZE
 BSD .F               700:   BIT SIZE AT DEPTH
 DFT .                KCL:   DRILLING FLUID TYPE
 DFD .                8.8:   DRILLING FLUID DENSITY
 DFV .                 55:   DRILLING FLUID VISCOSITY
 DFPH.                 11:   DRILLING FLUID PH
 DFL .                  8:   DRILLING FLUID LOSS
 MSS .           FLOWLINE:   MUD SAMPLE SOURCE
 RMS .OHMM            .72:   RESISTIVITY MUD SAMPLE
 MST .F                66:   MUD SAMPLE TEMPERATURE
 RMF .OHMM            .21:   RESISTIVITY MUD FILTRATE SAMPLE
 MFST.F                66:   MUD FILTRATE SAMPLE TEMPERATURE
 RMC .OHMM           1.24:   RESISTIVITY MUD CAKE
 MCST.F                66:   MUD CAKE SAMPLE TEMPERATURE
 MFSS.               MEAS:   MUD FILTRATE SAMPLE SOURCE
 MCSS.               MEAS:   MUD CAKE SAMPLE SOURCE
 BHT .F               100:   BOTTOM HOLE TEMPERATURE
 TCS .HRS               2:   TIME CURCULATED STOPPED
 MRT .F               100:   MAXIMUM RECORDED TEMPERATURE
 LUN .               6240:   LOGGING UNIT NUMBER
 LUL .               RYTN:   LOGGING UNIT LOCATION
 ENGI.           J. GETTY:   RECORDING ENGINEER
 WITN.              FIVAS:   WITNESSED BY
 CLNT.            A2DTECH:   CLIENT CODE
 ORIG.      1" 2.5" PRINT:   ORIGIN OF DATA
 UWI .       490251084700:   UNIQUE WELL ID
 DICO. A2D Technologies, Inc.:   DIGITIZING COMPANY
~OTHER INFORMATION
~A   DEPT      SFL        ILD        ILM        SPR       CORR       RHOB       DPOR         NPOR      GRD   
# ...
  304.5000    14.6455    10.7597    11.8248   -68.0921     0.0333     2.5009     0.1021     0.2622   128.9760
  305.0000    14.9323    10.9258    11.9860   -68.0698     0.0432     2.4897     0.1053     0.2550   125.8906
  305.5000    15.1237    11.0935    12.1496   -68.0477     0.0340     2.4849     0.1113     0.2550   125.6207
  306.0000    15.3171    11.2639    12.3153   -68.0257     0.0221     2.4744     0.1173     0.2550   125.1397
  306.5000    15.5126    11.4370    12.4344   -68.0037     0.0099     2.4499     0.1271     0.2580   121.5895
  307.0000    15.7104    11.6830    12.5834   -67.9815    -0.0037     2.4302     0.1408     0.2593   116.6934
  307.5000    16.0122    11.6394    12.5674   -67.9595    -0.0080     2.4274     0.1474     0.2598   115.8042
  308.0000    15.9776    11.5589    12.4903   -67.9374    -0.0019     2.4326     0.1474     0.2682   117.9041
  308.5000    15.9073    11.4788    12.4136   -67.9145     0.0039     2.4416     0.1447     0.2853   116.1514
  309.0000    15.8372    11.3986    12.3372   -67.8935     0.0079     2.4502     0.1397     0.2818   114.6814
  309.5000    15.7674    11.3200    12.2615   -67.8732     0.0079     2.4539     0.1347     0.2718   114.3596
  310.0000    15.6979    11.2418    12.1863   -67.8452     0.0081     2.4508     0.1326     0.2614   116.7634
  310.5000    15.6288    11.1643    12.1115   -67.8168     0.0078     2.4491     0.1356     0.2606   120.7650
  311.0000    15.5599    11.0872    12.0372   -67.5703     0.0082     2.4326     0.1387     0.2763   124.3784
  311.5000    15.4885    11.0143    11.9634   -67.3295     0.0090     2.4119     0.1481     0.2898   127.5490
  312.0000    15.4278    10.9446    11.8900   -67.0769     0.0252     2.4193     0.1581     0.2988   127.3400
  312.5000    14.9694    10.8753    11.8170   -67.0280     0.0390     2.4514     0.1581     0.3004   126.3608
  313.0000    14.5639    10.8065    11.7445   -67.0618     0.0549     2.4898     0.1306     0.3012   125.2796
  313.5000    14.1695    10.7381    11.6850   -67.0950     0.0457     2.4844     0.1127     0.2891   124.1673
  314.0000    13.8160    10.6702    11.5912   -67.1251     0.0350     2.4531     0.1159     0.2813   123.5550
  314.5000    14.3697    10.6123    11.5119   -67.1560     0.0231     2.4396     0.1304     0.2781   123.8840
  315.0000    15.1329    10.5586    11.4332   -67.1874     0.0201     2.4479     0.1402     0.2751   125.0779
  315.5000    14.9981    10.5051    11.3550   -67.2183     0.0248     2.4543     0.1358     0.2632   128.0153
  316.0000    14.6341    10.4519    11.2774   -67.2493     0.0292     2.4615     0.1290     0.2624   128.7435
  316.5000    14.7791    10.3990    11.2002   -67.2805     0.0401     2.4660     0.1264     0.2666   124.6916
  317.0000    15.1378    10.3463    11.1236   -67.3117     0.0563     2.4780     0.1259     0.2705   120.2272
  317.5000    14.8422    10.2939    11.0476   -67.3430     0.0723     2.4954     0.1173     0.2732   116.2822
  318.0000    14.0593    10.2417    10.9720   -67.3740     0.0751     2.4981     0.1093     0.2755   113.9760
  318.5000    14.0684    10.1899    10.8970   -67.4046     0.0677     2.4870     0.1059     0.2932   112.3050
  319.0000    14.0608    10.1383    10.8225   -67.4348     0.0584     2.4725     0.1136     0.2948   113.6555
  319.5000    14.0650    10.0869    10.7485   -67.4650     0.0494     2.4557     0.1213     0.2845   115.8838
  320.0000    13.7800     9.9774    10.6750   -67.4947     0.0412     2.4390     0.1289     0.2813   118.2382
  320.5000    13.5516     9.8516    10.5906   -67.5241     0.0377     2.4306     0.1458     0.2924   120.5348
  321.0000    13.5517     9.7273    10.5013   -67.5537     0.0415     2.4456     0.1426     0.2964   122.7582
  321.5000    13.8876     9.6046    10.4128   -67.5833     0.0437     2.4518     0.1366     0.3010   122.7309
  322.0000    14.8678     9.4834    10.3251   -67.6128     0.0469     2.4651     0.1323     0.3050   120.5190
  322.5000    14.5411     9.3551    10.2381   -67.6424     0.0493     2.4829     0.1285     0.3067   118.6662
  323.0000    14.0571     9.3248    10.1518   -67.6721     0.0517     2.4932     0.1156     0.2880   117.4097
  323.5000    13.8053     9.2922    10.0662   -67.7018     0.0447     2.4822     0.1076     0.2663   116.3942
  324.0000    13.7191     9.2597     9.9814   -67.7311     0.0373     2.4568     0.1222     0.2550   114.6303
  324.5000    13.6417     9.2274     9.8973   -67.7610     0.0296     2.4336     0.1371     0.2697   113.3779
  325.0000    13.5651     9.1951     9.8139   -67.7913     0.0220     2.4087     0.1521     0.2874   114.0433
  325.5000    13.4897     9.1630     9.7312   -67.8201     0.0162     2.4140     0.1610     0.2988   117.8115
  326.0000    13.4150     9.1309     9.6492   -67.9226     0.0165     2.4332     0.1522     0.2943   121.3830
  326.5000    13.3410     9.0990     9.5679   -68.0554     0.0241     2.4473     0.1363     0.2775   123.4379
  327.0000    13.2522     9.0672     9.4872   -68.1882     0.0282     2.4450     0.1379     0.2574   120.7730
  327.5000    13.1565     9.0147     9.3551   -68.3198     0.0236     2.4318     0.1452     0.2574   118.7473
  328.0000    13.0593     9.0372     9.3835   -68.4518     0.0194     2.4180     0.1524     0.2709   118.5044
  328.5000    13.0593     9.1026     9.4668   -68.5841     0.0161     2.4028     0.1596     0.2901   118.1730
  329.0000    13.0593     9.1690     9.5507   -68.7058     0.0176     2.4031     0.1618     0.2779   119.4320
  329.5000    14.0499     9.2359     9.6354   -68.8179     0.0191     2.4257     0.1497     0.2595   120.8973
  330.0000    15.0572     9.3034     9.7209   -68.9302     0.0198     2.4502     0.1377     0.2462   122.0192
  330.5000    16.1367     9.3713     9.8071   -69.0426     0.0151     2.4564     0.1307     0.2533   120.6300
  331.0000    17.5668     9.4396     9.8941   -69.1548     0.0087     2.4491     0.1350     0.2621   117.5947
  331.5000    16.3698     9.5290     9.9819   -69.2670     0.0177     2.4533     0.1371     0.2576   114.1492
  332.0000    13.7742     9.4385    10.0750   -69.3793     0.0363     2.4645     0.1295     0.2566   111.0735
  332.5000    12.5841     9.1512     9.7408   -69.4918     0.0459     2.4789     0.1226     0.2699   109.5108
  333.0000    12.7942     8.8727     9.4007   -69.6033     0.0374     2.4798     0.1179     0.2798   110.2079
  333.5000    13.4606     8.6028     9.0724   -69.7158     0.0290     2.4640     0.1270     0.2802   113.4407
  334.0000    13.2806     8.3413     8.7556   -69.8303     0.0285     2.4377     0.1441     0.2839   114.3318
  334.5000    12.4112     8.0880     8.4499   -69.8885     0.0330     2.4071     0.1573     0.2934   114.3923
  335.0000    11.5987     7.8424     8.1548   -69.9031     0.0377     2.4164     0.1533     0.2957   113.4362
  335.5000    10.8394     7.6041     7.7726   -69.9193     0.0422     2.4384     0.1453     0.2957   112.6609
  336.0000    10.1299     7.3523     7.8061   -69.9368     0.0468     2.4437     0.1397     0.2934   112.0125
  336.5000     9.3551     7.3180     7.8580   -69.9535     0.0478     2.4481     0.1382     0.2871   113.8044
  337.0000     9.1834     7.2810     7.9102   -69.9702     0.0460     2.4518     0.1367     0.2809   116.6265
  337.5000    10.0129     7.2257     7.9628   -69.9871     0.0443     2.4564     0.1355     0.2755   119.3331
  338.0000    11.2724     7.2365     8.0157   -70.0039     0.0427     2.4601     0.1311     0.2743   120.8995
  338.5000    11.9162     7.3079     8.0690   -70.0207     0.0410     2.4787     0.1257     0.2880   121.4165
  339.0000    11.5251     7.3801     8.1226   -70.0374     0.0394     2.4867     0.1138     0.2975   122.4228
  339.5000    11.2029     7.4530     8.1766   -70.0542     0.0334     2.4601     0.1195     0.3015   123.9742
  340.0000    10.8568     7.5266     8.2419   -70.0710     0.0297     2.4394     0.1425     0.3053   123.6154
  340.5000    11.0765     7.6009     8.3402   -70.0877     0.0465     2.4586     0.1333     0.3085   123.0660
