~VERSION INFORMATION
 VERS.                2.0:   CWLS LOG ASCII STANDARD - VERSION 2.0
 WRAP.                 NO:   ONE LINE PER DEPTH STEP
~WELL INFORMATION
#MNEM.UNIT      DATA TYPE    INFORMATION
#----------   ------------   ------------------------------
 STRT.F            2.5000:   START DEPTH
 STOP.F          548.0000:   STOP DEPTH
 STEP.F            0.5000:   STEP LENGTH
 NULL.          -999.2500:   NO VALUE
 COMP. LAWRENCE/ALLISON INC:   COMPANY
 WELL.    55-61 SX #10-10:   WELL
 FLD .           N.P.R #3:   FIELD
 LOC .      S10 T38N R78W:   LOCATION
 CNTY.            NATRONA:   COUNTY
 STAT.            WYOMING:   STATE
 CTRY. UNITED STATES OF AMERICA:   COUNTRY
 SRVC.            Unknown:   SERVICE COMPANY
 DATE.        05-SEP-1984:   LOGDATE
 API .       490251098100:   API NUMBER
~CURVE INFORMATION
#MNEM.UNIT       API CODE    CURVE DESCRIPTION
#----------   ------------   ------------------------------
 DEPT.F                  :   
 GRR .GAPI   07 310 01 00:   GAMMA RAY FROM RES
 SPR .MV     07 010 01 00:   SPONTANEOUS POTENTIAL
 RFOC.OHMM   07 220 04 00:   RESISTIVITY FOCUSED LOG
 RILD.OHMM   07 120 46 00:   INDUCTION LOG DEEP RESISTIVITY
 RILM.OHMM   07 120 44 00:   INDUCTION LOG MEDIUM RESISTIVITY
 CALD.IN     45 280 60 00:   CALIPER FROM DENSITY LOG
 DEN .G/C3   45 350 01 00:   COMPENSATED BULK DENSTIY
 CNC .DEC    42 890 03 00:   NEUTRON POROSITY SANDSTONE
 PORD.DEC    45 890 12 00:   POROSITY DENSITY SANDSTONE
 CORR.G/C3   45 356 01 00:   DENSITY CORRECTION
 AC  .US/F   60 520 00 00:   ACCOUSTIC SONIC
~PARAMETER INFORMATION
#MNEM.UNIT          VALUE    DESCRIPTION
#----------   ------------   ------------------------------
 PD  .                 GL:   PERMANENT DATUM
 EPD .F              5191:   ELEVATION PERMANENT DATUM
 LMF .                 KB:   LOG MEASURED FROM
 DAPD.F                12:   FEET ABOVE PERMANENT DATUM
 DMF .                 KB:   DRILLING MEASURED FROM
 EKB .F              5203:   KELLING BUSHING
 EGL .F              5191:   GROUND LEVEL
 DATE.         5-SEP-1984:   RUN DATE
 RUN .                  1:   RUN NUMBER
 DD  .F               540:   DEPTH DRILLER
 DL  .F               550:   DEPTH LOGGER
 BLI .F               548:   BOTTOM LOG INTERVAL
 CS  .IN            8.625:   CASING SIZE
 CBD .F                42:   CASING BOTTOM DRILLER
 CBL .F                54:   CASING BOTTOM LOGGER
 BS  .IN            7.875:   BIT SIZE
 BSD .F               540:   BIT SIZE AT DEPTH
 DFT .        KCL POLYMER:   DRILLING FLUID TYPE
 MSS .           FLOWLINE:   MUD SAMPLE SOURCE
 RMS .OHMM            .79:   RESISTIVITY MUD SAMPLE
 MST .F                74:   MUD SAMPLE TEMPERATURE
 RMF .OHMM            .59:   RESISTIVITY MUD FILTRATE SAMPLE
 MFST.F                74:   MUD FILTRATE SAMPLE TEMPERATURE
 RMC .OHMM            .99:   RESISTIVITY MUD CAKE
 MCST.F                74:   MUD CAKE SAMPLE TEMPERATURE
 MFSS.               CALC:   MUD FILTRATE SAMPLE SOURCE
 MCSS.               CALC:   MUD CAKE SAMPLE SOURCE
 RMB .OHMM            .65:   RESISTIVITY MUD AT BHT
 BHT .F                90:   BOTTOM HOLE TEMPERATURE
 TCS .HRS               3:   TIME CURCULATED STOPPED
 MRT .F                90:   MAXIMUM RECORDED TEMPERATURE
 LUN .               6274:   LOGGING UNIT NUMBER
 LUL .               GLTE:   LOGGING UNIT LOCATION
 ENGI.             RAUTIO:   RECORDING ENGINEER
 WITN.            JOHNSON:   WITNESSED BY
 CLNT.            A2DTECH:   CLIENT CODE
 ORIG. 2", 2.5", 5" PRINT:   ORIGIN OF DATA
 UWI .       490251098100:   UNIQUE WELL ID
 DICO. A2D Technologies, Inc.:   DIGITIZING COMPANY
~OTHER INFORMATION
~A    DEPT      GRR       SPR       RFOC       RILD       RILM       CALD        DEN        CNC       PORD       CORR         AC   
# ...
   94.0000   123.5770  -200.1554  -999.2500     7.6340     7.6310     8.0630     2.4100     0.0770     0.1610    -0.0250   240.0000
   94.5000   123.6150  -200.1554  -999.2500     7.4190     7.4870     8.0630     2.4120     0.0750     0.1600    -0.0140   240.0000
   95.0000   125.3780  -200.1554  -999.2500     7.5620     7.6400     8.0620     2.4120     0.0790     0.1600    -0.0020   240.0000
   95.5000   124.3090  -200.1554  -999.2500     7.6760     7.7630     8.0620     2.4120     0.0830     0.1600     0.0100   240.0000
   96.0000   119.3180  -200.1554  -999.2500     7.7670     7.8850     8.0610     2.4130     0.0870     0.1590     0.0220   240.0000
   96.5000   114.8050  -200.1554  -999.2500     7.7960     7.9870     8.0610     2.4140     0.0860     0.1580     0.0200   240.0000
   97.0000   114.9320  -200.1554  -999.2500     7.8320     8.0030     8.0610     2.4150     0.0840     0.1580     0.0140   240.0000
   97.5000   116.9320  -200.1554  -999.2500     7.8680     8.0180     8.0600     2.4170     0.0840     0.1560     0.0080   240.0000
   98.0000   116.8230  -200.1554  -999.2500     7.9050     8.0340     8.0600     2.4220     0.0860     0.1540     0.0040   240.0000
   98.5000   115.0060  -200.1554  -999.2500     7.9410     8.0500     8.0590     2.4260     0.0870     0.1520     0.0010   240.0000
   99.0000   115.0520  -200.1554  -999.2500     7.9770     8.0650     8.0590     2.4270     0.0850     0.1520    -0.0020   240.0000
   99.5000   115.6120  -200.1554  -999.2500     8.0130     8.0810     8.0590     2.4270     0.0830     0.1520    -0.0050   240.0000
  100.0000   119.1670  -199.5880  -999.2500     8.0490     8.0970     8.0580     2.4270     0.0810     0.1510    -0.0070   240.0000
  100.5000   123.8990  -198.8880  -999.2500     8.0850     8.1120     8.0580     2.4300     0.0810     0.1500    -0.0040   240.0000
  101.0000   123.7320  -198.9770  -999.2500     8.1320     8.1280     8.0580     2.4330     0.0810     0.1480    -0.0010   240.0000
  101.5000   121.5580  -199.7890  -999.2500     8.0580     8.2250     8.0570     2.4340     0.0810     0.1480     0.0010   240.0000
  102.0000   123.8760  -199.8630  -999.2500     8.3310     8.4080     8.0570     2.4330     0.0810     0.1480     0.0040   240.0000
  102.5000   123.9350  -199.8170  -999.2500     8.5130     8.5910     8.0560     2.4320     0.0830     0.1480     0.0090   239.6387
  103.0000   122.8040  -199.7680  -999.2500     8.6940     8.7740     8.0560     2.4330     0.0860     0.1450     0.0140   205.1164
  103.5000   123.3630  -199.7210  -999.2500     8.8750     8.9570     8.0560     2.4410     0.0870     0.1410     0.0200   164.8250
  104.0000   123.3020  -199.6760  -999.2500     8.9960     9.0790     8.0550     2.4450     0.0870     0.1400     0.0100   114.3740
  104.5000   120.2050  -199.6300  -999.2500     8.9310     9.0570     8.0550     2.4410     0.0870     0.1440    -0.0050   115.1394
  105.0000   117.1590  -199.5840  -999.2500     8.8720     9.0270     8.0540     2.4330     0.0870     0.1490    -0.0140   116.9783
  105.5000   118.3790  -199.5380  -999.2500     8.8140     8.9960     8.0540     2.4280     0.0850     0.1510    -0.0020   118.0504
  106.0000   122.7550  -199.4920  -999.2500     8.7560     8.9660     8.0540     2.4270     0.0830     0.1520     0.0100   118.9692
  106.5000   128.7710  -199.4450  -999.2500     8.6980     8.9350     8.0530     2.4230     0.0810     0.1540     0.0140   120.9615
  107.0000   127.1920  -199.3980  -999.2500     8.6720     8.9050     8.0530     2.4190     0.0790     0.1560    -0.0090   123.8741
  107.5000   124.5130  -199.3570  -999.2500     8.6720     8.8740     8.0520     2.4190     0.0790     0.1550    -0.0160   141.3228
  108.0000   123.6310  -199.3710  -999.2500     8.6720     8.8440     8.0520     2.4200     0.0810     0.1560    -0.0190   155.0063
  108.5000   123.4240  -198.9350  -999.2500     8.6720     8.8140     8.0520     2.4140     0.0830     0.1590    -0.0210   153.0767
  109.0000   122.1070  -198.4690  -999.2500     8.6720     8.7830     8.0510     2.4080     0.0840     0.1630    -0.0220   146.6017
  109.5000   121.0770  -199.2520  -999.2500     8.6720     8.7520     8.0510     2.4020     0.0840     0.1660    -0.0050   134.8301
  110.0000   122.0770  -199.9100  -999.2500     8.6720     8.7620     8.0500     2.4020     0.0850     0.1670    -0.0070   123.1536
  110.5000   123.8850  -199.8260  -999.2500     8.6720     8.7790     8.0500     2.4030     0.0860     0.1660    -0.0090   116.4258
  111.0000   125.6340  -199.7530  -999.2500     8.6720     8.7950     8.0500     2.4050     0.0850     0.1640    -0.0080   112.6656
  111.5000   124.5680  -199.5380  -999.2500     8.6740     8.8120     8.0490     2.4060     0.0840     0.1630     0.0050   112.8174
  112.0000   123.5180  -198.8570  -999.2500     8.6680     8.8330     8.0490     2.4080     0.0830     0.1620     0.0020   114.0429
  112.5000   124.5590  -199.2390  -999.2500     8.6720     8.7800     8.0480     2.4100     0.0830     0.1600    -0.0040   116.9555
  113.0000   125.6950  -199.3250  -999.2500     8.5370     8.6900     8.0480     2.4170     0.0830     0.1560     0.0000   117.7208
  113.5000   124.8950  -199.3500  -999.2500     8.4820     8.6010     8.0480     2.4240     0.0810     0.1520     0.0080   117.1058
  114.0000   124.3510  -199.3730  -999.2500     8.4260     8.5120     8.0470     2.4310     0.0800     0.1480     0.0160   112.1963
  114.5000   125.3450  -199.3970  -999.2500     8.3700     8.4230     8.0470     2.4340     0.0820     0.1480    -0.0060   108.9739
  115.0000   126.0360  -199.4210  -999.2500     8.3150     8.3340     8.0460     2.4300     0.0820     0.1500    -0.0310   118.4169
  115.5000   124.5860  -199.4440  -999.2500     8.2740     8.2830     8.0460     2.4250     0.0810     0.1520    -0.0390   128.0685
  116.0000   122.7280  -199.4670  -999.2500     8.2340     8.2600     8.0460     2.4210     0.0810     0.1540    -0.0400   141.1528
  116.5000   120.8770  -199.4940  -999.2500     8.1940     8.2330     8.0440     2.4200     0.0800     0.1550    -0.0220   158.0478
  117.0000   118.9590  -199.5240  -999.2500     8.1540     8.2070     8.0380     2.4240     0.0810     0.1530    -0.0030   139.1633
  117.5000   118.2540  -198.9210  -999.2500     8.1320     8.0450     8.0330     2.4300     0.0820     0.1490     0.0140   117.7068
  118.0000   118.6620  -198.2470  -999.2500     7.8780     7.9090     8.0280     2.4350     0.0820     0.1450     0.0070   114.6378
  118.5000   122.0060  -197.7090  -999.2500     7.7120     7.7730     8.0270     2.4390     0.0810     0.1430    -0.0010   114.5910
  119.0000   125.3740  -197.7220  -999.2500     7.5460     7.6370     8.0280     2.4410     0.0810     0.1420    -0.0080   115.0949
  119.5000   127.6880  -197.7240  -999.2500     7.3800     7.5010     8.0300     2.4460     0.0820     0.1400    -0.0080   115.8602
  120.0000   126.6020  -197.7030  -999.2500     7.2140     7.3650     8.0310     2.4510     0.0820     0.1380    -0.0010   117.6992
  120.5000   125.1910  -197.2640  -999.2500     7.0480     7.2290     8.0330     2.4480     0.0800     0.1390     0.0060   119.2314
  121.0000   124.7150  -196.8260  -999.2500     6.8930     7.0930     8.0350     2.4450     0.0790     0.1400     0.0130   118.7698
  121.5000   123.7520  -196.3980  -999.2500     6.9260     7.0210     8.0360     2.4440     0.0780     0.1410     0.0190   117.5412
  122.0000   122.4980  -196.7720  -999.2500     6.9760     7.1550     8.0380     2.4440     0.0800     0.1400     0.0260   117.3863
  122.5000   123.3840  -197.2660  -999.2500     7.0260     7.2600     8.0400     2.4440     0.0810     0.1410     0.0250   117.6916
  123.0000   124.9140  -197.5260  -999.2500     7.0760     7.3650     8.0410     2.4400     0.0780     0.1440     0.0180   127.0786
  123.5000   124.7330  -197.5220  -999.2500     7.1260     7.4700     8.0430     2.4350     0.0750     0.1470     0.0110   146.5933
  124.0000   124.7400  -197.4750  -999.2500     7.2170     7.5750     8.0440     2.4370     0.0720     0.1450     0.0040   143.0642
