~VERSION INFORMATION
 VERS.                2.0:   CWLS LOG ASCII STANDARD - VERSION 2.0
 WRAP.                 NO:   ONE LINE PER DEPTH STEP
~WELL INFORMATION
#MNEM.UNIT      DATA TYPE    INFORMATION
#----------   ------------   ------------------------------
 STRT.F           32.0000:   START DEPTH
 STOP.F          502.0000:   STOP DEPTH
 STEP.F            0.5000:   STEP LENGTH
 NULL.          -999.2500:   NO VALUE
 COMP.    FENIX & SCISSON:   COMPANY
 WELL. NPR # #3 65-36-SX-3-FP:   WELL
 FLD .             TEAPOT:   FIELD
 LOC .       S3 T38N R78W:   LOCATION
 CNTY.            NATRONA:   COUNTY
 STAT.            WYOMING:   STATE
 CTRY. UNITED STATES OF AMERICA:   COUNTRY
 SRVC.              Welex:   SERVICE COMPANY
 DATE.        15-JUN-1980:   LOGDATE
 API .       490251082600:   API NUMBER
~CURVE INFORMATION
#MNEM.UNIT       API CODE    CURVE DESCRIPTION
#----------   ------------   ------------------------------
 DEPT.F                  :   
 CALD.IN     45 280 60 00:   CALIPER FROM DENSITY LOG
 CORR.G/C3   45 356 01 00:   DENSITY CORRECTION
 DPHI.DEC    45 890 12 00:   DENSITY POROSITY SANDSTONE
 GRD .GAPI   45 310 01 00:   GAMMA RAY FROM DENSITY LOG
 RHOB.G/C3   45 350 01 00:   BULK DENSITY
 NPHI.DEC    42 890 03 00:   NEUTRON POROSITY SANDSTONE
 ILD .OHMM   07 120 46 00:   INDUCTION LOG DEEP
 ILM .OHMM   07 120 44 00:   INDUCTION LOG MEDIUM
 SGRD.OHMM   07 220 05 00:   SHALLOW GUARD RESISTIVITY
 SPR .MV     07 010 01 00:   SPONTANEOUS POTENTIAL FROM RES.
~PARAMETER INFORMATION
#MNEM.UNIT          VALUE    DESCRIPTION
#----------   ------------   ------------------------------
 PD  .                 GL:   PERMANENT DATUM
 EPD .F              5159:   ELEVATION PERMANENT DATUM
 LMF .                 KB:   LOG MEASURED FROM
 DAPD.F                 5:   FEET ABOVE PERMANENT DATUM
 DMF .                 KB:   DRILLING MEASURED FROM
 EKB .F              5164:   KELLING BUSHING
 EGL .F              5159:   GROUND LEVEL
 DATE.            6-15-80:   RUN DATE
 RUN .                  1:   RUN NUMBER
 DD  .F               505:   DEPTH DRILLER
 DL  .F               504:   DEPTH LOGGER
 BLI .F               502:   BOTTOM LOG INTERVAL
 TLI .F                30:   TOP LOG INTERVAL
 BS  .IN            9.875:   BIT SIZE
 BSD .F               505:   BIT SIZE AT DEPTH
 DFT .             2% KCL:   DRILLING FLUID TYPE
 DFD .                9.4:   DRILLING FLUID DENSITY
 DFV .                 51:   DRILLING FLUID VISCOSITY
 DFPH.                 12:   DRILLING FLUID PH
 DFL .                5.6:   DRILLING FLUID LOSS
 MSS .           FLOWLINE:   MUD SAMPLE SOURCE
 RMS .OHMM            .36:   RESISTIVITY MUD SAMPLE
 MST .F                65:   MUD SAMPLE TEMPERATURE
 RMF .OHMM            .29:   RESISTIVITY MUD FILTRATE SAMPLE
 MFST.F                65:   MUD FILTRATE SAMPLE TEMPERATURE
 RMC .OHMM            .42:   RESISTIVITY MUD CAKE
 MCST.F                65:   MUD CAKE SAMPLE TEMPERATURE
 MFSS.           MEASURED:   MUD FILTRATE SAMPLE SOURCE
 MCSS.           MEASURED:   MUD CAKE SAMPLE SOURCE
 RMB .OHMM            .32:   RESISTIVITY MUD AT BHT
 BHT .F                74:   BOTTOM HOLE TEMPERATURE
 TCS .HRS               2:   TIME CURCULATED STOPPED
 MRT .F                74:   MAXIMUM RECORDED TEMPERATURE
 LUN .               1892:   LOGGING UNIT NUMBER
 LUL .             CASPER:   LOGGING UNIT LOCATION
 ENGI.               REIN:   RECORDING ENGINEER
 WITN.              AMEND:   WITNESSED BY
 CLNT.            A2DTECH:   CLIENT CODE
 ORIG.       2", 5" PRINT:   ORIGIN OF DATA
 UWI .       490251082600:   UNIQUE WELL ID
 DICO. A2D Technologies, Inc.:   DIGITIZING COMPANY
~OTHER INFORMATION
~A   DEPT     CALD       CORR       DPHI        GRD       RHOB       NPHI         ILD         ILM       SGRD      SPR   
# ...
  467.5000    10.0133     0.0556     0.0960   102.9942     2.4975     0.2972     8.5244     9.0262    11.8926   -33.2807
  468.0000     9.9994     0.0361     0.1002   102.5607     2.4879     0.2990     8.4648     8.8392    11.4025   -33.8510
  468.5000    10.0004     0.0301     0.0962   101.3897     2.4918     0.2999     8.2904     8.6560    11.0176   -33.8477
  469.0000    10.0013     0.0560     0.0896   100.0712     2.5023     0.2998     8.0636     8.4760    10.7893   -33.8450
  469.5000    10.0021     0.0636     0.0920    98.4555     2.5076     0.2992     7.8975     8.4156    10.7865   -33.5557
  470.0000    10.0029     0.0426     0.0982    98.4667     2.4889     0.2983     7.8422     8.4134    10.7837   -33.2665
  470.5000    10.0039     0.0533     0.0952    99.0656     2.4920     0.2961     7.7338     8.4112    10.7802   -32.9766
  471.0000    10.0048     0.0612     0.0894    99.6645     2.5048     0.2954     7.7326     8.4090    10.7773   -33.1178
  471.5000    10.0056     0.0611     0.0870   100.7059     2.5063     0.2942     7.7316     8.5230    10.5540   -33.2584
  472.0000    10.0066     0.0733     0.0902   102.4847     2.5041     0.2882     7.7306     8.5803    10.2643   -33.6848
  472.5000    10.0007     0.0670     0.0950   104.4111     2.5117     0.2813     7.7296     8.6374    10.1904   -34.9708
  473.0000     9.9934     0.0614     0.0973   106.0424     2.5013     0.2741     7.6752     8.7545    10.1178   -35.3983
  473.5000     9.9946     0.0661     0.1009   109.0012     2.4968     0.2665     7.6215     8.8731    10.1154   -35.5391
  474.0000     9.9805     0.0466     0.1056   119.1871     2.4879     0.2551     7.5162     8.8708    10.1125   -35.3925
  474.5000     9.9489     0.0558     0.0984   122.1459     2.4815     0.2422     7.3108     8.8685    10.1798   -35.2464
  475.0000     9.9233     0.0740     0.1031   135.8717     2.4850     0.2376     7.2095     8.8662    10.1765   -35.2431
  475.5000     9.9242     0.0711     0.1019   143.2780     2.4896     0.2433     7.1098     8.8633    10.3151   -35.0971
  476.0000     9.9251     0.0697     0.1002   157.1270     2.4866     0.2735     7.0116     8.9229    10.3844   -35.2377
  476.5000     9.9407     0.0744     0.1035   196.5165     2.4837     0.3005     6.9625     8.9200    10.3097   -35.3782
  477.0000     9.9268     0.0745     0.1066   239.8883     2.4725     0.3002     6.9084     9.0415    10.3064   -36.3777
  477.5000     9.9425     0.0746     0.1068   238.1273     2.4703     0.3005     6.8180     9.2274    10.3749   -36.9481
  478.0000     9.9581     0.0732     0.1068   223.0920     2.4734  -999.2500     6.8171     9.4829    10.4440   -37.2326
  478.5000     9.9590     0.0719     0.1013   164.1039     2.4877  -999.2500     6.8162     9.7455    10.4413   -37.3725
  479.0000     9.9747     0.0720     0.0911   118.6255     2.4997  -999.2500     6.9128    10.0154    10.7297   -37.2258
  479.5000     9.9903     0.0781     0.0853   105.8614     2.5050  -999.2500     7.1020    10.1587    10.9511   -37.2231
  480.0000     9.9912     0.0994     0.0838    99.0857     2.5200  -999.2500     7.2996    10.3612    11.3322   -37.1570
  480.5000    10.0068     0.0754     0.0886    96.1448     2.5067  -999.2500     7.5546    10.3578    12.2218   -36.7879
  481.0000    10.0077     0.0679     0.0930    95.1213     2.4992  -999.2500     7.9823    10.2133    12.4853   -36.0115
  481.5000    10.0086     0.0590     0.0909    94.3923     2.5000  -999.2500     8.3177    10.1405    12.6438   -34.9193
  482.0000    10.0094     0.0652     0.0872    95.5816     2.5151  -999.2500     8.5783    10.2080    12.2959   -34.9166
  482.5000    10.0252     0.0746     0.0824    95.2956     2.5271  -999.2500     8.9090    10.2753    12.2083   -34.9139
  483.0000    10.0261     0.0826     0.0782    92.7971     2.5324  -999.2500     9.1569    10.2726    12.2895   -35.0545
  483.5000    10.0268     0.0942     0.0745    90.2987     2.5399  -999.2500     9.4768    10.4125    12.6290   -35.4816
  484.0000    10.0252     0.0837     0.0793    88.9802     2.5235  -999.2500     9.4753    10.5543    12.8018   -35.8160
  484.5000    10.0139     0.0854     0.0789    88.1042     2.5356  -999.2500     9.4740    10.6981    12.7098   -36.0487
  485.0000    10.0147     0.0915     0.0752    86.3432     2.5394  -999.2500     9.4077    10.6946    12.2759   -36.0458
  485.5000    10.0158     0.0886     0.0749    85.3197     2.5327  -999.2500     9.3331    10.6918    11.9381   -36.1864
  486.0000    10.0019     0.0827     0.0719    85.0337     2.5283  -999.2500     9.2124    10.6155    11.9350   -36.1830
  486.5000    10.0027     0.0980     0.0635    85.1901     2.5583  -999.2500     9.1480    10.5392    11.9319   -36.1803
  487.0000     9.9889     0.1358     0.0673    86.3790     2.5658  -999.2500     9.1468    10.3922    12.0944   -36.0853
  487.5000     9.9749     0.1133     0.0738    88.7478     2.5359  -999.2500     9.1455    10.1768    12.4285   -36.0315
  488.0000     9.9611     0.0998     0.0795    91.4116     2.5255  -999.2500     9.1441    10.1042    12.4253   -35.8567
  488.5000     9.9619     0.0954     0.0848    89.3557     2.5166  -999.2500     9.1429    10.0316    12.2520   -35.5957
  489.0000     9.9628     0.0955     0.0839    84.2023     2.5136  -999.2500     9.1417     9.9601    11.9980   -35.4498
  489.5000     9.9719     0.1002     0.0788    81.9656     2.5317  -999.2500     9.1386     9.9575    11.9124   -35.2106
  490.0000     9.9794     0.1079     0.0805    39.4430     2.5213  -999.2500     8.8294     9.9549    11.9086   -34.8706
  490.5000     9.9802     0.1004     0.0996  -999.2500     2.5101  -999.2500     8.5291     9.8833    11.8237   -34.4381
  491.0000     9.9812     0.0900     0.1044  -999.2500     2.4862  -999.2500     8.1824     9.6784    11.9032   -34.0344
  491.5000     9.9968     0.0539     0.1098  -999.2500     2.4713  -999.2500     7.9588     9.2838    11.7310   -33.4250
  492.0000     9.9977     0.0419     0.1146  -999.2500     2.4526  -999.2500     7.7411     8.7231    11.1798   -32.9589
  492.5000    10.0045     0.0330     0.1128  -999.2500     2.4564  -999.2500     7.5817     8.0834    10.0096   -32.5641
  493.0000    10.0142     0.0467     0.1081  -999.2500     2.4685  -999.2500     7.3238     7.5951     9.8022   -31.8451
  493.5000    10.0150     0.0589     0.1072  -999.2500     2.4828  -999.2500     6.9299     7.3359     9.5990   -31.8424
  494.0000    10.0160     0.0613     0.1074  -999.2500     2.4695  -999.2500     6.5120     7.1838     9.5959   -31.8395
  494.5000    10.0168     0.0604     0.1161  -999.2500     2.4512  -999.2500     5.9942     6.9723     9.5275   -31.9799
  495.0000    10.0177     0.0560     0.1208  -999.2500     2.4425  -999.2500     5.4420     6.2982     9.1390   -31.9769
  495.5000    10.0187     0.0548     0.1265  -999.2500     2.4441  -999.2500     4.7732     6.0414     8.7664   -31.9742
  496.0000    10.0196     0.0488     0.1363  -999.2500     2.4199  -999.2500     4.4112     5.9162     7.8604   -31.8281
  496.5000    10.0055     0.0309     0.1456  -999.2500     2.4036  -999.2500     3.8803     5.6334     6.8357   -31.5383
  497.0000    10.0065     0.0325     0.1470  -999.2500     2.3874  -999.2500     3.6970     5.0457     6.0364   -31.3923
  497.5000    10.0075     0.0477     0.1545  -999.2500     2.3856  -999.2500     3.4030     4.6120     5.2939   -30.8165
  498.0000     9.9936     0.0494     0.1646  -999.2500     2.3572  -999.2500     3.2188     4.3936     4.2722   -30.3840
  498.5000     9.9648     0.0540     0.1727  -999.2500     2.3439  -999.2500     3.1104     3.8267     3.6212   -31.0969
  499.0000     9.9512     0.0617     0.1782  -999.2500     2.3351  -999.2500     3.1100     3.6958     3.6453   -32.5269
  499.5000     9.9371     0.0679     0.1901  -999.2500     2.3172  -999.2500     3.2186     3.7982     4.1544   -34.3867
  500.0000     9.9232     0.0861     0.1903  -999.2500     2.3076  -999.2500     3.5200     4.3586     5.6251   -40.5444
  500.5000     9.9243     0.0772     0.1752  -999.2500     2.3047  -999.2500     4.4185     5.9016     7.7217   -42.2602
