~VERSION INFORMATION
 VERS.                2.0:   CWLS LOG ASCII STANDARD - VERSION 2.0
 WRAP.                 NO:   ONE LINE PER DEPTH STEP
~WELL INFORMATION
#MNEM.UNIT      DATA TYPE    INFORMATION
#----------   ------------   ------------------------------
 STRT.F            0.0000:   START DEPTH
 STOP.F         3994.5000:   STOP DEPTH
 STEP.F            0.5000:   STEP LENGTH
 NULL.          -999.2500:   NO VALUE
 COMP. LAWRENCE/ALLISON INC:   COMPANY
 WELL. STX 10 #36SHX10-10:   WELL
 FLD .         LOST HILLS:   FIELD
 LOC .      S10 T38N R78W:   LOCATION
 CNTY.            NATRONA:   COUNTY
 STAT.            WYOMING:   STATE
 CTRY. UNITED STATES OF AMERICA:   COUNTRY
 SRVC.              Welex:   SERVICE COMPANY
 DATE.        20-MAR-1980:   LOGDATE
 API .       490251095600:   API NUMBER
~CURVE INFORMATION
#MNEM.UNIT       API CODE    CURVE DESCRIPTION
#----------   ------------   ------------------------------
 DEPT.F                  :   
 GRD .GAPI   45 310 01 00:   GAMMA RAY FROM DENSITY LOG
 CALD.IN     45 280 60 00:   CALIPER
 RHOB.G/C3   45 350 01 00:   BULK DENSITY
 CORR.G/C3   45 356 01 00:   DENSITY CORRECTION
 DPHI.DEC    45 890 12 00:   DENSITY POROSITY SANDSTONE
 GR  .GAPI   81 310 01 00:   GAMMA RAY FROM CEMENT LOG
~PARAMETER INFORMATION
#MNEM.UNIT          VALUE    DESCRIPTION
#----------   ------------   ------------------------------
 PD  .                 GL:   PERMANENT DATUM
 EPD .F              5224:   ELEVATION PERMANENT DATUM
 LMF .                 KB:   LOG MEASURED FROM
 DAPD.F                10:   FEET ABOVE PERMANENT DATUM
 DMF .                 KB:   DRILLING MEASURED FROM
 EKB .F              5234:   KELLING BUSHING
 EGL .F              5224:   GROUND LEVEL
 DATE.            3-20-80:   RUN DATE
 RUN .                  1:   RUN NUMBER
 DD  .F              1000:   DEPTH DRILLER
 DL  .F               954:   DEPTH LOGGER
 BLI .F               952:   BOTTOM LOG INTERVAL
 TLI .F               654:   TOP LOG INTERVAL
 CS  .IN            9.625:   CASING SIZE
 BS  .IN             8.75:   BIT SIZE
 BSD .F              1000:   BIT SIZE AT DEPTH
 DFT .                OIL:   DRILLING FLUID TYPE
 TCS .HRS               2:   TIME CURCULATED STOPPED
 MRT .F                94:   MAXIMUM RECORDED TEMPERATURE
 ENGI.            TOTHILL:   RECORDING ENGINEER
 WITN.           DINSMORE:   WITNESSED BY
 CLNT.            A2DTECH:   CLIENT CODE
 ORIG.           5" PRINT:   ORIGIN OF DATA
 UWI .       490251095600:   UNIQUE WELL ID
 DICO. A2D Technologies, Inc.:   DIGITIZING COMPANY
~OTHER INFORMATION
~A    DEPT     GRD       CALD       RHOB       CORR       DPHI          GR  
# ...
  832.0000    73.4271     8.5818     2.5052     0.0295     0.0841  -999.2500
  832.5000    74.0918     8.6098     2.5184     0.0385     0.0749  -999.2500
  833.0000    74.8866     8.6051     2.5315     0.0534     0.0654  -999.2500
  833.5000    75.6728     8.6018     2.5404     0.0503     0.0630  -999.2500
  834.0000    76.4939     8.5985     2.5146     0.0353     0.0756  -999.2500
  834.5000    76.8397     8.5951     2.4999     0.0218     0.0863  -999.2500
  835.0000    76.0892     8.5917     2.4938     0.0181     0.0890  -999.2500
  835.5000    75.2021     8.5883     2.4951     0.0196     0.0882  -999.2500
  836.0000    74.3115     8.5850     2.5001     0.0247     0.0854  -999.2500
  836.5000    73.8188     8.5816     2.5053     0.0295     0.0830  -999.2500
  837.0000    73.6597     8.5782     2.5082     0.0306     0.0795  -999.2500
  837.5000    73.8689     8.5747     2.5208     0.0380     0.0737  -999.2500
  838.0000    74.2184     8.5721     2.5307     0.0383     0.0679  -999.2500
  838.5000    74.5854     8.5843     2.5388     0.0475     0.0619  -999.2500
  839.0000    72.9774     8.5897     2.5381     0.0428     0.0641  -999.2500
  839.5000    71.0302     8.5894     2.5300     0.0342     0.0675  -999.2500
  840.0000    69.0354     8.5893     2.5218     0.0255     0.0717  -999.2500
  840.5000    66.5197     8.5893     2.5244     0.0205     0.0742  -999.2500
  841.0000    69.5054     8.5881     2.5179     0.0184     0.0762  -999.2500
  841.5000    73.7691     8.5821     2.5160     0.0269     0.0756  -999.2500
  842.0000    78.1046     8.5762     2.5104     0.0340     0.0820  -999.2500
  842.5000    79.8399     8.5702     2.4823     0.0117     0.0986  -999.2500
  843.0000    78.7380     8.5723     2.4862     0.0153     0.0935  -999.2500
  843.5000    77.5827     8.5756     2.4937     0.0236     0.0902  -999.2500
  844.0000    76.4176     8.5790     2.4896     0.0201     0.0925  -999.2500
  844.5000    76.0921     8.5824     2.4784     0.0110     0.1024  -999.2500
  845.0000    77.1456     8.5858     2.4708     0.0054     0.1042  -999.2500
  845.5000    78.2082     8.5892     2.4826     0.0133     0.0938  -999.2500
  846.0000    79.2840     8.5925     2.4847     0.0209     0.0978  -999.2500
  846.5000    79.5754     8.5959     2.4886     0.0279     0.0926  -999.2500
  847.0000    79.6699     8.5993     2.4879     0.0276     0.0945  -999.2500
  847.5000    81.0192     8.6027     2.4801     0.0185     0.0966  -999.2500
  848.0000    82.0306     8.6061     2.4751     0.0117     0.1007  -999.2500
  848.5000    80.9534     8.6091     2.4772     0.0126     0.1029  -999.2500
  849.0000    79.4739     8.6091     2.4929     0.0259     0.0879  -999.2500
  849.5000    78.7528     8.6091     2.5080     0.0389     0.0747  -999.2500
  850.0000    79.3897     8.6091     2.5195     0.0474     0.0774  -999.2500
  850.5000    80.0108     8.6091     2.5080     0.0347     0.0818  -999.2500
  851.0000    80.6589     8.6091     2.5182     0.0423     0.0728  -999.2500
  851.5000    80.3980     8.6091     2.5344     0.0597     0.0626  -999.2500
  852.0000    79.9411     8.6091     2.5421     0.0641     0.0599  -999.2500
  852.5000    80.2830     8.6091     2.5093     0.0479     0.0777  -999.2500
  853.0000    80.4964     8.6091     2.4967     0.0303     0.0922  -999.2500
  853.5000    79.6023     8.6091     2.4875     0.0183     0.0955  -999.2500
  854.0000    78.6352     8.6091     2.4765     0.0118     0.1017  -999.2500
  854.5000    77.6588     8.6091     2.4698     0.0090     0.1040  -999.2500
  855.0000    77.1351     8.6091     2.4771     0.0113     0.0985  -999.2500
  855.5000    76.4229     8.6091     2.4852     0.0155     0.0950  -999.2500
  856.0000    75.7219     8.6091     2.4853     0.0200     0.0978  -999.2500
  856.5000    75.1388     8.6091     2.5055     0.0332     0.0852  -999.2500
  857.0000    74.6044     8.6091     2.5263     0.0484     0.0719  -999.2500
  857.5000    73.6839     8.6091     2.5293     0.0523     0.0694  -999.2500
  858.0000    72.7571     8.6091     2.5124     0.0293     0.0834  -999.2500
  858.5000    71.8361     8.6092     2.4868     0.0169     0.0946  -999.2500
  859.0000    71.2687     8.6091     2.5000     0.0262     0.0879  -999.2500
  859.5000    71.5446     8.6056     2.5011     0.0250     0.0850  -999.2500
  860.0000    72.0755     8.5869     2.5106     0.0250     0.0824  -999.2500
  860.5000    73.0917     8.5708     2.5320     0.0425     0.0674  -999.2500
  861.0000    74.0900     8.5947     2.5210     0.0338     0.0750  -999.2500
  861.5000    75.0803     8.6097     2.5036     0.0209     0.0847  -999.2500
  862.0000    74.5898     8.6122     2.4953     0.0086     0.0914  -999.2500
  862.5000    72.6551     8.6147     2.4882     0.0142     0.0930  -999.2500
  863.0000    72.2119     8.6172     2.4972     0.0208     0.0873  -999.2500
  863.5000    73.6488     8.6197     2.4945     0.0175     0.0888  -999.2500
  864.0000    75.0657     8.6222     2.4932     0.0122     0.0902  -999.2500
  864.5000    76.4920     8.6247     2.5021     0.0220     0.0851  -999.2500
  865.0000    77.2048     8.6272     2.5122     0.0282     0.0805  -999.2500
  865.5000    76.5714     8.6297     2.5047     0.0189     0.0837  -999.2500
  866.0000    75.9510     8.6326     2.4925     0.0076     0.0908  -999.2500
  866.5000    75.3240     8.6354     2.4854     0.0154     0.0954  -999.2500
  867.0000    75.2487     8.6382     2.5027     0.0300     0.0801  -999.2500
  867.5000    75.3655     8.6410     2.5225     0.0448     0.0694  -999.2500
  868.0000    75.6910     8.6438     2.5373     0.0588     0.0639  -999.2500
  868.5000    75.4649     8.6466     2.5185     0.0353     0.0771  -999.2500
  869.0000    73.0501     8.6495     2.4927     0.0060     0.0926  -999.2500
  869.5000    70.6281     8.6523     2.4724    -0.0106     0.1080  -999.2500
  870.0000    69.1948     8.6551     2.4635    -0.0199     0.1102  -999.2500
  870.5000    69.4503     8.6579     2.4726    -0.0114     0.1035  -999.2500
  871.0000    69.9081     8.6607     2.4804    -0.0024     0.0986  -999.2500
  871.5000    70.3725     8.6635     2.4765    -0.0049     0.1007  -999.2500
  872.0000    69.8695     8.6663     2.4906     0.0077     0.0912  -999.2500
  872.5000    68.9438     8.6688     2.5056     0.0206     0.0771  -999.2500
  873.0000    68.0390     8.6719     2.5154     0.0287     0.0778  -999.2500
  873.5000    67.9994     8.6752     2.5190     0.0275     0.0720  -999.2500
  874.0000    68.0052     8.6785     2.5282     0.0316     0.0705  -999.2500
  874.5000    68.0020     8.6819     2.5439     0.0445     0.0578  -999.2500
  875.0000    68.3566     8.6852     2.5591     0.0592     0.0507  -999.2500
  875.5000    68.9367     8.6885     2.5501     0.0530     0.0533  -999.2500
  876.0000    69.5251     8.6918     2.5583     0.0613     0.0497  -999.2500
  876.5000    70.0493     8.6952     2.5327     0.0368     0.0693  -999.2500
  877.0000    69.3382     8.6985     2.5257     0.0314     0.0692  -999.2500
  877.5000    68.8157     8.7018     2.5368     0.0421     0.0627  -999.2500
  878.0000    68.6371     8.7053     2.5482     0.0535     0.0571  -999.2500
  878.5000    68.0598     8.7077     2.5507     0.0534     0.0564  -999.2500
  879.0000    67.2357     8.6943     2.5430     0.0427     0.0640  -999.2500
  879.5000    67.2651     8.6805     2.5184     0.0285     0.0761  -999.2500
  880.0000    67.5962     8.6667     2.5039     0.0148     0.0822  -999.2500
  880.5000    67.3888     8.6545     2.5188     0.0271     0.0745  -999.2500
  881.0000    65.9526     8.6267     2.5338     0.0413     0.0654  -999.2500
  881.5000    64.5620     8.6259     2.5267     0.0403     0.0702  -999.2500
  882.0000    63.8415     8.6235     2.5150     0.0282     0.0768  -999.2500
  882.5000    63.9579     8.6213     2.5029     0.0169     0.0839  -999.2500
  883.0000    63.9656     8.6191     2.5048     0.0214     0.0853  -999.2500
  883.5000    63.2628     8.6168     2.5097     0.0261     0.0830  -999.2500
