~VERSION INFORMATION
 VERS.                2.0:   CWLS LOG ASCII STANDARD - VERSION 2.0
 WRAP.                 NO:   ONE LINE PER DEPTH STEP
~WELL INFORMATION
#MNEM.UNIT      DATA TYPE    INFORMATION
#----------   ------------   ------------------------------
 STRT.F           30.0000:   START DEPTH
 STOP.F          750.0000:   STOP DEPTH
 STEP.F            0.5000:   STEP LENGTH
 NULL.          -999.2500:   NO VALUE
 COMP. FENIX & SCISSON INC:   COMPANY
 WELL. TEAPOT DOME SX #38-11:   WELL
 FLD .             TEAPOT:   FIELD
 LOC .      S11 T38N R78W:   LOCATION
 CNTY.            NATRONA:   COUNTY
 STAT.            WYOMING:   STATE
 CTRY. UNITED STATES OF AMERICA:   COUNTRY
 SRVC.            Unknown:   SERVICE COMPANY
 DATE.        23-FEB-1978:   LOGDATE
 API .       490251058200:   API NUMBER
~CURVE INFORMATION
#MNEM.UNIT       API CODE    CURVE DESCRIPTION
#----------   ------------   ------------------------------
 DEPT.F                  :   
 CALD.IN     45 280 60 00:   CALIPER FROM DENSITY LOG
 GRD .GAPI   45 310 01 00:   GAMMA RAY FROM DENSITY LOG
 RHOB.G/C3   45 350 01 00:   BULK DENSITY
 DPHI.DEC    45 890 12 00:   DENSITY POROSITY SANDSTONE
 CORR.G/C3   45 356 01 00:   DENSITY CORRECTION
 SPR .MV     07 010 01 00:   SPONTANEOUS POTENTIAL FROM RES. LOG
 SN  .OHMM   07 040 16 00:   SHORT NORMAL 16'
 ILD .OHMM   07 120 46 00:   INDUCTION LOG DEEP
~PARAMETER INFORMATION
#MNEM.UNIT          VALUE    DESCRIPTION
#----------   ------------   ------------------------------
 PD  .                 GL:   PERMANENT DATUM
 EPD .F              5204:   ELEVATION PERMANENT DATUM
 LMF .                 KB:   LOG MEASURED FROM
 DAPD.F                 4:   FEET ABOVE PERMANENT DATUM
 DMF .                 KB:   DRILLING MEASURED FROM
 EKB .F              5208:   KELLING BUSHING
 EGL .F              5204:   GROUND LEVEL
 DATE.            2-23-78:   RUN DATE
 RUN .                  1:   RUN NUMBER
 DD  .F               755:   DEPTH DRILLER
 DL  .F               751:   DEPTH LOGGER
 BLI .F               745:   BOTTOM LOG INTERVAL
 TLI .F                45:   TOP LOG INTERVAL
 CS  .IN            8.625:   CASING SIZE
 CBD .F                40:   CASING BOTTOM DRILLER
 CBL .F                40:   CASING BOTTOM LOGGER
 BS  .IN            7.875:   BIT SIZE
 BSD .F               755:   BIT SIZE AT DEPTH
 DFT .         LIGNO SULF:   DRILLING FLUID TYPE
 DFD .                8.7:   DRILLING FLUID DENSITY
 DFV .                 33:   DRILLING FLUID VISCOSITY
 DFPH.                 10:   DRILLING FLUID PH
 DFL .                  4:   DRILLING FLUID LOSS
 MSS .          FLOW LINE:   MUD SAMPLE SOURCE
 RMS .OHMM              2:   RESISTIVITY MUD SAMPLE
 MST .F                60:   MUD SAMPLE TEMPERATURE
 RMF .OHMM            1.9:   RESISTIVITY MUD FILTRATE SAMPLE
 MFST.F                62:   MUD FILTRATE SAMPLE TEMPERATURE
 RMC .OHMM            3.5:   RESISTIVITY MUD CAKE
 MCST.F                60:   MUD CAKE SAMPLE TEMPERATURE
 MFSS.               MEAS:   MUD FILTRATE SAMPLE SOURCE
 MCSS.               MEAS:   MUD CAKE SAMPLE SOURCE
 RMB .OHMM           1.69:   RESISTIVITY MUD AT BHT
 BHT .F                71:   BOTTOM HOLE TEMPERATURE
 TCS .HRS               3:   TIME CURCULATED STOPPED
 MRT .F                71:   MAXIMUM RECORDED TEMPERATURE
 LUN .               2958:   LOGGING UNIT NUMBER
 LUL .               CASP:   LOGGING UNIT LOCATION
 ENGI.            POINTER:   RECORDING ENGINEER
 WITN.           MCGINLEY:   WITNESSED BY
 CLNT.            A2DTECH:   CLIENT CODE
 ORIG.       2", 5" PRINT:   ORIGIN OF DATA
 UWI .       490251058200:   UNIQUE WELL ID
 DICO. A2D Technologies, Inc.:   DIGITIZING COMPANY
~OTHER INFORMATION
~A   DEPT     CALD         GRD      RHOB       DPHI       CORR        SPR         SN        ILD   
# ...
  232.5000     8.2565   105.8918     2.4854     0.1059     0.0365   -33.5555     7.7408     6.7980
  233.0000     8.3136   111.2170     2.4865     0.1121     0.0329   -33.2080     7.7228     6.7563
  233.5000     8.3561   111.3312     2.4827     0.1182     0.0292   -33.4430     7.7049     6.7003
  234.0000     8.3528   108.0916     2.4764     0.1244     0.0267   -33.5761     7.6870     6.7206
  234.5000     8.3296   105.4839     2.4607     0.1309     0.0296   -33.3103     7.6692     6.7540
  235.0000     8.3060   104.1206     2.4425     0.1309     0.0373   -33.0057     7.6517     6.7872
  235.5000     8.2823   102.5756     2.4340     0.1088     0.0593   -32.9782     7.6325     6.8205
  236.0000     8.2566   100.9097     2.4588     0.0924     0.0806   -33.0111     7.6249     6.8596
  236.5000     8.3046   100.7885     2.4922     0.0771     0.0881   -33.0444     7.7997     6.9336
  237.0000     8.3841   102.2113     2.5180     0.0827     0.0773   -33.0771     7.9221     7.0095
  237.5000     8.3948   103.6347     2.5211     0.0905     0.0607   -33.1097     8.0459     7.1151
  238.0000     8.3795   104.3206     2.5053     0.0983     0.0339   -33.1432     8.1716     7.2632
  238.5000     8.4018   104.0629     2.4883     0.1061     0.0217   -33.2421     8.2084     7.4110
  239.0000     8.4082   101.4646     2.4836     0.1127     0.0111   -33.5001     8.2084     7.4863
  239.5000     8.4024    98.5718     2.4777     0.1161     0.0115   -33.7533     8.2084     7.5542
  240.0000     8.3966    95.6427     2.4662     0.1193     0.0122   -33.9797     8.2085     7.5550
  240.5000     8.3905    92.7314     2.4574     0.1188     0.0128   -33.4780     8.2087     7.3951
  241.0000     8.3954    92.2113     2.4598     0.1177     0.0124   -32.6060     8.2072     7.2933
  241.5000     8.4024    93.2532     2.4622     0.1203     0.0101   -32.9861     8.2128     7.1930
  242.0000     8.4095    96.9000     2.4649     0.1249     0.0078   -33.3690     7.8808     7.0940
  242.5000     8.4166   100.9981     2.4536     0.1285     0.0071   -33.1235     7.6497     6.9964
  243.0000     8.4236   105.1161     2.4415     0.1260     0.0110   -32.9517     7.5522     6.9001
  243.5000     8.4307   107.7345     2.4380     0.1217     0.0151   -33.4212     7.5750     6.8052
  244.0000     8.4377   107.7407     2.4488     0.1175     0.0191   -33.7601     7.5926     6.7116
  244.5000     8.4448   107.7884     2.4568     0.1150     0.0232   -33.3874     7.6103     6.6385
  245.0000     8.4519   107.8322     2.4587     0.1127     0.0272   -33.1828     7.6280     6.7326
  245.5000     8.4589   107.8644     2.4627     0.1094     0.0287   -33.7317     7.6458     6.8113
  246.0000     8.4660   107.7390     2.4708     0.1053     0.0277   -34.2954     7.6636     6.8910
  246.5000     8.4673   107.8644     2.4789     0.1010     0.0266   -34.8618     7.6814     6.9716
  247.0000     8.4639   107.2520     2.4836     0.1025     0.0256   -35.3375     7.6948     7.0532
  247.5000     8.4605   107.5077     2.4802     0.1050     0.0252   -34.5279     7.8469     7.1357
  248.0000     8.4571   110.6848     2.4741     0.1075     0.0277   -33.8217     7.9942     7.2191
  248.5000     8.4537   111.5102     2.4679     0.1100     0.0303   -34.6383     8.1330     7.3036
  249.0000     8.4506   113.3123     2.4658     0.1117     0.0319   -35.3238     8.1473     7.3890
  249.5000     8.4327   115.6323     2.4639     0.1117     0.0355   -34.2975     8.1685     7.4754
  250.0000     8.4096   111.8776     2.4621     0.1117     0.0390   -33.2654     8.1895     7.4847
  250.5000     8.3866   107.7119     2.4623     0.1116     0.0396   -32.7662     8.2107     7.4587
  251.0000     8.3712   103.5535     2.4689     0.1110     0.0371   -32.7739     8.2320     7.4413
  251.5000     8.3790   101.1616     2.4696     0.1113     0.0349   -33.7325     8.2535     7.4240
  252.0000     8.3862   100.7588     2.4658     0.1075     0.0401   -33.8430     8.2844     7.4158
  252.5000     8.3934    99.8612     2.4625     0.1003     0.0508   -33.1578     8.2702     7.4623
  253.0000     8.4006    98.3792     2.4676     0.0932     0.0588   -33.8466     8.2435     7.4847
  253.5000     8.4078    98.1543     2.5050     0.0871     0.0444   -35.0741     8.2170     7.4251
  254.0000     8.4151    97.8981     2.4981     0.0947     0.0249   -35.0318     8.1906     7.3740
  254.5000     8.4224    97.9227     2.4858     0.1018     0.0172   -34.1161     8.1643     7.3233
  255.0000     8.4285    98.8104     2.4732     0.1101     0.0200   -33.4552     8.1379     7.2729
  255.5000     8.4033    98.0613     2.4663     0.1083     0.0230   -34.0775     8.1329     7.2197
  256.0000     8.3766    97.1453     2.4644     0.1047     0.0260   -34.6903     8.1329     7.1437
  256.5000     8.3513    97.2498     2.4739     0.1026     0.0288   -34.4338     8.1329     7.1491
  257.0000     8.3785    97.3225     2.4826     0.1064     0.0279   -34.0162     8.1330     7.1629
  257.5000     8.4090    97.0768     2.4776     0.1090     0.0269   -33.6057     8.1330     7.1726
  258.0000     8.3846    94.3526     2.4727     0.1058     0.0269   -33.8774     8.1330     7.1823
  258.5000     8.3519    91.7759     2.4722     0.1018     0.0269   -35.0299     8.1330     7.1920
  259.0000     8.3865    92.5009     2.4787     0.0990     0.0267   -35.3394     8.1330     7.2017
  259.5000     8.4276    93.4957     2.4852     0.0992     0.0257   -35.2906     8.1330     7.2114
  260.0000     8.4298    94.5296     2.4866     0.1021     0.0246   -35.2323     8.1330     7.2212
  260.5000     8.4318    94.8354     2.4806     0.1051     0.0236   -35.1811     8.1330     7.2309
  261.0000     8.4342    95.3037     2.4754     0.1062     0.0228   -34.7717     8.1330     7.2407
  261.5000     8.4367    95.9888     2.4753     0.1067     0.0224   -33.9462     8.1330     7.2505
  262.0000     8.4393    96.2727     2.4750     0.1073     0.0220   -34.0625     8.1330     7.2603
  262.5000     8.4418    96.4714     2.4747     0.1078     0.0216   -34.4542     8.1330     7.2702
  263.0000     8.4444    97.1609     2.4745     0.1068     0.0212   -34.8553     8.1330     7.2805
  263.5000     8.4471    97.5775     2.4740     0.1059     0.0208   -35.2075     8.1330     7.3076
  264.0000     8.4481    96.7929     2.4736     0.1047     0.0204   -34.5937     8.1330     7.3360
  264.5000     8.4119    95.9025     2.4763     0.1025     0.0200   -33.8965     8.1330     7.3645
  265.0000     8.3748    95.1463     2.4811     0.1014     0.0196   -33.9747     8.1330     7.3932
  265.5000     8.3375    95.1591     2.4848     0.1004     0.0193   -34.3089     8.1329     7.4220
  266.0000     8.3443    95.0227     2.4856     0.0994     0.0210   -34.0968     8.1325     7.4509
  266.5000     8.3824    94.5017     2.4674     0.1005     0.0258   -33.5745     8.1330     7.4798
  267.0000     8.4210    94.2212     2.4725     0.0993     0.0290   -33.6794     8.1701     7.4942
  267.5000     8.4284    96.2932     2.4819     0.0950     0.0263   -33.7527     8.3284     7.5161
  268.0000     8.4276    98.4971     2.4915     0.0970     0.0226   -34.3463     8.4899     7.5381
  268.5000     8.4264    99.5165     2.4917     0.1009     0.0189   -35.0154     8.6549     7.5546
  269.0000     8.4253    97.3839     2.4815     0.1049     0.0174   -34.9198     8.6758     7.6316
  269.5000     8.4242    94.8264     2.4731     0.1088     0.0195   -34.3722     8.6757     7.7206
  270.0000     8.4231    92.0905     2.4697     0.1102     0.0210   -33.7500     8.6757     7.8111
  270.5000     8.4220    89.6206     2.4743     0.1090     0.0184   -33.7333     8.6944     7.8382
  271.0000     8.4208    89.9566     2.4796     0.1072     0.0154   -34.0541     8.8675     7.8963
  271.5000     8.4197    90.4937     2.4783     0.1075     0.0170   -34.3823     9.0441     7.9785
  272.0000     8.4186    90.4175     2.4590     0.1082     0.0216   -34.7061     9.2242     8.0616
  272.5000     8.4175    89.9339     2.4637     0.1050     0.0262   -34.8696     9.4079     8.1338
