~VERSION INFORMATION
 VERS.                2.0:   CWLS LOG ASCII STANDARD - VERSION 2.0
 WRAP.                 NO:   ONE LINE PER DEPTH STEP
~WELL INFORMATION
#MNEM.UNIT      DATA TYPE    INFORMATION
#----------   ------------   ------------------------------
 STRT.F            0.5000:   START DEPTH
 STOP.F          696.0000:   STOP DEPTH
 STEP.F            0.5000:   STEP LENGTH
 NULL.          -999.2500:   NO VALUE
 COMP. LAWRENCE/ALLISON INC:   COMPANY
 WELL. SX 11 WP #26-44-11:   WELL
 FLD .             TEAPOT:   FIELD
 LOC .      S11 T38N R78W:   LOCATION
 CNTY.            NATRONA:   COUNTY
 STAT.            WYOMING:   STATE
 CTRY. UNITED STATES OF AMERICA:   COUNTRY
 SRVC.      Dresser Atlas:   SERVICE COMPANY
 DATE.        08-SEP-1984:   LOGDATE
 API .       490251097600:   API NUMBER
~CURVE INFORMATION
#MNEM.UNIT       API CODE    CURVE DESCRIPTION
#----------   ------------   ------------------------------
 DEPT.F                  :   
 AC  .US/F   60 520 00 00:   ACCOUSTIC
 SPR .MV     07 010 01 00:   SPONTANEOUS POTENTIAL FROM RES.
 RILD.OHMM   07 120 46 00:   RESISTIVITY INDUCTION LOG DEEP
 RILM.OHMM   07 120 44 00:   RESISTIVITY INDUCTION LOG MEDIUM
 RFOC.OHMM   07 220 04 00:   RESISTIVITY FOCUSED LOG
 GRR .GAPI   07 310 01 00:   GAMMA RAY FROM RESISTIVITY
 CALD.IN     45 280 60 00:   CALIPER FROM DENSITY LOG
 DEN .G/C3   45 350 01 00:   COMPENSATED BULK DENSTIY
 CORR.G/C3   45 356 01 00:   DENSITY CORRECTION
 PORD.DEC    45 890 12 00:   POROSITY DENSITY SANDSTONE
 CNC .DEC    42 890 03 00:   NEUTRON POROSITY SANDSTONE
~PARAMETER INFORMATION
#MNEM.UNIT          VALUE    DESCRIPTION
#----------   ------------   ------------------------------
 PD  .                 GL:   PERMANENT DATUM
 EPD .F              5186:   ELEVATION PERMANENT DATUM
 LMF .                 GL:   LOG MEASURED FROM
 DMF .                 GL:   DRILLING MEASURED FROM
 EGL .F              5186:   GROUND LEVEL
 DATE.         8-SEP-1984:   RUN DATE
 RUN .                  1:   RUN NUMBER
 DD  .F               712:   DEPTH DRILLER
 DL  .F               695:   DEPTH LOGGER
 BLI .F               693:   BOTTOM LOG INTERVAL
 CS  .IN            8.625:   CASING SIZE
 CBD .F                40:   CASING BOTTOM DRILLER
 CBL .F                45:   CASING BOTTOM LOGGER
 BS  .IN            7.875:   BIT SIZE
 BSD .F               712:   BIT SIZE AT DEPTH
 DFT .          KCL WATER:   DRILLING FLUID TYPE
 MSS .           FLOWLINE:   MUD SAMPLE SOURCE
 RMS .OHMM            .22:   RESISTIVITY MUD SAMPLE
 MST .F                72:   MUD SAMPLE TEMPERATURE
 RMF .OHMM            .17:   RESISTIVITY MUD FILTRATE SAMPLE
 MFST.F                72:   MUD FILTRATE SAMPLE TEMPERATURE
 RMC .OHMM            .28:   RESISTIVITY MUD CAKE
 MCST.F                72:   MUD CAKE SAMPLE TEMPERATURE
 MFSS.               CALC:   MUD FILTRATE SAMPLE SOURCE
 MCSS.               CALC:   MUD CAKE SAMPLE SOURCE
 RMB .OHMM            .18:   RESISTIVITY MUD AT BHT
 BHT .F                90:   BOTTOM HOLE TEMPERATURE
 TCS .HRS               3:   TIME CURCULATED STOPPED
 MRT .F                90:   MAXIMUM RECORDED TEMPERATURE
 LUN .               6274:   LOGGING UNIT NUMBER
 LUL .               GLTE:   LOGGING UNIT LOCATION
 ENGI.             RAUTIO:   RECORDING ENGINEER
 WITN.           JENNINGS:   WITNESSED BY
 CLNT.            A2DTECH:   CLIENT CODE
 ORIG. 1", 2', 2.5", 5" PRNT:   ORIGIN OF DATA
 UWI .       490251097600:   UNIQUE WELL ID
 DICO. A2D Technologies, Inc.:   DIGITIZING COMPANY
~OTHER INFORMATION
~A    DEPT      AC        SPR       RILD       RILM       RFOC         GRR      CALD        DEN       CORR       PORD        CNC   
# ...
  458.0000    97.5520     6.3660    24.5790    21.0290    20.8100    62.5520     7.8620     2.4220     0.0090     0.1590     0.2616
  458.5000    99.4710     6.8120    24.4660    20.8730    20.4050    62.8769     7.8630     2.3890     0.0300     0.1750     0.2674
  459.0000   102.8600     7.2580    24.3530    20.7170    20.0000    61.7155     7.8640     2.3690     0.0420     0.1860     0.2638
  459.5000   106.2480     7.7030    24.2400    20.5610    19.8490    60.5683     7.8660     2.3520     0.0450     0.1940     0.2568
  460.0000   108.8450     8.0210    24.0230    20.4050    19.7730    59.7032     7.8670     2.3420     0.0270     0.2020     0.2631
  460.5000   109.8210     7.7420    23.3290    20.2100    19.5510    60.6254     7.8690     2.3390     0.0130     0.2030     0.2701
  461.0000   109.6330     7.4360    22.6350    19.8420    19.0930    62.1354     7.8700     2.3460     0.0230     0.1990     0.2716
  461.5000   109.2230     7.1310    21.9420    19.4740    18.6360    61.2798     7.8710     2.3570     0.0290     0.1920     0.2589
  462.0000   107.5410     6.8250    21.2480    19.1060    18.1780    60.7063     7.8690     2.3790     0.0250     0.1810     0.2499
  462.5000   106.4340     6.5180    20.5540    18.7380    17.9940    59.8507     7.8660     2.4130     0.0200     0.1620     0.2477
  463.0000   101.8890     6.2120    19.5460    18.3690    17.9940    61.9580     7.8630     2.4440     0.0240     0.1440     0.2446
  463.5000    98.0960     5.9070    19.5720    18.0010    18.5950    63.4680     7.8600     2.4580     0.0320     0.1320     0.2420
  464.0000    94.3030     5.6010    19.6370    17.6330    19.5460    65.5754     7.8580     2.4560     0.0280     0.1320     0.2435
  464.5000    93.0880     5.4650    19.7020    17.3440    19.4890    67.0854     7.8550     2.4330     0.0130     0.1460     0.2459
  465.0000    94.1570     5.5010    19.7670    17.3440    19.3530    69.1880     7.8520     2.4160     0.0160     0.1560     0.2453
  465.5000    95.4400     5.5350    19.8320    17.5040    19.2170    67.4388     7.8520     2.3990     0.0240     0.1670     0.2495
  466.0000    96.7220     5.5700    19.8970    18.0930    19.0800    65.3980     7.8510     2.3970     0.0330     0.1690     0.2513
  466.5000    97.2710     5.6040    20.4730    18.8060    18.9440    64.5282     7.8510     2.4040     0.0370     0.1640     0.2463
  467.0000    96.2400     5.6480    21.1540    19.5190    18.8400    65.7514     7.8510     2.4140     0.0120     0.1580     0.2434
  467.5000    95.0470     6.0740    21.8350    20.2330    19.3580    64.8910     7.8510     2.4240    -0.0070     0.1530     0.2517
  468.0000    93.4860     6.5490    22.5160    20.9460    19.7770    61.3688     7.8510     2.4050    -0.0050     0.1580     0.2578
  468.5000    95.1200     7.0250    23.1970    21.6250    20.1960    59.9158     7.8510     2.3720     0.0160     0.1770     0.2555
  469.0000    97.4870     7.4980    23.7630    21.5560    20.6160    58.7592     7.8520     2.3400     0.0360     0.1970     0.2573
  469.5000   100.0600     7.9750    23.9840    21.4900    20.8450    57.8941     7.8480     2.3270     0.0370     0.2120     0.2625
  470.0000   100.8230     8.0410    24.1470    21.4270    20.4840    60.2977     7.8430     2.3430     0.0320     0.2060     0.2621
  470.5000   100.7900     7.6970    23.5380    20.9930    20.1960    63.5903     7.8390     2.3620     0.0190     0.1950     0.2651
  471.0000    99.9750     7.3560    23.0540    20.5820    19.9090    63.9151     7.8350     2.3790     0.0050     0.1830     0.2715
  471.5000    99.1590     7.0110    22.5700    20.1720    19.6210    64.8325     7.8320     2.3800    -0.0090     0.1790     0.2724
  472.0000    98.4660     6.6130    22.0860    19.7620    19.3340    66.3426     7.8320     2.3750    -0.0010     0.1800     0.2729
  472.5000    98.2670     6.3570    21.5500    19.3510    19.0470    64.8944     7.8320     2.3700     0.0210     0.1840     0.2759
  473.0000    98.2670     6.2270    21.0060    18.9410    18.7590    64.6171     7.8320     2.3650     0.0400     0.1880     0.2857
  473.5000    98.5600     6.1010    20.4620    18.5310    18.4970    65.2477     7.8320     2.3610     0.0320     0.1900     0.2881
  474.0000    98.8650     6.0080    19.9180    18.1200    18.1480    66.7577     7.8320     2.3600     0.0240     0.1910     0.2730
  474.5000    98.4700     5.8840    19.3740    17.7100    17.8280    67.3836     7.8320     2.3620     0.0160     0.1900     0.2606
  475.0000    97.7610     5.7640    18.8300    17.3000    17.5080    67.7085     7.8320     2.3660     0.0080     0.1870     0.2501
  475.5000    96.9120     5.6430    18.2460    16.8890    17.1870    68.9222     7.8320     2.3800     0.0120     0.1800     0.2494
  476.0000    96.0620     5.5240    17.7630    16.4790    16.8670    68.6497     7.8320     2.3960     0.0220     0.1720     0.2521
  476.5000    95.2130     5.4040    17.5480    16.1150    16.5470    67.4930     7.8320     2.4060     0.0210     0.1640     0.2530
  477.0000    94.3630     5.2840    17.3320    16.0710    16.2630    69.6051     7.8320     2.4010     0.0130     0.1640     0.2510
  477.5000    93.9940     5.1640    17.1850    16.0240    16.2630    71.4115     7.8310     2.3940     0.0060     0.1690     0.2457
  478.0000    94.3740     5.0440    17.1850    15.9760    16.2630    73.5141     7.8290     2.3900     0.0060     0.1730     0.2429
  478.5000    94.8260     4.9230    17.1850    15.9290    16.2630    74.7230     7.8280     2.3870     0.0090     0.1750     0.2465
  479.0000    95.2780     4.8030    17.1910    15.8810    16.2630    72.3907     7.8260     2.3830     0.0110     0.1770     0.2452
  479.5000    95.7290     4.6840    17.2370    15.8210    16.2640    70.6415     7.8250     2.3780     0.0110     0.1790     0.2365
  480.0000    96.2460     4.5680    17.2820    15.9360    16.2940    68.8875     7.8230     2.3730     0.0080     0.1830     0.2328
  480.5000    96.7940     4.5550    17.3280    16.1500    16.3270    67.7308     7.8220     2.3630     0.0040     0.1870     0.2413
  481.0000    97.3410     4.5680    17.3740    16.3640    16.3600    68.9540     7.8200     2.3530    -0.0080     0.1920     0.2499
  481.5000    97.8890     4.4820    17.4190    16.5780    16.3930    69.2789     7.8180     2.3500    -0.0180     0.1950     0.2584
  482.0000    98.2280     4.3930    17.4650    16.7920    16.4120    69.0016     7.8170     2.3510    -0.0170     0.1960     0.2590
  482.5000    98.1030     4.3020    17.5100    17.0060    16.3690    70.2248     7.8150     2.3520    -0.0140     0.1960     0.2583
  483.0000    98.2490     4.2120    17.5560    17.1850    16.3370    71.4386     7.8140     2.3510    -0.0120     0.1960     0.2582
  483.5000    98.5000     4.1220    17.6010    17.1150    16.3040    71.4719     7.8120     2.3520    -0.0130     0.1950     0.2643
  484.0000    98.7510     4.0320    17.6660    17.0540    16.2710    71.7967     7.8150     2.3580    -0.0140     0.1930     0.2707
  484.5000    99.0020     3.9430    17.5990    16.9410    16.2390    73.8993     7.8180     2.3680    -0.0090     0.1890     0.2642
  485.0000    98.8530     3.8640    17.4810    16.7890    16.2060    74.8167     7.8220     2.3770     0.0020     0.1830     0.2500
  485.5000    98.5750     3.8940    17.3630    16.6360    16.1740    75.7389     7.8260     2.3870     0.0130     0.1770     0.2425
  486.0000    98.2960     3.9240    17.2460    16.4840    16.1410    74.5822     7.8290     2.3930     0.0240     0.1730     0.2431
  486.5000    98.0680     3.9540    17.1280    16.3320    16.0830    74.0134     7.8290     2.3920     0.0290     0.1720     0.2461
  487.0000    98.1860     3.9840    17.0110    16.1800    15.9210    75.2319     7.8200     2.3870     0.0310     0.1740     0.2586
  487.5000    98.2870     4.0120    16.8930    16.0280    15.7580    76.1493     7.8120     2.3810     0.0310     0.1780     0.2657
  488.0000    98.3870     4.0420    16.7750    15.8750    15.5950    74.7011     7.8040     2.3740     0.0250     0.1810     0.2650
