~VERSION INFORMATION
 VERS.                2.0:   CWLS LOG ASCII STANDARD - VERSION 2.0
 WRAP.                 NO:   ONE LINE PER DEPTH STEP
~WELL INFORMATION
#MNEM.UNIT      DATA TYPE    INFORMATION
#----------   ------------   ------------------------------
 STRT.F           27.0000:   START DEPTH
 STOP.F          760.0000:   STOP DEPTH
 STEP.F            0.5000:   STEP LENGTH
 NULL.          -999.2500:   NO VALUE
 COMP. FENIX & SCISSON INC:   COMPANY
 WELL.    NPR #3 #33-S-14:   WELL
 FLD .             TEAPOT:   FIELD
 LOC .      S14 T38N R78W:   LOCATION
 CNTY.            NATRONA:   COUNTY
 STAT.            WYOMING:   STATE
 CTRY. UNITED STATES OF AMERICA:   COUNTRY
 SRVC.              Welex:   SERVICE COMPANY
 DATE.        02-FEB-1977:   LOGDATE
 API .       490251027700:   API NUMBER
~CURVE INFORMATION
#MNEM.UNIT       API CODE    CURVE DESCRIPTION
#----------   ------------   ------------------------------
 DEPT.F                  :   
 SPR .MV     07 010 01 00:   SPONTANEOUS POTENTIAL
 SGRD.OHMM   07 220 05 00:   SHALLOW RESISTIVITY
 ILD .OHMM   07 120 46 00:   INDUCTION LOG DEEP
 ILM .OHMM   07 120 44 00:   INDUCTION LOG MEDIUM
 GRD .GAPI   45 310 01 00:   GAMMA RAY FROM DENSITY LOG
 CALD.IN     45 280 60 00:   CALIPER
 RHOB.G/C3   45 350 01 00:   BULK DENSITY
 CORR.G/C3   45 356 01 00:   DENSITY CORRECTION
 DPHI.DEC    45 890 00 00:   DENSITY POROSITY
~PARAMETER INFORMATION
#MNEM.UNIT          VALUE    DESCRIPTION
#----------   ------------   ------------------------------
 PD  .                 GL:   PERMANENT DATUM
 EPD .F              5219:   ELEVATION PERMANENT DATUM
 LMF .                 GL:   LOG MEASURED FROM
 DMF .                 GL:   DRILLING MEASURED FROM
 EKB .F              5224:   KELLING BUSHING
 EGL .F              5219:   GROUND LEVEL
 DATE.           2-2-1977:   RUN DATE
 RUN .                  1:   RUN NUMBER
 DD  .F               761:   DEPTH DRILLER
 DL  .F               762:   DEPTH LOGGER
 BLI .F               760:   BOTTOM LOG INTERVAL
 TLI .F                25:   TOP LOG INTERVAL
 CS  .IN            8.625:   CASING SIZE
 CBD .F              42.5:   CASING BOTTOM DRILLER
 CBL .F                46:   CASING BOTTOM LOGGER
 BS  .IN            7.875:   BIT SIZE
 BSD .F               761:   BIT SIZE AT DEPTH
 DFT .           CHEM-GEL:   DRILLING FLUID TYPE
 DFD .                8.9:   DRILLING FLUID DENSITY
 DFV .                 37:   DRILLING FLUID VISCOSITY
 DFPH.                  7:   DRILLING FLUID PH
 DFL .                8.4:   DRILLING FLUID LOSS
 MSS .          FLOW LINE:   MUD SAMPLE SOURCE
 RMS .OHMM           .231:   RESISTIVITY MUD SAMPLE
 MST .F                45:   MUD SAMPLE TEMPERATURE
 RMF .OHMM           .322:   RESISTIVITY MUD FILTRATE SAMPLE
 MFST.F                45:   MUD FILTRATE SAMPLE TEMPERATURE
 RMC .OHMM           .439:   RESISTIVITY MUD CAKE
 MCST.F                45:   MUD CAKE SAMPLE TEMPERATURE
 MFSS.           MEASURED:   MUD FILTRATE SAMPLE SOURCE
 MCSS.           MEASURED:   MUD CAKE SAMPLE SOURCE
 RMB .OHMM           .182:   RESISTIVITY MUD AT BHT
 BHT .F                57:   BOTTOM HOLE TEMPERATURE
 TCS .HRS             5.5:   TIME CURCULATED STOPPED
 MRT .F                57:   MAXIMUM RECORDED TEMPERATURE
 LUN .               8611:   LOGGING UNIT NUMBER
 LUL .           GILLETTE:   LOGGING UNIT LOCATION
 ENGI.             LAWSON:   RECORDING ENGINEER
 WITN. VOORHEES/RHOADES/JAPP/PETTINGILL/STUEBINGER:   WITNESSED BY
 CLNT.            A2DTECH:   CLIENT CODE
 ORIG.     1", 2.5" PRINT:   ORIGIN OF DATA
 UWI .       490251027700:   UNIQUE WELL ID
 DICO. A2D Technologies, Inc.:   DIGITIZING COMPANY
~OTHER INFORMATION
~A   DEPT      SPR       SGRD        ILD        ILM        GRD       CALD         RHOB      CORR      DPHI   
# ...
  136.5000   -31.1746     5.6700     4.2640     4.5571   105.0479     9.3676     2.3951     0.0922     0.1475
  137.0000   -31.5660     5.4325     4.2167     4.4137   102.4340     9.2488     2.3809     0.0897     0.1545
  137.5000   -31.9444     5.0885     4.1011     4.2748   100.1861     9.1308     2.3672     0.0873     0.1617
  138.0000   -32.3228     4.6372     3.9749     4.1403   100.9468     9.0082     2.3536     0.0849     0.1726
  138.5000   -32.7142     4.7240     3.8526     4.0101   101.7492     9.0219     2.3428     0.0825     0.1835
  139.0000   -33.0779     4.9427     3.7319     3.8839   102.5411     9.0746     2.3323     0.0801     0.1893
  139.5000   -33.5025     5.1372     3.6107     3.7617   103.3190     9.1281     2.3190     0.0787     0.1940
  140.0000   -33.5698     4.1070     3.4936     3.6434   103.3955     9.1814     2.3357     0.0806     0.1979
  140.5000   -33.6306     3.0436     3.3802     3.5287   102.5496     9.2353     2.3570     0.0824     0.1691
  141.0000   -33.6720     3.1619     3.2705     3.4177   101.7107     9.2883     2.3582     0.0842     0.1724
  141.5000   -33.7251     3.7466     3.1643     3.3102   100.8141     9.2155     2.3537     0.0860     0.1765
  142.0000   -33.7744     4.5412     3.0616     3.2060   102.1384     9.1317     2.3379     0.0837     0.1805
  142.5000   -33.8256     4.4351     2.9623     3.1051   104.0518     9.0478     2.3151     0.0803     0.1937
  143.0000   -33.8728     4.3324     2.8661     3.0074   105.9798     8.9657     2.2921     0.0770     0.2090
  143.5000   -33.9245     3.9044     2.7731     2.9127   107.8934     8.9499     2.2799     0.0737     0.2149
  144.0000   -33.8603     3.1934     2.6831     2.8211   109.8195     9.1469     2.2721     0.0703     0.2212
  144.5000   -33.7858     3.2734     2.6088     2.7325   109.8773     9.0669     2.2717     0.0670     0.2240
  145.0000   -33.7099     3.4391     2.5429     2.6532   108.3573     8.9655     2.2801     0.0637     0.2181
  145.5000   -33.6237     3.2255     2.4787     2.6198   106.8134     8.8652     2.2932     0.0603     0.2126
  146.0000   -33.5515     2.9405     2.3740     2.5893   105.2664     8.7713     2.3143     0.0568     0.2059
  146.5000   -33.0261     2.6552     2.4200     2.5566   103.7275     8.7527     2.3393     0.0617     0.1753
  147.0000   -32.3119     2.7706     2.5736     2.7075   102.1622     8.7362     2.3644     0.0678     0.1630
  147.5000   -31.6195     3.3188     2.7370     2.8821   101.7147     8.7202     2.3893     0.0739     0.1530
  148.0000   -30.9220     5.2195     2.9107     3.0681   103.2696     8.5667     2.4041     0.0799     0.1479
  148.5000   -30.7432     5.1252     3.0954     3.2660   106.8194     8.5404     2.3912     0.0860     0.1513
  149.0000   -30.7510     4.9421     3.2919     3.4767   110.3173     8.5671     2.3834     0.0910     0.1547
  149.5000   -30.7546     4.7656     3.5034     3.7009   111.8467     8.5887     2.3840     0.0944     0.1581
  150.0000   -30.7502     4.6261     3.6020     3.9887   110.9048     8.6066     2.3844     0.0946     0.1615
  150.5000   -30.7268     4.7132     3.7037     3.9147   109.9701     8.6244     2.3723     0.0948     0.1653
  151.0000   -30.6935     4.8008     3.5893     3.8243   110.3032     8.6424     2.3588     0.0951     0.1710
  151.5000   -30.6603     4.5958     3.4792     3.7361   111.6230     8.6601     2.3453     0.0954     0.1768
  152.0000   -30.6279     4.3570     3.3726     3.6357   112.9666     8.6703     2.3319     0.0956     0.1847
  152.5000   -30.5946     4.1393     3.2408     3.4784   113.7013     8.6513     2.3192     0.0959     0.1998
  153.0000   -30.5614     4.0156     3.0792     3.2986   114.1436     8.6330     2.2933     0.0963     0.2147
  153.5000   -30.5282     3.9000     2.9256     3.1281   114.5696     8.6142     2.2665     0.0909     0.2290
  154.0000   -30.4950     3.7730     2.7798     2.9665   116.5967     8.5994     2.2399     0.0838     0.2433
  154.5000   -30.4619     3.5511     2.6412     2.8131   119.8066     8.6905     2.2132     0.0766     0.2576
  155.0000   -30.4284     3.3109     2.5088     2.6677   121.3589     8.7871     2.1922     0.0694     0.2764
  155.5000   -30.3958     3.0869     2.3832     2.5299   120.6572     8.8832     2.1849     0.0622     0.2742
  156.0000   -30.3587     2.8573     2.2638     2.3991   118.9402     8.9778     2.1878     0.0551     0.2674
  156.5000   -30.3176     2.1690     2.1617     2.2887   116.8620     9.0241     2.2452     0.0522     0.2260
  157.0000   -30.2693     2.2815     2.1615     2.5108   114.8062     8.9726     2.3388     0.0623     0.1767
  157.5000   -30.2221     2.5245     2.2853     2.7202   112.7471     8.9224     2.4259     0.0722     0.1448
  158.0000   -30.1747     3.1824     2.5464     2.9698   110.6865     8.8697     2.4388     0.0820     0.1323
  158.5000   -30.1272     5.2576     2.8379     3.2425   108.6118     8.9679     2.4506     0.0919     0.1284
  159.0000   -30.0798     6.0247     3.1629     3.5407   106.5296     9.0823     2.4549     0.0942     0.1244
  159.5000   -30.0323     6.0631     3.5247     3.8668   107.2402     9.1403     2.4534     0.0888     0.1224
  160.0000   -29.9849     6.1019     3.8825     4.2229   108.2969     9.0922     2.4518     0.0834     0.1242
  160.5000   -29.9375     6.1409     4.1887     4.5442   109.3496     9.0459     2.4496     0.0781     0.1260
  161.0000   -29.8900     6.1801     4.5183     4.8385   110.3729     9.0174     2.4473     0.0743     0.1273
  161.5000   -29.8426     6.2196     4.8061     5.1054   110.6633     9.0095     2.4515     0.0742     0.1250
  162.0000   -29.7952     6.2593     5.0464     5.3868   109.1571     9.0015     2.4576     0.0741     0.1228
  162.5000   -29.7477     6.2993     5.2589     5.6839   107.6896     8.9936     2.4638     0.0739     0.1205
  163.0000   -29.7003     6.3392     5.4808     5.9953   106.1893     8.9856     2.4699     0.0738     0.1182
  163.5000   -29.6529     6.8835     5.6256     6.0596   106.3801     8.9777     2.4761     0.0736     0.1160
  164.0000   -29.6054     7.4697     5.7186     6.1256   107.3950     8.9697     2.4825     0.0735     0.1141
  164.5000   -29.5580     8.2170     5.8131     6.1909   108.4333     8.9618     2.4778     0.0733     0.1157
  165.0000   -29.5105     8.2034     5.9092     6.2570   109.4725     8.9538     2.4702     0.0732     0.1177
  165.5000   -29.4631     8.1871     6.0069     6.3238   110.5204     8.9459     2.4626     0.0730     0.1198
  166.0000   -29.4155     8.1708     6.1065     6.3912   111.4172     8.9379     2.4639     0.0729     0.1219
  166.5000   -29.3682     8.1546     6.2228     6.4594   110.0708     8.9300     2.4664     0.0727     0.1219
  167.0000   -29.3207     8.1384     6.1972     6.5283   108.6918     8.9220     2.4689     0.0726     0.1202
  167.5000   -29.2728     8.1223     6.1678     6.5708   107.3234     8.9141     2.4715     0.0725     0.1185
  168.0000   -29.2265     8.1061     6.1384     6.5430   105.9263     8.9061     2.4658     0.0694     0.1169
  168.5000   -29.1787     8.0901     6.1093     6.5153   106.0939     8.8982     2.4588     0.0658     0.1208
  169.0000   -29.1863     8.0740     6.0802     6.4877   106.5847     8.8898     2.4516     0.0622     0.1246
  169.5000   -29.2154     8.0580     6.0513     6.4602   106.5621     8.8674     2.4446     0.0587     0.1283
  170.0000   -29.2438     8.0420     6.0225     6.4328   105.9555     8.8289     2.4385     0.0576     0.1321
  170.5000   -29.2715     8.0261     5.9939     6.4056   106.2360     8.7905     2.4371     0.0602     0.1315
  171.0000   -29.2998     8.0101     5.9654     6.3784   107.1839     8.7519     2.4364     0.0629     0.1300
  171.5000   -29.3279     7.9945     5.9371     6.3514   108.1443     8.7138     2.4384     0.0655     0.1284
  172.0000   -29.3560     7.9788     5.9088     6.3245   109.1155     8.7040     2.4402     0.0681     0.1269
  172.5000   -29.3841     7.9619     5.8807     6.2977   110.0831     8.7278     2.4455     0.0708     0.1254
