~VERSION INFORMATION
 VERS.                2.0:   CWLS LOG ASCII STANDARD - VERSION 2.0
 WRAP.                 NO:   ONE LINE PER DEPTH STEP
~WELL INFORMATION
#MNEM.UNIT      DATA TYPE    INFORMATION
#----------   ------------   ------------------------------
 STRT.F           70.0000:   START DEPTH
 STOP.F         1088.0000:   STOP DEPTH
 STEP.F            0.5000:   STEP LENGTH
 NULL.          -999.2500:   NO VALUE
 COMP. U S NAVY/INTEX OIL CO:   COMPANY
 WELL. RES 3 TEAPOT DOME #66S-11:   WELL
 FLD .             TEAPOT:   FIELD
 LOC .      S11 T38N R78W:   LOCATION
 CNTY.            NATRONA:   COUNTY
 STAT.            WYOMING:   STATE
 CTRY. UNITED STATES OF AMERICA:   COUNTRY
 SRVC.         Lane Wells:   SERVICE COMPANY
 DATE.        06-MAR-1960:   LOGDATE
 API .       490250633400:   API NUMBER
~CURVE INFORMATION
#MNEM.UNIT       API CODE    CURVE DESCRIPTION
#----------   ------------   ------------------------------
 DEPT.F                  :   
 SPR .MV     05 010 01 00:   SPONTANEOUS POTENTIAL FROM RES.
 ILD .OHMM   05 120 46 00:   INDUCTION LOG DEEP
 CILD.MMHO   05 110 00 00:   CONDUCTIVITY INDUCTION LOG
 ASN .OHMM   05 041 16 00:   AMPLIFIED SHORT NORMAL 16"
~PARAMETER INFORMATION
#MNEM.UNIT          VALUE    DESCRIPTION
#----------   ------------   ------------------------------
 PD  .                 GL:   PERMANENT DATUM
 EPD .F              5238:   ELEVATION PERMANENT DATUM
 LMF .                 KB:   LOG MEASURED FROM
 DAPD.F                 5:   FEET ABOVE PERMANENT DATUM
 DMF .                 KB:   DRILLING MEASURED FROM
 EKB .F              5243:   KELLING BUSHING
 EGL .F              5238:   GROUND LEVEL
 DATE.             3-6-60:   RUN DATE
 RUN .                  1:   RUN NUMBER
 DD  .F              1085:   DEPTH DRILLER
 DL  .F              1087:   DEPTH LOGGER
 BLI .F              1085:   BOTTOM LOG INTERVAL
 TLI .F                70:   TOP LOG INTERVAL
 CS  .IN            8.625:   CASING SIZE
 CBD .F                12:   CASING BOTTOM DRILLER
 BS  .IN            7.875:   BIT SIZE
 BSD .F              1085:   BIT SIZE AT DEPTH
 DFT .   GEL/OIL EMULSION:   DRILLING FLUID TYPE
 DFD .               10.3:   DRILLING FLUID DENSITY
 DFV .                 37:   DRILLING FLUID VISCOSITY
 DFPH.                8.5:   DRILLING FLUID PH
 DFL .                7.2:   DRILLING FLUID LOSS
 MSS .          FLOW LINE:   MUD SAMPLE SOURCE
 RMS .OHMM           1.65:   RESISTIVITY MUD SAMPLE
 MST .F                70:   MUD SAMPLE TEMPERATURE
 RMF .OHMM            1.2:   RESISTIVITY MUD FILTRATE SAMPLE
 MFST.F                68:   MUD FILTRATE SAMPLE TEMPERATURE
 RMC .OHMM            1.8:   RESISTIVITY MUD CAKE
 MCST.F                68:   MUD CAKE SAMPLE TEMPERATURE
 MFSS.              PRESS:   MUD FILTRATE SAMPLE SOURCE
 MCSS.              PRESS:   MUD CAKE SAMPLE SOURCE
 RMB .OHMM            1.5:   RESISTIVITY MUD AT BHT
 BHT .F                74:   BOTTOM HOLE TEMPERATURE
 MRT .F                74:   MAXIMUM RECORDED TEMPERATURE
 LUN .               4474:   LOGGING UNIT NUMBER
 LUL .             CASPER:   LOGGING UNIT LOCATION
 ENGI.      NELSON/GRIGGS:   RECORDING ENGINEER
 WITN.   JORGENSEN/HUDSON:   WITNESSED BY
 CLNT.            A2DTECH:   CLIENT CODE
 ORIG.       2", 5" PRINT:   ORIGIN OF DATA
 UWI .       490250633400:   UNIQUE WELL ID
 DICO. A2D Technologies, Inc.:   DIGITIZING COMPANY
~OTHER INFORMATION
~A   DEPT      SPR          ILD      CILD         ASN 
# ...
  289.0000   -43.4192     4.8770   220.5630     5.1563
  289.5000   -43.2017     4.8467   219.7852     5.2247
  290.0000   -43.0096     4.8681   218.1698     5.3622
  290.5000   -43.4036     4.8920   216.5545     5.4994
  291.0000   -43.8236     4.9158   214.9391     5.6374
  291.5000   -44.2420     4.9394   213.3238     5.7747
  292.0000   -44.6268     4.9631   211.7084     5.9134
  292.5000   -44.6005     4.9868   210.0930     5.9230
  293.0000   -44.5630     5.0104   208.4777     5.8351
  293.5000   -44.5273     5.0341   206.8623     5.7457
  294.0000   -44.4920     5.0578   205.2469     5.6678
  294.5000   -44.4567     5.0814   203.6316     5.6852
  295.0000   -44.4214     5.1051   202.0162     5.7040
  295.5000   -44.3862     5.1288   200.1217     5.7225
  296.0000   -44.3509     5.1524   199.0313     5.7411
  296.5000   -44.3156     5.1761   200.5434     5.7568
  297.0000   -44.2803     5.2001   202.0556     5.7417
  297.5000   -44.2450     5.2020   203.5677     5.6488
  298.0000   -44.2097     5.1945   205.0798     5.5568
  298.5000   -44.1744     5.1868   206.5920     5.4650
  299.0000   -44.1391     5.1791   208.1041     5.3730
  299.5000   -44.1039     5.1714   209.6162     5.2812
  300.0000   -44.0686     5.1637   211.1284     5.2107
  300.5000   -44.0333     5.1560   211.4981     5.2304
  301.0000   -43.9979     5.1484   211.4981     5.3128
  301.5000   -43.9625     5.1407   210.3124     5.3924
  302.0000   -43.9281     5.1330   208.8294     5.4718
  302.5000   -43.9329     5.1253   207.3464     5.5513
  303.0000   -44.0171     5.1177   205.8634     5.6308
  303.5000   -44.0998     5.1167   204.2462     5.7099
  304.0000   -44.1822     5.1168   202.5601     5.7618
  304.5000   -44.2707     5.1168   200.7063     5.7737
  305.0000   -44.5070     5.1166   198.8526     5.7861
  305.5000   -44.7586     5.1168   196.9986     5.7981
  306.0000   -44.9880     5.1163   195.1489     5.8103
  306.5000   -44.8126     5.2242   193.3188     5.8528
  307.0000   -44.6235     5.4259   191.5225     6.0369
  307.5000   -44.4364     5.6279   185.4214     6.2313
  308.0000   -44.2497     5.8306   179.6542     6.6315
  308.5000   -44.0630     6.0324   173.8869     6.9297
  309.0000   -43.8764     6.2087   168.1196     7.4095
  309.5000   -43.6898     6.2363   165.8519     7.6863
  310.0000   -43.5035     6.2535   164.9046     7.8714
  310.5000   -43.3152     6.1535   167.6852     7.8680
  311.0000   -43.0724     6.0803   170.4659     7.5105
  311.5000   -43.3530     6.0086   173.2465     7.2071
  312.0000   -43.8310     5.9366   176.0272     6.9047
  312.5000   -44.3082     5.8646   178.8078     6.6022
  313.0000   -44.6506     5.7925   180.6775     6.2989
  313.5000   -44.2695     5.7203   182.2321     5.9956
  314.0000   -43.8301     5.6476   181.5788     5.9543
  314.5000   -43.3811     5.5755   180.5195     6.0304
  315.0000   -43.6558     5.6510   179.4750     6.1813
  315.5000   -43.9956     5.7593   177.7394     6.3528
  316.0000   -44.3333     5.8640   175.2054     6.5572
  316.5000   -44.6713     5.9699   172.6511     6.7610
  317.0000   -44.9931     6.0757   170.1022     6.9645
  317.5000   -44.9957     6.1815   167.5532     7.1690
  318.0000   -44.8211     6.2874   165.0043     7.3105
  318.5000   -44.6453     6.3932   162.4554     7.4046
  319.0000   -44.4709     6.4991   159.9064     7.4976
  319.5000   -44.2967     6.6048   157.4049     7.5648
  320.0000   -44.1227     6.7124   154.9332     7.6170
  320.5000   -43.9486     6.7102   152.4615     7.6607
  321.0000   -43.7705     6.6569   152.0234     7.6796
  321.5000   -43.4462     6.6023   153.8772     7.6792
  322.0000   -43.4085     6.5477   155.7309     7.6098
  322.5000   -43.6628     6.4932   157.5847     7.4588
  323.0000   -43.9132     6.4387   159.4384     7.3103
  323.5000   -44.1634     6.3841   161.2922     7.1619
  324.0000   -44.4191     6.3303   163.1460     7.0131
  324.5000   -44.2753     6.2935   164.9998     6.8637
  325.0000   -44.0620     6.2942   166.8535     6.8397
  325.5000   -43.8493     6.2941   167.8665     6.9800
  326.0000   -43.7441     6.2941   167.5631     7.1347
  326.5000   -43.8033     6.2941   167.2502     7.1839
  327.0000   -43.8604     6.2941   166.9386     7.0850
  327.5000   -43.9180     6.2942   166.6307     6.9956
  328.0000   -43.9757     6.2938   166.3217     7.1086
  328.5000   -44.0331     6.2937   166.9163     7.2155
  329.0000   -44.0873     6.2062   168.3423     7.0418
  329.5000   -43.9663     6.1676   169.7682     6.8614
  330.0000   -43.7537     6.1069   171.1942     6.6928
  330.5000   -43.5402     6.0452   172.6202     6.5539
  331.0000   -43.3268     5.9834   174.0462     6.4210
  331.5000   -43.1134     5.9217   175.3398     6.2871
  332.0000   -42.9000     5.8591   175.9577     6.2510
  332.5000   -42.6786     5.8414   176.5756     6.2796
  333.0000   -42.6001     5.8411   177.1935     6.3087
  333.5000   -42.5620     5.8412   177.8115     6.3377
  334.0000   -42.5252     5.8413   178.4294     6.3674
  334.5000   -42.4878     5.8414   179.4628     6.3735
  335.0000   -42.4496     5.8410   181.4851     6.3154
  335.5000   -42.4613     5.8155   183.5074     6.1871
  336.0000   -42.4820     5.7363   185.5297     6.0593
  336.5000   -42.5029     5.6580   187.5577     5.9325
  337.0000   -42.5236     5.5796   189.7244     5.9356
  337.5000   -42.5444     5.5012   192.5814     5.9552
  338.0000   -42.5651     5.4229   195.6635     5.9703
  338.5000   -42.5862     5.3445   198.7544     5.8322
  339.0000   -42.6082     5.2662   201.8440     5.6831
  339.5000   -42.6194     5.1878   204.9336     5.5349
  340.0000   -42.4220     5.1095   208.0232     5.3860
  340.5000   -42.2196     5.0311   211.1128     5.2970
  341.0000   -42.0183     4.9528   214.2025     5.2515
  341.5000   -41.8170     4.8737   217.2921     5.2090
  342.0000   -41.6173     4.8454   220.3817     5.1911
  342.5000   -41.4091     4.8467   223.4713     5.1560
  343.0000   -41.5749     4.8584   226.0019     5.1392
  343.5000   -41.7518     4.8701   227.2846     5.1376
  344.0000   -41.9381     4.8817   226.7250     5.1959
  344.5000   -42.1185     4.8932   225.2024     5.2501
  345.0000   -42.0164     4.9048   223.6731     5.3044
  345.5000   -41.7871     4.9164   222.1451     5.3584
  346.0000   -41.6063     4.9280   220.6184     5.4114
  346.5000   -41.9387     4.9395   219.0918     5.4365
  347.0000   -42.2248     4.9511   217.5652     5.3989
  347.5000   -42.5075     4.9627   216.0295     5.3890
  348.0000   -42.7963     4.9743   215.1274     5.4267
  348.5000   -42.8097     4.9858   215.1203     5.4641
  349.0000   -42.6479     4.9974   215.1230     5.5003
  349.5000   -42.4727     5.0088   215.1241     5.4760
  350.0000   -42.2982     5.0208   215.1241     5.4490
  350.5000   -42.1240     5.0263   215.1241     5.5056
  351.0000   -41.9496     5.1155   215.1241     5.6075
  351.5000   -41.7752     5.1620   215.1241     5.5677
  352.0000   -41.5994     5.2042   215.1241     5.5248
  352.5000   -41.5555     5.2469   215.1241     5.4814
  353.0000   -41.7605     5.2897   215.1241     5.4996
  353.5000   -41.9688     5.3330   215.1241     5.5520
  354.0000   -42.1767     5.3760   215.1241     5.6051
  354.5000   -42.3946     5.3500   215.1241     5.6493
  355.0000   -42.3554     5.1743   215.3960     5.6482
  355.5000   -42.2319     4.9988   216.6318     5.5722
  356.0000   -42.1040     4.8241   223.1193     5.2975
  356.5000   -42.1095     4.6491   231.3288     5.0296
  357.0000   -42.2390     4.4742   239.5384     4.7621
  357.5000   -42.3632     4.2993   247.7479     4.4945
  358.0000   -42.4510     4.1243   255.9575     4.2266
  358.5000   -42.2569     3.9477   264.1670     3.9603
  359.0000   -42.0392     3.7661   273.1393     3.7819
  359.5000   -41.8208     3.7592   267.0858     3.9016
  360.0000   -41.6023     3.9604   260.4122     4.1538
  360.5000   -41.3819     4.1802   253.7386     4.4045
  361.0000   -41.1808     4.3995   247.0651     4.6555
  361.5000   -41.4432     4.6180   240.5057     4.9063
