~VERSION INFORMATION
 VERS.                2.0:   CWLS LOG ASCII STANDARD - VERSION 2.0
 WRAP.                 NO:   ONE LINE PER DEPTH STEP
~WELL INFORMATION
#MNEM.UNIT      DATA TYPE    INFORMATION
#----------   ------------   ------------------------------
 STRT.F            0.0000:   START DEPTH
 STOP.F         2720.0000:   STOP DEPTH
 STEP.F            0.5000:   STEP LENGTH
 NULL.          -999.2500:   NO VALUE
 COMP. DEPARTMENT OF ENERGY:   COMPANY
 WELL.       NPR-3 #410-A:   WELL
 FLD . TEAPOT NAVAL RESERVE:   FIELD
 LOC .      S20 T39N R78W:   LOCATION
 CNTY.            NATRONA:   COUNTY
 STAT.            WYOMING:   STATE
 CTRY. UNITED STATES OF AMERICA:   COUNTRY
 SRVC.      NL McCullough:   SERVICE COMPANY
 DATE.        26-JUL-1965:   LOGDATE
 API .       490251144500:   API NUMBER
~CURVE INFORMATION
#MNEM.UNIT       API CODE    CURVE DESCRIPTION
#----------   ------------   ------------------------------
 DEPT.F                  :   
 GR  .GAPI   30 310 01 00:   GAMMA RAY
 CALI.IN     30 280 01 00:   CALIPER
~PARAMETER INFORMATION
#MNEM.UNIT          VALUE    DESCRIPTION
#----------   ------------   ------------------------------
 PD  .                 GL:   PERMANENT DATUM
 LMF .                 GL:   LOG MEASURED FROM
 DATE.            7-16-65:   RUN DATE
 RUN .                  1:   RUN NUMBER
 DD  .F              2720:   DEPTH DRILLER
 TLI .F              2100:   TOP LOG INTERVAL
 CS  .IN            6.875:   CASING SIZE
 DFT .              WATER:   DRILLING FLUID TYPE
 ENGI. FITZSIMMONE/COWLTHORPE:   RECORDING ENGINEER
 WITN.             HUDSON:   WITNESSED BY
 CLNT.            A2DTECH:   CLIENT CODE
 ORIG.           5" PRINT:   ORIGIN OF DATA
 UWI .       490251144500:   UNIQUE WELL ID
 DICO. A2D Technologies, Inc.:   DIGITIZING COMPANY
~OTHER INFORMATION
~A    DEPT      GR         CALI 
# ...
 1579.5000  -999.2500     6.0263
 1580.0000  -999.2500     6.0299
 1580.5000  -999.2500     6.0276
 1581.0000  -999.2500     6.0249
 1581.5000  -999.2500     6.0222
 1582.0000  -999.2500     6.0195
 1582.5000  -999.2500     6.0169
 1583.0000  -999.2500     6.0142
 1583.5000  -999.2500     6.0115
 1584.0000  -999.2500     6.0053
 1584.5000  -999.2500     5.9939
 1585.0000  -999.2500     5.9825
 1585.5000  -999.2500     5.9711
 1586.0000  -999.2500     5.9597
 1586.5000  -999.2500     5.9495
 1587.0000  -999.2500     5.9544
 1587.5000  -999.2500     5.9625
 1588.0000  -999.2500     5.9707
 1588.5000  -999.2500     5.9789
 1589.0000  -999.2500     5.9871
 1589.5000  -999.2500     5.9872
 1590.0000  -999.2500     5.9814
 1590.5000  -999.2500     5.9755
 1591.0000  -999.2500     5.9696
 1591.5000  -999.2500     5.9637
 1592.0000  -999.2500     5.9578
 1592.5000  -999.2500     5.9517
 1593.0000  -999.2500     5.9556
 1593.5000  -999.2500     5.9644
 1594.0000  -999.2500     5.9732
 1594.5000  -999.2500     5.9821
 1595.0000  -999.2500     5.9910
 1595.5000  -999.2500     5.9998
 1596.0000  -999.2500     6.0089
 1596.5000  -999.2500     6.0054
 1597.0000  -999.2500     5.9998
 1597.5000  -999.2500     5.9941
 1598.0000  -999.2500     5.9885
 1598.5000  -999.2500     5.9829
 1599.0000  -999.2500     5.9774
 1599.5000  -999.2500     5.9717
 1600.0000  -999.2500     5.9720
 1600.5000  -999.2500     5.9766
 1601.0000  -999.2500     5.9811
 1601.5000  -999.2500     5.9857
 1602.0000  -999.2500     5.9902
 1602.5000  -999.2500     5.9948
 1603.0000  -999.2500     5.9993
 1603.5000  -999.2500     6.0038
 1604.0000  -999.2500     6.0084
 1604.5000  -999.2500     6.0100
 1605.0000  -999.2500     6.0100
 1605.5000  -999.2500     6.0100
 1606.0000  -999.2500     6.0100
 1606.5000  -999.2500     6.0101
 1607.0000  -999.2500     6.0099
 1607.5000  -999.2500     6.0053
 1608.0000  -999.2500     6.0007
 1608.5000  -999.2500     5.9962
 1609.0000  -999.2500     5.9916
 1609.5000  -999.2500     5.9879
 1610.0000  -999.2500     5.9846
 1610.5000  -999.2500     5.9814
 1611.0000  -999.2500     5.9781
 1611.5000  -999.2500     5.9748
 1612.0000  -999.2500     5.9716
 1612.5000  -999.2500     5.9717
 1613.0000  -999.2500     5.9756
 1613.5000  -999.2500     5.9795
 1614.0000  -999.2500     5.9834
 1614.5000  -999.2500     5.9872
 1615.0000  -999.2500     5.9891
 1615.5000  -999.2500     5.9852
 1616.0000  -999.2500     5.9816
 1616.5000  -999.2500     5.9779
 1617.0000  -999.2500     5.9742
 1617.5000  -999.2500     5.9706
 1618.0000  -999.2500     5.9669
 1618.5000  -999.2500     5.9633
 1619.0000  -999.2500     5.9596
 1619.5000  -999.2500     5.9559
 1620.0000  -999.2500     5.9523
 1620.5000  -999.2500     5.9529
 1621.0000  -999.2500     5.9630
 1621.5000  -999.2500     5.9729
 1622.0000  -999.2500     5.9829
 1622.5000  -999.2500     5.9962
 1623.0000  -999.2500     6.0220
 1623.5000  -999.2500     6.0469
 1624.0000  -999.2500     6.0717
 1624.5000  -999.2500     6.0902
 1625.0000  -999.2500     6.0869
 1625.5000  -999.2500     6.0840
 1626.0000  -999.2500     6.0812
 1626.5000  -999.2500     6.0784
 1627.0000  -999.2500     6.0756
 1627.5000  -999.2500     6.0728
 1628.0000  -999.2500     6.0654
 1628.5000  -999.2500     6.0280
 1629.0000  -999.2500     5.9908
 1629.5000  -999.2500     5.9719
 1630.0000  -999.2500     5.9771
 1630.5000  -999.2500     5.9820
 1631.0000  -999.2500     5.9870
 1631.5000  -999.2500     5.9913
 1632.0000  -999.2500     5.9945
 1632.5000  -999.2500     5.9978
 1633.0000  -999.2500     6.0011
 1633.5000  -999.2500     6.0043
 1634.0000  -999.2500     6.0076
 1634.5000  -999.2500     6.0101
 1635.0000  -999.2500     6.0100
 1635.5000  -999.2500     6.0100
 1636.0000  -999.2500     6.0100
 1636.5000  -999.2500     6.0100
 1637.0000  -999.2500     6.0100
 1637.5000  -999.2500     6.0100
 1638.0000  -999.2500     6.0100
 1638.5000  -999.2500     6.0100
 1639.0000  -999.2500     6.0100
 1639.5000  -999.2500     6.0101
 1640.0000  -999.2500     6.0063
 1640.5000  -999.2500     6.0009
 1641.0000  -999.2500     5.9953
 1641.5000  -999.2500     5.9903
 1642.0000  -999.2500     5.9975
 1642.5000  -999.2500     6.0050
 1643.0000  -999.2500     6.0113
 1643.5000  -999.2500     6.0151
 1644.0000  -999.2500     6.0189
 1644.5000  -999.2500     6.0227
 1645.0000  -999.2500     6.0265
 1645.5000  -999.2500     6.0304
 1646.0000  -999.2500     6.0342
 1646.5000  -999.2500     6.0380
 1647.0000  -999.2500     6.0418
 1647.5000  -999.2500     6.0456
 1648.0000  -999.2500     6.0494
 1648.5000  -999.2500     6.0532
 1649.0000  -999.2500     6.0571
 1649.5000  -999.2500     6.0609
 1650.0000  -999.2500     6.0647
 1650.5000  -999.2500     6.0685
 1651.0000  -999.2500     6.0689
 1651.5000  -999.2500     6.0663
 1652.0000  -999.2500     6.0636
 1652.5000  -999.2500     6.0610
 1653.0000  -999.2500     6.0584
 1653.5000  -999.2500     6.0558
 1654.0000  -999.2500     6.0531
 1654.5000  -999.2500     6.0504
 1655.0000  -999.2500     6.0551
 1655.5000  -999.2500     6.0607
 1656.0000  -999.2500     6.0663
 1656.5000  -999.2500     6.0719
 1657.0000  -999.2500     6.0775
 1657.5000  -999.2500     6.0831
 1658.0000  -999.2500     6.0887
 1658.5000  -999.2500     6.0942
 1659.0000  -999.2500     6.0998
 1659.5000  -999.2500     6.1054
 1660.0000  -999.2500     6.1104
 1660.5000  -999.2500     6.1089
 1661.0000  -999.2500     6.1070
 1661.5000  -999.2500     6.1052
 1662.0000  -999.2500     6.1034
 1662.5000  -999.2500     6.1016
 1663.0000  -999.2500     6.0998
 1663.5000  -999.2500     6.0980
 1664.0000  -999.2500     6.0962
 1664.5000  -999.2500     6.0945
 1665.0000  -999.2500     6.0927
 1665.5000  -999.2500     6.0919
 1666.0000  -999.2500     6.0372
 1666.5000  -999.2500     5.9637
 1667.0000  -999.2500     5.8921
 1667.5000  -999.2500     5.8990
 1668.0000  -999.2500     5.9097
 1668.5000  -999.2500     5.9201
 1669.0000  -999.2500     5.9303
 1669.5000  -999.2500     5.9406
 1670.0000  -999.2500     5.9498
 1670.5000  -999.2500     5.9498
 1671.0000  -999.2500     5.9498
 1671.5000  -999.2500     5.9498
 1672.0000  -999.2500     5.9498
 1672.5000  -999.2500     5.9498
 1673.0000  -999.2500     5.9498
 1673.5000  -999.2500     5.9512
 1674.0000  -999.2500     5.9544
 1674.5000  -999.2500     5.9576
 1675.0000  -999.2500     5.9608
 1675.5000  -999.2500     5.9640
 1676.0000  -999.2500     5.9672
 1676.5000  -999.2500     5.9704
 1677.0000  -999.2500     5.9736
 1677.5000  -999.2500     5.9768
 1678.0000  -999.2500     5.9800
 1678.5000  -999.2500     5.9832
 1679.0000  -999.2500     5.9864
 1679.5000  -999.2500     5.9896
 1680.0000  -999.2500     5.9928
 1680.5000  -999.2500     5.9960
 1681.0000  -999.2500     5.9992
 1681.5000  -999.2500     6.0024
 1682.0000  -999.2500     6.0056
 1682.5000  -999.2500     6.0088
 1683.0000  -999.2500     6.0093
 1683.5000  -999.2500     6.0081
 1684.0000  -999.2500     6.0069
 1684.5000  -999.2500     6.0057
 1685.0000  -999.2500     6.0045
 1685.5000  -999.2500     6.0033
 1686.0000  -999.2500     6.0021
 1686.5000  -999.2500     6.0009
 1687.0000  -999.2500     5.9997
 1687.5000  -999.2500     5.9985
 1688.0000  -999.2500     5.9973
 1688.5000  -999.2500     5.9960
 1689.0000  -999.2500     5.9949
 1689.5000  -999.2500     5.9936
 1690.0000  -999.2500     5.9925
 1690.5000  -999.2500     5.9913
 1691.0000  -999.2500     5.9899
 1691.5000  -999.2500     5.9828
 1692.0000  -999.2500     5.9751
 1692.5000  -999.2500     5.9674
 1693.0000  -999.2500     5.9597
 1693.5000  -999.2500     5.9520
 1694.0000  -999.2500     5.9443
 1694.5000  -999.2500     5.9366
 1695.0000  -999.2500     5.9308
 1695.5000  -999.2500     5.9413
 1696.0000  -999.2500     5.9519
 1696.5000  -999.2500     5.9626
 1697.0000  -999.2500     5.9732
 1697.5000  -999.2500     5.9836
 1698.0000  -999.2500     5.9864
 1698.5000  -999.2500     5.9774
 1699.0000  -999.2500     5.9685
 1699.5000  -999.2500     5.9595
 1700.0000  -999.2500     5.9503
 1700.5000  -999.2500     5.9522
