~VERSION INFORMATION
 VERS.                2.0:   CWLS LOG ASCII STANDARD - VERSION 2.0
 WRAP.                 NO:   ONE LINE PER DEPTH STEP
~WELL INFORMATION
#MNEM.UNIT      DATA TYPE    INFORMATION
#----------   ------------   ------------------------------
 STRT.F           36.0000:   START DEPTH
 STOP.F          442.0000:   STOP DEPTH
 STEP.F            0.5000:   STEP LENGTH
 NULL.          -999.2500:   NO VALUE
 COMP.    FENIX & SCISSON:   COMPANY
 WELL.      NPR #66-SX-10:   WELL
 FLD .             TEAPOT:   FIELD
 LOC .      S10 T38N R78W:   LOCATION
 CNTY.            NATRONA:   COUNTY
 STAT.            WYOMING:   STATE
 CTRY. UNITED STATES OF AMERICA:   COUNTRY
 SRVC.              Welex:   SERVICE COMPANY
 DATE.        19-APR-1977:   LOGDATE
 API .       490251036100:   API NUMBER
~CURVE INFORMATION
#MNEM.UNIT       API CODE    CURVE DESCRIPTION
#----------   ------------   ------------------------------
 DEPT.F                  :   
 CALD.IN     45 280 60 00:   CALIPER FROM DENSITY LOG
 DPHI.DEC    45 890 12 00:   DENSITY POROSITY SANDSTONE
 DRHO.G/C3   45 356 01 00:   DENSITY CORRECTION
 GRD .GAPI   45 310 01 00:   GAMMA RAY FROM DENSITY LOG
 RHOB.G/C3   45 350 01 00:   BULK DENSITY
 ILD .OHMM   07 120 46 00:   INDUCTION LOG DEEP
 ILM .OHMM   07 120 44 00:   INDUCTION LOG MEDIUM
 SGRD.OHMM   07 221 05 00:   SHALLOW SHORT GUARD RESISTIVITY
 SPR .MV     07 010 01 00:   SPONTANEOUS POTENTIAL
~PARAMETER INFORMATION
#MNEM.UNIT          VALUE    DESCRIPTION
#----------   ------------   ------------------------------
 PD  .                 GL:   PERMANENT DATUM
 EPD .F              5200:   ELEVATION PERMANENT DATUM
 LMF .                 GL:   LOG MEASURED FROM
 DMF .                 GL:   DRILLING MEASURED FROM
 EGL .F              5200:   GROUND LEVEL
 DATE.        19-APR-1977:   RUN DATE
 RUN .                  1:   RUN NUMBER
 DD  .F               476:   DEPTH DRILLER
 DL  .F               447:   DEPTH LOGGER
 BLI .F               445:   BOTTOM LOG INTERVAL
 TLI .F                35:   TOP LOG INTERVAL
 CS  .IN            8.625:   CASING SIZE
 CBD .F                42:   CASING BOTTOM DRILLER
 CBL .F                42:   CASING BOTTOM LOGGER
 BS  .IN            7.875:   BIT SIZE
 BSD .F               476:   BIT SIZE AT DEPTH
 DFT .            KCL MUD:   DRILLING FLUID TYPE
 DFD .                8.8:   DRILLING FLUID DENSITY
 DFV .                 37:   DRILLING FLUID VISCOSITY
 MSS .           FLOWLINE:   MUD SAMPLE SOURCE
 RMS .OHMM           1.06:   RESISTIVITY MUD SAMPLE
 MST .F                48:   MUD SAMPLE TEMPERATURE
 RMF .OHMM           1.03:   RESISTIVITY MUD FILTRATE SAMPLE
 MFST.F                48:   MUD FILTRATE SAMPLE TEMPERATURE
 RMC .OHMM           1.18:   RESISTIVITY MUD CAKE
 MCST.F                48:   MUD CAKE SAMPLE TEMPERATURE
 MFSS.               MEAS:   MUD FILTRATE SAMPLE SOURCE
 MCSS.               MEAS:   MUD CAKE SAMPLE SOURCE
 RMB .OHMM           0.86:   RESISTIVITY MUD AT BHT
 BHT .F                59:   BOTTOM HOLE TEMPERATURE
 TCS .HRS               5:   TIME CURCULATED STOPPED
 MRT .F                59:   MAXIMUM RECORDED TEMPERATURE
 LUN .               8611:   LOGGING UNIT NUMBER
 LUL .             CASPER:   LOGGING UNIT LOCATION
 ENGI.               DOAK:   RECORDING ENGINEER
 WITN.        MR. R. LYON:   WITNESSED BY
 CLNT.            A2DTECH:   CLIENT CODE
 ORIG.      2.5" 5" PRINT:   ORIGIN OF DATA
 UWI .       490251036100:   UNIQUE WELL ID
 DICO. A2D Technologies, Inc.:   DIGITIZING COMPANY
~OTHER INFORMATION
~A   DEPT     CALD       DPHI       DRHO         GRD      RHOB        ILD        ILM       SGRD        SPR   
# ...
  328.0000     7.9300     0.1367     0.0076    81.9342     2.4317    16.5071    18.8244    23.3215   -40.0590
  328.5000     7.9310     0.1182     0.0197    78.3976     2.4549    16.0516    17.6022    23.3078   -40.2399
  329.0000     7.9170     0.1204     0.0226    74.8609     2.4400    15.6087    17.5904    23.6161   -40.3862
  329.5000     7.9182     0.1286     0.0106    73.2446     2.4273    15.1780    17.5786    23.6029   -40.4005
  330.0000     7.9193     0.1274     0.0001    77.5573     2.4302    14.9616    17.8098    23.9144   -40.7099
  330.5000     7.9204     0.1196     0.0168    79.6456     2.4514    14.9507    17.5361    23.9014   -40.7242
  331.0000     7.9213     0.1232     0.0215    81.1418     2.4477    14.7376    17.7686    23.5646   -40.7386
  331.5000     7.9371     0.1196     0.0185    85.1544     2.4448    14.9288    17.7601    23.5517   -40.7529
  332.0000     7.9381     0.1189     0.0126    86.3546     2.4523    14.9174    17.7516    23.4751   -41.0622
  332.5000     7.9243     0.1249     0.0066    85.7541     2.4367    15.1115    17.8853    22.8927   -41.0767
  333.0000     7.9254     0.1279    -0.0008    84.5864     2.4338    14.8568    17.7331    22.4784   -41.1131
  333.5000     7.9265     0.1270     0.0008    79.7413     2.4331    14.6825    17.2477    21.8464   -41.4012
  334.0000     7.9276     0.1219     0.0054    85.5342     2.4444    14.6715    16.3239    21.3479   -41.4159
  334.5000     7.9286     0.1102     0.0115    84.3660     2.4608    14.6605    15.8771    21.3363   -41.4307
  335.0000     7.9149     0.1015     0.0252    81.4214     2.4781    14.6495    15.4425    21.7661   -41.4454
  335.5000     7.9083     0.0982     0.0313    78.9169     2.4819    14.6385    15.2261    22.3713   -41.4602
  336.0000     7.9169     0.1066     0.0008    84.8579     2.4601    14.5326    15.2190    22.4963   -41.4749
  336.5000     7.9179     0.1142    -0.0032    87.9784     2.4544    14.4188    15.2119    21.8767   -41.4897
  337.0000     7.9189     0.1158     0.0029    85.4819     2.4611    14.4080    15.2047    21.2764   -41.2094
  337.5000     7.9200     0.1032     0.0076    84.9054     2.4717    14.3952    15.1975    20.9769   -40.9292
  338.0000     7.9210     0.0978     0.0046    86.5500     2.4777    14.3847    15.1902    20.6816   -40.3566
  338.5000     7.9220     0.1026     0.0032    86.0851     2.4740    14.3742    15.3922    21.2425   -40.0737
  339.0000     7.9231     0.1034     0.0063    83.6468     2.4696    14.5607    15.3842    21.2312   -39.5003
  339.5000     7.9241     0.1049     0.0124    82.6011     2.4741    14.5501    15.4367    21.2199   -39.2183
  340.0000     7.9253     0.1082     0.0171    85.5816     2.4734    14.5394    15.7959    21.4999   -38.9390
  340.5000     7.9262     0.1108     0.0171    89.7423     2.4660    14.7281    15.8703    22.0979   -38.9534
  341.0000     7.9272     0.1153     0.0112    90.2023     2.4504    14.7173    15.9964    22.4046   -38.9677
  341.5000     7.9135     0.1186     0.0053    88.8860     2.4467    14.5052    15.9888    22.6698   -38.9823
  342.0000     7.9146     0.1162     0.0038    82.6849     2.4476    14.2888    15.7646    22.5951   -38.9971
  342.5000     7.9155     0.1155     0.0069    84.0331     2.4493    14.0964    15.7570    22.0345   -39.3068
  343.0000     7.9166     0.1155     0.0176    85.3813     2.4566    13.8952    15.3242    22.0225   -39.3215
  343.5000     7.9176     0.1139     0.0207    85.8413     2.4649    13.8848    15.1095    21.9061   -39.6313
  344.0000     7.9186     0.1107     0.0193    89.7059     2.4687    13.6866    14.8978    21.2902   -39.7404
  344.5000     7.9197     0.1092     0.0163    89.2535     2.4628    13.6764    14.8908    20.6917   -39.9557
  345.0000     7.9059     0.1142     0.0119    86.8027     2.4516    13.6661    14.6822    20.3862   -40.2655
  345.5000     7.9071     0.1172     0.0045    83.2406     2.4487    13.5823    14.4765    20.2361   -40.5752
  346.0000     7.9081     0.1100    -0.0015    85.7770     2.4577    13.4610    14.4697    19.9488   -40.8850
  346.5000     7.9091     0.1052     0.0062    90.2337     2.4667    13.4509    14.4630    19.9382   -41.1975
  347.0000     7.9101     0.1070     0.0092    90.5417     2.4705    13.4408    14.4561    20.2014   -41.5069
  347.5000     7.9111     0.1067    -0.0027    84.0485     2.4661    13.4288    14.4492    20.1906   -41.5212
  348.0000     7.9121     0.1102    -0.0087    83.0243     2.4594    13.4190    14.4423    20.1799   -41.5355
  348.5000     7.9132     0.1162    -0.0040    87.0410     2.4512    13.5931    14.4354    20.4470   -41.5499
  349.0000     7.9142     0.1191    -0.0024    86.6128     2.4444    13.7695    14.6737    21.0007   -41.2692
  349.5000     7.9004     0.1209     0.0007    83.0762     2.4365    14.3335    15.0827    21.2779   -40.9886
  350.0000     7.9016     0.1245     0.0053    79.9836     2.4284    15.1252    15.5032    21.8549   -40.7080
  350.5000     7.8876     0.1287     0.0129    78.6673     2.4135    15.9607    16.2401    22.4627   -40.4110
  351.0000     7.8593     0.1351     0.0192    81.2498     2.4038    16.8424    17.2701    23.4371   -39.8191
  351.5000     7.8453     0.1432     0.0267    84.3242     2.3934    18.0165    18.5186    25.5659   -39.5221
  352.0000     7.8316     0.1623     0.0283    79.4592     2.3780    18.7681    20.5590    28.6603   -38.9302
  352.5000     7.8178     0.1632     0.0253    73.5226     2.3748    19.5227    25.0103    32.2702   -38.3383
  353.0000     7.7895     0.1590     0.0375    69.3879     2.3793    19.8086    29.6210    34.6012   -37.7463
  353.5000     7.7610     0.1646     0.0406    68.5099     2.3622    20.7321    32.5746    37.6101   -37.2685
  354.0000     7.7324     0.1771     0.0317    75.0331     2.3473    22.1532    34.8583    40.6535   -37.2861
  354.5000     7.6883     0.1753     0.0227    72.0853     2.3548    23.0052    34.3699    42.1822   -37.1505
  355.0000     7.6291     0.1676     0.0258    70.9111     2.3780    23.6386    32.9760    39.8926   -37.0206
  355.5000     7.5732     0.1592     0.0319    73.4377     2.3810    23.9608    32.5140    39.0621   -37.0381
  356.0000     7.5444     0.1627     0.0275    75.2216     2.3728    24.1503    32.4988    39.5730   -37.0524
  356.5000     7.5158     0.1732     0.0151    71.2350     2.3451    23.8057    32.9301    40.0990   -37.0668
  357.0000     7.5762     0.1851     0.0031    73.1719     2.3328    23.7879    32.9144    40.6245   -37.0811
  357.5000     7.6909     0.1904     0.0107    75.2544     2.3506    24.9956    32.4162    41.1607   -36.7994
  358.0000     7.7509     0.1767     0.0138    78.0770     2.3543    27.9671    31.5070    41.7040   -36.8148
  358.5000     7.7811     0.1731     0.0093    79.8637     2.3581    29.5120    30.5481    42.2561   -36.8292
  359.0000     7.8262     0.1740     0.0124    78.3958     2.3507    28.6977    29.2693    42.2319   -36.8437
  359.5000     7.8713     0.1793     0.0094    75.8894     2.3589    26.4257    27.6638    40.5165   -36.8584
  360.0000     7.8570     0.1638     0.0035    71.4587     2.3686    25.3488    26.1464    38.3439   -36.8732
  360.5000     7.8430     0.1670     0.0035    69.2459     2.3627    24.3157    25.1814    36.7610   -36.8879
  361.0000     7.7995     0.1757     0.0081    73.9954     2.3538    23.6448    24.4751    36.2676   -36.9027
  361.5000     7.7559     0.1789     0.0099    75.4858     2.3501    23.6104    24.1154    36.2478   -36.9174
  362.0000     7.7123     0.1729     0.0113    76.9761     2.3591    24.5953    23.9340    36.7277   -36.9322
  362.5000     7.7278     0.1690     0.0083    79.7987     2.3666    25.2562    24.2512    36.0856   -36.9469
  363.0000     7.7287     0.1604     0.0053    82.1921     2.3741    24.5286    24.5706    34.4565   -36.9617
  363.5000     7.7294     0.1708     0.0039    86.5352     2.3577    23.7482    24.8965    32.2747   -36.9764
  364.0000     7.7449     0.1651     0.0055    85.7526     2.3802    21.5297    25.2284    31.9749   -36.9911
