~VERSION INFORMATION
 VERS.                2.0:   CWLS LOG ASCII STANDARD - VERSION 2.0
 WRAP.                 NO:   ONE LINE PER DEPTH STEP
~WELL INFORMATION
#MNEM.UNIT      DATA TYPE    INFORMATION
#----------   ------------   ------------------------------
 STRT.F           66.0000:   START DEPTH
 STOP.F          814.0000:   STOP DEPTH
 STEP.F            0.5000:   STEP LENGTH
 NULL.          -999.2500:   NO VALUE
 COMP.   FLUOR DANIEL INC:   COMPANY
 WELL. NAVAL PETROLEUM RESERVE 3 SX-2 #32-11-2:   WELL
 FLD .        N.P.R NO. 3:   FIELD
 LOC .       S2 T38N R78W:   LOCATION
 CNTY.            NATRONA:   COUNTY
 STAT.            WYOMING:   STATE
 CTRY. UNITED STATES OF AMERICA:   COUNTRY
 SRVC.      Dresser Atlas:   SERVICE COMPANY
 DATE.        15-AUG-1985:   LOGDATE
 API .       490251104000:   API NUMBER
~CURVE INFORMATION
#MNEM.UNIT       API CODE    CURVE DESCRIPTION
#----------   ------------   ------------------------------
 DEPT.F                  :   
 SPR .MV     07 010 01 00:   SPONTANEOUS POTENTIAL
 RILD.OHMM   07 120 46 00:   INDUCTION LOG DEEP RESISTIVITY
 RILM.OHMM   07 120 44 00:   INDUCTION LOG MEDIUM RESISTIVITY
 RFOC.OHMM   07 220 04 00:   RESISTIVITY FOCUSED LOG
 PORD.DEC    45 890 12 00:   POROSITY DENSITY SANDSTONE
 CNC .DEC    42 890 03 00:   NEUTRON POROSITY SANDSTONE
 GRD .GAPI   45 310 01 00:   GAMMA RAY FROM DENSITY LOG
 CALD.IN     45 280 60 00:   CALIPER FROM DENSITY LOG
 CORR.G/C3   45 356 01 00:   DENSITY CORRECTION
 DEN .G/C3   45 350 01 00:   COMPENSATED BULK DENSTIY
~PARAMETER INFORMATION
#MNEM.UNIT          VALUE    DESCRIPTION
#----------   ------------   ------------------------------
 PD  .                 GL:   PERMANENT DATUM
 EPD .F              5113:   ELEVATION PERMANENT DATUM
 LMF .                 GL:   LOG MEASURED FROM
 DMF .                 GL:   DRILLING MEASURED FROM
 EGL .F              5113:   GROUND LEVEL
 DATE.            8-15-85:   RUN DATE
 RUN .                  1:   RUN NUMBER
 DD  .F               817:   DEPTH DRILLER
 DL  .F               817:   DEPTH LOGGER
 BLI .F               814:   BOTTOM LOG INTERVAL
 CS  .IN            8.625:   CASING SIZE
 CBD .F                79:   CASING BOTTOM DRILLER
 CBL .F                79:   CASING BOTTOM LOGGER
 BS  .IN            7.875:   BIT SIZE
 BSD .F               817:   BIT SIZE AT DEPTH
 DFT .          KCL WATER:   DRILLING FLUID TYPE
 MSS .               TANK:   MUD SAMPLE SOURCE
 RMS .OHMM            .25:   RESISTIVITY MUD SAMPLE
 MST .F                70:   MUD SAMPLE TEMPERATURE
 BHT .F               100:   BOTTOM HOLE TEMPERATURE
 TCS .HRS               2:   TIME CURCULATED STOPPED
 MRT .F               100:   MAXIMUM RECORDED TEMPERATURE
 LUN .            HL-6274:   LOGGING UNIT NUMBER
 LUL .           GILLETTE:   LOGGING UNIT LOCATION
 ENGI.             RAUTIO:   RECORDING ENGINEER
 WITN.           JENNINGS:   WITNESSED BY
 CLNT.            A2DTECH:   CLIENT CODE
 ORIG.       2", 5" PRINT:   ORIGIN OF DATA
 UWI .       490251104000:   UNIQUE WELL ID
 DICO. A2D Technologies, Inc.:   DIGITIZING COMPANY
~OTHER INFORMATION
~A   DEPT      SPR       RILD       RILM       RFOC       PORD        CNC        GRD       CALD       CORR        DEN   
# ...
  535.0000   -31.5607     5.6728     5.6887     6.5600     0.1457     0.3211   103.6657     8.3027    -0.0225     2.4334
  535.5000   -31.1043     5.3707     5.2704     6.6920     0.1505     0.3162   103.9515     8.3174    -0.0300     2.4274
  536.0000   -30.4968     5.0448     4.9847     6.7857     0.1587     0.3365   106.0420     8.3168    -0.0210     2.4169
  536.5000   -30.1923     4.8050     4.6819     6.8331     0.1660     0.3569   109.4504     8.3164    -0.0090     2.4026
  537.0000   -29.8878     4.4821     4.3975     5.9876     0.1802     0.3759   113.2231     8.3311    -0.0030     2.3760
  537.5000   -29.5833     4.2691     4.2174     4.5977     0.1925     0.3792   116.2145     8.3155    -0.0150     2.3469
  538.0000   -29.2788     4.1519     4.1589     4.1424     0.1987     0.3562   118.6053     8.2691    -0.0316     2.3484
  538.5000   -29.1126     4.1552     4.1288     4.3362     0.1903     0.3492   117.6928     8.2543    -0.0376     2.3642
  539.0000   -28.6694     4.2101     4.1008     4.9630     0.1821     0.3416   111.9755     8.2538    -0.0286     2.3769
  539.5000   -28.2134     4.2691     4.1580     5.0676     0.1767     0.3383   106.5585     8.2987     0.0026     2.3882
  540.0000   -27.6059     4.3591     4.2454     4.9287     0.1719     0.3316   101.9217     8.3284     0.0270     2.3949
  540.5000   -27.3014     4.4821     4.3953     5.0325     0.1672     0.3277    98.7246     8.3430     0.0270     2.3987
  541.0000   -26.9969     4.6408     4.5506     5.3948     0.1623     0.3267   100.2145     8.3123     0.0269     2.4031
  541.5000   -26.6924     4.8386     4.7442     5.4703     0.1596     0.3286   108.3111     8.2517     0.0194     2.4121
  542.0000   -26.6909     5.0514     4.9475     5.5121     0.1556     0.3301   117.0082     8.2362     0.0044     2.4226
  542.5000   -26.6894     5.3707     5.2287     5.7033     0.1442     0.3140   119.0991     8.2508    -0.0092     2.4346
  543.0000   -26.8395     5.7576     5.5662     6.1138     0.1406     0.3104   117.2853     8.2654    -0.0153     2.4436
  543.5000   -27.1407     6.0449     5.9254     6.5539     0.1382     0.3098   113.5466     8.2649    -0.0167     2.4496
  544.0000   -27.4426     6.3026     6.1775     6.8807     0.1364     0.3092   107.9499     8.2644    -0.0197     2.4533
  544.5000   -28.0468     6.4804     6.4404     7.0257     0.1358     0.3076   106.7371     8.2640    -0.0197     2.4515
  545.0000   -28.8029     6.5257     6.5758     7.1738     0.1370     0.3055   106.7255     8.2636    -0.0153     2.4450
  545.5000   -29.4075     6.5712     6.6212     7.2238     0.1425     0.3170   106.7139     8.2631    -0.0002     2.4345
  546.0000   -29.8606     6.6171     6.6207     7.2238     0.1476     0.3194   105.8014     8.2626     0.0148     2.4247
  546.5000   -30.1793     6.5712     6.6202     7.2238     0.1537     0.3149   103.6877     8.2171     0.0208     2.4194
  547.0000   -30.6152     6.5712     6.6198     7.1241     0.1574     0.3122   102.4324     8.2769     0.0223     2.4179
  547.5000   -30.9168     6.4804     6.5735     6.9770     0.1586     0.3094   102.1630     8.3065     0.0177     2.4193
  548.0000   -30.7634     6.3466     6.4373     6.9287     0.1535     0.3099   106.6530     8.3060     0.0087     2.4263
  548.5000   -30.3074     6.2589     6.3039     6.8331     0.1468     0.3227   109.9447     8.2604    -0.0018     2.4336
  549.0000   -29.8514     6.0849     6.1285     6.7362     0.1429     0.3215   111.7349     8.2449    -0.0049     2.4366
  549.5000   -29.3954     5.8791     5.9618     6.5085     0.1405     0.3197   112.0240     8.2142     0.0026     2.4433
  550.0000   -29.2424     5.6387     5.7177     6.3703     0.1385     0.2939   112.3123     8.2146     0.0147     2.4472
  550.5000   -28.7385     5.3920     5.2947     6.3217     0.1370     0.2930   112.0000     8.2228     0.0207     2.4515
  551.0000   -28.2345     4.8745     4.6732     6.2895     0.1400     0.3021   111.9859     8.2311     0.0147     2.4403
  551.5000   -27.7316     4.3924     4.1809     6.2048     0.1468     0.3118   110.7279     8.2394     0.0087     2.4297
  552.0000   -27.4304     4.0980     3.9546     6.1207     0.1530     0.3281   109.6031     8.2422     0.0027     2.4169
  552.5000   -27.2803     3.9587     3.9000     5.9960     0.1612     0.3472   114.1103     8.2417    -0.0003     2.3936
  553.0000   -27.1303     3.9596     3.9000     4.9697     0.1821     0.3596   111.9932     8.2413    -0.0018     2.3711
  553.5000   -26.9802     3.9882     3.9000     3.8720     0.1951     0.3605   109.2736     8.2408    -0.0003     2.3463
  554.0000   -26.8302     4.0731     3.9272     3.5879     0.2002     0.3369   109.2649     8.2403     0.0088     2.3493
  554.5000   -26.6801     4.1598     4.1649     3.9557     0.1805     0.3211   109.2239     8.1796     0.0163     2.3951
  555.0000   -26.8334     4.3079     4.7386     5.2615     0.1473     0.3102   106.8358     8.1492     0.0102     2.4237
  555.5000   -26.9864     4.4652     5.0098     6.0969     0.1409     0.3035   104.7186     8.1788     0.0088     2.4447
  556.0000   -27.1394     4.9532     5.3707     6.5762     0.1367     0.3020   102.9027     8.1934     0.0178     2.4484
  556.5000   -27.5957     5.5761     5.8383     6.7165     0.1373     0.3042   101.6892     8.2080     0.0239     2.4492
  557.0000   -27.7487     5.9375     6.1313     6.8124     0.1373     0.3126   105.5962     8.2226     0.0269     2.4484
  557.5000   -27.7502     6.2350     6.3909     6.7670     0.1370     0.3150   110.7482     8.2372     0.0254     2.4499
  558.0000   -27.7516     6.3720     6.5257     6.6291     0.1355     0.3144   114.0104     8.2367    -0.0036     2.4529
  558.5000   -27.9046     6.5037     6.4804     6.7241     0.1337     0.3092   116.1101     8.2363    -0.0212     2.4553
  559.0000   -28.6727     6.5050     6.4804     6.9155     0.1313     0.3032   117.0050     8.2208     0.0044     2.4589
  559.5000   -29.4230     6.5063     6.5715     7.0142     0.1289     0.3004   117.2997     8.2203     0.0270     2.4627
  560.0000   -30.1820     6.5530     6.7098     7.1639     0.1265     0.2973   117.2889     8.2199     0.0360     2.4649
  560.5000   -30.7896     6.6028     6.7566     7.2158     0.1250     0.2977   117.2801     8.2193     0.0361     2.4657
  561.0000   -31.0940     6.7409     6.8038     7.2178     0.1262     0.3010   115.4621     8.2189     0.0314     2.4634
  561.5000   -31.2470     6.7423     6.7566     7.2201     0.1283     0.3068   113.3450     8.2185     0.0210     2.4566
  562.0000   -31.4000     6.6504     6.7098     7.2220     0.1314     0.3149   114.8423     8.2180     0.0150     2.4521
  562.5000   -31.5533     6.6053     6.6171     7.2240     0.1350     0.3186   118.1469     8.2176     0.0060     2.4514
  563.0000   -31.7063     6.5145     6.5712     7.2763     0.1362     0.3154   120.8490     8.2322     0.0000     2.4581
  563.5000   -31.4047     6.4273     6.5257     7.2782     0.1266     0.3094   120.8403     8.2166    -0.0030     2.4701
  564.0000   -30.6486     6.4285     6.4355     7.1801     0.1184     0.3055   119.2369     8.2162     0.0033     2.4844
  564.5000   -30.1955     6.4298     6.3909     7.1318     0.1133     0.3043   115.7003     8.2158     0.0196     2.4934
  565.0000   -29.7272     6.3862     6.2968     7.1342     0.1118     0.3194   111.1735     8.2153     0.0301     2.4844
  565.5000   -29.4408     6.4324     6.3026     7.1361     0.1151     0.3276   107.5504     8.2149     0.0226     2.4761
  566.0000   -29.2907     6.4789     6.3466     7.1878     0.1198     0.3279   109.3489     8.2295    -0.0044     2.4686
  566.5000   -28.9892     6.4802     6.3909     7.1898     0.1239     0.3182   119.2800     8.2290    -0.0120     2.4678
  567.0000   -28.8391     6.4362     6.3951     7.1920     0.1263     0.3124   121.1104     8.2285    -0.0085     2.4678
  567.5000   -28.8409     6.3932     6.3422     7.1940     0.1266     0.3085   121.9735     8.2281     0.0017     2.4678
  568.0000   -28.6727     6.2190     6.1296     7.1959     0.1257     0.3072   117.4445     8.2277     0.0092     2.4678
