~VERSION INFORMATION
 VERS.                2.0:   CWLS LOG ASCII STANDARD - VERSION 2.0
 WRAP.                 NO:   ONE LINE PER DEPTH STEP
~WELL INFORMATION
#MNEM.UNIT      DATA TYPE    INFORMATION
#----------   ------------   ------------------------------
 STRT.F           42.0000:   START DEPTH
 STOP.F          533.0000:   STOP DEPTH
 STEP.F            0.5000:   STEP LENGTH
 NULL.          -999.2500:   NO VALUE
 COMP.    FENIX & SCISSON:   COMPANY
 WELL.      NPR-3 #38S3-3:   WELL
 FLD .             TEAPOT:   FIELD
 LOC .       S3 T38N R78W:   LOCATION
 CNTY.            NATRONA:   COUNTY
 STAT.            WYOMING:   STATE
 CTRY. UNITED STATES OF AMERICA:   COUNTRY
 SRVC.           BIRDWELL:   SERVICE COMPANY
 DATE.        29-JUN-1978:   LOGDATE
 API .       490251066300:   API NUMBER
~CURVE INFORMATION
#MNEM.UNIT       API CODE    CURVE DESCRIPTION
#----------   ------------   ------------------------------
 DEPT.F                  :   
 ILD .OHMM   05 120 46 00:   INDUCTION LOG DEEP
 SN  .OHMM   05 040 16 00:   SHORT NORMAL 16"
 SPR .MV     05 010 01 00:   SPONTANEOUS POTENTIAL FROM RES.
 CALD.IN     45 280 60 00:   CALIPER FROM DENSITY LOG
 CORR.G/C3   45 356 01 00:   DENSITY CORRECTION
 DPHI.DEC    45 890 12 00:   DENSITY POROSITY SANDSTONE
 GRD .GAPI   45 310 01 00:   GAMMA RAY FROM DENSITY LOG
 RHOB.G/C3   45 350 01 00:   BULK DENSITY
~PARAMETER INFORMATION
#MNEM.UNIT          VALUE    DESCRIPTION
#----------   ------------   ------------------------------
 PD  .                 GL:   PERMANENT DATUM
 EPD .F              5238:   ELEVATION PERMANENT DATUM
 LMF .                 KB:   LOG MEASURED FROM
 DAPD.F                 4:   FEET ABOVE PERMANENT DATUM
 DMF .                 KB:   DRILLING MEASURED FROM
 EKB .F              5242:   KELLING BUSHING
 EGL .F              5238:   GROUND LEVEL
 DATE.        29-JUN-1978:   RUN DATE
 RUN .                  1:   RUN NUMBER
 DD  .F               530:   DEPTH DRILLER
 DL  .F               540:   DEPTH LOGGER
 BLI .F               533:   BOTTOM LOG INTERVAL
 TLI .F                40:   TOP LOG INTERVAL
 CS  .IN            8.625:   CASING SIZE
 CBD .F                40:   CASING BOTTOM DRILLER
 BS  .IN            7.875:   BIT SIZE
 BSD .F               530:   BIT SIZE AT DEPTH
 DFT .                KCL:   DRILLING FLUID TYPE
 DFD .                8.7:   DRILLING FLUID DENSITY
 DFV .                 34:   DRILLING FLUID VISCOSITY
 DFPH.                9.5:   DRILLING FLUID PH
 MSS .           FLOWLINE:   MUD SAMPLE SOURCE
 RMS .OHMM            0.2:   RESISTIVITY MUD SAMPLE
 MST .F                82:   MUD SAMPLE TEMPERATURE
 RMF .OHMM           0.18:   RESISTIVITY MUD FILTRATE SAMPLE
 MFST.F                82:   MUD FILTRATE SAMPLE TEMPERATURE
 RMC .OHMM           0.14:   RESISTIVITY MUD CAKE
 MCST.F                82:   MUD CAKE SAMPLE TEMPERATURE
 MFSS.               MEAS:   MUD FILTRATE SAMPLE SOURCE
 TCS .HRS               1:   TIME CURCULATED STOPPED
 LUN .               2958:   LOGGING UNIT NUMBER
 LUL .             CASPER:   LOGGING UNIT LOCATION
 ENGI.             MILLER:   RECORDING ENGINEER
 WITN.         ZARGARNIAN:   WITNESSED BY
 CLNT.            A2DTECH:   CLIENT CODE
 ORIG.           5" PRINT:   ORIGIN OF DATA
 UWI .       490251066300:   UNIQUE WELL ID
 DICO. A2D Technologies, Inc.:   DIGITIZING COMPANY
~OTHER INFORMATION
~A   DEPT      ILD         SN        SPR       CALD       CORR       DPHI         GRD      RHOB   
# ...
  447.0000    15.1801    12.5981    -4.6793     7.6457     0.0047     0.1635    49.4135     2.4515
  447.5000    15.0744    12.4245    -4.3758     7.6456     0.0062     0.1827    54.7886     2.4350
  448.0000    14.9697    12.4237    -4.0722     7.6305     0.0076     0.2028    55.6756     2.3960
  448.5000    14.8655    12.4229    -3.9183     7.6005     0.0076     0.2290    55.2153     2.3358
  449.0000    14.8645    12.4219    -4.2162     7.5855     0.0076     0.2349    54.4112     2.3128
  449.5000    14.7613    12.3356    -4.2134     7.5555     0.0075     0.2268    54.1420     2.3173
  450.0000    14.6588    12.2499    -3.9098     7.5254     0.0075     0.2211    54.6162     2.3278
  450.5000    14.6576    12.2491    -3.9123     7.5104     0.0059     0.2217    55.4881     2.3369
  451.0000    14.5558    12.2482    -3.9159     7.4954     0.0074     0.2272    55.3163     2.3300
  451.5000    14.5548    12.2474    -3.9188     7.4953     0.0073     0.2316    56.9574     2.3271
  452.0000    14.4537    12.2045    -4.0727     7.4952     0.0073     0.2298    59.6464     2.3317
  452.5000    14.2544    12.2458    -4.2259     7.5101     0.0072     0.2280    61.4372     2.3339
  453.0000    14.2534    12.2448    -4.2288     7.5250     0.0072     0.2286    59.0350     2.3317
  453.5000    14.1544    12.2440    -4.2316     7.5350     0.0086     0.2285    57.3827     2.3294
  454.0000    14.0561    12.2432    -4.3855     7.5398     0.0101     0.2267    55.8801     2.3265
  454.5000    14.0426    12.2343    -4.5387     7.5397     0.0115     0.2255    54.2278     2.3258
  455.0000    13.8613    12.2216    -4.6920     7.5546     0.0130     0.2213    56.6161     2.3333
  455.5000    13.7651    12.2127    -4.8452     7.5695     0.0129     0.2146    58.7063     2.3439
  456.0000    13.6695    12.2095    -4.9985     7.5695     0.0129     0.2083    61.7445     2.3551
  456.5000    13.4811    12.2055    -5.0020     7.5694     0.0145     0.2024    63.7849     2.3619
  457.0000    13.4800    12.2877    -5.1552     7.5693     0.0158     0.1966    63.1791     2.3702
  457.5000    13.3864    12.3695    -5.1580     7.5692     0.0172     0.1960    63.0238     2.3739
  458.0000    13.2934    12.3655    -5.1609     7.5692     0.0187     0.2068    63.4659     2.3642
  458.5000    13.2926    12.3622    -5.0133     7.5691     0.0186     0.2098    63.7612     2.3590
  459.0000    13.2915    12.3582    -4.5657     7.5690     0.0201     0.2038    60.9099     2.3612
  459.5000    13.2906    12.3550    -4.4175     7.5689     0.0215     0.1998    60.0060     2.3711
  460.0000    13.2985    12.3518    -4.4211     7.5689     0.0215     0.1953    60.1502     2.3755
  460.5000    13.3477    12.1792    -4.5750     7.5694     0.0214     0.2022    59.8438     2.3696
  461.0000    13.3684    12.0914    -4.5778     7.5837     0.0199     0.1995    58.3412     2.3703
  461.5000    13.4506    12.0051    -4.7310     7.5836     0.0184     0.1959    56.3881     2.3734
  462.0000    13.4484    12.0020    -4.8842     7.5835     0.0168     0.1947    55.3346     2.3786
  462.5000    13.5402    11.8343    -4.8878     7.5984     0.0168     0.1995    55.1793     2.3779
  463.0000    13.6318    11.7672    -4.8907     7.6283     0.0167     0.2064    55.1737     2.3704
  463.5000    13.6296    11.6651    -5.0439     7.6432     0.0167     0.2073    55.0170     2.3599
  464.0000    13.5341    11.6621    -5.2480     7.6581     0.0167     0.2030    56.3587     2.3630
  464.5000    13.4392    11.6590    -5.3668     7.6430     0.0166     0.2060    62.3412     2.3660
  465.0000    13.3450    11.7367    -5.5042     7.6130     0.0181     0.2096    64.7308     2.3593
  465.5000    12.9794    11.8149    -5.6575     7.5531     0.0180     0.2060    64.1250     2.3585
  466.0000    12.5373    11.8111    -5.8107     7.4632     0.0195     0.2033    62.7721     2.3698
  466.5000    12.2787    11.8080    -6.1143     7.3433     0.0194     0.1988    61.1124     2.3646
  467.0000    12.0210    11.8049    -6.4186     7.1636     0.0194     0.1931    63.9571     2.3706
  467.5000    11.8586    11.7205    -6.4214     7.0737     0.0178     0.1895    65.2988     2.3879
  468.0000    11.6945    11.6362    -6.4242     7.0736     0.0163     0.1828    64.5447     2.3947
  468.5000    11.8559    11.6331    -6.4271     7.1035     0.0148     0.1777    61.8431     2.4052
  469.0000    11.8540    11.6301    -6.4306     7.2118     0.0102     0.1728    60.4916     2.4135
  469.5000    11.8521    11.7076    -6.5839     7.3578     0.0057     0.1714    64.2271     2.4127
  470.0000    11.8505    11.7856    -6.7368     7.4626     0.0027     0.1834    64.6707     2.4008
  470.5000    11.6865    11.7818    -6.7398     7.5074     0.0056     0.1912    63.6158     2.3798
  471.0000    11.5247    11.7787    -6.7429     7.5223     0.0145     0.1860    62.7120     2.3835
  471.5000    11.3648    11.7756    -6.7463     7.5222     0.0236     0.1840    62.5567     2.3918
  472.0000    11.2075    11.7961    -6.7492     7.5221     0.0398     0.1803    62.8505     2.3993
  472.5000    11.0524    11.9323    -6.9024     7.5221     0.0532     0.1776    62.8435     2.4084
  473.0000    11.2046    11.8471    -7.0556     7.5525     0.0681     0.1721    61.7900     2.4151
  473.5000    11.4372    11.8440    -7.0591     7.6267     0.0757     0.1662    60.1377     2.4204
  474.0000    11.6751    11.7594    -7.3627     7.6715     0.0829     0.1767    58.4840     2.4099
  474.5000    11.8363    11.7556    -7.5160     7.7314     0.1038     0.1785    59.0772     2.4061
  475.0000    11.6720    11.7525    -7.8195     7.7612     0.1470     0.1788    59.8201     2.4025
  475.5000    11.2742    11.5883    -8.1233     7.5965     0.1261     0.1806    59.6298     2.4055
  476.0000    10.9656    11.4264    -8.2771     7.3868     0.0753     0.1820    57.1129     2.5105
  476.5000    10.7394    11.2660    -8.7310     7.2969     0.0394     0.1826    56.5099     2.4008
  477.0000    10.6642    11.2631    -9.0346     7.2669     0.0215     0.1583    57.4012     2.4221
  477.5000    10.8856    11.2601    -9.4893     7.2968     0.0154     0.1604    58.5918     2.4401
  478.0000    11.1119    11.2572    -9.9433     7.3566     0.0109     0.1619    60.6820     2.4364
  478.5000    11.4216    11.3372   -10.0965     7.4164     0.0049     0.1631    62.6225     2.4311
  479.0000    11.8213    11.4078   -10.4001     7.5061     0.0034     0.1634    63.5299     2.4259
  479.5000    11.5770    11.4838   -10.7038     7.5210     0.0138     0.1571    63.5081     2.4327
  480.0000    11.3382    11.0905   -11.0080     7.4461     0.0212     0.1456    62.6043     2.4537
  480.5000    11.1813    10.9355   -11.3116     7.3562     0.0241     0.1372    61.7005     2.4606
  481.0000    10.8753    10.7820   -11.3144     7.2963     0.0226     0.1378    61.9929     2.4628
  481.5000    10.7244    10.7792   -11.3223     7.1896     0.0240     0.1384    63.0353     2.4643
  482.0000    10.7230    10.7764   -11.6216     7.0865     0.0255     0.1384    63.7796     2.4666
  482.5000    10.8711    10.8482   -11.6244     6.9966     0.0269     0.1381    61.9261     2.4673
  483.0000    11.0205    10.9962   -11.6273     6.9367     0.0314     0.1369    60.9227     2.4696
  483.5000    11.2496    11.0693   -11.6301     6.9911     0.0343     0.1310    61.6656     2.4816
  484.0000    11.4832    11.2204   -11.3329     7.5203     0.0387     0.1245    59.8622     2.4929
  484.5000    11.4817    11.2952   -11.3357     7.6251     0.0417     0.1209    59.4075     2.4930
  485.0000    11.4802    11.2138   -11.3386     7.5801     0.0461     0.1161    61.9454     2.5140
  485.5000    11.4783    11.2102   -11.3414     7.5345     0.0476     0.1095    63.7362     2.5215
  486.0000    11.4768    11.0536   -11.4947     7.5051     0.0460     0.0927    62.6327     2.5207
  486.5000    11.3964    10.9746   -11.6486     7.4900     0.0460     0.0903    59.2326     2.5366
  487.0000    11.2386    10.8963   -11.6514     7.4900     0.0459     0.0945    56.8318     2.5508
