~VERSION INFORMATION
 VERS.                2.0:   CWLS LOG ASCII STANDARD - VERSION 2.0
 WRAP.                 NO:   ONE LINE PER DEPTH STEP
~WELL INFORMATION
#MNEM.UNIT      DATA TYPE    INFORMATION
#----------   ------------   ------------------------------
 STRT.F           32.5000:   START DEPTH
 STOP.F          654.0000:   STOP DEPTH
 STEP.F            0.5000:   STEP LENGTH
 NULL.          -999.2500:   NO VALUE
 COMP. FENIX & SCISSON INC:   COMPANY
 WELL.          NPR #13-2:   WELL
 FLD .             TEAPOT:   FIELD
 LOC .       S2 T38N R78W:   LOCATION
 CNTY.            NATRONA:   COUNTY
 STAT.            WYOMING:   STATE
 CTRY. UNITED STATES OF AMERICA:   COUNTRY
 SRVC.           BIRDWELL:   SERVICE COMPANY
 DATE.        16-JAN-1978:   LOGDATE
 API .       490251055100:   API NUMBER
~CURVE INFORMATION
#MNEM.UNIT       API CODE    CURVE DESCRIPTION
#----------   ------------   ------------------------------
 DEPT.F                  :   
 ILD .OHMM   05 120 46 00:   INDUCTION LOG DEEP
 SN  .OHMM   05 040 16 00:   SHORT NORMAL 16"
 SPR .MV     05 010 01 00:   SPONTANEOUS POTENTIAL FROM RES.
 CALD.IN     45 280 60 00:   CALIPER FROM DENSITY LOG
 CORR.G/C3   45 356 01 00:   DENSITY CORRECTION
 DPHI.DEC    45 890 12 00:   DENSITY POROSITY SANDSTONE
 GRD .GAPI   45 310 01 00:   GAMMA RAY FROM DENSITY LOG
 RHOB.G/C3   45 350 01 00:   BULK DENSITY
~PARAMETER INFORMATION
#MNEM.UNIT          VALUE    DESCRIPTION
#----------   ------------   ------------------------------
 PD  .                 GL:   PERMANENT DATUM
 EPD .F              5091:   ELEVATION PERMANENT DATUM
 LMF .                 KB:   LOG MEASURED FROM
 DAPD.F                 4:   FEET ABOVE PERMANENT DATUM
 DMF .                 KB:   DRILLING MEASURED FROM
 EKB .F              5095:   KELLING BUSHING
 EGL .F              5091:   GROUND LEVEL
 DATE.        16-JAN-1978:   RUN DATE
 RUN .                  1:   RUN NUMBER
 DD  .F               652:   DEPTH DRILLER
 DL  .F               654:   DEPTH LOGGER
 BLI .F               649:   BOTTOM LOG INTERVAL
 TLI .F                30:   TOP LOG INTERVAL
 CS  .IN            8.625:   CASING SIZE
 CBD .F                20:   CASING BOTTOM DRILLER
 CBL .F                34:   CASING BOTTOM LOGGER
 BS  .IN            7.875:   BIT SIZE
 BSD .F               652:   BIT SIZE AT DEPTH
 DFT .                KCL:   DRILLING FLUID TYPE
 DFD .                8.7:   DRILLING FLUID DENSITY
 DFV .                 34:   DRILLING FLUID VISCOSITY
 DFPH.                 10:   DRILLING FLUID PH
 MSS .           FLOWLINE:   MUD SAMPLE SOURCE
 RMS .OHMM            0.3:   RESISTIVITY MUD SAMPLE
 MST .F                62:   MUD SAMPLE TEMPERATURE
 RMF .OHMM           0.26:   RESISTIVITY MUD FILTRATE SAMPLE
 MFST.F                66:   MUD FILTRATE SAMPLE TEMPERATURE
 RMC .OHMM           0.48:   RESISTIVITY MUD CAKE
 MCST.F                66:   MUD CAKE SAMPLE TEMPERATURE
 MFSS.               MEAS:   MUD FILTRATE SAMPLE SOURCE
 MCSS.               MEAS:   MUD CAKE SAMPLE SOURCE
 RMB .OHMM           0.26:   RESISTIVITY MUD AT BHT
 BHT .F                72:   BOTTOM HOLE TEMPERATURE
 TCS .HRS               3:   TIME CURCULATED STOPPED
 MRT .F                72:   MAXIMUM RECORDED TEMPERATURE
 LUN .               3027:   LOGGING UNIT NUMBER
 LUL .                GJT:   LOGGING UNIT LOCATION
 ENGI.           MARTINEZ:   RECORDING ENGINEER
 WITN.         HARRINGTON:   WITNESSED BY
 CLNT.            A2DTECH:   CLIENT CODE
 ORIG.           5" PRINT:   ORIGIN OF DATA
 UWI .       490251055100:   UNIQUE WELL ID
 DICO. A2D Technologies, Inc.:   DIGITIZING COMPANY
~OTHER INFORMATION
~A   DEPT      ILD         SN        SPR       CALD       CORR       DPHI         GRD      RHOB   
# ...
  437.5000    25.5645    26.0056   -17.6422     8.5928     0.2457     0.1792    56.4854     2.2976
  438.0000    26.1064    26.5539   -17.9403     8.6110     0.2583     0.1957    60.7571     2.3324
  438.5000    26.8602    26.9270   -17.9366     8.6241     0.2477     0.2314    62.4156     2.3384
  439.0000    28.1754    27.4947   -17.7835     8.6246     0.2252     0.2425    62.1184     2.2934
  439.5000    29.5767    27.8810   -17.6304     8.6252     0.1937     0.2473    59.4880     2.2686
  440.0000    31.0477    28.2728   -17.4773     8.6258     0.1802     0.2434    53.3133     2.2544
  440.5000    32.1443    28.4727   -17.1741     8.5965     0.1817     0.2361    50.6024     2.2589
  441.0000    34.4502    28.4766   -17.0210     8.5670     0.1816     0.2315    50.0000     2.2724
  441.5000    35.6669    28.4813   -17.0180     8.5376     0.1723     0.2269    50.6024     2.2799
  442.0000    35.4247    28.6826   -17.0150     8.5234     0.1577     0.2197    51.0542     2.2859
  442.5000    34.9440    28.6865   -16.8613     8.5389     0.1486     0.2158    49.0863     2.2912
  443.0000    34.7080    28.6903   -16.7082     8.5556     0.1396     0.2149    48.0422     2.2964
  443.5000    34.7128    28.8932   -16.7053     8.5725     0.1276     0.2188    48.9458     2.3010
  444.0000    34.9585    28.8970   -16.7024     8.6157     0.1036     0.2308    46.9880     2.3003
  444.5000    35.2068    29.1013   -16.6994     8.6312     0.0811     0.2398    46.9880     2.2709
  445.0000    35.7019    29.3070   -16.6965     8.5121     0.0616     0.2382    47.8916     2.2679
  445.5000    35.7067    29.3111   -16.8438     8.4676     0.0586     0.2422    50.3012     2.2649
  446.0000    35.9593    29.2801   -16.8408     8.4983     0.0556     0.2383    50.9036     2.2620
  446.5000    35.7163    28.9175   -16.8378     8.5288     0.0420     0.2325    50.3012     2.2650
  447.0000    35.7212    28.7213   -16.8509     8.5443     0.0405     0.2304    49.3976     2.2710
  447.5000    35.7260    28.5274   -17.1323     8.5749     0.0389     0.2236    48.6446     2.2792
  448.0000    35.7308    28.3347   -17.4289     8.5755     0.0330     0.2086    49.6988     2.2845
  448.5000    35.4789    27.7581   -17.5769     8.5760     0.0375     0.2050    52.2590     2.3085
  449.0000    35.2496    27.1923   -17.7241     8.5766     0.0360     0.2098    52.7129     2.3145
  449.5000    35.2555    26.6381   -18.0207     8.5774     0.0240     0.2091    52.4096     2.3131
  450.0000    35.7505    26.2760   -18.2182     8.5779     0.0195     0.2301    53.4839     2.2950
  450.5000    34.7776    25.9724   -18.6150     8.5749     0.0210     0.2379    53.7651     2.2717
  451.0000    34.0659    25.6688   -18.7598     8.5713     0.0300     0.2349    55.4217     2.2695
  451.5000    33.1394    25.3889   -18.7553     8.5677     0.0435     0.2346    58.6117     2.2748
  452.0000    32.0154    24.8701   -19.2192     8.5809     0.0480     0.2235    57.9090     2.2801
  452.5000    30.9295    24.5305   -20.0968     8.5966     0.0511     0.2025    55.3269     2.2801
  453.0000    29.4700    24.0284   -20.6930     8.5824     0.0541     0.1754    55.0241     2.3131
  453.5000    27.8860    23.3754   -20.9889     8.5531     0.0556     0.1647    55.3299     2.3522
  454.0000    26.5702    22.8974   -20.9845     8.5539     0.0586     0.1626    56.2433     2.3792
  454.5000    25.8471    22.7412   -21.1314     8.5846     0.0586     0.1623    57.4605     2.3935
  455.0000    24.9704    22.4204   -20.9758     8.6154     0.0495     0.1677    58.9818     2.3912
  455.5000    24.2913    21.9720   -20.9714     8.6461     0.0345     0.1797    60.9793     2.3837
  456.0000    23.7942    21.6722   -20.9670     8.6468     0.0195     0.1863    62.0243     2.3732
  456.5000    23.6314    21.5245   -21.1128     8.6625     0.0165     0.1908    59.7465     2.3575
  457.0000    23.4701    21.3773   -21.4076     8.6483     0.0255     0.1905    59.5956     2.3462
  457.5000    23.3100    21.0854   -21.5545     8.6490     0.0285     0.1854    61.4212     2.3462
  458.0000    23.1509    21.0872   -21.7002     8.6497     0.0300     0.1812    64.7662     2.3510
  458.5000    22.9933    21.0886   -21.5446     8.6504     0.0315     0.1797    65.0716     2.3582
  459.0000    22.9949    21.0900   -21.6915     8.6512     0.0300     0.1843    65.9849     2.3623
  459.5000    23.3167    21.0914   -21.6860     8.6519     0.0285     0.1906    68.5700     2.3533
  460.0000    23.6433    21.1124   -21.6816     8.6527     0.0302     0.1918    69.3314     2.3473
  460.5000    23.8090    21.2409   -21.5271     8.6534     0.0360     0.1900    68.8769     2.3443
  461.0000    23.8106    21.3896   -21.6728     8.6542     0.0375     0.1870    63.4622     2.3443
  461.5000    23.6477    21.2434   -21.8186     8.6549     0.0405     0.1834    59.0866     2.3480
  462.0000    23.6497    21.2450   -22.2636     8.6557     0.0390     0.1822    58.6990     2.3562
  462.5000    23.6513    21.2465   -23.1601     8.6564     0.0345     0.1834    59.6127     2.3577
  463.0000    23.8170    21.2479   -23.4571     8.6572     0.0330     0.1828    59.9181     2.3577
  463.5000    24.1503    21.2497   -23.4517     8.6281     0.0360     0.1792    61.7433     2.3592
  464.0000    24.5019    21.2511   -23.4473     8.6289     0.0450     0.1646    66.4561     2.3624
  464.5000    25.1771    21.2525   -23.5930     8.6296     0.0526     0.1463    68.8892     2.3787
  465.0000    25.3535    21.2540   -23.7388     8.6303     0.0571     0.1382    69.1942     2.3997
  465.5000    25.3552    21.2554   -23.7333     8.6311     0.0555     0.1370    64.7888     2.4222
  466.0000    25.3569    21.4042   -23.7290     8.6318     0.0524     0.1370    61.7508     2.4387
  466.5000    25.0104    21.4057   -23.7246     8.6325     0.0495     0.1421    62.3723     2.4485
  467.0000    25.0120    20.9679   -23.7202     8.6332     0.0526     0.1613    62.9695     2.4364
  467.5000    25.0137    20.6816   -23.4155     8.6340     0.0556     0.1763    62.3631     2.4011
  468.0000    24.6718    20.3991   -23.5613     8.6347     0.0646     0.1916    62.5170     2.3636
  468.5000    23.6594    20.1205   -23.5569     8.6355     0.0736     0.1998    62.6704     2.3393
  469.0000    22.3988    19.8457   -23.5525     8.6362     0.0796     0.2063    62.9759     2.3243
  469.5000    21.6391    19.4402   -23.5480     8.6370     0.0856     0.2077    63.7372     2.3155
  470.0000    21.0502    19.3073   -23.3925     8.6377     0.0916     0.1925    64.0427     2.3147
  470.5000    20.6191    18.9125   -23.3881     8.6385     0.1021     0.1877    63.7402     2.3297
  471.0000    20.4784    18.5261   -23.3838     8.6392     0.1171     0.1823    61.3101     2.3477
  471.5000    20.6222    18.3997   -23.3794     8.6400     0.1337     0.1742    60.2477     2.3537
  472.0000    20.6236    18.4010   -23.2248     8.6407     0.1549     0.1646    63.6900     2.3665
  472.5000    20.6250    18.2755   -23.3717     8.6415     0.1672     0.1571    66.3301     2.3837
  473.0000    20.3431    18.2770   -23.3662     8.6422     0.1757     0.1607    66.6355     2.3950
  473.5000    20.2043    18.2783   -23.5120     8.6430     0.1697     0.1674    66.0291     2.3949
  474.0000    20.0664    18.1533   -23.8079     8.6437     0.1486     0.1709    64.8148     2.3866
  474.5000    20.0681    18.0295   -24.2529     8.6445     0.1381     0.1694    63.2965     2.3769
  475.0000    20.0694    18.0311   -24.2485     8.6452     0.1336     0.1691    61.9302     2.3784
  475.5000    20.0708    18.1573   -24.2441     8.6460     0.1336     0.1688    61.4754     2.3791
  476.0000    20.0721    18.1585   -24.2398     8.6467     0.1366     0.1661    66.1945     2.3783
  476.5000    20.0735    18.1597   -24.0852     8.6475     0.1366     0.1589    70.9015     2.3806
  477.0000    20.0748    18.1610   -23.9307     8.6482     0.1366     0.1517    73.4866     2.3873
  477.5000    20.0832    18.0371   -23.9264     8.6490     0.1381     0.1493    73.6397     2.3993
