~VERSION INFORMATION
 VERS.                2.0:   CWLS LOG ASCII STANDARD - VERSION 2.0
 WRAP.                 NO:   ONE LINE PER DEPTH STEP
~WELL INFORMATION
#MNEM.UNIT      DATA TYPE    INFORMATION
#----------   ------------   ------------------------------
 STRT.F            0.0000:   START DEPTH
 STOP.F          533.0000:   STOP DEPTH
 STEP.F            0.5000:   STEP LENGTH
 NULL.          -999.2500:   NO VALUE
 COMP. LAWRENCE/ALLISON INC:   COMPANY
 WELL. NAVAL PETROLEUM RESERVE 3 SX-1 #56-66-SX-10:   WELL
 FLD .             TEAPOT:   FIELD
 LOC .      S10 T38N R78W:   LOCATION
 CNTY.            NATRONA:   COUNTY
 STAT.            WYOMING:   STATE
 CTRY. UNITED STATES OF AMERICA:   COUNTRY
 SRVC.           Gearhart:   SERVICE COMPANY
 DATE.        28-JUN-1987:   LOGDATE
 API .       490251114300:   API NUMBER
~CURVE INFORMATION
#MNEM.UNIT       API CODE    CURVE DESCRIPTION
#----------   ------------   ------------------------------
 DEPT.F                  :   
 RLL .OHMM   07 220 00 00:   LATEROLOG RESISTIVITY
 RILM.OHMM   07 120 44 00:   INDUCTION LOG MEDIUM RESISTIVITY
 RILD.OHMM   07 120 46 00:   INDUCTION LOG DEEP RESISTIVITY
 GRR .GAPI   07 310 01 00:   GAMMA RAY FROM RES. LOG.
 SPR .MV     07 010 01 00:   SPONTANEOUS POTENTIAL
~PARAMETER INFORMATION
#MNEM.UNIT          VALUE    DESCRIPTION
#----------   ------------   ------------------------------
 PD  .                 GL:   PERMANENT DATUM
 EPD .F              5198:   ELEVATION PERMANENT DATUM
 LMF .                 KB:   LOG MEASURED FROM
 DAPD.F                 8:   FEET ABOVE PERMANENT DATUM
 DMF .                 KB:   DRILLING MEASURED FROM
 EKB .F              5206:   KELLING BUSHING
 EDF .F              5204:   DRILLING FLOOR
 EGL .F              5198:   GROUND LEVEL
 DATE.            6-28-87:   RUN DATE
 RUN .                  1:   RUN NUMBER
 DD  .F               535:   DEPTH DRILLER
 DL  .F               536:   DEPTH LOGGER
 BLI .F               533:   BOTTOM LOG INTERVAL
 BS  .IN             7.87:   BIT SIZE
 BSD .F               535:   BIT SIZE AT DEPTH
 DFT .                MUD:   DRILLING FLUID TYPE
 RMS .OHMM            .84:   RESISTIVITY MUD SAMPLE
 MST .F                57:   MUD SAMPLE TEMPERATURE
 RMF .OHMM            .63:   RESISTIVITY MUD FILTRATE SAMPLE
 MFST.F                57:   MUD FILTRATE SAMPLE TEMPERATURE
 RMC .OHMM           1.05:   RESISTIVITY MUD CAKE
 MCST.F                57:   MUD CAKE SAMPLE TEMPERATURE
 MFSS.               CALC:   MUD FILTRATE SAMPLE SOURCE
 MCSS.               CALC:   MUD CAKE SAMPLE SOURCE
 RMB .OHMM            .59:   RESISTIVITY MUD AT BHT
 BHT .F                80:   BOTTOM HOLE TEMPERATURE
 TCS .HRS            1200:   TIME CURCULATED STOPPED
 TLAB.HRS            1322:   TIME LOGGER AT BOTTOM
 MRT .F                80:   MAXIMUM RECORDED TEMPERATURE
 LUN .               7650:   LOGGING UNIT NUMBER
 LUL .           GILLETTE:   LOGGING UNIT LOCATION
 ENGI. JOHNSTON/HUCKFELDT:   RECORDING ENGINEER
 WITN.             STRONG:   WITNESSED BY
 CLNT.            A2DTECH:   CLIENT CODE
 ORIG.       2", 5" PRINT:   ORIGIN OF DATA
 UWI .       490251114300:   UNIQUE WELL ID
 DICO. A2D Technologies, Inc.:   DIGITIZING COMPANY
~OTHER INFORMATION
~A    DEPT     RLL         RILM       RILD       GRR       SPR   
# ...
  244.0000     7.2369     7.5186     7.7573   115.5981   -45.7360
  244.5000     7.1631     7.4681     7.7312   114.7436   -45.5271
  245.0000     7.0901     7.4180     7.7053   115.2630   -45.3178
  245.5000     7.0328     7.3687     7.6794   115.6995   -45.1096
  246.0000     7.0498     7.3687     7.6536   111.2460   -44.9463
  246.5000     7.0775     7.3687     7.6490   106.2857   -44.9273
  247.0000     7.1054     7.3688     7.6489   106.2254   -44.9015
  247.5000     7.1335     7.3696     7.6491   107.9855   -44.8754
  248.0000     7.1662     7.3687     7.6490   109.6979   -44.8493
  248.5000     7.1383     7.2697     7.6490   109.5380   -44.8232
  249.0000     7.0381     7.1565     7.5733   108.0475   -44.7968
  249.5000     6.9394     7.0451     7.4164   106.5667   -44.7700
  250.0000     6.8420     6.9364     7.2628   105.0249   -44.7535
  250.5000     6.6977     6.8380     7.0988   104.6268   -44.8678
  251.0000     6.4504     6.5821     6.8655   106.2102   -44.9794
  251.5000     6.1236     6.3109     6.5501   108.3781   -45.0900
  252.0000     5.6398     6.0508     6.2492   110.5547   -45.2005
  252.5000     5.4665     5.8270     6.0611   112.7299   -45.3110
  253.0000     5.4665     5.7664     5.9632   114.9121   -45.4218
  253.5000     5.7970     5.7276     5.8669   117.0775   -45.5357
  254.0000     6.1916     5.7830     5.7722   118.5131   -45.5133
  254.5000     6.7122     5.8415     5.6790   116.3856   -45.4601
  255.0000     6.4812     5.8941     5.5694   114.3014   -45.4068
  255.5000     6.0985     5.4260     5.6523   113.9654   -45.3475
  256.0000     5.7384     4.8874     5.7973   114.2393   -45.1538
  256.5000     5.4157     4.7970     5.9454   114.1787   -44.9580
  257.0000     5.3654     5.0181     5.9454   109.6707   -44.7624
  257.5000     5.4892     5.2486     5.9454   105.1875   -44.5685
  258.0000     5.8387     5.4896     5.9454   104.6668   -44.5449
  258.5000     6.2104     5.7416     6.1165   105.8673   -44.5451
  259.0000     6.5881     5.9756     6.3293   108.3420   -44.5454
  259.5000     6.8476     6.2016     6.5495   109.0160   -44.5454
  260.0000     7.1060     6.4362     6.7774   107.4549   -44.5454
  260.5000     7.3022     6.6780     6.9028   106.7691   -44.5454
  261.0000     7.1595     6.7729     6.8772   107.2642   -44.5455
  261.5000     6.9676     6.7729     6.8478   107.4890   -44.5458
  262.0000     6.9663     6.4147     6.6242   107.8440   -44.5456
  262.5000     6.9710     6.0905     6.3168   109.5205   -44.5207
  263.0000     6.6167     5.6965     6.0285   108.4927   -44.3789
  263.5000     6.1345     5.2846     5.7813   107.4686   -44.2391
  264.0000     5.6169     4.8994     5.6674   107.1114   -44.0992
  264.5000     5.1448     4.6156     5.5457   109.3820   -43.9592
  265.0000     4.9332     4.6241     5.4672   111.5855   -43.9391
  265.5000     5.1615     4.8165     5.4135   112.8115   -43.9397
  266.0000     5.6093     4.9948     5.6006   110.9685   -43.9378
  266.5000     6.1142     5.1796     5.8091   108.9293   -43.9219
  267.0000     6.2544     5.3714     6.0752   106.8526   -43.9731
  267.5000     6.4032     5.7031     6.4438   105.5778   -43.3506
  268.0000     6.5556     6.0973     6.8341   105.9750   -43.7989
  268.5000     6.7116     6.5219     7.2477   107.5581   -43.6027
  269.0000     6.8874     6.9616     7.5075   110.3546   -43.3434
  269.5000     7.0790     7.0795     7.5775   111.1253   -43.4777
  270.0000     7.2759     7.2960     7.7192   108.5612   -43.4818
  270.5000     7.4783     7.5232     7.8635   105.9827   -43.2152
  271.0000     7.6863     7.7575     8.0106   103.4338   -42.8781
  271.5000     7.7931     7.9399     8.1605   102.5661   -42.5517
  272.0000     7.7433     7.9262     8.3135   104.0067   -42.2248
  272.5000     7.6670     7.9100     8.3978   105.6638   -41.9021
  273.0000     7.5915     7.8938     8.3971   106.3909   -41.8968
  273.5000     7.5075     7.8777     8.3971   104.9080   -42.3108
  274.0000     7.5697     7.8661     8.3971   103.4760   -42.7222
  274.5000     7.6413     7.9180     8.3971   103.0239   -43.1517
  275.0000     7.6929     7.9770     8.3967   103.9708   -43.2866
  275.5000     7.7424     8.0365     8.4194   105.2859   -43.3373
  276.0000     7.7922     8.0902     8.4510   106.6239   -43.3338
  276.5000     7.8424     8.0900     8.4829   108.0017   -43.4611
  277.0000     7.8661     8.0446     8.5147   108.1291   -43.7018
  277.5000     7.6457     8.0049     8.5470   106.9301   -43.9420
  278.0000     7.5075     7.9654     8.6080   106.9632   -44.1469
  278.5000     7.5441     7.8919     8.7057   108.7935   -44.1421
  279.0000     7.7843     8.0970     8.8046   108.9516   -44.1415
  279.5000     8.0323     8.2720     8.9048   104.9278   -44.1417
  280.0000     8.2881     8.4507     9.0052   100.6959   -44.1432
  280.5000     8.5521     8.6355     9.0497    96.4174   -44.1411
  281.0000     8.8245     8.5553     8.9367    95.0544   -44.0083
  281.5000     9.0480     7.7207     8.7643    97.2835   -43.3570
  282.0000     9.0480     7.0287     8.4858    99.0110   -42.7239
  282.5000     8.4303     6.3941     7.9449    98.4326   -42.0965
  283.0000     7.5147     5.8191     7.1217    99.5756   -41.4659
  283.5000     6.6986     5.2959     6.3806   105.4792   -40.4084
  284.0000     6.0011     4.9794     5.8321   111.1946   -39.3771
  284.5000     5.9454     5.2918     5.8327   116.9454   -38.9497
  285.0000     6.8062     5.8137     6.4129   116.7736   -39.0817
  285.5000     7.5837     6.3871     7.0557   108.4212   -39.6780
  286.0000     8.4501     7.0171     7.8249   102.1425   -40.4609
  286.5000     9.2184     7.6490     8.6778    96.5614   -41.1081
  287.0000     9.4022     8.2570     9.6238    95.0245   -41.7574
  287.5000     9.5134     8.9618    10.2020    93.3850   -41.8392
  288.0000     9.6259     9.3312    10.6022    91.7547   -41.9168
  288.5000     9.7397     9.7463    10.8082    91.7542   -41.7825
  289.0000     9.8407    10.2150    10.8953    93.6201   -41.6452
  289.5000     9.7515    10.2150    11.0060    95.5251   -41.5087
  290.0000     9.6299    10.2150    11.5729    97.4203   -41.3743
  290.5000     9.4768    10.2150    12.2736    99.3288   -41.2459
  291.0000     9.9105    10.5408    13.0168   101.2387   -41.0491
  291.5000    10.9576    11.4451    13.7696   101.0630   -39.7378
  292.0000    12.1173    12.4269    14.8134    92.0729   -38.4464
  292.5000    13.2726    14.2147    15.9795    79.7053   -37.1678
  293.0000    15.5741    16.5093    17.2374    67.9904   -36.0274
  293.5000    18.0186    18.6190    18.9180    62.5553   -36.0935
  294.0000    19.6632    20.5678    21.3240    60.4103   -36.1491
  294.5000    20.1875    20.8412    23.8798    61.9421   -36.2012
  295.0000    20.8842    21.3578    25.3203    63.8468   -36.2594
  295.5000    21.5252    23.1175    26.8293    65.5668   -35.9960
  296.0000    22.1620    24.9121    27.9851    64.2098   -35.6562
  296.5000    23.2683    25.9720    27.9851    62.3064   -35.3146
  297.0000    24.5578    25.7736    27.9851    60.3824   -34.9736
  297.5000    24.3569    25.3365    27.9851    58.8856   -34.6328
  298.0000    24.0534    25.0204    27.9848    59.9474   -34.2938
  298.5000    23.7536    25.1126    27.9874    62.8635   -34.1917
  299.0000    23.4383    25.4524    27.9948    65.7397   -34.0456
  299.5000    23.5730    25.7967    28.5466    66.9973   -34.0390
  300.0000    23.6945    26.1124    29.1911    65.6608   -34.0401
  300.5000    23.8157    26.3978    29.8428    62.9170   -34.0406
  301.0000    24.1908    26.7093    30.5092    60.5942   -34.0403
  301.5000    25.1993    27.9730    31.1911    61.8436   -34.0410
  302.0000    26.2498    29.8204    31.8841    63.0911   -33.8597
  302.5000    27.3823    32.1993    32.4915    63.0815   -33.5023
  303.0000    28.5616    32.1995    32.4151    61.0523   -33.7863
  303.5000    29.3284    31.1807    32.3488    59.1559   -34.2559
  304.0000    28.3880    29.8741    32.2826    60.0604   -34.7304
  304.5000    27.2125    28.9671    32.2165    62.0871   -35.2046
