~VERSION INFORMATION
 VERS.                2.0:   CWLS LOG ASCII STANDARD - VERSION 2.0
 WRAP.                 NO:   ONE LINE PER DEPTH STEP
~WELL INFORMATION
#MNEM.UNIT      DATA TYPE    INFORMATION
#----------   ------------   ------------------------------
 STRT.F           38.5000:   START DEPTH
 STOP.F          606.0000:   STOP DEPTH
 STEP.F            0.5000:   STEP LENGTH
 NULL.          -999.2500:   NO VALUE
 COMP. FENIX & SCISSON INC:   COMPANY
 WELL.      NPR-X3 #185-2:   WELL
 FLD .             TEAPOT:   FIELD
 LOC .       S2 T38N R78W:   LOCATION
 CNTY.            NATRONA:   COUNTY
 STAT.            WYOMING:   STATE
 CTRY. UNITED STATES OF AMERICA:   COUNTRY
 SRVC.            Unknown:   SERVICE COMPANY
 DATE.        30-JAN-1978:   LOGDATE
 API .       490251056200:   API NUMBER
~CURVE INFORMATION
#MNEM.UNIT       API CODE    CURVE DESCRIPTION
#----------   ------------   ------------------------------
 DEPT.F                  :   
 CALD.IN     45 280 60 00:   CALIPER
 GRD .GAPI   45 310 01 00:   GAMMA RAY FROM DENSITY LOG
 CORR.G/C3   45 356 01 00:   DENSITY CORRECTION
 RHOB.G/C3   45 350 01 00:   BULK DENSITY
 DPHI.DEC    45 890 12 00:   DENSITY POROSITY SANDSTONE
 SPR .MV     05 010 01 00:   SPONTANEOUS POTENTIAL FROM RES.
 SN  .OHMM   05 040 16 00:   SHORT NORMAL 16"
 ILD .OHMM   05 120 46 00:   INDUCTION LOG DEEP
~PARAMETER INFORMATION
#MNEM.UNIT          VALUE    DESCRIPTION
#----------   ------------   ------------------------------
 PD  .                 GL:   PERMANENT DATUM
 EPD .F              5134:   ELEVATION PERMANENT DATUM
 LMF .                 KB:   LOG MEASURED FROM
 DAPD.F                 4:   FEET ABOVE PERMANENT DATUM
 DMF .                 KB:   DRILLING MEASURED FROM
 EKB .F              5138:   KELLING BUSHING
 EGL .F              5134:   GROUND LEVEL
 DATE.            1-30-78:   RUN DATE
 RUN .                  1:   RUN NUMBER
 DD  .F               600:   DEPTH DRILLER
 DL  .F               604:   DEPTH LOGGER
 BLI .F               598:   BOTTOM LOG INTERVAL
 TLI .F                40:   TOP LOG INTERVAL
 CS  .IN            8.625:   CASING SIZE
 CBD .F                40:   CASING BOTTOM DRILLER
 CBL .F                41:   CASING BOTTOM LOGGER
 BS  .IN            7.875:   BIT SIZE
 BSD .F               600:   BIT SIZE AT DEPTH
 DFT .                KCL:   DRILLING FLUID TYPE
 DFD .                8.6:   DRILLING FLUID DENSITY
 DFV .                 34:   DRILLING FLUID VISCOSITY
 DFPH.                 10:   DRILLING FLUID PH
 DFL .                  7:   DRILLING FLUID LOSS
 MSS .                PIT:   MUD SAMPLE SOURCE
 RMS .OHMM            .65:   RESISTIVITY MUD SAMPLE
 MST .F                70:   MUD SAMPLE TEMPERATURE
 RMF .OHMM            1.2:   RESISTIVITY MUD FILTRATE SAMPLE
 MFST.F                64:   MUD FILTRATE SAMPLE TEMPERATURE
 MFSS.               MEAS:   MUD FILTRATE SAMPLE SOURCE
 RMB .OHMM            .64:   RESISTIVITY MUD AT BHT
 BHT .F                71:   BOTTOM HOLE TEMPERATURE
 TCS .HRS               3:   TIME CURCULATED STOPPED
 MRT .F                71:   MAXIMUM RECORDED TEMPERATURE
 LUN .               2958:   LOGGING UNIT NUMBER
 LUL .                CAS:   LOGGING UNIT LOCATION
 ENGI.           REYNOLDS:   RECORDING ENGINEER
 WITN.         HARRINGTON:   WITNESSED BY
 CLNT.            A2DTECH:   CLIENT CODE
 ORIG.        2" 5" PRINT:   ORIGIN OF DATA
 UWI .       490251056200:   UNIQUE WELL ID
 DICO. A2D Technologies, Inc.:   DIGITIZING COMPANY
~OTHER INFORMATION
~A   DEPT     CALD        GRD        CORR      RHOB       DPHI        SPR         SN        ILD   
# ...
  524.5000     8.0045    95.0145     0.1024     2.4608     0.1248   -58.3902     9.5124     8.6160
  525.0000     8.0099    94.6548     0.1173     2.4560     0.1257   -58.6483     9.3208     8.6475
  525.5000     8.0153    94.2793     0.1326     2.4500     0.1264   -58.9080     9.0280     8.6720
  526.0000     8.0197    95.8740     0.1473     2.4442     0.1294   -59.1331     8.6808     8.1086
  526.5000     8.0073   100.1590     0.1559     2.4385     0.1335   -58.9281     8.3469     7.6764
  527.0000     7.9940   103.5640     0.1762     2.4395     0.1351   -58.7197     8.0259     7.1834
  527.5000     7.9807   100.6710     0.2027     2.4362     0.1373   -58.5714     7.6801     6.5155
  528.0000     7.9676    98.3954     0.2235     2.4311     0.1379   -58.7589     7.1711     5.9097
  528.5000     7.9638   100.1509     0.2288     2.4300     0.1356   -58.9420     6.6958     5.3795
  529.0000     7.9796   102.9725     0.2124     2.4321     0.1362   -59.1247     6.2520     5.2333
  529.5000     7.9948   107.9083     0.1990     2.4318     0.1352   -59.1474     5.5108     5.3356
  530.0000     8.0099   112.7402     0.1816     2.4315     0.1356   -58.9431     4.6873     5.4070
  530.5000     8.0191   112.3420     0.1021     2.4343     0.1320   -58.1209     4.8857     5.4794
  531.0000     8.0166   110.2602     0.1428     2.4536     0.1261   -57.9518     5.0172     5.5527
  531.5000     8.0143   104.4973     0.1699     2.4622     0.1339   -57.9444     5.1381     5.8227
  532.0000     8.0119    99.0065     0.1742     2.4605     0.1197   -57.9845     6.4437     6.2300
  532.5000     8.0095   100.9289     0.1750     2.4667     0.1173   -58.4138     8.0101     7.0065
  533.0000     8.0072    97.0397     0.1751     2.4706     0.1169   -58.5594     8.9874     7.9088
  533.5000     8.0048    95.0303     0.1714     2.4639     0.1190   -58.7000     9.3599     9.0010
  534.0000     8.0024   104.0721     0.1690     2.4637     0.1186   -58.8395     9.5599     8.9906
  534.5000     8.0001   104.9738     0.1727     2.4665     0.1163   -58.9601     9.6698     8.9693
  535.0000     8.0000    99.8902     0.1878     2.4640     0.1210   -59.0135     9.7952     8.9500
  535.5000     8.0000    97.0636     0.2027     2.4585     0.1264   -59.0674     9.9210     8.9307
  536.0000     8.0000    95.6371     0.2028     2.4531     0.1292   -59.1217    10.0487     8.9155
  536.5000     8.0000    95.0486     0.1884     2.4521     0.1226   -59.1451    10.1779     9.1889
  537.0000     8.0000    94.3605     0.1704     2.4555     0.1212   -59.1480    10.3947     9.3836
  537.5000     8.0000    93.3090     0.1664     2.4589     0.1201   -59.1424    10.6760     9.5840
  538.0000     8.0000    94.0229     0.1931     2.4614     0.1280   -58.9395    10.9650     9.7883
  538.5000     8.0000    95.1286     0.1913     2.4592     0.1202   -58.1226    11.1706     9.9971
  539.0000     8.0000    96.2517     0.1679     2.4617     0.1106   -58.0939    11.3634    10.2102
  539.5000     8.0000    97.0853     0.1525     2.4658     0.1140   -58.0475    11.5591    10.4279
  540.0000     8.0000    96.6500     0.1216     2.4738     0.1150   -57.9987    11.7585    10.5679
  540.5000     8.0000    94.7628     0.1132     2.4843     0.1111   -57.9497    11.9602    10.6542
  541.0000     8.0000    90.7875     0.1258     2.4891     0.1074   -57.9008    12.1486    10.7413
  541.5000     8.0000    92.4737     0.1350     2.4815     0.1135   -57.8517    12.3180    10.8291
  542.0000     8.0000    89.4440     0.1445     2.4741     0.1181   -57.8022    12.4897    10.9176
  542.5000     8.0000    89.1942     0.1420     2.4666     0.1143   -57.7565    12.6639    11.0068
  543.0000     7.9980    90.1220     0.1370     2.4664     0.1098   -57.8126    12.8405    11.0971
  543.5000     7.9959    91.5979     0.1375     2.4746     0.1165   -57.8737    12.9035    11.1250
  544.0000     7.9938    90.9783     0.1490     2.4713     0.1264   -57.9343    12.9431    11.1406
  544.5000     7.9917    89.5210     0.1690     2.4464     0.1333   -57.9948    12.9828    11.1561
  545.0000     7.9896    89.8306     0.1812     2.4417     0.1372   -58.0552    13.0226    11.1717
  545.5000     7.9875    90.6187     0.2348     2.4222     0.1416   -58.1144    13.0626    11.1873
  546.0000     7.9853    91.5323     0.2506     2.4179     0.1361   -58.1429    13.1026    11.2029
  546.5000     7.9834    88.9194     0.2617     2.4171     0.1264   -58.4580    13.1440    11.2147
  547.0000     7.9799    86.4590     0.2624     2.4264     0.1119   -58.8255    13.1860    11.2146
  547.5000     8.0012    87.0406     0.2197     2.4469     0.0960   -59.1080    13.2307    11.2147
  548.0000     7.9998    87.7511     0.1350     2.4870     0.0802   -58.7099    13.1314    11.2147
  548.5000     8.0000    87.7991     0.1349     2.5662     0.0732   -58.7912    12.9983    11.2146
  549.0000     8.0000    88.0529     0.1432     2.5264     0.1176   -59.1973    12.8708    11.1856
  549.5000     8.0000    88.7535     0.1625     2.4684     0.1221   -59.6171    12.8434    11.1167
  550.0000     8.0000    87.1454     0.2023     2.4534     0.1260   -59.7180    12.8170    11.0481
  550.5000     8.0000    85.3684     0.1563     2.4497     0.1260   -59.2531    12.7906    10.9799
  551.0000     8.0000    83.9989     0.1611     2.4591     0.0950   -58.9423    12.7642    10.9099
  551.5000     8.0000    82.9932     0.1696     2.4914     0.1081   -58.6655    12.6977    10.8646
  552.0000     8.0000    81.9982     0.1715     2.4536     0.1189   -58.3674    12.6016    10.8179
  552.5000     8.0000    83.2633     0.1297     2.5241     0.1095   -59.4956    12.5064    10.7714
  553.0000     8.0001    85.2939     0.1011     2.5168     0.0973   -59.4208    12.4119    10.7251
  553.5000     8.0020    85.7010     0.1002     2.5144     0.0954   -57.3537    12.3181    10.5933
  554.0000     8.0039    86.4974     0.0991     2.4923     0.1050   -57.1213    12.1752    10.4273
  554.5000     8.0058    87.5618     0.0981     2.4886     0.1062   -56.9558    12.0160    10.2639
  555.0000     8.0077    87.3531     0.0978     2.4864     0.1070   -56.9521    11.8589    10.1031
  555.5000     8.0097    87.1105     0.1005     2.4806     0.1110   -57.6453    11.6706     9.9447
  556.0000     8.0116    86.8992     0.1158     2.4732     0.1137   -58.8116    11.3845     9.7889
  556.5000     8.0135    87.8689     0.1168     2.4691     0.1077   -59.1427    11.1053     9.6355
  557.0000     8.0154    90.2235     0.1097     2.4804     0.1012   -59.1263    10.8336     9.4845
  557.5000     8.0173    90.5387     0.1024     2.4974     0.1002   -59.0953    10.5856     9.3359
  558.0000     8.0192    91.4830     0.1002     2.4985     0.1018   -59.0653    10.4377     9.1896
  558.5000     8.0198    88.9868     0.0989     2.4944     0.1038   -59.0360    10.3250     9.0456
  559.0000     8.0183    90.3115     0.0970     2.4917     0.1063   -59.0068    10.3802     8.9142
  559.5000     8.0166    92.7992     0.0944     2.4929     0.1074   -58.9779    10.4203     8.8817
  560.0000     8.0150    95.2331     0.0929     2.4954     0.1060   -58.9455    10.2177     8.8518
  560.5000     8.0133    98.8161     0.0915     2.5006     0.1050   -58.8019    10.0378     8.8219
  561.0000     8.0116   103.0418     0.0899     2.5028     0.1037   -58.6475     9.8605     8.7921
  561.5000     8.0100    99.9698     0.0880     2.4992     0.1028   -58.4931     9.8622     8.7624
  562.0000     8.0083    99.0454     0.0874     2.4956     0.1038   -58.3503     9.8625     8.7328
  562.5000     8.0066    98.4859     0.0914     2.4939     0.1039   -58.3162     9.8617     8.7031
  563.0000     8.0050    98.0599     0.0971     2.4930     0.1042   -58.2856     9.6822     8.6721
  563.5000     8.0033    96.5472     0.0978     2.4941     0.1070   -58.2546     9.6977     8.6959
  564.0000     8.0017    93.7210     0.0991     2.4986     0.0950   -58.2235     9.7186     8.7218
  564.5000     8.0000    95.4080     0.0994     2.5010     0.0986   -58.1924     9.7395     8.7520
