~VERSION INFORMATION
 VERS.                2.0:   CWLS LOG ASCII STANDARD - VERSION 2.0
 WRAP.                 NO:   ONE LINE PER DEPTH STEP
~WELL INFORMATION
#MNEM.UNIT      DATA TYPE    INFORMATION
#----------   ------------   ------------------------------
 STRT.F           44.0000:   START DEPTH
 STOP.F          666.0000:   STOP DEPTH
 STEP.F            0.5000:   STEP LENGTH
 NULL.          -999.2500:   NO VALUE
 COMP. FENIX & SCISSON INC:   COMPANY
 WELL.     NPR-3 #22SX-10:   WELL
 FLD .             TEAPOT:   FIELD
 LOC .      S10 T38N R78W:   LOCATION
 CNTY.            NATRONA:   COUNTY
 STAT.            WYOMING:   STATE
 CTRY. UNITED STATES OF AMERICA:   COUNTRY
 SRVC.            Unknown:   SERVICE COMPANY
 DATE.        11-JUL-1978:   LOGDATE
 API .       490251065600:   API NUMBER
~CURVE INFORMATION
#MNEM.UNIT       API CODE    CURVE DESCRIPTION
#----------   ------------   ------------------------------
 DEPT.F                  :   
 CALD.IN     45 280 60 00:   CALIPER FROM DENSITY LOG
 GRD .GAPI   45 310 01 00:   GAMMA RAY FROM DENSITY LOG
 CORR.G/C3   45 356 01 00:   DENSITY CORRECTION
 DPHI.DEC    45 890 12 00:   DENSITY POROSITY SANDSTONE
 RHOB.G/C3   45 350 01 00:   BULK DENSITY
 SPR .MV     05 010 01 00:   SPONTANEOUS POTENTIAL FROM RES.
 SN  .OHMM   05 040 16 00:   SHORT NORMAL 16"
 ILD .OHMM   05 120 46 00:   INDUCTION LOG DEEP
~PARAMETER INFORMATION
#MNEM.UNIT          VALUE    DESCRIPTION
#----------   ------------   ------------------------------
 PD  .                 GL:   PERMANENT DATUM
 EPD .F              5263:   ELEVATION PERMANENT DATUM
 LMF .                 KB:   LOG MEASURED FROM
 DAPD.F                 4:   FEET ABOVE PERMANENT DATUM
 DMF .                 KB:   DRILLING MEASURED FROM
 EKB .F              5267:   KELLING BUSHING
 EGL .F              5263:   GROUND LEVEL
 DATE.        11-JUL-1978:   RUN DATE
 RUN .                  1:   RUN NUMBER
 DD  .F               657:   DEPTH DRILLER
 DL  .F               666:   DEPTH LOGGER
 BLI .F               660:   BOTTOM LOG INTERVAL
 TLI .F                50:   TOP LOG INTERVAL
 CS  .IN            8.625:   CASING SIZE
 CBD .F                40:   CASING BOTTOM DRILLER
 BS  .IN            7.875:   BIT SIZE
 BSD .F               657:   BIT SIZE AT DEPTH
 DFT .                KCL:   DRILLING FLUID TYPE
 DFD .                8.6:   DRILLING FLUID DENSITY
 DFV .                 33:   DRILLING FLUID VISCOSITY
 DFPH.                9.0:   DRILLING FLUID PH
 DFL .                 14:   DRILLING FLUID LOSS
 MSS .           FLOWLINE:   MUD SAMPLE SOURCE
 RMS .OHMM            .16:   RESISTIVITY MUD SAMPLE
 MST .F                89:   MUD SAMPLE TEMPERATURE
 RMF .OHMM            .15:   RESISTIVITY MUD FILTRATE SAMPLE
 MFST.F                89:   MUD FILTRATE SAMPLE TEMPERATURE
 RMC .OHMM            .32:   RESISTIVITY MUD CAKE
 MCST.F                88:   MUD CAKE SAMPLE TEMPERATURE
 MFSS.               MEAS:   MUD FILTRATE SAMPLE SOURCE
 BHT .F                76:   BOTTOM HOLE TEMPERATURE
 TCS .HRS            0200:   TIME CURCULATED STOPPED
 MRT .F                76:   MAXIMUM RECORDED TEMPERATURE
 LUN .               2958:   LOGGING UNIT NUMBER
 LUL .               CASP:   LOGGING UNIT LOCATION
 ENGI.             MILLER:   RECORDING ENGINEER
 WITN.           MCGINLEY:   WITNESSED BY
 CLNT.            A2DTECH:   CLIENT CODE
 ORIG.           5" PRINT:   ORIGIN OF DATA
 UWI .       490251065600:   UNIQUE WELL ID
 DICO. A2D Technologies, Inc.:   DIGITIZING COMPANY
~OTHER INFORMATION
~A   DEPT     CALD         GRD      CORR       DPHI       RHOB        SPR         SN        ILD   
# ...
  125.0000     7.7651    86.3379     0.0045     0.1405     2.4512   -47.0320     6.7281     7.2074
  125.5000     7.7492    82.5482     0.0029     0.1391     2.4534   -47.9078     6.6861     7.2615
  126.0000     7.7484    81.9354    -0.0002     0.1382     2.4563   -49.2404     6.6912     7.3160
  126.5000     7.7477    82.3817    -0.0033     0.1412     2.4578   -50.8823     6.6493     7.3204
  127.0000     7.7469    82.6767    -0.0049     0.1460     2.4570   -52.4601     6.6993     7.3249
  127.5000     7.7462    82.6691    -0.0051     0.1541     2.4495   -53.7809     6.7028     7.3293
  128.0000     7.7605    81.7538    -0.0036     0.1577     2.4291   -54.8050     6.7074     7.3338
  128.5000     7.7598    80.3846    -0.0008     0.1541     2.4216   -55.5323     6.6644     7.2883
  129.0000     7.7590    79.9231    -0.0009     0.1463     2.4340   -55.8146     6.6695     7.2424
  129.5000     7.7583    79.7643     0.0005     0.1443     2.4422   -56.1005     6.6738     7.1971
  130.0000     7.7575    80.2105     0.0004     0.1413     2.4495   -56.6758     6.6775     7.1532
  130.5000     7.7567    82.4722     0.0003     0.1401     2.4500   -57.4032     6.6819     7.1078
  131.0000     7.7560    84.4314     0.0002     0.1485     2.4348   -57.9822     6.6857     7.1128
  131.5000     7.7552    85.6340     0.0001     0.1464     2.4349   -58.8843     6.7368     7.1171
  132.0000     7.7090    85.7796     0.0000     0.1422     2.4387   -59.7300     6.7409     7.1214
  132.5000     7.6325    85.4676     0.0014     0.1443     2.4438   -60.3090     6.7450     7.1258
  133.0000     7.6166    83.7958     0.0043     0.1464     2.4446   -60.8880     6.7490     7.1792
  133.5000     7.6007    81.9728     0.0087     0.1438     2.4453   -61.4669     6.7531     7.2347
  134.0000     7.5696    81.8154     0.0101     0.1425     2.4467   -62.0459     6.7572     7.2936
  134.5000     7.5234    82.1659     0.0085     0.1417     2.4512   -62.6249     6.7140     7.4449
  135.0000     7.4923    84.2208     0.0084     0.1414     2.4534   -63.2039     6.6729     7.5525
  135.5000     7.4764    87.4583     0.0083     0.1427     2.4481   -63.6345     6.6313     7.6617
  136.0000     7.4605    88.1394     0.0082     0.1447     2.4406   -64.2135     6.5899     7.8260
  136.5000     7.4446    86.7525     0.0081     0.1465     2.4375   -64.6441     6.5487     7.9392
  137.0000     7.4438    86.4599     0.0080     0.1477     2.4367   -64.6291     6.5078     8.1095
  137.5000     7.4584    86.3010     0.0079     0.1462     2.4367   -64.9083     6.5127     8.1144
  138.0000     7.4574    86.4449     0.0078     0.1427     2.4427   -65.4873     6.4710     8.1193
  138.5000     7.4568    86.2860     0.0077     0.1445     2.4464   -65.9179     6.4759     8.0686
  139.0000     7.5042    86.4297     0.0076     0.1442     2.4524   -66.3485     6.4345     8.0171
  139.5000     7.5614    86.2708     0.0090     0.1427     2.4478   -66.7791     6.4393     7.8535
  140.0000     7.6081    86.2632     0.0089     0.1430     2.4365   -67.0650     6.4432     7.5995
  140.5000     7.6356    84.7428     0.0088     0.1571     2.4260   -67.3436     6.4471     7.3979
  141.0000     7.6348    83.0710     0.0162     0.1574     2.4214   -67.3291     6.4068     7.2513
  141.5000     7.6341    83.2148     0.0266     0.1581     2.4221   -67.3145     6.4550     7.1555
  142.0000     7.6327    83.3585     0.0295     0.1545     2.4236   -67.2997     6.4590     7.0621
  142.5000     7.6174    84.2585     0.0264     0.1353     2.4251   -67.2820     6.5083     7.0180
  143.0000     7.6167    85.4612     0.0112     0.1365     2.4611   -67.2675     6.4666     6.9741
  143.5000     7.6159    85.7740     0.0006     0.1488     2.4430   -67.4050     6.4715     6.9314
  144.0000     7.6606    85.8999    -0.0040     0.1572     2.4317   -67.5389     6.4758     6.8882
  144.5000     8.1295    87.7077    -0.0056     0.1548     2.4249   -68.1179     6.4793     6.8452
  145.0000     8.0379    88.1543    -0.0057     0.1536     2.4234   -68.9900     6.4379     6.8024
  145.5000     7.6432    87.9951    -0.0043     0.1545     2.4271   -69.7174     6.4427     6.8545
  146.0000     7.6121    90.2568    -0.0044     0.1558     2.4300   -70.2967     6.4466     6.8587
  146.5000     7.6113    91.0075    -0.0060     0.1489     2.4330   -70.8753     6.4950     6.9102
  147.0000     7.6257    90.5442    -0.0062     0.1489     2.4352   -71.3059     6.4991     6.9620
  147.5000     7.6403    83.3640    -0.0063     0.1462     2.4374   -71.5882     6.5487     7.0143
  148.0000     7.7000    79.0195    -0.0064     0.1474     2.4382   -71.7221     6.5527     7.0670
  148.5000     7.8659    79.1663    -0.0049     0.1471     2.4396   -72.0043     6.5567     7.1200
  149.0000     7.9107    82.7927    -0.0051     0.1441     2.4411   -72.1382     6.6059     7.1243
  149.5000     7.9229    85.8139    -0.0007     0.1438     2.4433   -72.2685     6.7014     7.1778
  150.0000     7.9189    88.2300     0.0035     0.1416     2.4457   -72.2576     6.8227     7.2317
  150.5000     7.9149    89.1332     0.0097     0.1400     2.4484   -72.4112     6.9791     7.3160
  151.0000     7.9109    89.1286     0.0096     0.1354     2.4515   -72.5433     7.0919     7.4003
  151.5000     7.9069    88.5616     0.0079     0.1341     2.4590   -72.6578     7.0965     7.4471
  152.0000     7.9029    84.3975     0.0048     0.1234     2.4777   -72.6395     7.1493     7.4517
  152.5000     7.8989    83.9714     0.0002     0.1251     2.4807   -72.6250     7.1032     7.4051
  153.0000     7.8949    84.9229    -0.0029     0.1407     2.4566   -72.7587     7.1080     7.3084
  153.5000     7.8909    86.9214    -0.0015     0.1441     2.4423   -72.7442     7.0631     7.2628
  154.0000     7.8879    89.2518    -0.0001     0.1441     2.4378   -72.7296     7.0669     7.1188
  154.5000     7.8264    88.1883     0.0028     0.1424     2.4407   -72.7150     7.0223     6.9788
  155.0000     7.7802    84.8555    -0.0003     0.1381     2.4520   -72.5519     7.0261     6.8877
  155.5000     7.7491    84.3971    -0.0004     0.1357     2.4602   -72.5371     6.9816     6.8919
  156.0000     7.7029    85.1490    -0.0005     0.1438     2.4422   -72.5223     6.9376     6.8478
  156.5000     7.6567    86.5061    -0.0005     0.1480     2.4369   -72.5047     6.8938     6.9002
  157.0000     7.6105    87.1067    -0.0006     0.1489     2.4338   -72.4926     6.8503     6.9520
  157.5000     7.5643    87.5572    -0.0006     0.1502     2.4331   -72.4777     6.8549     7.0042
  158.0000     7.5332    87.0977    -0.0007     0.1514     2.4323   -72.4629     6.9059     7.1055
  158.5000     7.5173    84.5213    -0.0007     0.1489     2.4322   -72.4481     6.9096     7.1659
  159.0000     7.5166    84.2154    -0.0007     0.1471     2.4330   -72.4332     6.9610     7.3135
  159.5000     7.5158    84.9662    -0.0008     0.1423     2.4344   -72.4184     7.0128     7.4704
  160.0000     7.5151    85.1141    -0.0008     0.1363     2.4449   -72.4036     7.0166     7.5784
  160.5000     7.5143    84.0494    -0.0009     0.1444     2.4562   -72.3887     7.0203     7.7410
  161.0000     7.5135    82.5321    -0.0009     0.1495     2.4449   -72.3739     7.0241     7.9616
  161.5000     7.5128    81.1660    -0.0009     0.1477     2.4328   -72.3590     6.9798     8.0767
  162.0000     7.5120    80.5563    -0.0010     0.1453     2.4312   -72.3442     6.9835     8.1934
  162.5000     7.5113    80.2492    -0.0010     0.1453     2.4403   -72.3294     6.8919     8.1984
  163.0000     7.4954    80.2447    -0.0010     0.1453     2.4380   -72.3145     6.8484     8.2599
  163.5000     7.4946    80.2402    -0.0011     0.1453     2.4447   -72.2997     6.8051     8.2079
  164.0000     7.4939    78.4203    -0.0011     0.1480     2.4424   -72.2849     6.7622     8.0406
  164.5000     7.4780    74.9362    -0.0012     0.1526     2.4334   -72.2700     6.6734     7.7786
  165.0000     7.4772    74.7804    -0.0012     0.1526     2.4319   -72.2552     6.6313     7.5722
