~VERSION INFORMATION
 VERS.                2.0:   CWLS LOG ASCII STANDARD - VERSION 2.0
 WRAP.                 NO:   ONE LINE PER DEPTH STEP
~WELL INFORMATION
#MNEM.UNIT      DATA TYPE    INFORMATION
#----------   ------------   ------------------------------
 STRT.F           40.0000:   START DEPTH
 STOP.F          876.5000:   STOP DEPTH
 STEP.F            0.5000:   STEP LENGTH
 NULL.          -999.2500:   NO VALUE
 COMP. FENIX & SCISSON INC:   COMPANY
 WELL.     NPR 3 #41-S-14:   WELL
 FLD .             TEAPOT:   FIELD
 LOC .      S14 T38N R78W:   LOCATION
 CNTY.            NATRONA:   COUNTY
 STAT.            WYOMING:   STATE
 CTRY. UNITED STATES OF AMERICA:   COUNTRY
 SRVC.            Unknown:   SERVICE COMPANY
 DATE.        12-MAR-1978:   LOGDATE
 API .       490251060200:   API NUMBER
~CURVE INFORMATION
#MNEM.UNIT       API CODE    CURVE DESCRIPTION
#----------   ------------   ------------------------------
 DEPT.F                  :   
 CALD.IN     45 280 60 00:   CALIPER FROM DENSITY LOG
 GRD .GAPI   45 310 01 00:   GAMMA RAY FROM DENSITY LOG
 RHOB.G/C3   45 350 01 00:   BULK DENSITY
 DPHI.DEC    45 890 12 00:   DENSITY POROSITY SANDSTONE
 CORR.G/C3   45 356 01 00:   DENSITY CORRECTION
 SPR .MV     05 010 01 00:   SPONTANEOUS POTENTIAL FROM RES.
 IL  .OHMM   05 120 00 00:   INDUCTION LOG
 SN  .OHMM   05 040 16 00:   SHORT NORMAL 16"
~PARAMETER INFORMATION
#MNEM.UNIT          VALUE    DESCRIPTION
#----------   ------------   ------------------------------
 PD  .                 GL:   PERMANENT DATUM
 EPD .F              5211:   ELEVATION PERMANENT DATUM
 LMF .                 KB:   LOG MEASURED FROM
 DMF .                 KB:   DRILLING MEASURED FROM
 EKB .F              5215:   KELLING BUSHING
 EGL .F              5211:   GROUND LEVEL
 DATE.            3-12-78:   RUN DATE
 RUN .                  1:   RUN NUMBER
 DD  .F               870:   DEPTH DRILLER
 DL  .F               872:   DEPTH LOGGER
 BLI .F               866:   BOTTOM LOG INTERVAL
 TLI .F                50:   TOP LOG INTERVAL
 CS  .IN            8.625:   CASING SIZE
 CBD .F                40:   CASING BOTTOM DRILLER
 CBL .F                40:   CASING BOTTOM LOGGER
 BS  .IN            7.875:   BIT SIZE
 BSD .F               870:   BIT SIZE AT DEPTH
 DFT .                KCL:   DRILLING FLUID TYPE
 DFD .                8.6:   DRILLING FLUID DENSITY
 DFV .                 33:   DRILLING FLUID VISCOSITY
 DFPH.                 10:   DRILLING FLUID PH
 DFL .               12.1:   DRILLING FLUID LOSS
 MSS .           FLOWLINE:   MUD SAMPLE SOURCE
 RMS .OHMM            .32:   RESISTIVITY MUD SAMPLE
 MST .F                54:   MUD SAMPLE TEMPERATURE
 RMF .OHMM            .36:   RESISTIVITY MUD FILTRATE SAMPLE
 MFST.F                55:   MUD FILTRATE SAMPLE TEMPERATURE
 RMC .OHMM             .5:   RESISTIVITY MUD CAKE
 MCST.F                56:   MUD CAKE SAMPLE TEMPERATURE
 MFSS.           MEASURED:   MUD FILTRATE SAMPLE SOURCE
 MCSS.           MEASURED:   MUD CAKE SAMPLE SOURCE
 RMB .OHMM            .24:   RESISTIVITY MUD AT BHT
 BHT .F                72:   BOTTOM HOLE TEMPERATURE
 TCS .HRS               4:   TIME CURCULATED STOPPED
 MRT .F                72:   MAXIMUM RECORDED TEMPERATURE
 LUN .               2958:   LOGGING UNIT NUMBER
 LUL .               CASP:   LOGGING UNIT LOCATION
 ENGI.             MILLER:   RECORDING ENGINEER
 WITN.         HARRINGTON:   WITNESSED BY
 CLNT.            A2DTECH:   CLIENT CODE
 ORIG.        2" 5" PRINT:   ORIGIN OF DATA
 UWI .       490251060200:   UNIQUE WELL ID
 DICO. A2D Technologies, Inc.:   DIGITIZING COMPANY
~OTHER INFORMATION
~A   DEPT     CALD         GRD      RHOB       DPHI       CORR        SPR         IL         SN   
# ...
  404.5000     8.2711    99.9434     2.4631     0.0993    -0.0039   -55.6213     7.9230     8.9673
  405.0000     8.2720    99.7668     2.4629     0.0979    -0.0030   -55.5309     7.9548     9.0301
  405.5000     8.2729    97.8167     2.4576     0.1064    -0.0021   -55.4313     7.9867     9.0932
  406.0000     8.2738    93.5287     2.4544     0.1032    -0.0012   -55.3318     8.0187     9.1568
  406.5000     8.2746    91.5371     2.4639     0.1008    -0.0003   -55.2325     8.0508     9.2903
  407.0000     8.2755    93.2619     2.4625     0.1013     0.0009   -55.1330     8.0831     9.3359
  407.5000     8.2764    96.0220     2.4596     0.1028     0.0048   -55.0336     8.2415     9.3796
  408.0000     8.2773    97.7445     2.4570     0.1044     0.0096   -54.9346     8.4270     9.4234
  408.5000     8.2782    98.2366     2.4598     0.1018     0.0143   -54.8361     8.6167     9.4675
  409.0000     8.2791    98.1156     2.4631     0.1000     0.0189   -54.7787     8.8106     9.5118
  409.5000     8.2800    95.6307     2.4654     0.0993     0.0226   -54.7786     9.0090     9.5563
  410.0000     8.2809    92.1807     2.4676     0.0988     0.0227   -54.7781     9.2901     9.6010
  410.5000     8.2820    90.7278     2.4657     0.1004     0.0170   -54.7785     9.2880     9.6459
  411.0000     8.2820    91.0752     2.4690     0.0966     0.0106   -54.7780     9.2838     9.6911
  411.5000     8.2807    90.1757     2.4718     0.0936     0.0063   -54.7715     9.2796     9.7364
  412.0000     8.2166    88.1377     2.4643     0.0923     0.0183   -54.9798     9.2755     9.7820
  412.5000     8.0699    89.3951     2.4720     0.0906     0.0131   -55.2266     9.2714     9.8279
  413.0000     8.0645    91.9972     2.4825     0.0888     0.0059   -55.4770     9.2673     9.8742
  413.5000     8.0653    90.9690     2.4760     0.0933     0.0012   -55.6430     9.2632     9.9107
  414.0000     8.0655    88.8723     2.4691     0.0956     0.0086   -55.7635     9.2591     9.8601
  414.5000     8.0655    86.7038     2.4735     0.0921     0.0090   -55.4903     9.2550     9.8171
  415.0000     8.0655    86.1439     2.4792     0.0912     0.0069   -55.1301     9.2509     9.7746
  415.5000     8.0655    87.2457     2.4746     0.0981     0.0047   -54.9518     9.2468     9.7322
  416.0000     8.0655    91.1585     2.4633     0.1062     0.0085   -54.9030     9.2427     9.6901
  416.5000     8.0655    92.6610     2.4543     0.1039     0.0144   -54.8555     9.2386     9.6481
  417.0000     8.0655    92.8131     2.4641     0.1009     0.0187   -54.8092     9.2345     9.6063
  417.5000     8.0655    93.2905     2.4635     0.1006     0.0185   -54.8165     9.2304     9.5647
  418.0000     8.0654    94.2848     2.4630     0.1004     0.0185   -54.9287     9.2264     9.5233
  418.5000     8.0557    93.6061     2.4617     0.1031     0.0185   -54.9637     9.2223     9.4821
  419.0000     8.0297    92.4331     2.4598     0.1058     0.0184   -54.9239     9.2182     9.4599
  419.5000     8.0044    91.9990     2.4520     0.1084     0.0271   -54.8844     9.2142     9.4530
  420.0000     7.9784    93.5073     2.4449     0.1106     0.0464   -54.8446     9.2101     9.4462
  420.5000     7.9884    97.6480     2.4465     0.1112     0.0658   -54.8048     9.2064     9.4395
  421.0000     7.9970   101.6084     2.4479     0.1107     0.0665   -54.7650     9.1805     9.4327
  421.5000     8.0170   104.3922     2.4436     0.1136     0.0747   -54.7253     9.1471     9.4259
  422.0000     8.0374   101.5080     2.4463     0.1161     0.0760   -54.6855     9.1139     9.4191
  422.5000     8.0578    97.6417     2.4791     0.1180     0.0602   -54.6454     9.0809     9.4123
  423.0000     8.0787    93.8041     2.4712     0.1198     0.0777   -54.6043     9.0480     9.4056
  423.5000     8.1066    90.0590     2.4570     0.1071     0.0649   -54.5769     9.0152     9.3988
  424.0000     8.1391    86.3872     2.4918     0.0628     0.0294   -54.6806     8.9825     9.3921
  424.5000     8.1655    85.6643     2.5325     0.0649     0.0260   -55.5389     8.9461     9.3855
  425.0000     8.1643    91.7549     2.5136     0.0745     0.0161   -55.8406     8.8777     9.3788
  425.5000     8.1639    97.6406     2.4915     0.0885     0.0032   -56.1218     8.8098     9.3385
  426.0000     8.1635    99.3897     2.4688     0.0967     0.0043   -56.3569     8.7332     9.2840
  426.5000     8.1631   100.0313     2.4618     0.1008    -0.0015   -55.9752     8.6532     9.2299
  427.0000     8.1627    99.8214     2.4599     0.1010    -0.0073   -55.8094     8.5741     9.1761
  427.5000     8.1623    99.1609     2.4599     0.1000    -0.0068   -55.8722     8.4956     9.1227
  428.0000     8.1619    98.3945     2.4483     0.1015    -0.0058   -55.9351     8.4705     9.0695
  428.5000     8.1615    97.5574     2.4537     0.1043    -0.0057   -55.9996     8.4705     9.0167
  429.0000     8.1611    96.7128     2.4511     0.1071    -0.0063   -56.0641     8.4705     8.9642
  429.5000     8.1607    96.8090     2.4491     0.1088    -0.0068   -56.1260     8.4705     8.9120
  430.0000     8.1603   100.8084     2.4509     0.1077    -0.0074   -56.1303     8.4146     8.8600
  430.5000     8.1599   104.7247     2.4493     0.1074    -0.0080   -55.9861     8.3504     8.8084
  431.0000     8.1595   106.8941     2.4474     0.1099    -0.0086   -56.0531     8.2866     8.7571
  431.5000     8.1591   101.7854     2.4455     0.1124    -0.0091   -56.1144     8.2233     8.7086
  432.0000     8.1587    97.6792     2.4439     0.1105    -0.0073   -56.1826     8.1605     8.6169
  432.5000     8.1583    94.3730     2.4423     0.1112    -0.0018   -56.4328     8.0981     8.5308
  433.0000     8.1579    94.5525     2.4424     0.1120     0.0005   -56.6835     7.9036     8.4455
  433.5000     8.1575    95.0387     2.4555     0.1047    -0.0003   -56.9330     7.6230     8.3608
  434.0000     8.1571    98.8031     2.4636     0.0984    -0.0012   -56.9732     7.3524     8.2772
  434.5000     8.1567   102.9776     2.4576     0.1068    -0.0022   -56.9738     7.2740     8.1943
  435.0000     8.1563   104.4076     2.4565     0.1036    -0.0031   -56.9736     7.2347     8.1632
  435.5000     8.1559   104.1884     2.4592     0.1013    -0.0041   -56.9741     7.1957     8.1882
  436.0000     8.1555   100.6070     2.4591     0.0996    -0.0050   -57.0473     7.1729     8.2188
  436.5000     8.1552    97.0721     2.4559     0.1013    -0.0034   -57.2290     7.2332     8.2495
  437.0000     8.1547    95.8155     2.4527     0.1073     0.0008   -57.4107     7.3825     8.2804
  437.5000     8.1544    92.8898     2.4520     0.1028     0.0050   -57.5957     7.5351     8.3113
  438.0000     8.1540    90.2560     2.4619     0.0967     0.0053   -57.7416     7.6907     8.3424
  438.5000     8.1536    89.0221     2.4755     0.0908     0.0026   -57.0005     7.8493     8.3736
  439.0000     8.1532    91.4204     2.4783     0.0932    -0.0001   -56.9266     8.0138     8.4048
  439.5000     8.1528    94.2867     2.4729     0.0962    -0.0029   -56.8863     8.0138     8.4362
  440.0000     8.1524    94.7862     2.4691     0.0991    -0.0056   -56.8439     7.9834     8.4678
  440.5000     8.1520    95.0240     2.4642     0.1004    -0.0083   -56.8011     7.9578     8.4994
  441.0000     8.1516    97.3130     2.4588     0.1015    -0.0095   -56.7832     7.9323     8.5312
  441.5000     8.1512    97.1995     2.4581     0.1046    -0.0094   -56.8422     7.9069     8.5631
  442.0000     8.1508    96.4729     2.4522     0.1077    -0.0079   -56.9009     7.8815     8.5951
  442.5000     8.1504    94.8550     2.4473     0.1100    -0.0062   -56.9612     7.8563     8.6285
  443.0000     8.1500    92.8821     2.4488     0.1091    -0.0045   -56.9470     7.8311     8.6168
  443.5000     8.1496    93.8315     2.4473     0.1070    -0.0028   -56.9134     7.7948     8.6047
  444.0000     8.1492    94.6683     2.4559     0.1047    -0.0011   -56.8789     7.8043     8.5926
  444.5000     8.1488    93.7378     2.4581     0.1018     0.0005   -56.8440     7.8218     8.5806
