~VERSION INFORMATION
 VERS.                2.0:   CWLS LOG ASCII STANDARD - VERSION 2.0
 WRAP.                 NO:   ONE LINE PER DEPTH STEP
~WELL INFORMATION
#MNEM.UNIT      DATA TYPE    INFORMATION
#----------   ------------   ------------------------------
 STRT.F           86.0000:   START DEPTH
 STOP.F         1134.0000:   STOP DEPTH
 STEP.F            0.5000:   STEP LENGTH
 NULL.          -999.2500:   NO VALUE
 COMP.          U.S. NAVY:   COMPANY
 WELL. RES 3 TEAPOT DOM #64-S-2:   WELL
 FLD .             TEAPOT:   FIELD
 LOC .       S2 T38N R78W:   LOCATION
 CNTY.            NATRONA:   COUNTY
 STAT.            WYOMING:   STATE
 CTRY. UNITED STATES OF AMERICA:   COUNTRY
 SRVC. Schlumberger Well Surveying Corp:   SERVICE COMPANY
 DATE.        28-JUL-1964:   LOGDATE
 API .       490250644400:   API NUMBER
~CURVE INFORMATION
#MNEM.UNIT       API CODE    CURVE DESCRIPTION
#----------   ------------   ------------------------------
 DEPT.F                  :   
 ASN .OHMM   05 041 16 00:   AMPLIFIED SHORT NORMAL 16"
 CILD.MMHO   05 110 46 00:   CONDUCTIVITY INDUCTION LOG DEEP
 ILD .OHMM   05 120 46 00:   INDUCTION LOG DEEP
 SPR .MV     05 010 01 00:   SPONTANEOUS POTENTIAL FROM RES.
 DT  .US/F   60 520 33 00:   INTERVAL TRANSIT TIME
 GR  .GAPI   30 310 01 00:   GAMMA RAY
~PARAMETER INFORMATION
#MNEM.UNIT          VALUE    DESCRIPTION
#----------   ------------   ------------------------------
 PD  .                 GL:   PERMANENT DATUM
 EPD .F              5204:   ELEVATION PERMANENT DATUM
 LMF .                 KB:   LOG MEASURED FROM
 DAPD.F                 5:   FEET ABOVE PERMANENT DATUM
 DMF .                 KB:   DRILLING MEASURED FROM
 EKB .F              5209:   KELLING BUSHING
 EGL .F              5204:   GROUND LEVEL
 DATE.        28-JUL-1964:   RUN DATE
 RUN .                  1:   RUN NUMBER
 DD  .F              1135:   DEPTH DRILLER
 DL  .F              1135:   DEPTH LOGGER
 BLI .F              1134:   BOTTOM LOG INTERVAL
 TLI .F                86:   TOP LOG INTERVAL
 CS  .IN            10.75:   CASING SIZE
 CBD .F                11:   CASING BOTTOM DRILLER
 BS  .IN            7.875:   BIT SIZE
 BSD .F              1135:   BIT SIZE AT DEPTH
 DFT .            GEL-OIL:   DRILLING FLUID TYPE
 DFD .                9.5:   DRILLING FLUID DENSITY
 DFV .                 49:   DRILLING FLUID VISCOSITY
 DFL .                 10:   DRILLING FLUID LOSS
 MSS .           FLOWLINE:   MUD SAMPLE SOURCE
 RMS .OHMM           2.35:   RESISTIVITY MUD SAMPLE
 MST .F                89:   MUD SAMPLE TEMPERATURE
 RMF .OHMM           1.71:   RESISTIVITY MUD FILTRATE SAMPLE
 MFST.F                89:   MUD FILTRATE SAMPLE TEMPERATURE
 RMC .OHMM           3.01:   RESISTIVITY MUD CAKE
 MCST.F                89:   MUD CAKE SAMPLE TEMPERATURE
 MFSS.                 FP:   MUD FILTRATE SAMPLE SOURCE
 MCSS.                 FP:   MUD CAKE SAMPLE SOURCE
 TCS .HRS               1:   TIME CURCULATED STOPPED
 LUN .               3527:   LOGGING UNIT NUMBER
 LUL .               CSPR:   LOGGING UNIT LOCATION
 ENGI.             KNOBEL:   RECORDING ENGINEER
 WITN.          JORGENSEN:   WITNESSED BY
 CLNT.            A2DTECH:   CLIENT CODE
 ORIG.        2" 5" PRINT:   ORIGIN OF DATA
 UWI .       490250644400:   UNIQUE WELL ID
 DICO. A2D Technologies, Inc.:   DIGITIZING COMPANY
~OTHER INFORMATION
~A   DEPT        ASN      CILD        ILD       SPR         DT         GR   
# ...
  242.0000     7.1642   161.4557     6.4324   -30.4828  -999.2500  -999.2500
  242.5000     6.9726   168.6371     6.3063   -30.4798  -999.2500  -999.2500
  243.0000     6.8786   176.8526     6.1562   -30.4768  -999.2500  -999.2500
  243.5000     6.8049   180.0126     6.0616   -30.4738  -999.2500  -999.2500
  244.0000     6.7417   181.5663     6.0060   -30.4707  -999.2500  -999.2500
  244.5000     6.6383   182.1466     6.0060   -30.3178  -999.2500  -999.2500
  245.0000     6.5441   182.1536     5.9309   -30.3148  -999.2500  -999.2500
  245.5000     6.4817   182.0256     6.0060   -30.3116  -999.2500  -999.2500
  246.0000     6.4430   180.6634     6.0060   -30.3088  -999.2500  -999.2500
  246.5000     6.4431   179.5607     6.0060   -30.3058  -999.2500  -999.2500
  247.0000     6.4645   178.3283     6.0060   -30.3025  -999.2500  -999.2500
  247.5000     6.5635   176.1682     6.0385   -30.2998  -999.2500  -999.2500
  248.0000     6.6837   172.6707     6.0871   -30.1469  -999.2500  -999.2500
  248.5000     6.8396   169.2696     6.1562   -30.1434  -999.2500  -999.2500
  249.0000     6.9848   164.8959     6.2593   -30.1409  -999.2500  -999.2500
  249.5000     7.0515   162.1109     6.3078   -30.1379  -999.2500  -999.2500
  250.0000     7.1353   158.8855     6.4314   -30.1349  -999.2500  -999.2500
  250.5000     7.2095   154.4202     6.5551   -30.1319  -999.2500  -999.2500
  251.0000     7.2794   150.9287     6.6817   -30.1288  -999.2500  -999.2500
  251.5000     7.3311   149.8720     6.8023   -30.1259  -999.2500  -999.2500
  252.0000     7.3784   150.3213     6.9069   -30.1229  -999.2500  -999.2500
  252.5000     7.4397   152.6732     6.9069   -30.1197  -999.2500  -999.2500
  253.0000     7.4666   156.6722     6.9409   -29.9670  -999.2500  -999.2500
  253.5000     7.3876   160.5246     6.8173   -29.9640  -999.2500  -999.2500
  254.0000     7.2536   165.0502     6.6066   -29.8108  -999.2500  -999.2500
  254.5000     6.8202   169.4963     6.4950   -29.8081  -999.2500  -999.2500
  255.0000     6.6654   176.5814     6.3714   -29.7901  -999.2500  -999.2500
  255.5000     6.6388   180.1381     6.2312   -29.6517  -999.2500  -999.2500
  256.0000     6.5949   181.5674     6.1562   -29.4993  -999.2500  -999.2500
  256.5000     6.4829   181.5738     6.0756   -29.3463  -999.2500  -999.2500
  257.0000     6.4143   181.5813     6.0060   -29.3433  -999.2500  -999.2500
  257.5000     6.3500   180.8372     6.0060   -29.3878  -999.2500  -999.2500
  258.0000     6.3201   180.0904     6.0060   -29.6371  -999.2500  -999.2500
  258.5000     6.3095   179.3449     6.0060   -29.8746  -999.2500  -999.2500
  259.0000     6.3334   178.5994     6.0060   -30.0814  -999.2500  -999.2500
  259.5000     6.4017   178.3911     6.0060   -30.2277  -999.2500  -999.2500
  260.0000     6.5805   177.8614     6.0811   -30.3048  -999.2500  -999.2500
  260.5000     6.7159   177.8690     6.0811   -30.2219  -999.2500  -999.2500
  261.0000     6.6223   177.8765     6.0060   -30.0686  -999.2500  -999.2500
  261.5000     6.5055   178.6376     6.0060   -29.9965  -999.2500  -999.2500
  262.0000     6.5056   179.0361     5.9920   -29.7631  -999.2500  -999.2500
  262.5000     6.5019   179.5306     5.9309   -29.6097  -999.2500  -999.2500
  263.0000     6.3554   180.1665     5.8559   -29.6072  -999.2500  -999.2500
  263.5000     6.2256   182.3720     5.7808   -29.4543  -999.2500  -999.2500
  264.0000     6.2657   184.9397     5.7057   -29.4507  -999.2500  -999.2500
  264.5000     6.2954   189.9785     5.5991   -29.2984  -999.2500  -999.2500
  265.0000     6.2910   194.0512     5.4755   -29.2953  -999.2500  -999.2500
  265.5000     6.2354   200.7810     5.2553   -29.2924  -999.2500  -999.2500
  266.0000     6.1463   208.0737     5.1532   -29.2894  -999.2500  -999.2500
  266.5000     5.9777   207.3268     5.1046   -29.2862  -999.2500  -999.2500
  267.0000     5.7244   206.5814     5.0300   -29.2834  -999.2500  -999.2500
  267.5000     5.5051   206.1119     5.0300   -29.2804  -999.2500  -999.2500
  268.0000     5.4165   204.8795     5.1051   -29.2770  -999.2500  -999.2500
  268.5000     5.3637   203.5922     5.2247   -29.2744  -999.2500  -999.2500
  269.0000     5.3989   202.8464     5.3483   -29.2714  -999.2500  -999.2500
  269.5000     5.5524   201.1822     5.4054   -29.2679  -999.2500  -999.2500
  270.0000     5.7399   199.0970     5.5205   -29.2654  -999.2500  -999.2500
  270.5000     5.9243   196.4382     5.6441   -29.4124  -999.2500  -999.2500
  271.0000     6.0567   192.6054     5.7057   -29.4087  -999.2500  -999.2500
  271.5000     6.1309   185.5656     5.7808   -29.4063  -999.2500  -999.2500
  272.0000     6.1612   182.6305     5.8559   -29.4032  -999.2500  -999.2500
  272.5000     6.1312   181.8143     5.8559   -29.4003  -999.2500  -999.2500
  273.0000     6.0772   184.8355     5.8559   -29.5477  -999.2500  -999.2500
  273.5000     6.0376   186.1873     5.7763   -29.5441  -999.2500  -999.2500
  274.0000     6.0262   188.6446     5.5556   -29.5412  -999.2500  -999.2500
  274.5000     6.0570   191.6355     5.4274   -29.5382  -999.2500  -999.2500
  275.0000     6.1065   193.6496     5.2553   -29.5349  -999.2500  -999.2500
  275.5000     5.9211   196.1673     5.1051   -29.3823  -999.2500  -999.2500
  276.0000     5.8187   197.8715     5.0300   -29.3793  -999.2500  -999.2500
  276.5000     5.7530   199.9473     4.9550   -29.3759  -999.2500  -999.2500
  277.0000     5.7259   198.4492     4.9550   -29.2234  -999.2500  -999.2500
  277.5000     5.7109   196.0968     5.0300   -29.0705  -999.2500  -999.2500
  278.0000     5.6959   192.5501     5.1051   -29.0669  -999.2500  -999.2500
  278.5000     5.6960   187.1768     5.2197   -29.0645  -999.2500  -999.2500
  279.0000     5.7055   181.8924     5.4314   -29.2114  -999.2500  -999.2500
  279.5000     5.9518   177.8087     5.7057   -29.3583  -999.2500  -999.2500
  280.0000     6.6647   172.8925     5.9610   -29.5452  -999.2500  -999.2500
  280.5000     6.6888   168.8779     6.2482   -29.6522  -999.2500  -999.2500
  281.0000     6.6889   166.0592     6.4565   -29.7991  -999.2500  -999.2500
  281.5000     6.6810   165.3840     6.5010   -29.8256  -999.2500  -999.2500
  282.0000     6.6714   166.5564     6.3734   -29.9430  -999.2500  -999.2500
  282.5000     6.6290   171.5740     6.0811   -29.9400  -999.2500  -999.2500
  283.0000     6.5644   184.2334     5.8789   -29.9560  -999.2500  -999.2500
  283.5000     6.4212   189.7268     5.5556   -30.0840  -999.2500  -999.2500
  284.0000     6.1630   205.3315     5.3574   -30.0810  -999.2500  -999.2500
  284.5000     5.9189   212.6581     5.1587   -30.0780  -999.2500  -999.2500
  285.0000     5.6153   217.0433     4.9550   -30.0744  -999.2500  -999.2500
  285.5000     5.3211   218.9085     4.8363   -30.0720  -999.2500  -999.2500
  286.0000     5.3062   219.6687     4.7297   -30.0689  -999.2500  -999.2500
  286.5000     5.3664   219.3649     4.7297   -30.0660  -999.2500  -999.2500
  287.0000     5.4239   215.9193     4.7688   -30.0220  -999.2500  -999.2500
  287.5000     5.5207   211.7846     4.8298   -29.9099  -999.2500  -999.2500
  288.0000     5.6523   206.3451     5.0300   -29.9070  -999.2500  -999.2500
  288.5000     5.7599   200.1290     5.1742   -29.9040  -999.2500  -999.2500
  289.0000     5.8889   193.9607     5.3303   -29.9008  -999.2500  -999.2500
  289.5000     6.0285   183.9379     5.4805   -29.8981  -999.2500  -999.2500
  290.0000     6.2341   176.8085     5.6156   -29.8951  -999.2500  -999.2500
  290.5000     6.4864   169.8266     5.8594   -29.8916  -999.2500  -999.2500
  291.0000     6.6002   164.7137     6.0811   -29.7391  -999.2500  -999.2500
  291.5000     6.6783   161.7711     6.1817   -29.7361  -999.2500  -999.2500
  292.0000     6.7519   161.0226     6.3063   -29.7326  -999.2500  -999.2500
  292.5000     6.8109   163.2908     6.3814   -29.5802  -999.2500  -999.2500
  293.0000     6.8260   166.1898     6.4024   -29.5772  -999.2500  -999.2500
  293.5000     6.8261   170.4744     6.4565   -29.4243  -999.2500  -999.2500
