~VERSION INFORMATION
 VERS.                2.0:   CWLS LOG ASCII STANDARD - VERSION 2.0
 WRAP.                 NO:   ONE LINE PER DEPTH STEP
~WELL INFORMATION
#MNEM.UNIT      DATA TYPE    INFORMATION
#----------   ------------   ------------------------------
 STRT.F           80.0000:   START DEPTH
 STOP.F         1056.0000:   STOP DEPTH
 STEP.F            0.5000:   STEP LENGTH
 NULL.          -999.2500:   NO VALUE
 COMP. U S NAVY-INTEX OIL:   COMPANY
 WELL.      NPR 3 #68-S-2:   WELL
 FLD .        TEAPOT DOME:   FIELD
 LOC .       S2 T38N R78W:   LOCATION
 CNTY.            NATRONA:   COUNTY
 STAT.            WYOMING:   STATE
 CTRY. UNITED STATES OF AMERICA:   COUNTRY
 SRVC.       Schlumberger:   SERVICE COMPANY
 DATE.        21-JUL-1964:   LOGDATE
 API .       490250638800:   API NUMBER
~CURVE INFORMATION
#MNEM.UNIT       API CODE    CURVE DESCRIPTION
#----------   ------------   ------------------------------
 DEPT.F                  :   
 SPR .MV     05 010 01 00:   SPONTANEOUS POTENTIAL FROM RES.
 ASN .OHMM   05 041 16 00:   AMPLIFIED SHORT NORMAL 16"
 ILD .OHMM   05 120 46 00:   INDUCTION LOG DEEP
 CILD.MMHO   05 110 46 00:   CONDUCTIVITY INDUCTION LOG DEEP
 GR  .GAPI   30 310 01 00:   GAMMA RAY
 CALS.IN     60 280 50 00:   CALIPER FROM SONIC LOG
 DT  .US/F   60 520 00 00:   INTERVAL TRANSIT TIME
~PARAMETER INFORMATION
#MNEM.UNIT          VALUE    DESCRIPTION
#----------   ------------   ------------------------------
 PD  .                 GL:   PERMANENT DATUM
 EPD .F              5201:   ELEVATION PERMANENT DATUM
 LMF .                 KB:   LOG MEASURED FROM
 DAPD.F                 5:   FEET ABOVE PERMANENT DATUM
 DMF .                 KB:   DRILLING MEASURED FROM
 EKB .F              5206:   KELLING BUSHING
 EGL .F              5201:   GROUND LEVEL
 DATE.          8-12-1964:   RUN DATE
 RUN .                  1:   RUN NUMBER
 DD  .F              1055:   DEPTH DRILLER
 DL  .F              1057:   DEPTH LOGGER
 BLI .F              1055:   BOTTOM LOG INTERVAL
 TLI .F               450:   TOP LOG INTERVAL
 CS  .IN              4.5:   CASING SIZE
 BS  .IN             6.75:   BIT SIZE
 DFT .            GEL OIL:   DRILLING FLUID TYPE
 DFD .                9.3:   DRILLING FLUID DENSITY
 DFV .                 48:   DRILLING FLUID VISCOSITY
 DFPH.                 10:   DRILLING FLUID PH
 DFL .                 10:   DRILLING FLUID LOSS
 MSS .           FLOWLINE:   MUD SAMPLE SOURCE
 RMS .OHMM           1.07:   RESISTIVITY MUD SAMPLE
 MST .F                95:   MUD SAMPLE TEMPERATURE
 RMF .OHMM            .67:   RESISTIVITY MUD FILTRATE SAMPLE
 MFST.F                95:   MUD FILTRATE SAMPLE TEMPERATURE
 RMC .OHMM           1.44:   RESISTIVITY MUD CAKE
 MCST.F                95:   MUD CAKE SAMPLE TEMPERATURE
 MFSS.                 FP:   MUD FILTRATE SAMPLE SOURCE
 MCSS.                 FP:   MUD CAKE SAMPLE SOURCE
 TCS .HRS               1:   TIME CURCULATED STOPPED
 LUN .               4507:   LOGGING UNIT NUMBER
 LUL .               CSPR:   LOGGING UNIT LOCATION
 ENGI.             DANNER:   RECORDING ENGINEER
 WITN.         JORGENESEN:   WITNESSED BY
 CLNT.            A2DTECH:   CLIENT CODE
 ORIG.           2" PRINT:   ORIGIN OF DATA
 UWI .       490250638800:   UNIQUE WELL ID
 DICO. A2D Technologies, Inc.:   DIGITIZING COMPANY
~OTHER INFORMATION
~A   DEPT      SPR          ASN        ILD      CILD        GR       CALS         DT   
# ...
  853.5000   -31.5348     5.5986     3.8974   254.1220    79.2953     6.5201   109.6189
  854.0000   -31.1355     5.1817     3.9732   248.9586    85.2577     6.5350   109.1668
  854.5000   -30.9073     5.2863     4.0015   242.5294    78.4041     6.5350   108.7150
  855.0000   -30.6857     5.4520     4.1243   232.6883    77.2130     6.5350   108.0375
  855.5000   -30.9818     5.7204     4.3590   209.8214    76.9167     6.5350   106.5330
  856.0000   -31.3701     6.0275     4.7724   192.4505    75.5770     6.5350   105.1037
  856.5000   -31.8732     6.5772     5.3242   179.0042    76.1746     6.3413   104.1255
  857.0000   -32.0209     6.9020     5.7785   169.7621    76.7718     6.1624   103.8125
  857.5000   -31.8567     7.2223     6.0741   165.5755    71.4085     6.1475   104.4248
  858.0000   -31.5705     7.4147     6.1906   164.4345    70.0684     6.2519   104.5112
  858.5000   -31.3783     7.5526     6.2253   164.4345    72.7528     6.4903   103.5210
  859.0000   -31.1206     7.7477     6.2262   163.6905    69.9227     6.5797   103.2947
  859.5000   -30.9702     7.8882     6.2268   162.7877    65.3038     6.5350   102.9112
  860.0000   -30.9588     8.0480     6.3024   160.5656    75.8869     6.3860   101.9950
  860.5000   -30.8182     8.1241     6.4925   158.4821    78.1239     6.3562   100.7879
  861.0000   -30.9660     8.1384     6.6032   157.4505    91.5382     6.1923   100.1234
  861.5000   -30.9641     8.1386     6.5292   156.9940    92.5825     5.9240   100.3367
  862.0000   -31.0293     8.1190     6.4551   157.7381    90.1995     5.7899    99.9066
  862.5000   -31.1165     8.0941     6.3810   159.4738    87.6678     5.4620    99.0790
  863.0000   -31.3527     8.0489     6.2685   161.4583    83.6455     5.1341    99.9051
  863.5000   -31.5546     7.9980     6.2327   162.4653    77.8347     5.1192    99.5285
  864.0000   -31.7018     7.8849     6.2337   163.6905    81.1149     5.1192    94.7159
  864.5000   -31.9124     7.8115     6.2343   163.6905    87.3753     5.1341   101.0307
  865.0000   -32.1461     7.7354     6.2351   163.5912    83.9495     5.1341   101.3309
  865.5000   -32.2357     7.7206     6.2357   162.2024    83.0564     5.1490   100.8788
  866.0000   -32.4413     7.7536     6.3183   161.4583    85.7408     5.1490   100.3520
  866.5000   -32.4395     7.8111     6.3871   161.4583    84.5501     5.1192   101.1029
  867.0000   -32.3199     7.8455     6.3663   162.5894    80.8258     5.0745   101.1022
  867.5000   -31.9896     7.8715     6.2388   167.9314    76.8034     5.0745   101.1014
  868.0000   -31.6026     7.7685     6.0180   180.0595    74.8671     5.1043   100.5744
  868.5000   -31.5125     7.5951     5.6185   193.8905    83.9599     5.1341    92.0774
  869.0000   -31.3888     7.4012     5.1412   213.5417    85.1532     5.1341    97.1144
  869.5000   -31.5365     7.0556     4.5142   226.6581    72.7855     5.1037    99.5947
  870.0000   -31.6840     6.4033     4.1468   242.1620    69.8064     4.9970   106.1353
  870.5000   -31.9153     5.7465     3.9631   248.4970    68.6156     4.8645   111.0261
  871.0000   -31.9793     5.4442     3.9236   249.4445    69.0642     4.9160   108.7654
  871.5000   -31.3813     5.4496     3.9244   251.4881    72.6424     5.1919   109.5917
  872.0000   -31.0303     5.3732     4.0190   252.9762    74.1342     5.4471   110.9443
  872.5000   -30.6333     5.0251     4.1505   251.2666    71.4531     5.4918   111.2444
  873.0000   -30.7119     5.2434     4.3678   240.1280    68.1759     5.5663   110.0163
  873.5000   -30.9481     6.2340     4.4545   229.5100    73.2445     5.6408   104.0205
  874.0000   -31.2248     6.5311     4.5269   222.4702    85.6156     5.9091   104.1062
  874.5000   -31.5216     6.6823     4.5277   222.4702    90.0880     6.3562   104.3339
  875.0000   -31.6691     6.5405     4.4537   223.2143    92.8963     6.5201   104.7368
  875.5000   -31.6676     6.2448     4.4543   223.2143    90.3890     6.5350   107.2547
  876.0000   -31.8153     5.7463     4.4531   222.4702    89.4963     6.5499   108.9835
  876.5000   -31.8134     5.7933     4.3810   220.9821    89.7959     6.5499   108.6066
  877.0000   -31.8122     5.8817     4.4566   219.6827    90.5425     6.5797   108.3051
  877.5000   -31.8106     5.8970     4.4574   215.7738    91.1401     6.6393   107.7781
  878.0000   -31.7367     6.0077     4.5948   211.4587    90.9926     6.6542   106.4991
  878.5000   -31.6466     6.5305     5.0643   176.2850    88.4605     6.5797   102.4382
  879.0000   -31.5082     6.9812     5.9591   168.1548    90.2504     6.5499   101.0843
  879.5000   -31.4662     7.2055     6.1818   166.4137    94.4248     6.5499   101.0082
  880.0000   -31.2070     7.3074     5.9582   165.9226    88.1669     6.5648   100.7067
  880.5000   -31.2057     7.3375     5.5406   169.4091    85.9330     6.6095   100.4052
  881.0000   -31.0467     7.3378     5.2111   183.1573    85.1893     6.6393    99.9533
  881.5000   -30.9046     7.3142     4.8548   205.3571    87.4262     6.6393    99.3511
  882.0000   -30.8664     7.2698     4.5249   219.0291    89.2161     6.6095    99.1248
  882.5000   -30.6034     7.1286     4.3152   229.1667    92.0492     6.6095    99.2744
  883.0000   -30.6021     6.5891     4.2126   232.8770    93.6900     6.6393   101.8300
  883.5000   -30.6006     5.8846     4.1669   235.1190    96.5251     6.6393   106.3406
  884.0000   -30.6925     5.7585     4.1677   235.1190    88.8974     6.6244   107.3924
  884.5000   -30.8959     5.7801     4.1684   233.9681    84.3985     6.6244   108.3794
  885.0000   -31.0430     5.7204     4.1693   232.1429    76.6611     6.6244   108.3684
  885.5000   -31.4012     5.6224     4.2720   225.7440    72.6583     6.6095   108.1421
  886.0000   -31.6374     6.1107     4.4701   213.4900    72.5365     6.6095   103.4797
  886.5000   -31.9632     6.7477     4.6706   194.5940    76.8882     6.6095   100.5429
  887.0000   -32.2588     7.4291     5.1621   181.6371    78.0536     6.6244    99.3360
  887.5000   -32.3771     7.8505     6.2688   167.4107    77.6080     6.6244    99.0289
  888.0000   -32.5246     8.1581     6.6726   159.2356    78.8018     6.6244    98.4963
  888.5000   -32.5231     8.4506     7.0187   151.7261    76.0900     6.6244    98.0506
  889.0000   -32.3726     8.6355     7.1692   147.8965    76.1897     6.6244    98.1369
  889.5000   -32.1965     8.7591     7.1699   146.4237    77.3159     6.6244    97.6848
  890.0000   -32.0713     8.8561     7.0959   145.0893    73.6216     6.6095    97.0826
  890.5000   -31.8671     8.8713     7.0966   144.0526    71.2086     6.6095    96.7059
  891.0000   -31.7705     8.8865     7.1722   142.8571    71.9782     6.6095    96.3292
  891.5000   -31.6200     8.9096     7.2121   142.8571    66.4758     6.6095    96.2533
  892.0000   -31.5966     8.9337     7.2485   142.1131    63.1654     6.5946    96.3279
  892.5000   -31.4677     8.9772     7.2494   142.1131    73.2066     6.5946    96.1766
  893.0000   -31.4665     9.0017     7.2266   142.3810    72.7063     6.5946    95.8751
  893.5000   -31.4649     9.0526     7.1759   144.3452    83.1404     6.5797    95.2728
  894.0000   -31.5420     9.0528     7.0639   146.6468    84.1847     6.5797    96.3999
  894.5000   -31.6111     9.0318     6.9528   148.8095    82.3978     6.5797    97.0007
  895.0000   -31.6093     8.8584     7.0286   146.5774    81.5055     6.5797    97.3761
  895.5000   -31.7574     8.7552     7.2233   143.8592    72.5651     6.5648    97.4505
  896.0000   -31.9045     8.7239     7.4791   140.6250    65.4131     6.5648    96.8481
  896.5000   -31.9779     8.8128     7.5165   137.9911    61.9869     6.5648    96.3210
  897.0000   -32.0651     9.0724     7.6302   136.0813    58.2626     6.5648    95.7939
  897.5000   -32.3470     9.3392     7.5563   136.9048    56.4753     6.5648    94.8158
  898.0000   -32.4951     9.3886     7.2695   143.7691    66.7603     6.5648    92.7849
  898.5000   -32.6422     9.4146     6.5846   157.7381    64.2283     6.5648    92.1075
