~VERSION INFORMATION
 VERS.                2.0:   CWLS LOG ASCII STANDARD - VERSION 2.0
 WRAP.                 NO:   ONE LINE PER DEPTH STEP
~WELL INFORMATION
#MNEM.UNIT      DATA TYPE    INFORMATION
#----------   ------------   ------------------------------
 STRT.F           14.0000:   START DEPTH
 STOP.F          630.0000:   STOP DEPTH
 STEP.F            0.5000:   STEP LENGTH
 NULL.          -999.2500:   NO VALUE
 COMP. LAWRENCE/ALLISON INC:   COMPANY
 WELL.    78-53 SX #10-10:   WELL
 FLD .             TEAPOT:   FIELD
 LOC .      S10 T38N R78W:   LOCATION
 CNTY.            NATRONA:   COUNTY
 STAT.            WYOMING:   STATE
 CTRY. UNITED STATES OF AMERICA:   COUNTRY
 SRVC.           Gearhart:   SERVICE COMPANY
 DATE.        08-JUL-1986:   LOGDATE
 API .       490251108200:   API NUMBER
~CURVE INFORMATION
#MNEM.UNIT       API CODE    CURVE DESCRIPTION
#----------   ------------   ------------------------------
 DEPT.F                  :   
 GRR .GAPI   07 310 01 00:   GAMMA RAY FROM RES. LOG.
 RILD.OHMM   07 120 46 00:   INDUCTION LOG DEEP RESISTIVITY
 RILM.OHMM   07 120 44 00:   INDUCTION LOG MEDIUM
~PARAMETER INFORMATION
#MNEM.UNIT          VALUE    DESCRIPTION
#----------   ------------   ------------------------------
 PD  .                 GL:   PERMANENT DATUM
 EPD .F              5152:   ELEVATION PERMANENT DATUM
 LMF .                 KB:   LOG MEASURED FROM
 DAPD.F                 5:   FEET ABOVE PERMANENT DATUM
 DMF .                 KB:   DRILLING MEASURED FROM
 EKB .F              5157:   KELLING BUSHING
 EGL .F              5152:   GROUND LEVEL
 DATE.             7-8-86:   RUN DATE
 RUN .                  1:   RUN NUMBER
 DD  .F               630:   DEPTH DRILLER
 DL  .F               634:   DEPTH LOGGER
 BLI .F               625:   BOTTOM LOG INTERVAL
 TLI .F                47:   TOP LOG INTERVAL
 CS  .IN            8.625:   CASING SIZE
 CBD .F                47:   CASING BOTTOM DRILLER
 CBL .F                47:   CASING BOTTOM LOGGER
 BS  .IN            7.875:   BIT SIZE
 BSD .F               630:   BIT SIZE AT DEPTH
 DFT .               FOAM:   DRILLING FLUID TYPE
 TCS .HRS            1530:   TIME CURCULATED STOPPED
 TLAB.HRS            1644:   TIME LOGGER AT BOTTOM
 MRT .F                65:   MAXIMUM RECORDED TEMPERATURE
 LUN .               7609:   LOGGING UNIT NUMBER
 LUL .           GILLETTE:   LOGGING UNIT LOCATION
 ENGI.         WEATHERMON:   RECORDING ENGINEER
 WITN.             STRONG:   WITNESSED BY
 CLNT.            A2DTECH:   CLIENT CODE
 ORIG.       2", 5" PRINT:   ORIGIN OF DATA
 UWI .       490251108200:   UNIQUE WELL ID
 DICO. A2D Technologies, Inc.:   DIGITIZING COMPANY
~OTHER INFORMATION
~A   DEPT       GRR      RILD       RILM   
# ...
  560.0000   105.8537     2.9958     3.0186
  560.5000   101.3172     2.8719     2.9040
  561.0000    96.8786     2.8184     2.8184
  561.5000    93.3989     2.9359     2.8451
  562.0000    92.0300     3.0385     2.9540
  562.5000    91.8949     3.4550     3.2670
  563.0000    93.7908     3.9346     3.6171
  563.5000    95.6990     4.4669     4.0063
  564.0000    97.5893     5.0999     4.4308
  564.5000    99.4906     5.8048     5.2336
  565.0000   100.6944     6.6071     6.2456
  565.5000   100.4015     7.3117     7.0166
  566.0000    98.3225     7.8354     7.6436
  566.5000    96.0506     8.2284     8.0362
  567.0000    95.0425     8.3598     8.2385
  567.5000    96.4597     8.4817     8.3336
  568.0000   100.1307     8.6054     8.4298
  568.5000   104.0261     8.7302     8.5271
  569.0000   107.8146     8.7874     8.6256
  569.5000   106.2756     8.8294     8.7281
  570.0000   103.8000     8.8654     8.8782
  570.5000   103.7214     8.9017     8.8730
  571.0000   106.1059     8.9380     8.9010
  571.5000   107.9316     8.9746     8.9160
  572.0000   108.4830     9.0111     8.9312
  572.5000   107.6396     9.0404     8.9463
  573.0000   107.6173     9.0359     8.9551
  573.5000   108.6286     9.1284     8.9086
  574.0000   110.1825     9.0105     8.8718
  574.5000   111.5067     8.9420     8.8352
  575.0000   111.6100     8.8743     8.7879
  575.5000   111.7427     8.8070     8.8316
  576.0000   111.8630     8.7879     8.8939
  576.5000   111.3466     8.8413     8.9569
  577.0000   108.3806     8.8822     9.0203
  577.5000   105.4114     8.9234     9.0840
  578.0000   103.2376     8.9646     9.1246
  578.5000   104.0884     9.0034     9.0262
  579.0000   106.2487     9.0350     8.9550
  579.5000   108.6833     8.9547     8.8843
  580.0000   108.8611     8.9547     8.8141
  580.5000   109.4990     8.9547     8.7402
  581.0000   110.9682     8.6843     8.5348
  581.5000   112.2646     8.4300     8.3343
  582.0000   110.6900     8.1831     8.1379
  582.5000   109.3682     7.9973     7.9485
  583.0000   111.0503     7.8237     7.7731
  583.5000   114.1294     7.6539     7.6064
  584.0000   117.1927     7.4877     7.4424
  584.5000   117.4622     7.3251     7.2819
  585.0000   114.3099     7.2821     7.1465
  585.5000   111.4451     7.3166     7.3385
  586.0000   109.4209     7.2826     7.5725
  586.5000   109.6471     7.5268     7.8139
  587.0000   109.8209     7.8578     8.0631
  587.5000   110.0039     8.2041     8.3202
  588.0000   110.1983     8.5657     8.5855
  588.5000   109.8796     8.9432     8.8592
  589.0000   109.3745     9.3329     9.1418
  589.5000   107.6282     9.7532     9.4331
  590.0000   105.8108     9.7393     9.7339
  590.5000   104.1718     9.9496     9.8610
  591.0000   105.2601     9.9917     9.8972
  591.5000   106.1510    10.0340     9.9300
  592.0000   106.1368    10.0766     9.9300
  592.5000   106.1348    10.1192     9.9350
  593.0000   106.1288    10.1621     9.9781
  593.5000   106.1269    10.2052    10.0214
  594.0000   106.5011    10.2487    10.0648
  594.5000   109.3643    10.3104    10.1192
  595.0000   112.2650    10.2714    10.1181
  595.5000   113.1817    10.2038    10.0458
  596.0000   112.6883    10.1366     9.9717
  596.5000   112.1686    10.0699     9.8983
  597.0000   111.6521    10.0036     9.8255
  597.5000   110.8001     9.9378     9.7532
  598.0000   109.7688     9.8718     9.6815
  598.5000   108.9826     9.8092     9.6103
  599.0000   109.2984     9.6973     9.5396
  599.5000   110.6611     9.5884     9.4695
  600.0000   111.4212     9.4804     9.3999
  600.5000   110.2767     9.3855     9.2977
  601.0000   108.9000     9.4244     9.3084
  601.5000   108.9685     9.4596     9.3288
  602.0000   109.3185     9.4948     9.3493
  602.5000   108.5873     9.5302     9.3699
  603.0000   107.8585     9.5657     9.3905
  603.5000   107.1354     9.6014     9.4112
  604.0000   106.5347     9.6372     9.4319
  604.5000   107.0235     9.6731     9.4527
  605.0000   108.3146     9.7091     9.4735
  605.5000   109.6356     9.7453     9.4943
  606.0000   108.3971     9.7817     9.5152
  606.5000   106.6580     9.8184     9.5362
  607.0000   105.2411     9.8370     9.5571
  607.5000   105.0449     9.7940     9.5635
  608.0000   104.8294     9.7648     9.5341
  608.5000   104.6010     9.7357     9.5114
  609.0000   104.4177     9.7068     9.4889
  609.5000   107.2945     9.6781     9.4663
  610.0000   110.4290     9.6545     9.4438
  610.5000   112.7194     9.6952     9.4213
  611.0000  -999.2500     9.7308     9.3989
  611.5000  -999.2500     9.7641     9.3855
  612.0000  -999.2500     9.7960     9.5802
  612.5000  -999.2500     9.8280     9.7216
  613.0000  -999.2500     9.8601     9.7663
  613.5000  -999.2500     9.8923     9.7919
  614.0000  -999.2500     9.9247     9.8174
  614.5000  -999.2500     9.9571     9.8431
  615.0000  -999.2500     9.9896     9.8688
  615.5000  -999.2500    10.0222     9.8946
  616.0000  -999.2500    10.0550     9.9204
  616.5000  -999.2500    10.0878     9.9464
  617.0000  -999.2500    10.1208     9.9723
  617.5000  -999.2500    10.1538     9.9984
  618.0000  -999.2500    10.1867    10.0245
  618.5000  -999.2500    10.2143    10.0507
  619.0000  -999.2500    10.2675    10.0770
  619.5000  -999.2500    10.3222    10.1033
  620.0000  -999.2500    10.3770    10.1184
  620.5000  -999.2500    10.4321     9.9771
  621.0000  -999.2500    10.4873     9.8793
  621.5000  -999.2500  -999.2500     9.7824
  622.0000  -999.2500  -999.2500     9.6865
  622.5000  -999.2500  -999.2500     9.5915
  623.0000  -999.2500  -999.2500     9.5636
  623.5000  -999.2500  -999.2500     9.5636
  624.0000  -999.2500  -999.2500     9.5989
  624.5000  -999.2500  -999.2500     9.7050
  625.0000  -999.2500  -999.2500     9.8122
  625.5000  -999.2500  -999.2500     9.8371
  626.0000  -999.2500  -999.2500     9.8371
  626.5000  -999.2500  -999.2500     9.8371
  627.0000  -999.2500  -999.2500     9.8371
  627.5000  -999.2500  -999.2500     9.8371
  628.0000  -999.2500  -999.2500     9.8371
  628.5000  -999.2500  -999.2500     9.8371
  629.0000  -999.2500  -999.2500     9.8371
  629.5000  -999.2500  -999.2500     9.8371
  630.0000  -999.2500  -999.2500     9.8371
