~VERSION INFORMATION
 VERS.                2.0:   CWLS LOG ASCII STANDARD - VERSION 2.0
 WRAP.                 NO:   ONE LINE PER DEPTH STEP
~WELL INFORMATION
#MNEM.UNIT      DATA TYPE    INFORMATION
#----------   ------------   ------------------------------
 STRT.F           31.0000:   START DEPTH
 STOP.F          590.0000:   STOP DEPTH
 STEP.F            0.1000:   STEP LENGTH
 NULL.          -999.2500:   NO VALUE
 COMP. LAWRENCE/ALLISON INC:   COMPANY
 WELL. NPR 3 73-61 SX #3-3:   WELL
 FLD .             TEAPOT:   FIELD
 LOC .       S3 T38N R78W:   LOCATION
 CNTY.            NATRONA:   COUNTY
 STAT.            WYOMING:   STATE
 CTRY. UNITED STATES OF AMERICA:   COUNTRY
 SRVC.           Gearhart:   SERVICE COMPANY
 DATE.        14-AUG-1988:   LOGDATE
 API .       490251124200:   API NUMBER
~CURVE INFORMATION
#MNEM.UNIT       API CODE    CURVE DESCRIPTION
#----------   ------------   ------------------------------
 DEPT.F                  :   
 GRR .GAPI   07 310 01 00:   GAMMA RAY
 RILD.OHMM   07 120 46 00:   INDUCTION LOG DEEP RESISTIVITY
 RILM.OHMM   07 120 44 00:   INDUCTION LOG MEDIUM RESISTIVITY
~PARAMETER INFORMATION
#MNEM.UNIT          VALUE    DESCRIPTION
#----------   ------------   ------------------------------
 PD  .                 GL:   PERMANENT DATUM
 EPD .F              5136:   ELEVATION PERMANENT DATUM
 LMF .                 KB:   LOG MEASURED FROM
 DAPD.F                10:   FEET ABOVE PERMANENT DATUM
 DMF .                 KB:   DRILLING MEASURED FROM
 EKB .F              5146:   KELLING BUSHING
 EDF .F              5144:   DRILLING FLOOR
 EGL .F              5136:   GROUND LEVEL
 DATE.        14-AUG-1988:   RUN DATE
 RUN .                  1:   RUN NUMBER
 DD  .F               597:   DEPTH DRILLER
 DL  .F               598:   DEPTH LOGGER
 BLI .F               590:   BOTTOM LOG INTERVAL
 TLI .F                50:   TOP LOG INTERVAL
 CS  .IN            9.625:   CASING SIZE
 CBD .F                50:   CASING BOTTOM DRILLER
 CBL .F                50:   CASING BOTTOM LOGGER
 BS  .IN             8.75:   BIT SIZE
 BSD .F               597:   BIT SIZE AT DEPTH
 DFT .                AIR:   DRILLING FLUID TYPE
 TCS .HRS            1930:   TIME CURCULATED STOPPED
 TLAB.HRS            2030:   TIME LOGGER AT BOTTOM
 MRT .F                70:   MAXIMUM RECORDED TEMPERATURE
 LUN .               7597:   LOGGING UNIT NUMBER
 LUL .           GILLETTE:   LOGGING UNIT LOCATION
 ENGI.         WEATHERMON:   RECORDING ENGINEER
 WITN.             STRONG:   WITNESSED BY
 CLNT.            A2DTECH:   CLIENT CODE
 ORIG.           5" PRINT:   ORIGIN OF DATA
 UWI .       490251124200:   UNIQUE WELL ID
 DICO. A2D Technologies, Inc.:   DIGITIZING COMPANY
~OTHER INFORMATION
~A   DEPT       GRR      RILD       RILM   
# ...
  194.8000   121.0918     7.9361     7.6601
  194.9000   120.9632     7.8915     7.6594
  195.0000   120.8964     7.8797     7.6588
  195.1000   120.6680     7.8790     7.6582
  195.2000   120.6723     7.8782     7.6770
  195.3000   120.6756     7.8775     7.7102
  195.4000   120.5055     7.8767     7.7112
  195.5000   120.2567     7.8759     7.7625
  195.6000   120.0822     7.8751     7.7619
  195.7000   120.0613     7.8744     7.7898
  195.8000   119.7877     7.8736     7.8146
  195.9000   119.5640     7.8805     7.8140
  196.0000   119.3152     7.9269     7.8148
  196.1000   118.9390     7.9261     7.8670
  196.2000   118.5156     7.9607     7.8664
  196.3000   118.2669     8.0062     7.8945
  196.4000   117.9967     8.0345     7.9198
  196.5000   117.4929     8.0417     7.9296
  196.6000   117.1179     8.0888     7.9737
  196.7000   117.0903     8.1337     7.9729
  196.8000   116.8220     8.2169     8.0105
  196.9000   116.8248     8.2840     8.0271
  197.0000   116.6446     8.3312     8.0264
  197.1000   116.3952     8.3788     8.0361
  197.2000   116.1458     8.4276     8.0810
  197.3000   115.8964     8.4747     8.0802
  197.4000   115.6316     8.5230     8.1181
  197.5000   115.1609     8.5716     8.1352
  197.6000   114.8462     8.6204     8.1345
  197.7000   114.4598     8.6696     8.1442
  197.8000   114.3076     8.7199     8.1898
  197.9000   114.8154     8.7191     8.1889
  198.0000   115.3476     8.7578     8.1884
  198.1000   115.8310     8.7780     8.2169
  198.2000   116.5294     8.7772     8.2440
  198.3000   117.0079     8.7763     8.2433
  198.4000   117.2633     8.7755     8.2426
  198.5000   117.5187     8.7746     8.2418
  198.6000   117.7826     8.7737     8.2413
  198.7000   117.7855     8.7729     8.2406
  198.8000   117.7885     8.7721     8.2595
  198.9000   117.7915     8.7712     8.2966
  199.0000   117.6999     8.7704     8.2959
  199.1000   117.4505     8.7695     8.2950
  199.2000   117.1964     8.7686     8.2945
  199.3000   116.9518     8.7678     8.2938
  199.4000   116.7024     8.7670     8.2931
  199.5000   116.4531     8.7661     8.2924
  199.6000   116.3021     8.7653     8.2917
  199.7000   116.3052     8.8151     8.2909
  199.8000   116.3082     8.8245     8.3289
  199.9000   116.0601     8.8237     8.3474
  200.0000   116.0121     8.8669     8.3274
  200.1000   116.1668     8.9761     8.2980
  200.2000   116.3202     9.0853     8.3455
  200.3000   116.3755     9.1945     8.4025
  200.4000   116.6310     9.2807     8.4414
  200.5000   116.9341     9.3223     8.4597
  200.6000   117.1415     9.3216     8.4590
  200.7000   117.2417     9.3855     8.4583
  200.8000   117.2447     9.4295     8.4576
  200.9000   117.3035     9.4494     8.5156
  201.0000   117.5589     9.4486     8.5151
  201.1000   117.8585     9.4478     8.4836
  201.2000   117.8610     9.4470     8.4548
  201.3000   118.0229     9.4461     8.4540
  201.4000   118.1692     9.4455     8.4550
  201.5000   118.2315     9.4447     8.5114
  201.6000   118.4869     9.4200     8.5108
  201.7000   118.7830     9.3778     8.5101
  201.8000   118.7855     9.3747     8.5313
  201.9000   118.9511     9.3113     8.5679
  202.0000   119.2065     9.3107     8.5696
  202.1000   119.4619     9.3099     8.6260
  202.2000   119.7040     9.2848     8.6680
  202.3000   119.7074     9.2440     8.6847
  202.4000   119.7100     9.2433     8.7070
  202.5000   119.7130     9.2424     8.7436
  202.6000   119.7160     9.1958     8.7461
  202.7000   119.7190     9.1771     8.8029
  202.8000   119.7220     9.1763     8.8023
  202.9000   119.7255     9.1613     8.8016
  203.0000   119.7281     9.1113     8.8008
  203.1000   119.5613     9.1105     8.8141
  203.2000   119.3120     9.1098     8.8607
  203.3000   119.0628     9.1091     8.8598
  203.4000   118.8336     9.1083     8.8591
  203.5000   118.8372     9.1076     8.8584
  203.6000   118.6168     9.1068     8.8576
  203.7000   118.5408     9.1060     8.8569
  203.8000   118.5438     9.1053     8.8562
  203.9000   118.5468     9.1046     8.8554
  204.0000   118.5499     9.1038     8.8547
  204.1000   118.5532     9.1031     8.8540
  204.2000   118.7828     9.1077     8.8532
  204.3000   118.8610     9.1648     8.8525
  204.4000   118.9913     9.1641     8.8517
  204.5000   119.2467     9.1634     8.8510
  204.6000   119.4743     9.1626     8.8503
  204.7000   119.4776     9.1785     8.8132
  204.8000   119.4803     9.2249     8.7877
  204.9000   119.6641     9.2240     8.7870
  205.0000   119.7885     9.2233     8.7801
  205.1000   119.7103     9.2225     8.7247
  205.2000   119.4921     9.2217     8.7240
  205.3000   119.4957     9.2210     8.7233
  205.4000   119.4985     9.2202     8.6960
  205.5000   119.3173     9.2194     8.6616
  205.6000   119.2024     9.2187     8.6541
  205.7000   119.1206     9.2179     8.6002
  205.8000   118.9059     9.2172     8.5996
  205.9000   118.9095     9.2163     8.5621
  206.0000   118.9124     9.2156     8.5119
  206.1000   118.9154     9.2148     8.4790
  206.2000   118.9184     9.1637     8.4710
  206.3000   118.9215     9.1496     8.4189
  206.4000   118.9245     9.1489     8.4183
  206.5000   118.9276     9.1481     8.4176
  206.6000   119.1718     9.1474     8.3898
  206.7000   119.4272     9.1466     8.3580
  206.8000   119.6826     9.1458     8.3573
  206.9000   119.9381     9.1450     8.3566
  207.0000   120.1935     9.1443     8.3093
  207.1000   120.4563     9.1435     8.2975
  207.2000   120.9488     9.1428     8.2968
  207.3000   121.4566     9.1420     8.2781
  207.4000   121.9645     9.1413     8.2381
  207.5000   122.4723     9.1405     8.2374
  207.6000   122.9801     9.1398     8.2367
  207.7000   123.4955     9.1390     8.1988
  207.8000   123.9957     9.1382     8.1784
  207.9000   124.5035     9.1374     8.1777
  208.0000   124.4149     9.1367     8.1771
  208.1000   123.9134     9.1359     8.1764
  208.2000   123.4117     9.1352     8.1757
  208.3000   122.9094     9.1344     8.1750
  208.4000   122.0066     9.1443     8.1743
  208.5000   121.4018     9.1965     8.1736
  208.6000   120.4950     9.1955     8.1730
  208.7000   119.3854     9.2380     8.1723
  208.8000   118.0732     9.2910     8.1715
  208.9000   116.5584     9.3218     8.1710
  209.0000   114.4719     9.3327     8.1994
  209.1000   113.4446     9.3851     8.2264
  209.2000   112.1856     9.3842     8.2258
  209.3000   111.2462     9.4284     8.2251
  209.4000   110.9148     9.4481     8.2815
  209.5000   111.1703     9.4707     8.2809
  209.6000   111.4688     9.5249     8.2802
  209.7000   112.1005     9.5795     8.3003
  209.8000   112.7005     9.6434     8.3364
  209.9000   113.3184     9.6427     8.3376
  210.0000   113.9578     9.6777     8.3930
  210.1000   114.2130     9.7331     8.3924
  210.2000   114.5080     9.7888     8.4230
  210.3000   114.7239     9.8422     8.4494
  210.4000   114.8158     9.8412     8.4609
  210.5000   114.7049     9.8891     8.5093
  210.6000   114.5197     9.9082     8.5652
  210.7000   114.5083     9.9336     8.6071
  210.8000   114.2240     9.9905     8.6564
  210.9000   114.0097    10.0441     8.7060
  211.0000   113.7604    10.0431     8.7558
  211.1000   113.5110    10.0424     8.8059
  211.2000   113.2617    10.0805     8.8630
  211.3000   113.0300    10.1106     8.9071
  211.4000   113.0336    10.1098     8.9233
  211.5000   112.8157    10.1089     8.9472
  211.6000   112.7371    10.1080     8.9984
  211.7000   112.7401    10.1073     9.0499
  211.8000   112.7432    10.1465     9.1078
  211.9000   112.7892    10.2045     9.1538
  212.0000   113.3538    10.2459     9.2062
  212.1000   114.0289    10.2504     9.2590
  212.2000   114.7891    10.3153     9.3279
  212.3000   115.5493    10.3681     9.4305
  212.4000   116.2345    10.4275     9.4900
  212.5000   116.7423    10.4569     9.5887
  212.6000   117.2994    10.4744     9.6603
  212.7000   117.5300    10.5343     9.7441
  212.8000   117.7853    10.6002     9.8392
  212.9000   117.9124    10.6554     9.9018
