~VERSION INFORMATION
 VERS.                2.0:   CWLS LOG ASCII STANDARD - VERSION 2.0
 WRAP.                 NO:   ONE LINE PER DEPTH STEP
~WELL INFORMATION
#MNEM.UNIT      DATA TYPE    INFORMATION
#----------   ------------   ------------------------------
 STRT.F           26.0000:   START DEPTH
 STOP.F          520.0000:   STOP DEPTH
 STEP.F            0.5000:   STEP LENGTH
 NULL.          -999.2500:   NO VALUE
 COMP. LAWRENCE/ALLISON INC:   COMPANY
 WELL.   52-15 STX #52-10:   WELL
 FLD .             TEAPOT:   FIELD
 LOC .      S10 T38N R78W:   LOCATION
 CNTY.            NATRONA:   COUNTY
 STAT.            WYOMING:   STATE
 CTRY. UNITED STATES OF AMERICA:   COUNTRY
 SRVC.           Gearhart:   SERVICE COMPANY
 DATE.        23-JUL-1987:   LOGDATE
 API .       490251114600:   API NUMBER
~CURVE INFORMATION
#MNEM.UNIT       API CODE    CURVE DESCRIPTION
#----------   ------------   ------------------------------
 DEPT.F                  :   
 RLL .OHMM   07 220 00 00:   LATEROLOG RESISTIVITY
 RILD.OHMM   07 120 46 00:   INDUCTION LOG DEEP RESISTIVITY
 RILM.OHMM   07 120 44 00:   INDUCTION LOG MEDIUM RESISTIVITY
 GRR .GAPI   07 310 01 00:   GAMMA RAY FROM RES. LOG.
~PARAMETER INFORMATION
#MNEM.UNIT          VALUE    DESCRIPTION
#----------   ------------   ------------------------------
 PD  .                 GL:   PERMANENT DATUM
 EPD .F              5195:   ELEVATION PERMANENT DATUM
 LMF .                 KB:   LOG MEASURED FROM
 DAPD.F                 8:   FEET ABOVE PERMANENT DATUM
 DMF .                 KB:   DRILLING MEASURED FROM
 EKB .F              5203:   KELLING BUSHING
 EDF .F              5201:   DRILLING FLOOR
 EGL .F              5195:   GROUND LEVEL
 DATE.          7-23-1987:   RUN DATE
 RUN .                  1:   RUN NUMBER
 DD  .F               519:   DEPTH DRILLER
 DL  .F               520:   DEPTH LOGGER
 BLI .F               519:   BOTTOM LOG INTERVAL
 TLI .F                30:   TOP LOG INTERVAL
 CS  .IN            8.625:   CASING SIZE
 CBD .F                48:   CASING BOTTOM DRILLER
 CBL .F                48:   CASING BOTTOM LOGGER
 BS  .IN            7.875:   BIT SIZE
 BSD .F               519:   BIT SIZE AT DEPTH
 DFT .                MUD:   DRILLING FLUID TYPE
 DFD .                8.9:   DRILLING FLUID DENSITY
 DFV .                 40:   DRILLING FLUID VISCOSITY
 MSS .            MUD PIT:   MUD SAMPLE SOURCE
 RMS .OHMM            .37:   RESISTIVITY MUD SAMPLE
 MST .F                70:   MUD SAMPLE TEMPERATURE
 RMF .OHMM            .29:   RESISTIVITY MUD FILTRATE SAMPLE
 MFST.F                70:   MUD FILTRATE SAMPLE TEMPERATURE
 RMC .OHMM             .5:   RESISTIVITY MUD CAKE
 MCST.F                70:   MUD CAKE SAMPLE TEMPERATURE
 MFSS.              CHART:   MUD FILTRATE SAMPLE SOURCE
 MCSS.              CHART:   MUD CAKE SAMPLE SOURCE
 RMB .OHMM            .35:   RESISTIVITY MUD AT BHT
 BHT .F                80:   BOTTOM HOLE TEMPERATURE
 TCS .HRS            1100:   TIME CURCULATED STOPPED
 TLAB.HRS            1534:   TIME LOGGER AT BOTTOM
 MRT .F                80:   MAXIMUM RECORDED TEMPERATURE
 LUN .               7597:   LOGGING UNIT NUMBER
 LUL .           GILLETTE:   LOGGING UNIT LOCATION
 ENGI.         WEATHERMON:   RECORDING ENGINEER
 WITN.         MR. STRONG:   WITNESSED BY
 CLNT.            A2DTECH:   CLIENT CODE
 ORIG.       2", 5" PRINT:   ORIGIN OF DATA
 UWI .       490251114600:   UNIQUE WELL ID
 DICO. A2D Technologies, Inc.:   DIGITIZING COMPANY
~OTHER INFORMATION
~A   DEPT      RLL       RILD       RILM         GRR  
# ...
  391.0000    17.3870    15.7087    15.9408    75.7580
  391.5000    16.2363    15.4630    15.0763    77.7043
  392.0000    15.9717    15.2213    14.8882    79.6444
  392.5000    15.7717    14.9834    14.8244    81.7888
  393.0000    15.5742    14.9237    14.7608    81.4895
  393.5000    15.3582    14.9069    14.6975    79.8634
  394.0000    15.3004    14.8902    14.6632    78.2155
  394.5000    15.2448    14.8734    14.6630    78.8991
  395.0000    15.2078    14.8567    14.6629    81.7764
  395.5000    15.1182    14.8399    14.6629    84.7326
  396.0000    15.0292    14.8232    14.6631    85.2724
  396.5000    14.9407    14.8061    14.6629    85.6926
  397.0000    14.8527    14.7317    14.5821    86.8948
  397.5000    14.6629    14.6126    14.4410    87.8500
  398.0000    14.5664    14.4947    14.3013    88.2189
  398.5000    14.4472    14.3778    14.1629    88.5642
  399.0000    14.3289    14.2618    14.0259    88.7621
  399.5000    14.2114    14.1468    13.8901    88.4560
  400.0000    14.1291    14.0327    13.7550    86.4145
  400.5000    14.1293    13.8700    13.6168    84.4446
  401.0000    14.1294    13.8817    13.6341    82.4985
  401.5000    14.1294    13.9027    13.6541    81.5616
  402.0000    14.1294    13.9237    13.6741    80.6721
  402.5000    14.1293    13.9447    13.6941    80.1863
  403.0000    14.1280    13.9658    13.7142    80.8723
  403.5000    14.1907    13.9865    13.7345    83.7030
  404.0000    14.2717    13.9991    13.7870    86.7117
  404.5000    14.3531    13.9194    13.8700    89.0514
  405.0000    14.3940    13.8562    13.6877    89.0366
  405.5000    14.2998    13.7366    13.4842    86.5036
  406.0000    14.1718    13.6181    13.2837    83.9816
  406.5000    14.0450    13.5006    13.0861    82.4598
  407.0000    13.9193    13.3841    12.8915    83.9615
  407.5000    13.7949    13.2687    12.7278    84.8759
  408.0000    13.6715    13.1542    12.6258    84.6286
  408.5000    13.5492    13.0407    12.5246    84.9452
  409.0000    13.4288    12.9410    12.4242    86.1562
  409.5000    13.3115    12.8494    12.2614    87.4232
  410.0000    13.2019    12.7585    12.0908    86.6226
  410.5000    13.0925    12.6683    11.9226    84.5146
  411.0000    12.9840    12.5786    11.7566    82.3945
  411.5000    12.8762    12.4896    11.5944    82.1232
  412.0000    12.7614    12.3836    11.4136    84.2857
  412.5000    12.5574    12.1278    11.2538    85.1925
  413.0000    12.3392    11.8772    11.1378    85.0021
  413.5000    12.1244    11.6318    11.0252    84.8980
  414.0000    11.9135    11.3915    10.9137    85.9411
  414.5000    11.7063    11.1562    10.5843    88.2846
  415.0000    11.5026    10.9257    10.2364    90.6259
  415.5000    11.2282    10.7004     9.8637    92.9003
  416.0000    10.9074     9.9516     9.4494    93.3818
  416.5000    10.5960     9.2014     8.7706    92.1257
  417.0000    10.4071     8.4989     7.9956    90.3643
  417.5000    10.5332     7.8500     7.2940    88.8892
  418.0000    10.5147     7.2507     6.6537    90.3362
  418.5000     9.6455     6.6971     6.0696    93.7653
  419.0000     8.5310     6.1858     5.5367    98.2612
  419.5000     7.5459     6.0766     5.0587   104.4951
  420.0000     6.9213     6.2201     4.7723   109.7139
  420.5000     6.9152     6.3287     5.2653   113.0991
  421.0000     8.3723     6.4426     5.8217   107.1373
  421.5000     9.5921     6.6053     6.4819   100.9713
  422.0000    10.9964     7.1943     7.2638    94.8279
  422.5000    11.9589     7.8358     8.2178    90.1105
  423.0000    11.8189     8.5344     9.2987    88.0310
  423.5000    11.4880     9.2954    10.0510    86.8976
  424.0000    11.1671    10.0544    10.4071    86.2755
  424.5000    10.8979    10.2915    10.3526    85.6663
  425.0000    10.8995    10.5342    10.3111    85.2700
  425.5000    11.2403    10.7826    10.2697    86.3225
  426.0000    11.5334    11.0368    10.2160    88.7579
  426.5000    11.8342    11.2971    10.4607    91.5097
  427.0000    12.1429    11.5753    10.8316    93.2257
  427.5000    12.4596    11.8705    11.2115    92.2326
  428.0000    12.7565    12.1733    11.6049    91.3421
  428.5000    13.0232    12.4825    12.0120    91.6839
  429.0000    13.2955    12.7896    12.3574    92.2206
  429.5000    13.5734    12.9939    12.5615    92.9536
  430.0000    13.8572    13.2054    12.7644    92.0057
  430.5000    14.1294    13.4196    12.9712    91.0566
  431.0000    14.2691    13.6373    13.1817    91.1451
  431.5000    14.4022    13.8600    13.3955    92.3143
  432.0000    14.5367    13.9991    13.4897    94.2115
  432.5000    14.6743    13.9991    13.4897    94.9310
  433.0000    14.7942    13.9991    13.4897    94.0193
  433.5000    14.9372    13.9991    13.4897    91.9052
  434.0000    14.7766    13.9987    13.4904    90.5444
  434.5000    14.6699    13.9989    13.4883    89.7727
  435.0000    14.5641    14.0319    13.6325    89.0238
  435.5000    14.5277    14.1753    13.7756    88.5312
  436.0000    14.7090    14.3201    13.9215    89.2702
  436.5000    14.8790    14.4663    14.1294    90.1351
  437.0000    15.0510    14.5277    14.0963    91.0221
  437.5000    15.2166    14.4494    14.0397    90.4685
  438.0000    14.9841    14.3721    13.9833    89.1253
  438.5000    14.7655    14.2952    13.9272    87.7750
  439.0000    14.5502    14.2187    13.8700    86.7774
  439.5000    14.3380    14.1427    13.7741    86.4893
  440.0000    14.2610    14.0712    13.6767    86.1750
  440.5000    14.2610    13.9797    13.5799    86.5678
  441.0000    14.2609    13.8888    13.4839    87.2565
  441.5000    14.2610    13.7985    13.3885    87.9429
  442.0000    14.2605    13.7088    13.2938    89.3808
  442.5000    14.2621    13.6196    13.2421    90.9855
  443.0000    14.0954    13.5310    13.0828    92.5843
  443.5000    13.9825    13.3594    12.8483    94.0978
  444.0000    13.8696    13.1176    12.6201    92.7950
  444.5000    13.5709    12.8801    12.3957    91.0256
  445.0000    13.2757    12.6470    12.1755    90.0036
  445.5000    12.9876    12.4181    11.9591    91.4275
  446.0000    12.7055    12.1933    11.7393    92.7875
  446.5000    12.5260    11.9726    11.6097    93.3352
  447.0000    12.4932    11.8486    11.4770    93.6819
  447.5000    12.4530    11.8486    11.3457    94.1912
  448.0000    12.4104    11.8221    11.2087    94.3961
  448.5000    12.1797    11.6154    11.0012    93.8258
  449.0000    11.8758    11.4122    10.7847    94.8379
  449.5000    11.5795    11.2127    10.5727    97.3826
  450.0000    11.2906    11.0166    10.4930   100.1811
  450.5000    11.2078    10.8239    10.4703    99.4351
  451.0000    11.3289    10.6889    10.4475    98.5595
  451.5000    11.4376    10.6560    10.4249    97.2355
  452.0000    11.5285    10.6232    10.4023    95.5940
  452.5000    11.5476    10.5906    10.3797    93.9426
  453.0000    11.5674    10.5582    10.3571    92.3070
  453.5000    11.5870    10.5256    10.3344    92.2951
  454.0000    11.6070    10.4899    10.3112    93.6857
  454.5000    11.6327    10.3868    10.1635    95.1166
  455.0000    11.6337    10.2847    10.0086    94.9452
  455.5000    11.4312    10.1837     9.8561    94.4814
  456.0000    11.1065    10.0836     9.7061    97.0581
  456.5000    10.7936     9.9846     9.5584   100.0684
  457.0000    10.4070     9.8564     9.4270    99.8472
  457.5000    10.4261     9.7009     9.3111    98.3956
  458.0000    10.4501     9.5478     9.1966    97.0098
  458.5000    10.4750     9.3974     9.0835    97.2601
  459.0000    10.5000     9.2485     8.9719    97.7242
  459.5000    10.5061     9.1029     8.8556    97.7772
  460.0000    10.3544     8.9592     8.7246    97.7986
  460.5000    10.1200     8.8179     8.5954    98.8956
  461.0000    10.1228     8.6306     8.4479   100.2816
  461.5000    10.0789     8.3605     8.1968   101.7856
  462.0000    10.0420     8.0984     7.9537   102.3451
  462.5000     9.7535     7.8419     7.4917   101.7147
  463.0000     9.1522     7.5946     7.0620   100.6863
  463.5000     8.5880     7.7317     6.6578    99.2609
