~VERSION INFORMATION
 VERS.                2.0:   CWLS LOG ASCII STANDARD - VERSION 2.0
 WRAP.                 NO:   ONE LINE PER DEPTH STEP
~WELL INFORMATION
#MNEM.UNIT      DATA TYPE    INFORMATION
#----------   ------------   ------------------------------
 STRT.F           64.0000:   START DEPTH
 STOP.F          795.0000:   STOP DEPTH
 STEP.F            0.5000:   STEP LENGTH
 NULL.          -999.2500:   NO VALUE
 COMP. LAWRENCE/ALLISON INC:   COMPANY
 WELL.      23-61 SX #2-2:   WELL
 FLD .             TEAPOT:   FIELD
 LOC .       S2 T38N R78W:   LOCATION
 CNTY.            NATRONA:   COUNTY
 STAT.            WYOMING:   STATE
 CTRY. UNITED STATES OF AMERICA:   COUNTRY
 SRVC.              Welex:   SERVICE COMPANY
 DATE.        14-AUG-1985:   LOGDATE
 API .       490251103800:   API NUMBER
~CURVE INFORMATION
#MNEM.UNIT       API CODE    CURVE DESCRIPTION
#----------   ------------   ------------------------------
 DEPT.F                  :   
 SPR .MV     07 010 01 00:   SPONTANEOUS POTENTIAL
 ILD .OHMM   07 120 46 00:   INDUCTION LOG DEEP
 ILM .OHMM   07 120 44 00:   INDUCTION LOG MEDIUM
 SGRD.OHMM   07 221 05 00:   SHALLOW SHORT GUARD RESISTIVITY
 DPHI.DEC    45 890 12 00:   DENSITY POROSITY SANDSTONE
 NPHI.DEC    42 890 03 00:   NEUTRON POROSITY SANDSTONE
 GRD .GAPI   45 310 01 00:   GAMMA RAY FROM DENSITY LOG
 CALD.IN     45 280 60 00:   CALIPER FROM DENSITY
 CORR.G/C3   45 356 01 00:   DENSITY CORRECTION
 RHOB.G/C3   45 350 01 00:   BULK DENSITY
~PARAMETER INFORMATION
#MNEM.UNIT          VALUE    DESCRIPTION
#----------   ------------   ------------------------------
 PD  .                 GL:   PERMANENT DATUM
 EPD .F              5112:   ELEVATION PERMANENT DATUM
 LMF .                 GL:   LOG MEASURED FROM
 DMF .                 GL:   DRILLING MEASURED FROM
 EGL .F              5112:   GROUND LEVEL
 DATE.        14-AUG-1985:   RUN DATE
 RUN .                  1:   RUN NUMBER
 DD  .F               800:   DEPTH DRILLER
 DL  .F               797:   DEPTH LOGGER
 BLI .F               795:   BOTTOM LOG INTERVAL
 TLI .F                76:   TOP LOG INTERVAL
 CS  .IN            8.625:   CASING SIZE
 CBD .F                76:   CASING BOTTOM DRILLER
 CBL .F                76:   CASING BOTTOM LOGGER
 BS  .IN            7.875:   BIT SIZE
 BSD .F               800:   BIT SIZE AT DEPTH
 DFT .                KCL:   DRILLING FLUID TYPE
 MSS .               TANK:   MUD SAMPLE SOURCE
 RMS .OHMM           0.22:   RESISTIVITY MUD SAMPLE
 MST .F                64:   MUD SAMPLE TEMPERATURE
 MFSS.               MEAS:   MUD FILTRATE SAMPLE SOURCE
 TCS .HRS            2230:   TIME CURCULATED STOPPED
 TLAB.HRS            0200:   TIME LOGGER AT BOTTOM
 LUN .               1892:   LOGGING UNIT NUMBER
 LUL .             CASPER:   LOGGING UNIT LOCATION
 ENGI.         T. QUINLAN:   RECORDING ENGINEER
 WITN.        N. JENNINGS:   WITNESSED BY
 CLNT.            A2DTECH:   CLIENT CODE
 ORIG.        2" 5" PRINT:   ORIGIN OF DATA
 UWI .       490251103800:   UNIQUE WELL ID
 DICO. A2D Technologies, Inc.:   DIGITIZING COMPANY
 R1  . POROSITY WITH SANDSTONE:   REMARKS 1
~OTHER INFORMATION
~A   DEPT      SPR        ILD        ILM       SGRD       DPHI       NPHI         GRD      CALD       CORR       RHOB   
# ...
  667.0000   -34.8830    17.9596    14.4655    20.9368     0.2315     0.2914    77.9762     7.8946     0.0166     2.2898
  667.5000   -35.4868    17.9435    14.3521    20.4848     0.2237     0.2926    78.2738     7.8943     0.0165     2.3079
  668.0000   -34.8933    17.9273    14.0423    20.1829     0.2186     0.2920    81.2500     7.8940     0.0187     2.3162
  668.5000   -35.0502    17.8989    13.9322    20.1649     0.2143     0.2897    83.0357     7.8937     0.0201     2.3229
  669.0000   -35.0561    17.6280    14.0174    20.1469     0.2077     0.2845    80.3571     7.8934     0.0246     2.3297
  669.5000   -35.2114    17.1425    14.0047    20.1290     0.2038     0.2806    77.3810     7.8931     0.0305     2.3380
  670.0000   -35.5163    16.6558    14.0901    20.1111     0.2026     0.2795    75.2976     7.8928     0.0373     2.3394
  670.5000   -34.9243    16.1829    14.2754    20.0931     0.2014     0.2807    74.4048     7.8925     0.0410     2.3416
  671.0000   -34.3323    15.9443    14.3625    20.0752     0.1990     0.2829    74.1071     7.8922     0.0431     2.3461
  671.5000   -34.0377    15.4916    14.6532    19.3670     0.1987     0.2847    73.2143     7.8919     0.0431     2.3490
  672.0000   -34.3441    15.2633    14.9465    18.6782     0.1970     0.2866    72.6190     7.8916     0.0430     2.3508
  672.5000   -34.4994    14.8299    15.1463    18.2469     0.1911     0.2860    73.2143     7.8913     0.0406     2.3632
  673.0000   -34.9538    14.5097    15.3455    18.0119     0.1837     0.2849    74.1071     7.8910     0.0489     2.3715
  673.5000   -35.5576    14.2990    15.5472    17.8708     0.1825     0.2834    76.1905     7.8907     0.0518     2.3729
  674.0000   -35.5635    14.8937    15.5299    17.7307     0.1779     0.2816    79.7619     7.8905     0.0456     2.3933
  674.5000   -35.5531    15.4087    15.5160    17.8389     0.1590     0.2786    80.3571     7.8902     0.0455     2.4213
  675.0000   -35.1020    15.7212    15.5021    18.9782     0.1400     0.2708    79.7619     7.8899     0.0501     2.4492
  675.5000   -34.5363    15.8169    15.0620    22.1072     0.1278     0.2614    78.5714     7.8449     0.0507     2.4673
  676.0000   -34.2432    15.8024    14.5326    24.8692     0.1229     0.2530    77.6786     7.8298     0.0506     2.4703
  676.5000   -34.0982    15.7882    13.9243    22.6924     0.1429     0.2521    76.7857     7.8890     0.0505     2.4422
  677.0000   -35.0024    15.7739    13.4349    19.4458     0.1682     0.2597    76.7857     7.9333     0.0360     2.3906
  677.5000   -35.0083    15.7596    13.2368    17.3762     0.1957     0.2722    78.5714     7.9182     0.0245     2.3580
  678.0000   -35.0142    15.5982    13.0392    16.4182     0.2067     0.2840    81.2500     7.9178     0.0207     2.3314
  678.5000   -34.5702    14.8744    12.6712    16.9859     0.2103     0.2877    83.9286     7.9026     0.0198     2.3260
  679.0000   -34.4266    14.4521    12.5717    17.3441     0.2104     0.2841    86.0119     7.8875     0.0235     2.3282
  679.5000   -34.8824    14.3388    12.5581    17.8044     0.2007     0.2790    86.3095     7.8872     0.0287     2.3414
  680.0000   -35.3367    14.2263    12.9923    17.1748     0.1838     0.2757    86.3095     7.8869     0.0377     2.3652
  680.5000   -35.7910    14.2136    13.6304    16.9255     0.1671     0.2767    82.7081     7.8866     0.0513     2.3999
  681.0000   -36.2454    14.0041    14.1049    18.0024     0.1570     0.2767    80.2976     7.8863     0.0595     2.4218
  681.5000   -36.4007    13.7018    14.4912    19.2862     0.1551     0.2730    79.1667     7.8860     0.0503     2.4240
  682.0000   -36.2572    13.8819    14.0766    20.8062     0.1588     0.2701    83.9286     7.8857     0.0442     2.4110
  682.5000   -35.3637    13.8695    12.2322    17.4601     0.1706     0.2720    85.1190     7.8854     0.0403     2.3875
  683.0000   -34.6247    13.5700    11.4774    16.0434     0.1800     0.2763    84.8214     7.8851     0.0379     2.3798
  683.5000   -34.4811    13.1847    11.2296    15.4795     0.1830     0.2818    84.5238     7.8848     0.0401     2.3760
  684.0000   -34.6368    12.9001    10.6104    15.2514     0.1846     0.2833    83.9286     7.8845     0.0408     2.3729
  684.5000   -34.6439    12.7989    10.4540    15.0266     0.1861     0.2836    83.9286     7.8842     0.0437     2.3698
  685.0000   -34.6498    12.4355    10.5915    14.9089     0.1889     0.2837    84.8214     7.8839     0.0353     2.3659
  685.5000   -34.5047    12.1649    10.8059    14.7920     0.1944     0.2834    86.0119     7.8836     0.0276     2.3560
  686.0000   -34.0636    11.9808    10.8718    14.8823     0.1965     0.2825    86.3095     7.8833     0.0238     2.3514
  686.5000   -33.9186    11.7284    11.0954    14.8686     0.1938     0.2783    83.9286     7.8830     0.0221     2.3536
  687.0000   -33.4761    11.3933    11.1759    14.8558     0.1914     0.2748    80.6548     7.8827     0.0221     2.3595
  687.5000   -33.9319    11.3039    11.4651    15.0511     0.1799     0.2724    77.6786     7.8824     0.0265     2.3711
  688.0000   -34.5357    11.0599    11.6946    15.1430     0.1709     0.2712    75.2976     7.8821     0.0340     2.3894
  688.5000   -34.6910    10.9732    11.7686    15.2321     0.1708     0.2706    77.9762     7.8818     0.0369     2.3949
  689.0000   -34.8464    10.7362    11.7555    15.2185     0.1755     0.2719    80.3571     7.8815     0.0323     2.3857
  689.5000   -34.7013    10.7266    11.7450    14.9942     0.1794     0.2738    81.5476     7.8812     0.0246     2.3751
  690.0000   -34.7087    10.6425    11.7345    14.7733     0.1814     0.2753    82.4405     7.8809     0.0215     2.3720
  690.5000   -34.5650    10.5591    11.7240    14.7601     0.1807     0.2717    83.3333     7.8806     0.0223     2.3817
  691.0000   -34.7205    10.4763    11.7135    14.7469     0.1735     0.2702    83.9286     7.8803     0.0267     2.3930
  691.5000   -35.0309    10.3942    11.4606    14.7338     0.1605     0.2706    83.8838     7.8801     0.0321     2.4111
  692.0000   -35.5077    10.3849    11.2917    14.6183     0.1538     0.2721    81.8452     7.8798     0.0387     2.4277
  692.5000   -36.5994    10.3756    10.9711    14.4029     0.1505     0.2737    80.0595     7.8795     0.0423     2.4261
  693.0000   -38.7814    10.3663    10.6596    14.2899     0.1517     0.2752    84.2262     7.8792     0.0338     2.4215
  693.5000   -40.8800    10.3570    10.4295    14.2681     0.1542     0.2759    88.0952     7.8789     0.0269     2.4161
  694.0000   -42.5302    10.3478    10.3477    14.1490     0.1566     0.2765    90.4762     7.8786     0.0268     2.4123
  694.5000   -41.3402    10.3384    10.3384    13.9535     0.1588     0.2769    92.2619     7.8783     0.0267     2.4099
  695.0000   -39.4029    10.4815    10.4015    13.8472     0.1603     0.2754    93.4524     7.8780     0.0267     2.4076
  695.5000   -38.3625    10.6121    10.5474    13.9286     0.1616     0.2733    95.5357     7.8777     0.0266     2.4099
  696.0000   -38.9663    10.6003    10.7793    13.9162     0.1617     0.2718    94.0476     7.8774     0.0280     2.4152
  696.5000   -40.6164    10.7420    11.0435    14.1023     0.1586     0.2707    91.3690     7.8771     0.0324     2.4225
  697.0000   -42.1171    10.8052    11.2696    14.1884     0.1544     0.2719    89.2857     7.8767     0.0354     2.4277
  697.5000   -43.0198    10.7955    11.5756    14.3750     0.1508     0.2738    86.3095     7.8764     0.0391     2.4314
  698.0000   -43.1752    10.7859    11.6463    14.5640     0.1483     0.2765    81.8452     7.8761     0.0413     2.4351
  698.5000   -43.6295    10.8541    11.7994    14.7522     0.1460     0.2790    85.7143     7.8759     0.0435     2.4389
  699.0000   -43.9344    10.8420    11.7888    14.8428     0.1439     0.2793    88.6905     7.8756     0.0441     2.4411
  699.5000   -43.9403    10.9106    11.8634    14.9329     0.1424     0.2785    90.7738     7.8753     0.0402     2.4448
  700.0000   -43.7967    10.9862    11.9553    14.9196     0.1396     0.2775    92.5595     7.8745     0.0386     2.4462
