~VERSION INFORMATION
 VERS.                2.0:   CWLS LOG ASCII STANDARD - VERSION 2.0
 WRAP.                 NO:   ONE LINE PER DEPTH STEP
~WELL INFORMATION
#MNEM.UNIT      DATA TYPE    INFORMATION
#----------   ------------   ------------------------------
 STRT.F            0.0000:   START DEPTH
 STOP.F          883.0000:   STOP DEPTH
 STEP.F            0.5000:   STEP LENGTH
 NULL.          -999.2500:   NO VALUE
 COMP.       F D SERV INC:   COMPANY
 WELL. N P R 3 SX-35 #26-1-35:   WELL
 FLD .             TEAPOT:   FIELD
 LOC .      S35 T39N R78W:   LOCATION
 CNTY.            NATRONA:   COUNTY
 STAT.            WYOMING:   STATE
 CTRY. UNITED STATES OF AMERICA:   COUNTRY
 SRVC.     Atlas Wireline:   SERVICE COMPANY
 DATE.        21-NOV-1991:   LOGDATE
 API .       490252247800:   API NUMBER
~CURVE INFORMATION
#MNEM.UNIT       API CODE    CURVE DESCRIPTION
#----------   ------------   ------------------------------
 DEPT.F                  :   
 GRR .GAPI   07 310 01 00:   GAMMA RAY
 RILD.OHMM   07 120 46 00:   INDUCTION LOG DEEP RESISTIVITY
 RILM.OHMM   07 120 44 00:   INDUCTION LOG MEDIUM RESISTIVITY
 SPR .MV     07 010 01 00:   SPONTANEOUS POTENTIAL
 RFOC.OHMM   07 270 04 00:   RESISTIVITY FOCUSED LOG
~PARAMETER INFORMATION
#MNEM.UNIT          VALUE    DESCRIPTION
#----------   ------------   ------------------------------
 PD  .                 GL:   PERMANENT DATUM
 EPD .F              5098:   ELEVATION PERMANENT DATUM
 LMF .                 KB:   LOG MEASURED FROM
 DAPD.F                10:   FEET ABOVE PERMANENT DATUM
 DMF .                 KB:   DRILLING MEASURED FROM
 EKB .F              5108:   KELLING BUSHING
 EGL .F              5098:   GROUND LEVEL
 DATE.        21-NOV-1991:   RUN DATE
 RUN .                  1:   RUN NUMBER
 DD  .F               939:   DEPTH DRILLER
 DL  .F               887:   DEPTH LOGGER
 BLI .F               884:   BOTTOM LOG INTERVAL
 CS  .IN            9.625:   CASING SIZE
 CBD .F                40:   CASING BOTTOM DRILLER
 CBL .F                47:   CASING BOTTOM LOGGER
 BS  .IN             8.75:   BIT SIZE
 BSD .F               939:   BIT SIZE AT DEPTH
 DFT .               LSND:   DRILLING FLUID TYPE
 MSS .            MUDTANK:   MUD SAMPLE SOURCE
 RMS .OHMM           0.32:   RESISTIVITY MUD SAMPLE
 MST .F                90:   MUD SAMPLE TEMPERATURE
 RMB .OHMM           0.27:   RESISTIVITY MUD AT BHT
 BHT .F               103:   BOTTOM HOLE TEMPERATURE
 TCS .HRS               2:   TIME CURCULATED STOPPED
 MRT .F               103:   MAXIMUM RECORDED TEMPERATURE
 LUN .            HL 6307:   LOGGING UNIT NUMBER
 LUL .             CASPER:   LOGGING UNIT LOCATION
 ENGI.            WADDELL:   RECORDING ENGINEER
 WITN.             STRONG:   WITNESSED BY
 CLNT.            A2DTECH:   CLIENT CODE
 ORIG.           5" PRINT:   ORIGIN OF DATA
 UWI .       490252247800:   UNIQUE WELL ID
 DICO. A2D Technologies, Inc.:   DIGITIZING COMPANY
~OTHER INFORMATION
~A    DEPT      GRR      RILD       RILM        SPR       RFOC   
# ...
  671.0000   109.9156     1.9044     1.7565   -50.7468     2.4534
  671.5000   109.2245     1.9994     1.8965   -50.5965     3.1107
  672.0000   111.7145     2.1586     2.2266   -50.4463     3.2660
  672.5000   119.9278     2.3632     2.7260   -50.2956     3.0027
  673.0000   121.4800     2.6054     3.0691   -49.9939     3.3337
  673.5000   120.5557     2.8925     3.2907   -49.8437     4.4699
  674.0000   120.3170     3.2337     3.4792   -49.8452     5.2117
  674.5000   122.3546     3.5689     3.6799   -49.8470     5.5489
  675.0000   125.5302     3.9489     3.6781   -49.8485     5.5870
  675.5000   129.1610     4.4247     3.7817   -50.0017     5.3189
  676.0000   129.3778     4.6779     4.2577   -50.0032     5.3551
  676.5000   125.2054     4.8771     4.6944   -50.3082     5.4674
  677.0000   120.1320     4.9105     4.7932   -50.6131     5.3904
  677.5000   117.5057     4.7078     4.6931   -51.8286     5.2040
  678.0000   122.0470     4.5137     4.5632   -52.4391     5.3880
  678.5000   124.9950     4.5123     4.5945   -52.5903     5.6176
  679.0000   126.3524     4.5435     4.6618   -52.5921     5.8569
  679.5000   122.9244     4.4794     4.6905   -52.5936     5.9798
  680.0000   121.7602     4.3248     4.3430   -52.5950     6.0627
  680.5000   126.1842     4.1176     3.6724   -52.4444     5.8944
  681.0000   132.6761     3.8124     3.2837   -52.1428     5.5564
  681.5000   134.9412     3.5298     3.1706   -51.9921     4.6134
  682.0000   137.8892     3.3608     3.2373   -51.6904     3.7927
  682.5000   139.4715     3.2675     3.3054   -51.2367     3.6071
  683.0000   140.5985     3.1991     3.3281   -50.9125     3.8986
  683.5000   139.4494     3.1985     3.2815   -50.4813     4.2387
  684.0000   131.9270     3.3113     3.3272   -50.3307     4.3582
  684.5000   122.9216     3.4523     3.4209   -50.1804     4.0630
  685.0000   118.4728     3.6245     3.5419   -50.0301     4.2362
  685.5000   117.5540     3.8319     3.6930   -49.8799     4.5737
  686.0000   120.7269     3.9953     3.8505   -49.7299     4.8020
  686.5000   123.4473     4.1652     4.0428   -49.7314     4.7344
  687.0000   124.1191     4.3425     4.1859   -49.7329     5.0054
  687.5000   124.7914     4.4672     4.3391   -50.0379     5.4421
  688.0000   125.0168     4.6544     4.5504   -50.9502     5.6740
  688.5000   123.6108     4.8188     4.6944   -51.7104     5.8745
  689.0000   123.8446     4.9543     4.8781   -52.1671     5.9977
  689.5000   125.6545     5.0936     4.9807   -52.4721     6.0389
  690.0000   127.9196     5.1285     5.0855   -52.4735     6.0797
  690.5000   129.0494     5.1993     5.1206   -52.4750     6.0784
  691.0000   126.3042     5.1621     5.0841   -52.4765     6.0348
  691.5000   123.7894     5.1251     5.0475   -52.3262     6.0334
  692.0000   122.8679     5.1240     4.9037   -52.1760     5.9484
  692.5000   122.8794     5.0166     4.6734   -52.0257     5.8238
  693.0000   126.2574     4.9806     4.5759   -51.5723     5.7418
  693.5000   130.7987     4.8764     4.5118   -50.8150     5.6610
  694.0000   132.6086     4.7081     4.4486   -50.3613     5.5813
  694.5000   131.2319     4.4514     4.3558   -50.0589     5.4263
  695.0000   129.3999     4.2087     4.2058   -49.7572     5.3499
  695.5000   128.7060     3.8968     3.9767   -49.6070     5.2376
  696.0000   129.6054     3.5795     3.6532   -49.4567     5.1279
  696.5000   132.8839     3.3403     3.2242   -49.3064     4.7808
  697.0000   138.2328     3.2933     2.9440   -49.6118     4.1274
  697.5000   138.2190     3.2697     3.0270   -50.0685     3.7159
  698.0000   138.2080     3.3150     3.2229   -50.5252     3.4163
  698.5000   139.1075     3.3376     3.4555   -50.9819     3.5869
  699.0000   140.4621     3.3840     3.8365   -51.2869     4.0492
  699.5000   142.0444     3.4548     3.9172   -51.4401     4.8082
  700.0000   142.9438     3.7823     3.9718   -51.4416     5.6061
  700.5000   137.3252     4.0901     4.2063   -51.4431     5.8043
  701.0000   133.8143     4.4083     4.5976   -51.4449     5.8851
  701.5000   135.3966     4.6282     4.7605   -51.4464     5.8019
  702.0000   136.0712     4.8253     4.8945   -51.2957     5.7604
  702.5000   134.6917     4.9612     4.9976   -51.2976     5.7996
  703.0000   133.0874     5.0299     4.9968   -50.9952     5.8822
  703.5000   131.7106     5.0641     5.0313   -50.6932     6.0106
  704.0000   130.7861     5.0628     5.0304   -50.3915     6.0865
  704.5000   129.8354     5.0618     5.0668   -50.0895     6.1280
  705.0000   129.6262     5.0607     5.1715   -50.0708     6.2127
  705.5000   129.8456     5.0950     5.1706   -49.9407     6.2114
  706.0000   131.1975     5.1656     4.9925   -50.0943     6.2102
  706.5000   133.0074     5.2374     4.9571   -50.2475     6.2089
  707.0000   132.3135     5.2361     4.9914   -50.5525     6.2076
  707.5000   129.1158     5.1624     5.0257   -51.0092     6.1819
  708.0000   125.1996     5.0544     4.9898   -51.3142     6.1187
  708.5000   129.5078     4.9486     4.7844   -51.8490     6.0325
  709.0000   130.8603     4.9822     4.5843   -52.6136     5.9062
  709.5000   130.1643     5.0161     4.6189   -52.7712     5.9050
  710.0000   129.0130     5.0148     4.8158   -52.7770     5.9455
  710.5000   128.7587     5.0138     4.9173   -52.6311     5.9857
  711.0000   131.5811     5.0482     4.9856   -52.3350     5.9844
  711.5000   133.0705     4.9079     4.9502   -52.1891     6.0252
  712.0000   131.0055     4.7055     4.7135   -51.8914     6.0236
  712.5000   132.8132     4.4490     4.2442   -51.4421     5.9388
  713.0000   141.2219     4.2045     3.8448   -50.9927     5.9796
  713.5000   144.3953     3.9371     3.4030   -50.5433     5.6530
  714.0000   143.2440     3.7339     3.1080   -50.0779     4.7792
  714.5000   134.2851     3.6410     3.2626   -49.4943     3.5629
  715.0000   131.1506     3.5643     3.4733   -49.0449     3.3685
  715.5000   133.4136     3.7157     3.6463   -49.0507     3.8087
  716.0000   134.3109     3.8234     3.7748   -49.3601     5.0621
  716.5000   134.0701     3.8990     3.8809   -49.5177     5.4143
  717.0000   132.9188     3.8974     3.9068   -49.8270     5.3380
  717.5000   129.2637     3.7888     3.8786   -50.2883     5.5264
  718.0000   125.1169     3.6575     3.5280   -50.7507     5.7619
  718.5000   126.9578     3.5063     3.1000   -51.2118     5.7206
  719.0000   132.6351     3.4085     2.9928   -51.8246     5.4846
  719.5000   135.8085     3.4074     2.9920   -52.1339     4.7981
  720.0000   136.9367     3.4060     3.0122   -52.4433     3.8111
  720.5000   131.4574     3.4287     3.0537   -52.4492     3.0602
  721.0000   123.4776     3.5004     3.1614   -52.1515     3.4450
  721.5000   122.0986     3.5980     3.3687   -51.7021     4.5231
  722.0000   126.2097     3.7246     3.6584   -51.2528     5.4228
  722.5000   130.0356     3.9372     3.9220   -50.9551     5.7732
  723.0000   130.7086     4.3196     4.3844   -50.8092     5.6519
  723.5000   128.6435     4.6846     4.8333   -50.8164     5.6504
  724.0000   126.5818     4.9177     4.9692   -50.8225     5.6485
  724.5000   127.9343     5.0205     5.0024   -50.8297     5.6470
  725.0000   129.2868     4.8801     4.8294   -50.9873     5.6850
  725.5000   128.3631     4.6458     4.5490   -51.1449     5.8039
  726.0000   129.2571     4.2709     3.9972   -51.3025     5.9253
  726.5000   130.1544     3.9767     3.5737   -51.6119     6.0071
  727.0000   130.8240     3.8165     3.3317   -51.9212     5.7976
  727.5000   132.1766     3.7887     3.2620   -52.3824     4.7199
  728.0000   134.8948     3.7614     3.4004   -52.6931     3.7057
  728.5000   139.4339     3.8130     3.4958   -53.0025     3.5526
  729.0000   142.1521     3.9745     3.6224   -53.1601     3.8087
  729.5000   134.8519     4.1431     3.8794   -53.3177     4.1697
  730.0000   130.2863     4.3230     4.1300   -53.4753     4.9644
  730.5000   129.1351     4.5971     4.3967   -53.4811     5.8693
  731.0000   127.5285     4.7922     4.6806   -53.4871     6.0365
  731.5000   124.7839     4.9956     4.9481   -53.3414     6.1602
