~VERSION INFORMATION
 VERS.                2.0:   CWLS LOG ASCII STANDARD - VERSION 2.0
 WRAP.                 NO:   ONE LINE PER DEPTH STEP
~WELL INFORMATION
#MNEM.UNIT      DATA TYPE    INFORMATION
#----------   ------------   ------------------------------
 STRT.F           20.0000:   START DEPTH
 STOP.F          805.5000:   STOP DEPTH
 STEP.F            0.5000:   STEP LENGTH
 NULL.          -999.2500:   NO VALUE
 COMP. FENIX & SCISSON INC:   COMPANY
 WELL.    16-SX-14 #16-14:   WELL
 FLD .             TEAPOT:   FIELD
 LOC .      S14 T38N R78W:   LOCATION
 CNTY.            NATRONA:   COUNTY
 STAT.            WYOMING:   STATE
 CTRY. UNITED STATES OF AMERICA:   COUNTRY
 SRVC.            Unknown:   SERVICE COMPANY
 DATE.        23-MAY-1978:   LOGDATE
 API .       490251063200:   API NUMBER
~CURVE INFORMATION
#MNEM.UNIT       API CODE    CURVE DESCRIPTION
#----------   ------------   ------------------------------
 DEPT.F                  :   
 SN  .OHMM   05 040 16 00:   SHORT NORMAL 16"
 ILD .OHMM   05 120 46 00:   INDUCTION LOG DEEP
 SPR .MV     05 010 01 00:   SPONTANEOUS POTENTIAL FROM RES.
 RHOB.G/C3   45 350 01 00:   BULK DENSITY
 DPOR.DEC    45 890 12 00:   DENSITY POROSITY SANDSTONE
 CORR.G/C3   45 356 01 00:   DENSITY CORRECTION
 GRD .GAPI   45 310 01 00:   GAMMA RAY FROM DENSITY LOG
 CALD.IN     45 280 60 00:   CALIPER FROM DENSITY LOG
~PARAMETER INFORMATION
#MNEM.UNIT          VALUE    DESCRIPTION
#----------   ------------   ------------------------------
 PD  .                 GL:   PERMANENT DATUM
 EPD .F              5246:   ELEVATION PERMANENT DATUM
 LMF .                 KB:   LOG MEASURED FROM
 DAPD.F                 4:   FEET ABOVE PERMANENT DATUM
 DMF .                 KB:   DRILLING MEASURED FROM
 EKB .F              5250:   KELLING BUSHING
 EGL .F              5246:   GROUND LEVEL
 DATE.          5-23-1978:   RUN DATE
 RUN .                  1:   RUN NUMBER
 DD  .F               825:   DEPTH DRILLER
 DL  .F               812:   DEPTH LOGGER
 BLI .F               805:   BOTTOM LOG INTERVAL
 TLI .F                40:   TOP LOG INTERVAL
 CS  .IN            8.625:   CASING SIZE
 CBD .F                40:   CASING BOTTOM DRILLER
 BS  .IN            7.875:   BIT SIZE
 BSD .F               825:   BIT SIZE AT DEPTH
 DFT .                KCL:   DRILLING FLUID TYPE
 DFD .                8.6:   DRILLING FLUID DENSITY
 DFV .                 30:   DRILLING FLUID VISCOSITY
 DFPH.                 11:   DRILLING FLUID PH
 DFL .                 14:   DRILLING FLUID LOSS
 MSS .            MUD PIT:   MUD SAMPLE SOURCE
 RMS .OHMM            .32:   RESISTIVITY MUD SAMPLE
 MST .F                72:   MUD SAMPLE TEMPERATURE
 RMF .OHMM            .28:   RESISTIVITY MUD FILTRATE SAMPLE
 MFST.F                72:   MUD FILTRATE SAMPLE TEMPERATURE
 RMC .OHMM            .50:   RESISTIVITY MUD CAKE
 MCST.F                82:   MUD CAKE SAMPLE TEMPERATURE
 MFSS.               MEAS:   MUD FILTRATE SAMPLE SOURCE
 RMB .OHMM            .31:   RESISTIVITY MUD AT BHT
 BHT .F                75:   BOTTOM HOLE TEMPERATURE
 TCS .HRS               2:   TIME CURCULATED STOPPED
 MRT .F                75:   MAXIMUM RECORDED TEMPERATURE
 LUN .               2958:   LOGGING UNIT NUMBER
 LUL .              CSPR.:   LOGGING UNIT LOCATION
 ENGI.             MILLER:   RECORDING ENGINEER
 WITN.            RHOADES:   WITNESSED BY
 CLNT.            A2DTECH:   CLIENT CODE
 ORIG.    1" , 2.5" PRINT:   ORIGIN OF DATA
 UWI .       490251063200:   UNIQUE WELL ID
 DICO. A2D Technologies, Inc.:   DIGITIZING COMPANY
~OTHER INFORMATION
~A   DEPT       SN        ILD        SPR       RHOB       DPOR       CORR         GRD      CALD   
# ...
  182.0000     5.8732     5.5469   -27.8805     2.4288     0.1470     0.0280    76.7305     7.0044
  182.5000     5.9667     5.5141   -28.4843     2.4327     0.1431     0.0306    76.9487     7.0792
  183.0000     6.0627     5.4659   -29.0914     2.4395     0.1392     0.0331    76.2287     7.1412
  183.5000     6.1602     5.4712   -29.1110     2.4466     0.1348     0.0338    73.8224     7.2914
  184.0000     6.2105     5.5201   -29.1230     2.4476     0.1348     0.0266    71.4405     7.2422
  184.5000     6.2965     5.5690   -29.1173     2.4484     0.1377     0.0179    70.6488     7.1828
  185.0000     6.3752     5.6186   -29.1187     2.4485     0.1443     0.0144    70.7220     7.1145
  185.5000     6.4546     5.6687   -29.1191     2.4415     0.1484     0.0283    69.8274     7.0242
  186.0000     6.5351     5.7193   -29.1180     2.4369     0.1468     0.0333    68.4905     6.9167
  186.5000     6.6167     5.7702   -29.1198     2.4355     0.1451     0.0370    68.3323     6.8096
  187.0000     6.6994     5.8217   -29.0768     2.4371     0.1435     0.0377    69.5763     6.5314
  187.5000     6.7832     5.8736   -28.9286     2.4386     0.1420     0.0302    70.7997     6.2740
  188.0000     6.8079     5.9260   -28.7820     2.4369     0.1461     0.0215    69.7215     5.9961
  188.5000     6.7087     5.9788   -28.6278     2.4309     0.1516     0.0142    67.4964     5.9898
  189.0000     6.6037     6.0321   -28.4914     2.4223     0.1570     0.0150    66.0977     6.0974
  189.5000     6.5005     6.0958   -28.3219     2.4140     0.1625     0.0156    67.1666     6.1992
  190.0000     6.3988     6.0080   -28.4150     2.4058     0.1679     0.0165    68.8255     6.3028
  190.5000     6.3246     5.9023   -28.5499     2.3975     0.1733     0.0173    69.9027     6.4177
  191.0000     6.3246     5.7984   -28.6676     2.3891     0.1787     0.0180    69.8429     6.5490
  191.5000     6.3246     5.6413   -29.5372     2.3814     0.1841     0.0194    68.9089     6.6894
  192.0000     6.3246     5.4650   -30.7092     2.3699     0.1974     0.0206    68.0424     6.6306
  192.5000     6.3246     5.2944   -31.8772     2.3542     0.2175     0.0220    67.1261     6.5637
  193.0000     5.9366     5.1293   -32.0534     2.3253     0.2377     0.0230    66.9128     6.4906
  193.5000     5.5655     4.9750   -32.2206     2.2973     0.2578     0.0245    66.6636     6.4158
  194.0000     5.2175     4.4827   -32.3330     2.2614     0.2779     0.0271    66.9772     6.4926
  194.5000     4.8914     4.0530   -32.5009     2.2210     0.2979     0.0392    67.2299     6.6241
  195.0000     4.4405     3.6353   -32.6056     2.1808     0.3138     0.0569    69.5859     6.7503
  195.5000     3.9761     3.0959   -32.6455     2.1584     0.3196     0.0736    71.6231     6.8740
  196.0000     3.5603     2.6069   -31.4072     2.1568     0.3115     0.0910    77.9587     7.0031
  196.5000     3.1879     2.1915   -30.3144     2.1657     0.2763     0.1094    84.6248     7.0881
  197.0000     2.8537     1.9817   -29.1437     2.1769     0.2403     0.1154    85.2176     7.0280
  197.5000     2.5548     1.9455   -28.3114     2.2916     0.2044     0.1037    84.9365     7.2274
  198.0000     2.2208     2.0077   -28.3209     2.3621     0.1684     0.0931    83.9331     8.2378
  198.5000     2.2408     2.1453   -28.3334     2.4378     0.1292     0.0835    77.6173     8.0699
  199.0000     2.2837     2.2694   -27.8273     2.4736     0.1284     0.0656    71.9457     7.6226
  199.5000     2.5331     2.4949   -26.7614     2.4651     0.1476     0.0392    65.7913     7.1943
  200.0000     2.8902     2.7863   -26.9003     2.4471     0.1512     0.0357    65.4005     6.8864
  200.5000     3.2985     3.1117   -27.0743     2.4308     0.1549     0.0327    65.0823     6.9726
  201.0000     3.8519     3.5349   -27.2812     2.4211     0.1586     0.0300    64.9850     7.0539
  201.5000     4.8189     4.2271   -27.4726     2.4151     0.1620     0.0227    64.8092     7.0953
  202.0000     6.0276     5.0549   -27.6621     2.4089     0.1693     0.0173    64.2101     6.9639
  202.5000     6.7029     6.0448   -27.8584     2.3981     0.1760     0.0182    62.7516     6.8468
  203.0000     7.0100     6.5233   -27.9648     2.3864     0.1828     0.0181    61.3046     6.8048
  203.5000     7.2908     6.7992   -28.0349     2.3746     0.1895     0.0170    61.1612     6.7886
  204.0000     7.5828     7.1950   -28.1051     2.3628     0.1962     0.0284    64.2574     6.7585
  204.5000     7.8868     6.7913   -28.1766     2.3515     0.2036     0.0526    64.0535     6.7108
  205.0000     8.0358     6.2003   -28.2482     2.3412     0.1975     0.0722    66.2646     6.6617
  205.5000     7.5943     5.6608   -28.3195     2.3521     0.1854     0.0530    70.1851     6.6144
  206.0000     6.9960     5.1682   -28.3901     2.3682     0.1732     0.0407    72.6914     6.6281
  206.5000     6.4448     4.7185   -28.4648     2.3809     0.1660     0.0298    67.6761     6.8344
  207.0000     5.9371     4.5397   -28.5297     2.3890     0.1719     0.0189    61.3688     7.0467
  207.5000     5.4694     4.5316   -28.6010     2.3917     0.1795     0.0147    58.9378     7.1507
  208.0000     4.9777     4.5301   -28.6987     2.3877     0.1765     0.0178    60.2867     7.1024
  208.5000     5.2216     4.5295   -28.4333     2.3839     0.1725     0.0205    61.3383     6.9959
  209.0000     5.7897     4.8857   -27.6299     2.3850     0.1717     0.0223    62.3373     6.8997
  209.5000     6.4197     5.4575   -26.8513     2.3871     0.1743     0.0230    62.8105     6.7796
  210.0000     7.1183     6.0970   -26.3409     2.3859     0.1769     0.0238    61.7479     6.8686
  210.5000     7.7452     6.8119   -26.4413     2.3830     0.1795     0.0247    60.7356     7.0618
  211.0000     8.0098     7.5971   -26.5366     2.3773     0.1822     0.0254    59.6738     7.2537
  211.5000     8.2406     7.8534   -26.6688     2.3771     0.1848     0.0278    58.1779     7.4408
  212.0000     8.4780     8.1138   -26.4496     2.3770     0.1840     0.0337    55.6170     7.5773
  212.5000     8.7223     8.3826   -25.6698     2.3771     0.1803     0.0392    55.9105     7.4887
  213.0000     8.9736     8.6597   -24.9190     2.3800     0.1766     0.0456    56.1862     7.3900
  213.5000     9.2695     8.9457   -24.1724     2.3830     0.1732     0.0459    56.5438     7.2836
  214.0000     9.6483     9.2406   -23.4164     2.3843     0.1770     0.0461    54.7092     7.2879
  214.5000    10.0427     9.5449   -22.6290     2.3816     0.1805     0.0460    52.4861     7.3211
  215.0000    10.4531     9.7098   -22.2563     2.3763     0.1840     0.0460    54.0700     7.3302
  215.5000    10.8803     9.7857   -22.2901     2.3712     0.1868     0.0459    58.7543     7.1571
  216.0000    11.2015     9.8520   -22.2882     2.3721     0.1860     0.0432    63.2296     7.0256
  216.5000    11.2248     9.8909   -22.2829     2.3730     0.1828     0.0410    67.6009     7.0612
  217.0000    11.2466     9.9300   -22.2883     2.3778     0.1797     0.0387    71.9994     7.1126
  217.5000    11.2685     9.9693   -22.2875     2.3819     0.1766     0.0364    77.6643     7.1690
  218.0000    11.2906    10.0087   -22.2880     2.3835     0.1735     0.0341    76.6224     7.2222
  218.5000    11.3129    10.0482   -22.2892     2.3855     0.1716     0.0317    73.7487     7.2761
  219.0000    11.3352    10.0880   -22.2892     2.3861     0.1763     0.0308    72.1385     7.3305
  219.5000    11.3577    10.1278   -22.2892     2.3821     0.1830     0.0342    71.9860     7.3842
  220.0000    11.3801    10.1679   -22.2892     2.3782     0.1845     0.0375    71.7761     7.4389
  220.5000    11.4033    10.2081   -22.2892     2.3741     0.1792     0.0411    68.8681     7.4929
  221.0000    11.5321    10.2484   -22.2892     2.3740     0.1756     0.0396    66.0970     7.5384
  221.5000    11.6694    10.2889   -22.2892     2.3757     0.1764     0.0359    63.0523     7.5379
  222.0000    11.8084    10.3296   -22.2892     2.3770     0.1823     0.0339    61.8047     7.4914
