~VERSION INFORMATION
 VERS.                2.0:   CWLS LOG ASCII STANDARD - VERSION 2.0
 WRAP.                 NO:   ONE LINE PER DEPTH STEP
~WELL INFORMATION
#MNEM.UNIT      DATA TYPE    INFORMATION
#----------   ------------   ------------------------------
 STRT.F           27.0000:   START DEPTH
 STOP.F          566.0000:   STOP DEPTH
 STEP.F            0.5000:   STEP LENGTH
 NULL.          -999.2500:   NO VALUE
 COMP.    FENIX & SCISSON:   COMPANY
 WELL. S-3 NPR #3 #86-S-3:   WELL
 FLD .             TEAPOT:   FIELD
 LOC .       S3 T38N R78W:   LOCATION
 CNTY.            NATRONA:   COUNTY
 STAT.            WYOMING:   STATE
 CTRY. UNITED STATES OF AMERICA:   COUNTRY
 SRVC.       Schlumberger:   SERVICE COMPANY
 DATE.        08-APR-1977:   LOGDATE
 API .       490251032900:   API NUMBER
~CURVE INFORMATION
#MNEM.UNIT       API CODE    CURVE DESCRIPTION
#----------   ------------   ------------------------------
 DEPT.F                  :   
 CALD.IN     45 280 60 00:   CALIPER FROM DENSITY LOG
 GRD .GAPI   45 310 01 00:   GAMMA RAY FROM DENSITY LOG
 CORR.G/C3   45 356 01 00:   DENSITY CORRECTION
 RHOB.G/C3   45 350 01 00:   BULK DENSITY
 DPHI.DEC    45 890 12 00:   DENSITY POROSITY SANDSTONE
 SPR .MV     07 010 01 00:   SPONTANEOUS POTENTIAL
 ILD .OHMM   07 120 46 00:   INDUCTION LOG DEEP
 ILM .OHMM   07 120 44 00:   INDUCTION LOG MEDIUM
 LL8 .OHMM   07 220 08 00:   LATEROLOG-8 RES.
~PARAMETER INFORMATION
#MNEM.UNIT          VALUE    DESCRIPTION
#----------   ------------   ------------------------------
 PD  .                 GL:   PERMANENT DATUM
 EPD .F              5147:   ELEVATION PERMANENT DATUM
 LMF .                 KB:   LOG MEASURED FROM
 DMF .                 KB:   DRILLING MEASURED FROM
 EGL .F              5147:   GROUND LEVEL
 DATE.        08-APR-1977:   RUN DATE
 RUN .                  1:   RUN NUMBER
 DD  .F               570:   DEPTH DRILLER
 DL  .F               567:   DEPTH LOGGER
 BLI .F               566:   BOTTOM LOG INTERVAL
 TLI .F                27:   TOP LOG INTERVAL
 CS  .IN            8.625:   CASING SIZE
 CBD .F                40:   CASING BOTTOM DRILLER
 CBL .F                33:   CASING BOTTOM LOGGER
 BS  .IN            7.875:   BIT SIZE
 BSD .F               570:   BIT SIZE AT DEPTH
 DFT .                KCL:   DRILLING FLUID TYPE
 DFD .                8.6:   DRILLING FLUID DENSITY
 DFV .                 31:   DRILLING FLUID VISCOSITY
 DFPH.                9.5:   DRILLING FLUID PH
 DFL .                8.6:   DRILLING FLUID LOSS
 MSS .           FLOWLINE:   MUD SAMPLE SOURCE
 RMS .OHMM          0.306:   RESISTIVITY MUD SAMPLE
 MST .F                78:   MUD SAMPLE TEMPERATURE
 RMF .OHMM          0.230:   RESISTIVITY MUD FILTRATE SAMPLE
 MFST.F                78:   MUD FILTRATE SAMPLE TEMPERATURE
 MFSS.               MEAS:   MUD FILTRATE SAMPLE SOURCE
 RMB .OHMM          0.341:   RESISTIVITY MUD AT BHT
 BHT .F                70:   BOTTOM HOLE TEMPERATURE
 TCS .HRS              20:   TIME CURCULATED STOPPED
 MRT .F                70:   MAXIMUM RECORDED TEMPERATURE
 LUN .               5642:   LOGGING UNIT NUMBER
 LUL .               CSPR:   LOGGING UNIT LOCATION
 ENGI.             MARTIN:   RECORDING ENGINEER
 WITN.               LYON:   WITNESSED BY
 CLNT.            A2DTECH:   CLIENT CODE
 ORIG.       2", 5" PRINT:   ORIGIN OF DATA
 UWI .       490251032900:   UNIQUE WELL ID
 DICO. A2D Technologies, Inc.:   DIGITIZING COMPANY
~OTHER INFORMATION
~A   DEPT     CALD         GRD      CORR       RHOB       DPHI        SPR        ILD        ILM        LL8   
# ...
  501.5000     8.0332   100.4361     0.0404     2.4601     0.1125   -67.0589    12.6287    13.1007    12.7908
  502.0000     8.0202   101.3700     0.0268     2.4662     0.1140   -67.2063    12.6305    13.0102    12.7908
  502.5000     8.0224   100.4773     0.0233     2.4678     0.1127   -67.5033    12.5451    13.0102    12.7908
  503.0000     8.0244    99.0076     0.0234     2.4611     0.1124   -67.8010    12.5468    12.9203    12.7025
  503.5000     8.0265    98.7302     0.0209     2.4371     0.1163   -68.0995    12.4620    12.9203    12.5277
  504.0000     8.0287    99.8043     0.0002     2.4496     0.1276   -68.3973    12.4638    12.6542    12.4411
  504.5000     8.0307    99.7804     0.0101     2.4630     0.1156   -68.5447    12.2941    12.5667    12.4411
  505.0000     8.0332    97.4763     0.0260     2.4748     0.1101   -68.6920    12.2111    12.4799    12.1851
  505.5000     8.0352    96.4281     0.0373     2.5069     0.0975   -68.6883    12.1285    12.2229    12.1010
  506.0000     8.0373    98.6893     0.0268     2.5052     0.0909   -68.5349    11.8810    12.2229    11.7701
  506.5000     8.0394    97.6667     0.0269     2.4888     0.0914   -68.3815    11.7867    11.9712    11.6889
  507.0000     8.0414    96.4899     0.0262     2.4686     0.1019   -68.2281    11.5450    11.8063    11.4483
  507.5000     8.0330    98.1550     0.0166     2.4634     0.1110   -68.3755    11.1686    11.4833    11.1353
  508.0000     8.0186   102.6466     0.0113     2.4755     0.1141   -68.3725    10.7903    11.0152    11.0584
  508.5000     8.0029   101.9220     0.0152     2.4719     0.1147   -68.5206    10.3529    10.4207    10.8309
  509.0000     8.0049   100.0052     0.0130     2.4517     0.1195   -68.8176     9.8647     9.9960    10.7536
  509.5000     8.0070   101.3671     0.0056     2.4300     0.1239   -69.1154     9.2704     9.2617    10.6080
  510.0000     8.0090   106.6038     0.0034     2.4278     0.1269   -69.5643     8.5921     8.7013    10.5348
  510.5000     8.0111   107.8167     0.0020     2.4264     0.1299   -70.1620     7.8540     7.8416    10.3180
  511.0000     8.0132   112.0101     0.0133     2.4100     0.1403   -70.9109     7.1298     7.2154    10.1057
  511.5000     8.0152   117.6939     0.0277     2.4206     0.1451   -71.6598     6.3394     6.8259     9.6941
  512.0000     8.0173   118.4988     0.0533     2.4184     0.1382   -72.2583     5.7948     6.6392     6.9992
  512.5000     8.0193   115.2016     0.0346     2.4110     0.1456   -72.5568     5.4835     6.5933     5.5683
  513.0000     8.0215   110.0061     0.0159     2.4268     0.1372   -72.7041     5.4462     6.6392     4.9839
  513.5000     8.0085   103.8815     0.0205     2.4517     0.1203   -71.9485     5.6001     6.8259     6.6678
  514.0000     8.0111    95.8894     0.0265     2.4969     0.1020   -71.1936     6.0021     7.1655    10.3180
  514.5000     8.0132    97.5847     0.0274     2.5015     0.1043   -70.2884     6.6595     7.5743    11.7701
  515.0000     8.0152    98.3658     0.0071     2.4592     0.1181   -69.8342     7.6491     8.0622    11.6081
  515.5000     8.0173   100.2783     0.0132     2.4633     0.1142   -69.5305     8.4869     8.7619    11.5280
  516.0000     8.0193   100.8950     0.0193     2.4865     0.1042   -69.5275     9.2870     9.7901    11.5280
  516.5000     8.0214   100.9156     0.0156     2.4988     0.1111   -69.3741     9.8170    10.5663    11.5280
  517.0000     8.0080   100.4891     0.0089     2.4689     0.1090   -69.3711    10.3056    10.9391    11.6889
  517.5000     8.0106    97.3749     0.0075     2.4870     0.1062   -69.2177    10.5963    11.2468    11.7701
  518.0000     8.0127   101.4245     0.0001     2.4969     0.1059   -69.2147    10.6714    11.4833    11.9344
  518.5000     7.9993   102.3341     0.0032     2.4759     0.1086   -69.2117    10.7470    11.5632    12.1010
  519.0000     7.9870   102.5089     0.0109     2.4903     0.1064   -69.0583    10.9739    11.5632    12.5277
  519.5000     7.9890   103.8708     0.0236     2.5062     0.1010   -69.0553    11.0516    11.5632    12.8798
  520.0000     7.9911   104.6366     0.0229     2.5123     0.0947   -69.0523    11.2072    11.6437    13.2418
  520.5000     7.9931   105.5514     0.0191     2.5093     0.0952   -68.8990    11.2866    11.8063    13.3339
  521.0000     7.9952   106.4662     0.0145     2.4899     0.1012   -68.8960    11.4454    11.8885    13.5200
  521.5000     7.9974   106.6621     0.0029     2.4772     0.1042   -68.8930    11.6065    12.0545    13.6140
  522.0000     8.0143   103.9739     0.0145     2.5028     0.1013   -68.8899    11.8516    12.2229    13.5200
  522.5000     8.0168   101.1629     0.0308     2.5150     0.0881   -68.8869    11.9356    12.3936    13.8041
  523.0000     8.0189    99.9910     0.0287     2.5008     0.0802   -68.8839    12.1876    12.5667    13.9001
  523.5000     8.0209   101.5072     0.0205     2.4881     0.0928   -68.8809    12.5314    12.8310    14.2908
  524.0000     8.0230   102.2679     0.0168     2.4934     0.0958   -68.8779    12.6202    13.0102    14.5910
  524.5000     8.0250   101.3428     0.0161     2.4974     0.0942   -68.8749    12.9762    13.2837    14.6925
  525.0000     8.0271    98.9317     0.0177     2.4823     0.1005   -68.8719    13.3422    13.8481    14.6925
  525.5000     8.0137    97.7098     0.0223     2.4933     0.1005   -69.0201    13.7186    14.4366    14.6925
  526.0000     8.0163    97.2884     0.0374     2.5119     0.0954   -69.0163    14.1055    14.7401    14.8138
  526.5000     8.0184    97.3090     0.0465     2.5110     0.0857   -68.8629    14.4034    14.8427    15.1055
  527.0000     8.0204    97.6277     0.0293     2.5000     0.0867   -68.4088    14.4054    15.0500    15.5301
  527.5000     8.0225    95.8599     0.0181     2.4843     0.0907   -67.8043    14.5074    15.1547    16.5295
  528.0000     8.0245    95.2793     0.0001     2.4754     0.0979   -67.1998    14.5094    15.1547    17.2314
  528.5000     8.0266    97.0934     0.0069     2.4920     0.1066   -66.8960    14.5114    14.9460    17.1124
  529.0000     8.0137   100.2437     0.0085     2.4959     0.1104   -66.7426    14.4128    14.8427    16.5295
  529.5000     8.0009   102.9468     0.0131     2.5117     0.1080   -66.7396    14.3159    14.6382    16.0776
  530.0000     8.0029   102.5203     0.0282     2.5170     0.0933   -66.5863    14.1206    14.4366    15.5301
  530.5000     7.9901   100.9016     0.0132     2.4939     0.0908   -66.5833    14.0256    14.1393    15.0004
  531.0000     7.9923   100.3261     0.0201     2.4842     0.0977   -66.5803    13.7393    14.0416    14.2908
  531.5000     7.9947   100.0486     0.0314     2.4858     0.1007   -66.5773    13.5524    13.7524    13.6140
  532.0000     7.9968    99.0260     0.0352     2.5054     0.0979   -66.5743    13.3679    13.6574    13.5200
  532.5000     7.9988    99.3447     0.0226     2.5138     0.0949   -66.5713    13.3698    13.6574    13.5200
  533.0000     8.0009    99.5143     0.0211     2.5063     0.0931   -66.5682    13.3717    13.5630    13.5200
  533.5000     8.0030    99.3836     0.0204     2.4801     0.0918   -66.5652    13.3735    13.5630    13.5200
  534.0000     7.9901    98.5028     0.0190     2.4756     0.1050   -66.4119    13.3754    13.5630    13.5200
  534.5000     7.9922    98.2349     0.0168     2.4848     0.1026   -66.2585    13.2850    13.5630    13.5200
  535.0000     7.9942    99.7221     0.0154     2.5022     0.0965   -66.1051    13.1952    13.3762    13.5200
  535.5000     7.9963   102.7522     0.0177     2.5113     0.0842   -66.1021    13.1060    13.2837    13.3339
  536.0000     7.9983   103.5128     0.0246     2.5029     0.0838   -66.0991    13.0174    13.1919    13.1504
  536.5000     8.0004   102.3411     0.0141     2.4760     0.0934   -66.0961    13.0192    13.0042    13.1504
  537.0000     8.0025   103.4101     0.0067     2.4775     0.1057   -66.0931    12.9312    12.9326    13.0596
  537.5000     8.0045   107.0075     0.0135     2.4978     0.1015   -66.0901    12.6673    12.8609    12.7908
