~VERSION INFORMATION
 VERS.                2.0:   CWLS LOG ASCII STANDARD - VERSION 2.0
 WRAP.                 NO:   ONE LINE PER DEPTH STEP
~WELL INFORMATION
#MNEM.UNIT      DATA TYPE    INFORMATION
#----------   ------------   ------------------------------
 STRT.F           36.0000:   START DEPTH
 STOP.F          700.0000:   STOP DEPTH
 STEP.F            0.5000:   STEP LENGTH
 NULL.          -999.2500:   NO VALUE
 COMP. FENIX & SCISSON INC:   COMPANY
 WELL. NPR #3 13SX14 #13-14:   WELL
 FLD .             TEAPOT:   FIELD
 LOC .      S14 T38N R78W:   LOCATION
 CNTY.            NATRONA:   COUNTY
 STAT.            WYOMING:   STATE
 CTRY. UNITED STATES OF AMERICA:   COUNTRY
 SRVC.              Welex:   SERVICE COMPANY
 DATE.        28-FEB-1977:   LOGDATE
 API .       490251029600:   API NUMBER
~CURVE INFORMATION
#MNEM.UNIT       API CODE    CURVE DESCRIPTION
#----------   ------------   ------------------------------
 DEPT.F                  :   
 CALD.IN     45 280 60 00:   CALIPER FROM DENSITY LOG
 GRD .GAPI   45 310 01 00:   GAMMA RAY FROM DENSITY LOG
 CORR.G/C3   45 356 01 00:   DENSITY CORRECTION
 RHOB.G/C3   45 350 01 00:   BULK DENSITY
 DPHI.DEC    45 890 12 00:   DENSITY POROSITY SANDSTONE
 SPR .MV     07 010 01 00:   SPONTANEOUS POTENTIAL
 SGRD.OHMM   07 220 05 00:   SHALLOW RESISTIVITY
 ILD .OHMM   07 120 46 00:   INDUCTION LOG DEEP
 ILM .OHMM   07 120 44 00:   INDUCTION LOG MEDIUM
~PARAMETER INFORMATION
#MNEM.UNIT          VALUE    DESCRIPTION
#----------   ------------   ------------------------------
 PD  .                 GL:   PERMANENT DATUM
 EPD .F              5238:   ELEVATION PERMANENT DATUM
 LMF .                 GL:   LOG MEASURED FROM
 DMF .                 GL:   DRILLING MEASURED FROM
 EGL .F              5238:   GROUND LEVEL
 DATE.            2-28-77:   RUN DATE
 RUN .                  1:   RUN NUMBER
 DD  .F               710:   DEPTH DRILLER
 DL  .F               706:   DEPTH LOGGER
 BLI .F               704:   BOTTOM LOG INTERVAL
 TLI .F                42:   TOP LOG INTERVAL
 CS  .IN            8.625:   CASING SIZE
 CBD .F                42:   CASING BOTTOM DRILLER
 CBL .F                42:   CASING BOTTOM LOGGER
 BS  .IN            7.875:   BIT SIZE
 BSD .F               710:   BIT SIZE AT DEPTH
 DFT .           CHEM-GEL:   DRILLING FLUID TYPE
 DFD .                8.7:   DRILLING FLUID DENSITY
 DFV .                 33:   DRILLING FLUID VISCOSITY
 DFPH.                  7:   DRILLING FLUID PH
 DFL .                  8:   DRILLING FLUID LOSS
 MSS .          FLOW LINE:   MUD SAMPLE SOURCE
 RMS .OHMM           .382:   RESISTIVITY MUD SAMPLE
 MST .F                54:   MUD SAMPLE TEMPERATURE
 RMF .OHMM           .342:   RESISTIVITY MUD FILTRATE SAMPLE
 MFST.F                54:   MUD FILTRATE SAMPLE TEMPERATURE
 RMC .OHMM           .821:   RESISTIVITY MUD CAKE
 MCST.F                54:   MUD CAKE SAMPLE TEMPERATURE
 MFSS.           MEASURED:   MUD FILTRATE SAMPLE SOURCE
 MCSS.           MEASURED:   MUD CAKE SAMPLE SOURCE
 RMB .OHMM           .333:   RESISTIVITY MUD AT BHT
 BHT .F                62:   BOTTOM HOLE TEMPERATURE
 TCS .HRS               3:   TIME CURCULATED STOPPED
 MRT .F                62:   MAXIMUM RECORDED TEMPERATURE
 LUN .               8611:   LOGGING UNIT NUMBER
 LUL .           GILLETTE:   LOGGING UNIT LOCATION
 ENGI.               DOAK:   RECORDING ENGINEER
 WITN.               JAPP:   WITNESSED BY
 CLNT.            A2DTECH:   CLIENT CODE
 ORIG.       2", 5" PRINT:   ORIGIN OF DATA
 UWI .       490251029600:   UNIQUE WELL ID
 DICO. A2D Technologies, Inc.:   DIGITIZING COMPANY
~OTHER INFORMATION
~A   DEPT       CALD       GRD       CORR        RHOB     DPHI         SPR        SGRD      ILD        ILM   
# ...
  401.0000     8.0261   124.7790     0.0117     2.4776     0.1004   -42.9414    10.1044     6.6251     7.5790
  401.5000     8.0286   125.3324     0.0072     2.4698     0.1050   -43.1792    10.2032     6.7274     7.9242
  402.0000     8.0310   125.8740     0.0078     2.4759     0.1003   -43.1860    10.0225     6.8314     8.1999
  402.5000     8.0335   126.4314     0.0089     2.4842     0.0966   -43.1121     9.9249     6.9370     8.2757
  403.0000     8.0359   125.2406     0.0099     2.4858     0.0934   -43.0349     9.9741     7.0442     8.3522
  403.5000     8.0384   122.5732     0.0110     2.4877     0.0931   -42.9596    10.0124     7.1530     8.4072
  404.0000     8.0408   121.6221     0.0120     2.4913     0.0907   -42.8851    10.0802     7.2636     8.3013
  404.5000     8.0433   122.3705     0.0130     2.4966     0.0882   -43.0025    10.1734     7.3758     8.2198
  405.0000     8.0458   120.8665     0.0140     2.5006     0.0857   -43.2402    10.2674     7.5576     8.1779
  405.5000     8.0482   119.2753     0.0150     2.5041     0.0831   -43.2039    10.3623     7.7378     8.8328
  406.0000     8.0507   120.8715     0.0160     2.5017     0.0852   -43.1757    10.4581     7.5275     9.5655
  406.5000     8.0532   122.9336     0.0167     2.5000     0.0866   -43.1477    10.7836     7.3892     9.1346
  407.0000     8.0556   124.1665     0.0148     2.5038     0.0830   -43.1191    10.8907     7.3892     9.4952
  407.5000     8.0581   123.0951     0.0130     2.5077     0.0803   -43.0905    10.9913     7.4846    10.0168
  408.0000     8.0605   122.1280     0.0110     2.5117     0.0831   -43.0631    11.0860     7.5957     9.3937
  408.5000     8.0584   123.8756     0.0131     2.5138     0.0767   -43.0685    11.0860     7.7083     8.8866
  409.0000     8.0518   126.2196     0.0170     2.5112     0.0791   -43.1853    11.3763     7.8226     9.1574
  409.5000     8.0452   124.9952     0.0209     2.5084     0.0816   -43.2988    11.9345     7.9412     9.4154
  410.0000     8.0385   122.7768     0.0248     2.5089     0.0801   -43.4120    11.5290     7.8504     9.6853
  410.5000     8.0319   122.0167     0.0287     2.5176     0.0743   -43.5260    11.0853     7.7309     9.9249
  411.0000     8.0252   124.6267     0.0260     2.5161     0.0761   -43.6403    11.3381     7.6668     9.7751
  411.5000     8.0186   123.4697     0.0228     2.5125     0.0802   -43.7500    11.5835     7.7559     9.6355
  412.0000     8.0120   121.7267     0.0197     2.5153     0.0772   -43.7404    11.7165     7.8276     9.4808
  412.5000     8.0054   122.6848     0.0216     2.5250     0.0717   -43.3047    11.0860     7.9000     9.6022
  413.0000     8.0057   124.4713     0.0263     2.5343     0.0662   -43.3617    11.2923     7.9732     9.6926
  413.5000     8.0130   125.0750     0.0311     2.5435     0.0606   -43.6313    10.2977     8.0292     9.7444
  414.0000     8.0203   122.8450     0.0359     2.5499     0.0552   -43.8490    10.3885     7.8997     9.5833
  414.5000     8.0276   124.0952     0.0406     2.5387     0.0599   -43.6683    10.5953     7.6163     9.3400
  415.0000     8.0350   126.7724     0.0364     2.5275     0.0662   -43.4664    10.8834     7.3892     9.1030
  415.5000     8.0423   125.3652     0.0317     2.5224     0.0725   -43.5689    10.6839     7.3892     8.8719
  416.0000     8.0496   122.8244     0.0271     2.5150     0.0788   -43.7195    10.2427     7.3892     8.6467
  416.5000     8.0569   119.9156     0.0224     2.5073     0.0851   -43.8349     9.8338     7.2542     8.4273
  417.0000     8.0642   121.7282     0.0177     2.4997     0.0898   -43.6811    10.0227     7.0417     8.2134
  417.5000     8.0716   125.6903     0.0132     2.4920     0.0922   -43.5298    10.2032     6.8008     7.9923
  418.0000     8.0789   129.1927     0.0158     2.4842     0.0945   -43.5993     9.5951     6.4249     7.7747
  418.5000     8.0862   130.0872     0.0188     2.4836     0.0970   -43.9777     9.0097     6.0798     7.3548
  419.0000     8.0936   130.8961     0.0218     2.4852     0.0945   -43.9330     8.4600     5.7609     6.9172
  419.5000     8.1012   131.7104     0.0247     2.4868     0.0918   -43.8424     7.9548     5.2783     6.5056
  420.0000     8.0976   132.5775     0.0277     2.4850     0.0986   -43.8805     7.5236     4.8522     6.1186
  420.5000     8.0929   131.6448     0.0307     2.4816     0.0955   -43.9157     7.0381     4.3851     5.7609
  421.0000     8.0883   130.0677     0.0337     2.4855     0.0930   -43.9511     6.5839     3.9630     5.1022
  421.5000     8.0837   128.4733     0.0367     2.4803     0.0983   -43.9870     6.1590     3.5815     4.5285
  422.0000     8.0792   125.7133     0.0396     2.4685     0.1095   -44.0207     5.6037     3.2368     4.0194
  422.5000     8.0746   122.4707     0.0430     2.4478     0.1238   -44.1348     4.8117     2.9688     3.5674
  423.0000     8.0700   119.2220     0.0397     2.4255     0.1380   -44.2068     4.1392     2.7815     3.1663
  423.5000     8.0654   115.9736     0.0349     2.4001     0.1523   -44.1409     3.5606     2.6070     2.9602
  424.0000     8.0608   112.7375     0.0299     2.3743     0.1667   -44.0776     2.9498     2.5126     2.8834
  424.5000     8.0563   110.1085     0.0249     2.3486     0.1810   -44.1235     3.3378     2.5115     2.9120
  425.0000     8.0517   109.4950     0.0199     2.3382     0.1843   -44.3456     4.2497     2.5355     2.9567
  425.5000     8.0471   109.6540     0.0149     2.3406     0.1803   -44.3544     3.5341     2.6912     3.0776
  426.0000     8.0425   114.4049     0.0099     2.3656     0.1665   -44.1574     6.1449     2.8330     3.4273
  426.5000     8.0379   118.9258     0.0051     2.3891     0.1507   -44.1176     4.6661     3.1094     3.8204
  427.0000     8.0333   123.5508     0.0042     2.4124     0.1350   -44.3317     5.4811     3.4141     4.2585
  427.5000     8.0288   125.8684     0.0034     2.4349     0.1243   -44.5449     8.1066     3.7488     4.7469
  428.0000     8.0242   127.6262     0.0027     2.4477     0.1175   -44.4980     8.8152     4.1163     5.2913
  428.5000     8.0244   129.3225     0.0019     2.4607     0.1086   -44.2749     8.4380     4.5201     5.7207
  429.0000     8.0294   131.0326     0.0012     2.4735     0.0990   -44.3404     8.0786     4.9708     5.8924
  429.5000     8.0344   132.8799     0.0027     2.4769     0.1014   -44.4681     7.6668     5.1796     6.0693
  430.0000     8.0393   135.9785     0.0068     2.4620     0.1071   -44.6005     7.8577     5.4008     6.2515
  430.5000     8.0443   139.2003     0.0105     2.4511     0.1128   -44.3823     8.1090     5.5013     6.4391
  431.0000     8.0493   138.6499     0.0143     2.4550     0.1143   -44.0844     8.3683     5.4008     6.6766
  431.5000     8.0543   137.7950     0.0180     2.4595     0.1120   -44.4732     8.6430     5.2829     6.3928
  432.0000     8.0593   138.1119     0.0218     2.4639     0.1098   -44.5220     8.7231     5.1345     6.0446
  432.5000     8.0642   138.8524     0.0256     2.4592     0.1145   -44.3385     7.2164     4.9897     5.7154
  433.0000     8.0692   139.5930     0.0243     2.4392     0.1219   -44.1565     5.4008     4.8488     5.4040
  433.5000     8.0742   140.3230     0.0204     2.4191     0.1294   -44.1388     6.3186     4.7456     5.0633
  434.0000     8.0791   139.6913     0.0164     2.3980     0.1381   -44.4192     7.8095     4.7462     5.0168
  434.5000     8.0754   136.4572     0.0123     2.4060     0.1329   -44.1986     6.9945     4.7469     5.2443
  435.0000     8.0630   133.2470     0.0125     2.4250     0.1267   -44.0754     5.6556     4.7997     5.4912
  435.5000     8.0506   131.5286     0.0148     2.4436     0.1204   -44.3444     7.9908     4.8552     5.7498
  436.0000     8.0381   131.0306     0.0171     2.4518     0.1158   -44.6062     8.7478     4.9252     6.0205
  436.5000     8.0256   132.5544     0.0194     2.4587     0.1118   -44.7773     7.9193     5.1735     6.3039
  437.0000     8.0132   134.7772     0.0217     2.4657     0.1076   -44.3755     7.3958     5.4546     6.6007
