~VERSION INFORMATION
 VERS.                2.0:   CWLS LOG ASCII STANDARD - VERSION 2.0
 WRAP.                 NO:   ONE LINE PER DEPTH STEP
~WELL INFORMATION
#MNEM.UNIT      DATA TYPE    INFORMATION
#----------   ------------   ------------------------------
 STRT.F           14.0000:   START DEPTH
 STOP.F          549.0000:   STOP DEPTH
 STEP.F            0.5000:   STEP LENGTH
 NULL.          -999.2500:   NO VALUE
 COMP.   LAWRENCE-ALLISON:   COMPANY
 WELL.    NPR 3 #58-64SX3:   WELL
 FLD .           NPR NO 3:   FIELD
 LOC .       S3 T38N R78W:   LOCATION
 CNTY.            NATRONA:   COUNTY
 STAT.            WYOMING:   STATE
 CTRY. UNITED STATES OF AMERICA:   COUNTRY
 SRVC.      Dresser Atlas:   SERVICE COMPANY
 DATE.        05-DEC-1984:   LOGDATE
 API .       490251099700:   API NUMBER
~CURVE INFORMATION
#MNEM.UNIT       API CODE    CURVE DESCRIPTION
#----------   ------------   ------------------------------
 DEPT.F                  :   
 RFOC.OHMM   07 220 04 00:   RESISTIVITY FOCUSED LOG
 RILD.OHMM   07 120 46 00:   INDUCTION LOG DEEP RESISTIVITY
 RILM.OHMM   07 120 44 00:   INDUCTION LOG MEDIUM RESISTIVITY
 SPR .MV     07 010 01 00:   SPONTANEOUS POTENTIAL
 DT  .US/F   60 520 00 00:   INTERVAL TRANSIT TIME
 CALD.IN     45 280 60 00:   CALIPER FROM DENSITY LOG
 CORR.G/C3   45 356 01 00:   DENSITY CORRECTION
 CNC .DEC    42 890 03 00:   NEUTRON POROSITY SANDSTONE
 DEN .G/C3   45 350 01 00:   COMPENSATED BULK DENSTIY
 GRD .GAPI   45 310 01 00:   GAMMA RAY FROM DENSITY LOG
 PORD.DEC    45 890 12 00:   POROSITY DENSITY SANDSTONE
~PARAMETER INFORMATION
#MNEM.UNIT          VALUE    DESCRIPTION
#----------   ------------   ------------------------------
 PD  .                 GL:   PERMANENT DATUM
 EPD .F              5188:   ELEVATION PERMANENT DATUM
 LMF .                 KB:   LOG MEASURED FROM
 DMF .                 KB:   DRILLING MEASURED FROM
 EGL .F              5188:   GROUND LEVEL
 DATE.        05-DEC-1984:   RUN DATE
 RUN .                  1:   RUN NUMBER
 DD  .F               556:   DEPTH DRILLER
 DL  .F               551:   DEPTH LOGGER
 BLI .F               548:   BOTTOM LOG INTERVAL
 CS  .IN            8.625:   CASING SIZE
 CBD .F                20:   CASING BOTTOM DRILLER
 CBL .F                20:   CASING BOTTOM LOGGER
 BS  .IN            7.875:   BIT SIZE
 BSD .F               556:   BIT SIZE AT DEPTH
 DFT .          KCL WATER:   DRILLING FLUID TYPE
 MSS .           FLOWLINE:   MUD SAMPLE SOURCE
 RMS .OHMM            .36:   RESISTIVITY MUD SAMPLE
 MST .F                70:   MUD SAMPLE TEMPERATURE
 RMF .OHMM            .26:   RESISTIVITY MUD FILTRATE SAMPLE
 MFST.F                70:   MUD FILTRATE SAMPLE TEMPERATURE
 RMC .OHMM            .46:   RESISTIVITY MUD CAKE
 MCST.F                70:   MUD CAKE SAMPLE TEMPERATURE
 MFSS.               CALC:   MUD FILTRATE SAMPLE SOURCE
 MCSS.               CALC:   MUD CAKE SAMPLE SOURCE
 RMB .OHMM            .29:   RESISTIVITY MUD AT BHT
 BHT .F                85:   BOTTOM HOLE TEMPERATURE
 TCS .HRS               3:   TIME CURCULATED STOPPED
 MRT .F               100:   MAXIMUM RECORDED TEMPERATURE
 LUN .               6274:   LOGGING UNIT NUMBER
 LUL .               GLTE:   LOGGING UNIT LOCATION
 ENGI.             PAUTIO:   RECORDING ENGINEER
 WITN.       GROONS/LUERS:   WITNESSED BY
 CLNT.            A2DTECH:   CLIENT CODE
 ORIG.           5" PRINT:   ORIGIN OF DATA
 UWI .       490251099700:   UNIQUE WELL ID
 DICO. A2D Technologies, Inc.:   DIGITIZING COMPANY
~OTHER INFORMATION
~A   DEPT     RFOC       RILD       RILM        SPR         DT       CALD       CORR          CNC      DEN         GRD      PORD   
# ...
   44.5000    10.1413     8.3498    10.2049   -62.3108   110.3536     8.1133     0.0336     0.2977     2.4848   120.5967     0.1137
   45.0000    10.2083     8.2829    10.3456   -62.1677   110.4369     8.1278     0.0414     0.2971     2.4855   119.6499     0.1131
   45.5000    10.2009     8.2768    10.3360   -62.0245   110.2028     8.1113     0.0492     0.2965     2.4854   117.4689     0.1154
   46.0000    10.3438     8.2708    10.3266   -62.0348   109.7306     8.1304     0.0554     0.2959     2.4830   115.2878     0.1164
   46.5000    10.3362     8.2045    10.1675   -61.8914   109.8139     8.1201     0.0441     0.2953     2.4821   114.9586     0.1168
   47.0000    10.1788     8.2587    10.0109   -61.7481   109.5797     8.1099     0.0344     0.2941     2.4821   116.1728     0.1168
   47.5000    10.0237     8.2527     9.8550   -61.4515   109.0281     8.1147     0.0263     0.2928     2.4836   118.0040     0.1162
   48.0000     9.8710     8.2466     9.7744   -61.3083   108.3972     8.1396     0.0293     0.2897     2.4883   116.7489     0.1137
   48.5000     9.7207     8.3621     9.6239   -61.0117   108.1631     8.1206     0.0371     0.2840     2.4922   114.2592     0.1124
   49.0000     9.5713     8.3560     9.4068   -60.7176   108.0867     8.1041     0.0401     0.2860     2.4914   112.3868     0.1128
   49.5000     9.5071     8.4730     9.3983   -60.5744   108.0122     8.1185     0.0352     0.2914     2.4913   112.3662     0.1128
   50.0000     9.5698     8.6546     9.2556   -60.4311   107.9359     8.1329     0.0286     0.2828     2.4889   112.9630     0.1123
   50.5000     9.6329     8.6451     9.4530   -60.2854   107.7841     8.1477     0.0222     0.2711     2.4912   114.1876     0.1110
   51.0000     9.7675     8.8302     9.5825   -60.1421   107.5525     8.1468     0.0205     0.2620     2.4943   116.0302     0.1104
   51.5000     9.8319     8.9513     9.6470   -59.9989   107.0827     8.1460     0.0204     0.2578     2.4967   119.1074     0.1086
   52.0000     9.8246     8.8748     9.5684   -59.8557   107.0891     8.1452     0.0220     0.2677     2.4974   117.8636     0.1064
   52.5000     9.8174     8.7370     9.4221   -59.5591   107.6511     8.1445     0.0283     0.2747     2.4998   116.3112     0.1042
   53.0000     9.8102     8.6014     9.2780   -59.6123   108.1337     8.1282     0.0361     0.2830     2.5053   112.9069     0.0998
   53.5000     9.8031     8.5300     9.2705   -59.7785   108.7750     8.1275     0.0456     0.2853     2.5156   110.4286     0.0967
   54.0000     9.7945     8.4593     9.2631   -59.9446   109.0973     8.1267     0.0471     0.2866     2.5107   112.2712     0.0992
   54.5000     9.7874     8.4507     9.3276   -60.1108   108.8672     8.1105     0.0423     0.2892     2.5059   115.3484     0.1018
   55.0000     9.7803     8.3805     9.3844   -60.4385   108.4768     8.1097     0.0406     0.2896     2.5035   119.6602     0.1025
   55.5000     9.7022     8.3676     9.3768   -60.7508   107.9276     8.1089     0.0453     0.2883     2.5019   117.7991     0.1012
   56.0000     9.6247     8.3024     9.3011   -60.9354   106.9817     8.1082     0.0516     0.2794     2.5066   114.7035     0.1000
   56.5000     9.5477     8.2334     9.2936   -61.2569   106.5896     8.1074     0.0483     0.2737     2.5296   112.5338     0.0928
   57.0000     9.5408     8.2250     9.2861   -61.7108   107.3913     8.1066     0.0419     0.2769     2.5415   110.9814     0.0817
   57.5000     9.4646     8.2150     9.3469   -62.0308   108.1120     8.1059     0.0386     0.2817     2.5510   110.9721     0.0806
   58.0000     9.3890     8.2066     9.3392   -62.3508   108.9914     8.1051     0.0449     0.2833     2.5406   112.8148     0.0862
   58.5000     9.3821     8.1983     9.3317   -62.5431   109.6327     8.1043     0.0576     0.2846     2.5254   117.1306     0.0914
   59.0000     9.2395     8.1900     9.3242   -62.6831   109.4804     8.1036     0.0686     0.2860     2.5127   118.3519     0.0971
   59.5000     9.1657     8.1817     9.3167   -62.6954   109.2471     8.1028     0.0797     0.2886     2.5039   118.9887     0.1020
   60.0000     9.1590     8.1734     9.3092   -62.7101   109.4932     8.1020     0.0732     0.2959     2.5014   121.7901     0.1026
   60.5000     9.0858     8.1651     9.3017   -62.7224   109.4996     8.1012     0.0668     0.3000     2.5014   123.8798     0.1014
   61.0000     9.1458     8.0973     9.2943   -62.7347   109.3457     8.1005     0.0731     0.3007     2.5045   121.5453     0.0998
   61.5000     9.1391     8.0891     9.2868   -62.5901   109.2606     8.1152     0.0778     0.3005     2.5076   119.5412     0.0993
   62.0000     9.1325     8.1403     9.2793   -62.4485   109.1111     8.1142     0.0666     0.2904     2.5140   120.4579     0.0974
   62.5000     9.1259     8.1320     9.2719   -62.0023   108.8888     8.1135     0.0569     0.2818     2.5187   119.2118     0.0943
   63.0000     9.1877     8.1855     9.3327   -61.5530   108.6534     8.0972     0.0505     0.2825     2.5258   117.0421     0.0911
   63.5000     9.3144     8.2351     9.3936   -60.9499   108.3452     8.0965     0.0440     0.2796     2.5282   113.6378     0.0899
   64.0000     9.3076     8.2268     9.3857   -60.6515   108.0350     8.0957     0.0392     0.2802     2.5281   112.0854     0.0896
   64.5000     9.3707     8.2184     9.3781   -60.6668   107.8032     8.0949     0.0407     0.2813     2.5288   113.3108     0.0887
   65.0000     9.4999     8.2725     9.4397   -60.6791   107.4129     8.1096     0.0470     0.2899     2.5312   117.0052     0.0878
   65.5000     9.5628     8.3248     9.6391   -60.6913   106.9431     8.1088     0.0487     0.2966     2.5295   125.9467     0.0889
   66.0000     9.7671     8.3520     9.7751   -60.5467   106.5527     8.1114     0.0420     0.2919     2.5247   129.6435     0.0914
   66.5000     9.9038     8.3939     9.9110   -60.4051   106.8765     8.1230     0.0372     0.2894     2.5183   127.4714     0.0943
   67.0000    10.1154     8.4198    10.0488   -60.4205   107.2798     8.1220     0.0371     0.2929     2.5119   125.6104     0.0979
   67.5000    10.1823     8.4111    10.0387   -60.2758   107.3655     8.1212     0.0418     0.2971     2.5087   123.7493     0.0992
   68.0000    10.2494     8.5264     9.9576   -60.1343   107.0545     8.1205     0.0497     0.2981     2.5054   119.4191     0.0992
   68.5000    10.3925     8.5178     9.9497   -60.1496   106.8228     8.1197     0.0496     0.2982     2.5030   116.0148     0.1012
   69.0000    10.3084     8.5716     9.9417   -60.1619   106.5911     8.1189     0.0384     0.2992     2.5022   112.6106     0.1060
   69.5000    10.1526     8.6258    10.0085   -60.1742   106.4372     8.1027     0.0271     0.3052     2.4997   111.0581     0.1099
   70.0000    10.0665     8.6170     9.9985   -59.8788   106.6039     8.1176     0.0159     0.3142     2.4957   112.2835     0.1115
   70.5000     9.9182     8.7352     9.9178   -59.8910   106.9278     8.1199     0.0175     0.3227     2.4980   114.7434     0.1115
   71.0000     9.8389     8.7904     9.9098   -60.3649   107.0136     8.1468     0.0238     0.3186     2.4996   120.2898     0.1109
   71.5000     9.8317     8.8459     9.9019   -61.4541   106.6231     8.1460     0.0301     0.3133     2.4972   125.5275     0.1097
   72.0000     9.8246     8.9018     9.8939   -61.7740   106.3105     8.1452     0.0348     0.3069     2.4939   121.5059     0.1104
   72.5000     9.8160     8.9581     9.8874   -61.7863   106.6360     8.1445     0.0362     0.3067     2.4907   120.8794     0.1127
   73.0000     9.8825     9.0147     9.8781   -61.6417   106.8805     8.1437     0.0395     0.3054     2.4835   120.5615     0.1159
   73.5000     9.9477     9.0717     9.8702   -61.1955   107.0456     8.1429     0.0375     0.3029     2.4779   120.5523     0.1191
   74.0000    10.0133     9.0602     9.8623   -60.5893   106.9710     8.1422     0.0310     0.2985     2.4739   120.2345     0.1217
   74.5000    10.0042     9.0510     9.9286   -60.2939   106.9778     8.1414     0.0261     0.2958     2.4714   120.2253     0.1240
