~VERSION INFORMATION
 VERS.                2.0:   CWLS LOG ASCII STANDARD - VERSION 2.0
 WRAP.                 NO:   ONE LINE PER DEPTH STEP
~WELL INFORMATION
#MNEM.UNIT      DATA TYPE    INFORMATION
#----------   ------------   ------------------------------
 STRT.F            0.0000:   START DEPTH
 STOP.F          743.0000:   STOP DEPTH
 STEP.F            0.5000:   STEP LENGTH
 NULL.          -999.2500:   NO VALUE
 COMP. LAWRENCE/ALLISON INC:   COMPANY
 WELL.   NPR 3 #33-16SX11:   WELL
 FLD .                NPR:   FIELD
 LOC .      S11 T38N R78W:   LOCATION
 CNTY.            NATRONA:   COUNTY
 STAT.            WYOMING:   STATE
 CTRY. UNITED STATES OF AMERICA:   COUNTRY
 SRVC.           Gearhart:   SERVICE COMPANY
 DATE.        05-JUN-1986:   LOGDATE
 API .       490251107500:   API NUMBER
~CURVE INFORMATION
#MNEM.UNIT       API CODE    CURVE DESCRIPTION
#----------   ------------   ------------------------------
 DEPT.F                  :   
 GRR .GAPI   07 310 01 00:   GAMMA RAY
 RILD.OHMM   07 120 46 00:   INDUCTION LOG DEEP RESISTIVITY
 RILM.OHMM   07 120 44 00:   INDUCTION LOG MEDIUM RESISTIVITY
 RLL .OHMM   07 220 00 00:   LATEROLOG RESISTIVITY
 SPR .MV     07 010 01 00:   SPONTANEOUS POTENTIAL
~PARAMETER INFORMATION
#MNEM.UNIT          VALUE    DESCRIPTION
#----------   ------------   ------------------------------
 PD  .                 GL:   PERMANENT DATUM
 EPD .F              5175:   ELEVATION PERMANENT DATUM
 LMF .                 KB:   LOG MEASURED FROM
 DMF .                 KB:   DRILLING MEASURED FROM
 EKB .F              5175:   KELLING BUSHING
 EGL .F              5175:   GROUND LEVEL
 DATE.        05-JUN-1986:   RUN DATE
 RUN .                  1:   RUN NUMBER
 DD  .F               736:   DEPTH DRILLER
 DL  .F               744:   DEPTH LOGGER
 BLI .F               743:   BOTTOM LOG INTERVAL
 TLI .F                42:   TOP LOG INTERVAL
 CS  .IN            8.625:   CASING SIZE
 CBD .F                42:   CASING BOTTOM DRILLER
 CBL .F                42:   CASING BOTTOM LOGGER
 BS  .IN            7.875:   BIT SIZE
 BSD .F               736:   BIT SIZE AT DEPTH
 DFT .           KCL- GEL:   DRILLING FLUID TYPE
 DFD .                9.2:   DRILLING FLUID DENSITY
 DFV .                 42:   DRILLING FLUID VISCOSITY
 DFPH.                 11:   DRILLING FLUID PH
 MSS .           FLOWLINE:   MUD SAMPLE SOURCE
 RMS .OHMM            .51:   RESISTIVITY MUD SAMPLE
 MST .F                81:   MUD SAMPLE TEMPERATURE
 RMF .OHMM            .48:   RESISTIVITY MUD FILTRATE SAMPLE
 MFST.F                65:   MUD FILTRATE SAMPLE TEMPERATURE
 RMC .OHMM            .81:   RESISTIVITY MUD CAKE
 MCST.F                66:   MUD CAKE SAMPLE TEMPERATURE
 MFSS.               MEAS:   MUD FILTRATE SAMPLE SOURCE
 MCSS.               MEAS:   MUD CAKE SAMPLE SOURCE
 RMB .OHMM            .47:   RESISTIVITY MUD AT BHT
 BHT .F                90:   BOTTOM HOLE TEMPERATURE
 TCS .HRS            1930:   TIME CURCULATED STOPPED
 TLAB.HRS            2114:   TIME LOGGER AT BOTTOM
 LUN .               7609:   LOGGING UNIT NUMBER
 LUL .           GILLETTE:   LOGGING UNIT LOCATION
 ENGI. WEATHERMON/ JOHNSTON:   RECORDING ENGINEER
 WITN.           LENNINGS:   WITNESSED BY
 CLNT.            A2DTECH:   CLIENT CODE
 ORIG.           5" PRINT:   ORIGIN OF DATA
 UWI .       490251107500:   UNIQUE WELL ID
 DICO. A2D Technologies, Inc.:   DIGITIZING COMPANY
~OTHER INFORMATION
~A    DEPT     GRR       RILD       RILM        RLL        SPR   
# ...
  183.0000    87.3077     7.6207     7.4971     9.0048   -36.6188
  183.5000    88.2123     7.6751     7.6041     9.3928   -37.0777
  184.0000    87.9029     7.7299     7.6592     9.9357   -37.5358
  184.5000    88.8062     7.7310     7.6075    10.7548   -37.9940
  185.0000    89.1052     7.7320     7.6090    11.1956   -38.3105
  185.5000    88.7944     7.6261     7.5572    10.6630   -38.4551
  186.0000    90.0025     7.4690     7.4542     9.8061   -38.3063
  186.5000    92.1211     7.2642     7.3005     9.1451   -38.3099
  187.0000    94.2397     7.0159     7.1019     8.4692   -38.3128
  187.5000    92.6910     6.8714     6.9557     8.2370   -38.4675
  188.0000    90.2811     6.7299     6.8132     8.4139   -38.6222
  188.5000    88.7578     6.6357     6.6733     8.6545   -38.9500
  189.0000    87.8415     6.5009     6.5821     8.7166   -39.3875
  189.5000    87.5321     6.4563     6.5376     8.5373   -39.6939
  190.0000    87.8312     6.4123     6.4034     8.3037   -40.0003
  190.5000    88.7344     6.3685     6.3601     8.1899   -40.6102
  191.0000    89.6390     6.3253     6.3174     8.3074   -41.8271
  191.5000    89.9366     6.3261     6.3187     8.4262   -41.6783
  192.0000    90.2342     6.3252     6.3200     8.7281   -42.4406
  192.5000    90.5304     6.2838     6.3656     8.7912   -43.3540
  193.0000    89.6141     6.2849     6.3669     8.7929   -42.9017
  193.5000    86.2698     6.2857     6.4131     8.7947   -41.9942
  194.0000    82.6221     6.2866     6.4144     8.7966   -41.0866
  194.5000    80.4918     6.3758     6.5059     8.0899   -41.5448
  195.0000    88.9822     6.4214     6.5528     8.3213   -42.8024
  195.5000    95.0461     6.5602     6.6463     8.5593   -43.6758
  196.0000    99.5926     6.7451     6.7437     8.8659   -42.9200
  196.5000    98.3728     6.8409     6.9338     8.9300   -42.1642
  197.0000    94.4216     6.9866     7.0327     9.3188   -41.7119
  197.5000    93.2018     7.0858     7.1331     9.4485   -41.8665
  198.0000    93.1958     7.1365     7.1845     9.0618   -41.8615
  198.5000    92.8851     7.1874     7.1860     9.3209   -41.7206
  199.0000    92.5757     7.1884     7.2378     9.6548   -42.1795
  199.5000    91.6594     7.1896     7.1888     9.8617   -42.3335
  200.0000    88.9759     7.1403     7.1315    10.0733   -41.8208
  200.5000    86.1912     7.1419     7.0426     9.9353   -41.4264
  201.0000    88.0121     7.0937     7.0443     9.7309   -41.7299
  201.5000    90.1648     6.9967     7.0458     9.5976   -42.3509
  202.0000    92.6697     6.9418     6.9924     9.5326   -43.1219
  202.5000    91.6540     6.8545     6.9025     9.5345   -42.9439
  203.0000    88.6191     6.7611     6.8082     9.5365   -42.7921
  203.5000    86.1912     6.7151     6.7622     9.5389   -44.3096
  204.0000    84.3703     6.6697     6.7165     9.4738   -45.5235
  204.5000    83.7633     6.6714     6.7182     9.1503   -44.1578
  205.0000    84.9772     6.6728     6.7196     9.0245   -44.7648
  205.5000    87.7450     6.7680     6.7680     9.0902   -44.7557
  206.0000    91.0470     6.8646     6.8169     9.0921   -45.2200
  206.5000    91.9575     7.0117     6.9210     9.0939   -46.5857
  207.0000    90.7436     7.1616     7.1118     9.3611   -48.4067
  207.5000    89.2261     7.3147     7.2638     9.4883   -49.6206
  208.0000    88.3156     7.4710     7.4191     9.4902   -48.5584
  208.5000    88.3156     7.6307     7.5777     9.6259   -46.4340
  209.0000    88.0121     7.6323     7.6858     9.6955   -45.0683
  209.5000    88.0344     7.6873     7.7413     9.6294   -44.7537
  210.0000    90.7436     7.6889     7.7971     9.4979   -43.8543
  210.5000    93.4750     7.6909     7.7419     9.3678   -42.4886
  211.0000    90.1366     7.6385     7.6386     9.3777   -41.2747
  211.5000    86.4947     7.4820     7.4821     9.4379   -45.0683
  212.0000    84.6737     7.3798     7.2775     9.5729   -46.4340
  212.5000    83.7633     7.1780     7.1281     9.7098   -46.2822
  213.0000    83.7633     7.0305     6.9818     9.6436   -45.9788
  213.5000    85.0035     6.8862     6.8863     9.5115   -46.4471
  214.0000    87.4052     6.7921     6.7922     9.3162   -46.2822
  214.5000    89.5296     6.7462     6.7463     9.2531   -44.7648
  215.0000    91.6540     6.7006     6.7007     9.1905   -45.3718
  215.5000    93.1715     6.7023     6.7025     9.1928   -45.6753
  216.0000    93.4750     6.7037     6.7038     9.3243   -45.9788
  216.5000    93.4750     6.7994     6.7522     9.4576   -47.0277
  217.0000    92.8680     6.8484     6.8009     9.5929   -48.4067
  217.5000    88.8012     6.8978     6.8499     9.9366   -49.3171
  218.0000    83.7633     6.9528     6.8993     9.9460   -49.4851
  218.5000    81.0319     7.0470     6.9491     9.7341   -47.3385
  219.0000    79.8179     7.0979     6.9992     9.5715   -46.0859
  219.5000    80.1214     7.1491     7.0497     9.0802   -44.9165
  220.0000    82.5493     7.3019     7.2008     9.0821   -44.6131
  220.5000    85.5842     7.4580     7.4062     9.3418   -44.1578
  221.0000    88.0121     7.6708     7.7247     9.6090   -42.6404
  221.5000    90.1366     7.7802     7.9451     9.8149   -43.8543
  222.0000    87.4052     7.9518     8.1150    10.0956   -44.7648
  222.5000    82.5493     8.1168     8.2308    11.0673   -45.0683
  223.0000    80.1214     8.1185     8.2901    11.9605   -44.8922
  223.5000    79.2109     8.1201     8.2918    11.7839   -44.3096
  224.0000    80.7284     8.1218     8.2358    11.5408   -44.1578
  224.5000    81.9423     8.1234     8.1232    11.4627   -44.6131
  225.0000    83.1563     8.0685     8.0683    10.1794   -44.9165
  225.5000    86.6485     7.9583     7.9581     9.6271   -45.2200
  226.0000    93.1715     7.7906     7.7408     9.4290   -44.9165
  226.5000    93.7785     7.5821     7.5292     9.6342   -44.4613
  227.0000    90.4401     7.4264     7.3746     9.8375   -44.9691
  227.5000    89.8331     7.2736     7.2232     9.3041   -46.5857
  228.0000    90.1366     7.1246     7.1238     9.0486   -47.4962
  228.5000    91.9575     7.0761     7.0271     9.7753   -45.3718
  229.0000    93.1715     6.9797     6.9796     9.4410   -44.6131
  229.5000    92.8680     6.9326     6.9324     9.3112   -44.7648
  230.0000    92.8680     6.9373     6.9342     9.4449   -45.2200
  230.5000    93.1715     6.9843     6.9356     9.2467   -45.9971
  231.0000    92.5645     7.0347     6.9370     8.6274   -47.4962
  231.5000    91.0470     7.0855     6.9384     8.6898   -48.8619
  232.0000    89.8331     7.1366     6.9399     9.0643   -50.3794
  232.5000    88.9226     7.1880     7.0389     9.0661   -47.9514
  233.0000    91.0632     7.2399     7.0476     9.1958   -45.9788
  233.5000    93.5681     7.2413     7.1411     9.3273   -45.0683
  234.0000    94.3854     7.2936     7.1426     9.5272   -43.7026
  234.5000    91.3505     7.2954     7.1941     9.0102   -42.4886
  235.0000    89.2261     7.3480     7.1956     9.2038   -43.5508
  235.5000    88.9226     7.4010     7.2475     9.3354   -44.4613
  236.0000    91.9575     7.4544     7.2490     9.0795   -44.7648
  236.5000    90.4401     7.5082     7.2504     9.4708   -44.7648
  237.0000    89.2261     7.5097     7.2519     9.6738   -44.6131
  237.5000    91.8058     7.5112     7.2535     9.7437   -44.1578
  238.0000    96.2064     7.5127     7.3061     9.8831   -44.4613
  238.5000    96.5099     7.5670     7.3076     9.8851   -44.4613
  239.0000    94.6889     7.6219     7.3603     9.8181   -44.3096
  239.5000    93.1715     7.6768     7.3618     9.7516   -44.0061
  240.0000    94.0819     7.7322     7.4149     9.6180   -43.7026
  240.5000    96.8134     7.7880     7.4683     9.6881   -45.6753
  241.0000    98.9378     7.8441     7.5749    10.1056   -46.5857
  241.5000    96.2064     7.9561     7.6870    10.3221   -45.8270
  242.0000    92.8680     8.0135     7.9027    10.4698   -44.3096
  242.5000    90.4401     8.0713     8.0154    10.4719   -44.9620
  243.0000    89.5296     8.1868     8.1298    10.5481   -47.1927
  243.5000    90.7436     8.1885     8.1315    10.6244   -48.4067
