~VERSION INFORMATION
 VERS.                2.0:   CWLS LOG ASCII STANDARD - VERSION 2.0
 WRAP.                 NO:   ONE LINE PER DEPTH STEP
~WELL INFORMATION
#MNEM.UNIT      DATA TYPE    INFORMATION
#----------   ------------   ------------------------------
 STRT.F           90.5000:   START DEPTH
 STOP.F          836.0000:   STOP DEPTH
 STEP.F            0.5000:   STEP LENGTH
 NULL.          -999.2500:   NO VALUE
 COMP.          U.S. NAVY:   COMPANY
 WELL.    NPR #3 #38-S-35:   WELL
 FLD .           TEAPOT E:   FIELD
 LOC .      S35 T39N R78W:   LOCATION
 CNTY.            NATRONA:   COUNTY
 STAT.            WYOMING:   STATE
 CTRY. UNITED STATES OF AMERICA:   COUNTRY
 SRVC. Schlumberger Well Surveying Corp:   SERVICE COMPANY
 DATE.        21-JUL-1963:   LOGDATE
 API .       490250649100:   API NUMBER
~CURVE INFORMATION
#MNEM.UNIT       API CODE    CURVE DESCRIPTION
#----------   ------------   ------------------------------
 DEPT.F                  :   
 SPR .MV     05 010 01 00:   SPONTANEOUS POTENTIAL FROM RES.
 ASN .OHMM   05 041 16 00:   AMPLIFIED SHORT NORMAL 16"
 ILD .OHMM   05 120 46 00:   INDUCTION LOG DEEP
 CILD.MMHO   05 110 46 00:   CONDUCTIVITY INDUCTION LOG DEEP
 DT  .US/F   60 520 33 00:   INTERVAL TRANSIT TIME
 GR  .GAPI   30 310 01 00:   GAMMA RAY
~PARAMETER INFORMATION
#MNEM.UNIT          VALUE    DESCRIPTION
#----------   ------------   ------------------------------
 LMF .                 KB:   LOG MEASURED FROM
 DMF .                 KB:   DRILLING MEASURED FROM
 EKB .F              5119:   KELLING BUSHING
 EGL .F              5114:   GROUND LEVEL
 DATE.          7-21-1963:   RUN DATE
 RUN .                  1:   RUN NUMBER
 DD  .F               836:   DEPTH DRILLER
 DL  .F               837:   DEPTH LOGGER
 BLI .F               836:   BOTTOM LOG INTERVAL
 TLI .F                90:   TOP LOG INTERVAL
 CBD .F                12:   CASING BOTTOM DRILLER
 BS  .IN             6.75:   BIT SIZE
 BSD .F               836:   BIT SIZE AT DEPTH
 DFT .            GEL-OIL:   DRILLING FLUID TYPE
 DFD .                9.2:   DRILLING FLUID DENSITY
 DFV .                 85:   DRILLING FLUID VISCOSITY
 DFPH.                  8:   DRILLING FLUID PH
 DFL .                3.6:   DRILLING FLUID LOSS
 MSS .           FLOWLINE:   MUD SAMPLE SOURCE
 RMS .OHMM           2.95:   RESISTIVITY MUD SAMPLE
 MST .F                88:   MUD SAMPLE TEMPERATURE
 RMF .OHMM           2.31:   RESISTIVITY MUD FILTRATE SAMPLE
 MFST.F                88:   MUD FILTRATE SAMPLE TEMPERATURE
 RMC .OHMM           2.65:   RESISTIVITY MUD CAKE
 MCST.F                88:   MUD CAKE SAMPLE TEMPERATURE
 MFSS.                  M:   MUD FILTRATE SAMPLE SOURCE
 MCSS.                  M:   MUD CAKE SAMPLE SOURCE
 TCS .HRS               1:   TIME CURCULATED STOPPED
 LUN .               2523:   LOGGING UNIT NUMBER
 LUL .              CSPR.:   LOGGING UNIT LOCATION
 ENGI.             KNOBEL:   RECORDING ENGINEER
 WITN.          JORGENSON:   WITNESSED BY
 CLNT.            A2DTECH:   CLIENT CODE
 ORIG.      2" , 5" PRINT:   ORIGIN OF DATA
 UWI .       490250649100:   UNIQUE WELL ID
 DICO. A2D Technologies, Inc.:   DIGITIZING COMPANY
~OTHER INFORMATION
~A   DEPT      SPR        ASN        ILD       CILD         DT         GR   
# ...
  766.5000   -24.8999    17.5701    15.2395    65.1037    98.2536    28.5282
  767.0000   -24.6737    17.4541    14.9922    65.8458    98.7249    28.8378
  767.5000   -24.4475    17.2584    14.7451    66.5880    99.0268    28.9636
  768.0000   -24.2164    17.0612    14.4984    67.3302    99.0950    31.0163
  768.5000   -23.8576    16.8640    14.2515    68.0724    99.0261    32.8909
  769.0000   -23.3405    16.6669    14.0045    68.8145    98.9394    31.5991
  769.5000   -22.8045    16.4699    13.7578    69.5569    98.6621    30.0337
  770.0000   -22.9600    16.2728    13.5383    70.2989    98.2324    31.6290
  770.5000   -23.2993    16.0758    13.4327    71.0410    97.8077    30.6668
  771.0000   -23.4382    15.8787    13.3250    71.5716    97.9276    29.4855
  771.5000   -23.2889    15.6816    13.2172    71.5716    99.4182    28.7366
  772.0000   -23.1421    15.4849    13.1094    71.7578    99.2972    25.8222
  772.5000   -22.9939    15.3015    13.0016    72.2773    98.6209    29.2670
  773.0000   -22.8440    15.1405    12.8938    72.7974    97.9447    31.7754
  773.5000   -22.7117    14.9792    12.7859    73.3118    97.2684    30.7506
  774.0000   -22.9797    14.8179    12.6780    73.9049    96.8032    31.4742
  774.5000   -23.2639    14.6565    12.5696    74.5508    97.1204    32.8240
  775.0000   -23.5459    14.4924    12.4651    75.2002    97.5533    32.4605
  775.5000   -23.8431    14.4641    12.4711    75.8496    97.8053    32.6274
  776.0000   -23.6137    14.4641    12.4832    76.4990    97.4565    34.4648
  776.5000   -23.2283    14.4644    12.4949    76.1339    97.0474    34.7903
  777.0000   -22.8388    14.4645    12.5064    75.6311    96.6381    32.4387
  777.5000   -22.4487    14.4643    12.5180    75.1283    96.3037    30.9691
  778.0000   -22.1133    14.4777    12.5295    74.6256    96.9689    27.0255
  778.5000   -22.3465    14.4992    12.5412    74.1228    97.6452    28.0055
  779.0000   -22.5786    14.5210    12.5529    73.5736    98.3173    27.5244
  779.5000   -22.8107    14.5433    12.5623    74.2852    98.9295    23.7187
  780.0000   -22.8025    14.5614    12.5161    75.0694    99.1009    22.6123
  780.5000   -22.6466    14.4552    12.3851    75.8536    98.8625    23.2164
  781.0000   -22.4874    14.3422    12.2554    76.6378    98.5601    21.6895
  781.5000   -22.3283    14.2297    12.1254    77.4220    98.2577    23.7154
  782.0000   -22.1695    14.1174    11.9955    78.2061    97.9552    21.6941
  782.5000   -22.0110    14.0050    11.8654    78.9903    97.6209    28.0791
  783.0000   -21.8547    13.8924    11.7360    79.7758    97.1245    33.9729
  783.5000   -21.6850    13.7790    11.6032    80.5639    96.6272    32.2132
  784.0000   -21.2095    13.7620    11.6636    81.3428    96.1294    33.3332
  784.5000   -20.7346    13.7938    11.8130    80.9793    95.6368    29.0743
  785.0000   -20.2625    14.0508    11.9709    78.7723    95.1999    29.2902
  785.5000   -19.7835    14.5804    12.3862    75.4206    94.8435    28.3031
  786.0000   -18.9671    15.2823    13.2498    72.0688    93.2594    23.1901
  786.5000   -17.5840    16.4060    14.1077    68.7171    90.0909    25.7494
  787.0000   -16.2026    17.5010    14.9733    65.3654    86.9301    27.2710
  787.5000   -14.8354    18.6004    15.8372    62.0136    84.1804    22.2446
  788.0000   -14.8014    19.7041    15.8553    60.9284    81.9115    20.4160
  788.5000   -15.6675    20.7158    15.1709    61.5616    79.8149    17.6953
  789.0000   -16.5634    19.7178    14.4579    65.3891    78.4491    15.2545
  789.5000   -16.0663    18.2388    13.7488    69.1232    77.4255    21.8550
  790.0000   -15.2705    16.7609    13.0400    72.8572    79.5811    25.5793
  790.5000   -14.5452    15.2579    12.3313    76.5913    81.7418    29.4958
  791.0000   -15.1340    14.6551    11.6216    80.3253    83.9097    33.4246
  791.5000   -15.8460    14.1365    11.1459    84.0560    86.0873    34.7835
  792.0000   -16.3202    13.6184    10.8873    86.4615    88.3878    30.8079
  792.5000   -16.3561    13.1051    10.6257    88.6006    90.9091    29.2764
  793.0000   -16.3988    12.7919    10.3704    89.3378    92.1079    29.4152
  793.5000   -16.4367    12.6612    10.4111    88.8241    92.9302    30.1069
  794.0000   -16.4920    12.5317    10.4677    88.3293    93.7786    30.9687
  794.5000   -16.2884    12.4012    10.5227    87.8345    94.2837    31.8385
  795.0000   -16.3026    12.2680    10.5774    87.5693    94.7272    32.6980
  795.5000   -16.3004    12.2422    10.6321    87.5328    95.0699    33.2921
  796.0000   -16.3008    12.2224    10.6868    87.4963    94.7980    32.1818
  796.5000   -16.2956    12.2019    10.7415    87.4598    94.5323    30.9032
  797.0000   -16.0623    12.1812    10.7962    87.4233    94.2655    34.5331
  797.5000   -15.5805    12.1606    10.8509    87.3868    93.9992    39.4496
  798.0000   -15.1002    12.1399    10.9060    87.3503    93.7329    40.2776
  798.5000   -14.6178    12.1193    10.9590    87.3138    93.4667    38.2676
  799.0000   -14.1359    12.0986    10.9504    87.2773    93.2004    35.9894
  799.5000   -13.6493    12.0780    10.9389    87.2408    92.9341    34.0584
  800.0000   -13.5396    12.0574    10.9277    87.2043    92.6678    36.5632
  800.5000   -13.6985    12.0367    10.9166    87.1678    92.4015  -999.2500
  801.0000   -13.8538    12.0160    10.9055    87.1313    92.1352  -999.2500
  801.5000   -14.0098    11.9954    10.8944    87.0948    91.8689  -999.2500
  802.0000   -14.1657    11.9747    10.8833    87.0583    91.6026  -999.2500
  802.5000   -14.2534    11.9541    10.8721    87.0218    91.3364  -999.2500
  803.0000   -13.8038    11.9334    10.8610    86.9853    91.0701  -999.2500
  803.5000   -13.3541    11.9127    10.8499    86.9488    90.8587  -999.2500
  804.0000   -12.9057    11.8921    10.8388    86.9123    90.6115  -999.2500
  804.5000   -12.4990    11.8713    10.8276    86.8758    90.3629  -999.2500
  805.0000   -12.4211    11.9031    10.8165    86.8393    90.1182  -999.2500
  805.5000   -12.3510    11.9792    10.8054    86.8028    90.1554  -999.2500
  806.0000   -12.2801    12.0559    10.7943    86.7663    90.4188  -999.2500
  806.5000   -12.2090    12.1326    10.7832    86.7298    90.6797  -999.2500
  807.0000   -12.1378    12.2092    10.7723    86.6933    90.4240  -999.2500
  807.5000   -12.0662    12.2859    10.7597    86.6568    88.8120  -999.2500
  808.0000   -11.9960    12.3622    10.7029    86.6203    85.8142  -999.2500
  808.5000   -11.9199    12.4410    10.6437    86.5866    87.5188  -999.2500
  809.0000   -12.1713    12.3941    10.5848    87.6882    88.7669  -999.2500
  809.5000   -12.5736    12.2988    10.5259    88.7123    88.5115  -999.2500
  810.0000   -12.9800    12.2015    10.4670    89.7365    89.5984  -999.2500
  810.5000   -13.2695    12.1045    10.4081    90.7606    90.7399  -999.2500
  811.0000   -13.0492    12.0075    10.3493    91.7847    91.8815  -999.2500
  811.5000   -12.8390    11.9106    10.2904    92.8088    92.1627  -999.2500
  812.0000   -12.4943    11.8137    10.2315    93.8330    92.3185  -999.2500
  812.5000   -11.8635    11.7167    10.1726    94.8571    92.3838  -999.2500
  813.0000   -11.2384    11.6196    10.1137    95.6832    92.4490  -999.2500
  813.5000   -10.8617    11.5236    10.0548    95.9973    92.5101  -999.2500
  814.0000   -10.7825    11.4607     9.9959    96.3113    92.5350  -999.2500
  814.5000   -10.7020    11.4616     9.9370    96.6254    92.5600  -999.2500
  815.0000   -10.6221    11.4614     9.8774    96.9394    92.5856  -999.2500
  815.5000   -10.5418    11.4615     9.8600    97.2535    92.6074  -999.2500
  816.0000   -10.4615    11.4613     9.8597    97.5676    92.4335  -999.2500
  816.5000   -10.3813    11.4617     9.8598    97.8816    92.2729  -999.2500
  817.0000   -10.3008    11.4598     9.8598    98.1957    92.1123  -999.2500
  817.5000   -10.2206    11.5752     9.8600    98.5098    91.9518  -999.2500
  818.0000   -10.1404    11.7395     9.8753    97.8478    91.8321  -999.2500
