~VERSION INFORMATION
 VERS.                2.0:   CWLS LOG ASCII STANDARD - VERSION 2.0
 WRAP.                 NO:   ONE LINE PER DEPTH STEP
~WELL INFORMATION
#MNEM.UNIT      DATA TYPE    INFORMATION
#----------   ------------   ------------------------------
 STRT.F            0.0000:   START DEPTH
 STOP.F          614.0000:   STOP DEPTH
 STEP.F            0.5000:   STEP LENGTH
 NULL.          -999.2500:   NO VALUE
 COMP. BROWN JOHN E&C INC:   COMPANY
 WELL. NAVAL PET  RESERVE 3 SHX-2 #12-15-2:   WELL
 FLD .                NPR:   FIELD
 LOC .       S2 T38N R78W:   LOCATION
 CNTY.            NATRONA:   COUNTY
 STAT.            WYOMING:   STATE
 CTRY. UNITED STATES OF AMERICA:   COUNTRY
 SRVC.           Gearhart:   SERVICE COMPANY
 DATE.        17-AUG-1988:   LOGDATE
 API .       490251124000:   API NUMBER
~CURVE INFORMATION
#MNEM.UNIT       API CODE    CURVE DESCRIPTION
#----------   ------------   ------------------------------
 DEPT.F                  :   
 GRR .GAPI   07 310 01 00:   GAMMA RAY
 RILD.OHMM   07 120 46 00:   INDUCTION LOG DEEP RESISTIVITY
 RILM.OHMM   07 120 44 00:   INDUCTION LOG MEDIUM RESISTIVITY
~PARAMETER INFORMATION
#MNEM.UNIT          VALUE    DESCRIPTION
#----------   ------------   ------------------------------
 PD  .                 GL:   PERMANENT DATUM
 EPD .F              5093:   ELEVATION PERMANENT DATUM
 LMF .                 KB:   LOG MEASURED FROM
 DAPD.F                10:   FEET ABOVE PERMANENT DATUM
 DMF .                 KB:   DRILLING MEASURED FROM
 EKB .F              5103:   KELLING BUSHING
 EDF .F              5101:   DRILLING FLOOR
 EGL .F              5093:   GROUND LEVEL
 DATE.        17-AUG-1988:   RUN DATE
 RUN .                  1:   RUN NUMBER
 DD  .F               620:   DEPTH DRILLER
 DL  .F               623:   DEPTH LOGGER
 BLI .F               614:   BOTTOM LOG INTERVAL
 TLI .F                50:   TOP LOG INTERVAL
 CS  .IN            9.625:   CASING SIZE
 CBD .F                50:   CASING BOTTOM DRILLER
 CBL .F                50:   CASING BOTTOM LOGGER
 BS  .IN             8.75:   BIT SIZE
 BSD .F               620:   BIT SIZE AT DEPTH
 DFT .                AIR:   DRILLING FLUID TYPE
 TCS .HRS            0500:   TIME CURCULATED STOPPED
 TLAB.HRS            0625:   TIME LOGGER AT BOTTOM
 MRT .F                70:   MAXIMUM RECORDED TEMPERATURE
 LUN .               7597:   LOGGING UNIT NUMBER
 LUL .           GILLETTE:   LOGGING UNIT LOCATION
 ENGI.           JOHNSTON:   RECORDING ENGINEER
 WITN.             STRONG:   WITNESSED BY
 CLNT.            A2DTECH:   CLIENT CODE
 ORIG.           5" PRINT:   ORIGIN OF DATA
 UWI .       490251124000:   UNIQUE WELL ID
 DICO. A2D Technologies, Inc.:   DIGITIZING COMPANY
~OTHER INFORMATION
~A    DEPT      GRR      RILD       RILM   
# ...
  364.0000   123.5271     6.7075     6.6477
  364.5000   125.4315     6.5687     6.5097
  365.0000   128.4323     6.2992     6.2422
  365.5000   128.4413     5.9569     5.9025
  366.0000   127.5335     5.6727     5.6997
  366.5000   128.1571     5.4020     5.4274
  367.0000   130.9041     5.1443     5.2409
  367.5000   133.0442     5.0027     5.1321
  368.0000   134.2710     5.0031     5.1321
  368.5000   131.5404     5.0035     5.2044
  369.0000   129.1143     5.1819     5.3520
  369.5000   126.9925     5.7153     5.5425
  370.0000   125.1750     6.0870     5.8614
  370.5000   127.0108     6.3040     6.1987
  371.0000   128.5421     6.5288     6.4643
  371.5000   130.0733     6.7616     6.6943
  372.0000   130.9957     6.9055     6.7886
  372.5000   130.7004     7.0032     6.8842
  373.0000   130.4052     7.0037     6.9812
  373.5000   129.8052     7.0042     6.9812
  374.0000   129.8146     7.0047     7.0795
  374.5000   129.5190     7.1039     7.1292
  375.0000   128.6153     7.1542     7.1292
  375.5000   127.4068     7.1547     7.0795
  376.0000   126.1983     7.1552     7.0302
  376.5000   125.2937     7.1557     7.0302
  377.0000   128.3475     7.1562     7.0302
  377.5000   132.0096     7.1567     7.0795
  378.0000   133.5408     7.1072     7.1292
  378.5000   132.3324     7.1578     7.1292
  379.0000   130.2106     7.1583     7.1292
  379.5000   128.6954     7.2090     7.1292
  380.0000   128.0980     7.2095     7.1292
  380.5000   127.1939     7.2606     7.1292
  381.0000   127.2031     7.3121     7.1292
  381.5000   129.3431     7.2615     7.1292
  382.0000   132.0920     7.1613     7.1292
  382.5000   132.4056     7.0131     7.0302
  383.0000   132.1080     6.8201     6.8842
  383.5000   131.8151     6.4947     6.7413
  384.0000   132.4331     6.2719     6.4643
  384.5000   134.8775     6.1422     6.2422
  385.0000   139.7573     6.0997     6.1126
  385.5000   141.5929     6.0576     6.0277
  386.0000   140.6889     6.0582     5.9857
  386.5000   135.5230     6.0586     5.9025
  387.0000   131.8792     6.0167     5.8614
  387.5000   130.3662     5.9336     5.8614
  388.0000   129.1577     5.8516     5.8205
  388.5000   130.6890     5.6906     5.6997
  389.0000   134.3511     5.6119     5.5425
  389.5000   135.8823     5.5731     5.3147
  390.0000   134.9782     5.4962     5.1681
  390.5000   130.7256     5.4966     5.0608
  391.0000   126.4730     5.4970     5.0255
  391.5000   124.9577     5.5748     5.0963
  392.0000   128.9266     5.7736     5.2409
  392.5000   133.1975     5.9461     5.5038
  393.0000   135.0332     6.2607     5.8614
  393.5000   133.8247     6.6033     6.1555
  394.0000   132.9206     6.7829     6.5097
  394.5000   131.4077     6.7834     6.6943
  395.0000   128.6771     6.6368     6.7413
  395.5000   125.6421     6.3940     6.6943
  396.0000   122.6071     6.0154     6.5553
  396.5000   120.7898     5.7734     6.3301
  397.0000   124.4519     5.5728     5.8614
  397.5000   129.9405     5.3476     5.5425
  398.0000   134.2115     5.1647     5.3520
  398.5000   136.6559     4.9867     5.1681
  399.0000   136.3584     4.8522     5.1321
  399.5000   132.7169     4.9213     5.2409
  400.0000   129.5776     5.1321     5.4294
  400.5000   126.6417     5.9439     5.9030
  401.0000   127.2581     6.4643     6.2431
  401.5000   127.8730     6.8363     6.6028
  402.0000   127.5746     7.0795     6.8382
  402.5000   126.6659     7.2804     7.0327
  403.0000   124.8469     7.4869     7.1823
  403.5000   123.9382     7.6993     7.3351
  404.0000   126.0766     7.8625     7.4911
  404.5000   126.6915     7.9177     7.5972
  405.0000   125.1754     7.9177     7.6510
  405.5000   121.8329     7.9177     7.7053
  406.0000   119.7080     7.9177     7.6521
  406.5000   119.6691     7.9177     7.6448
  407.0000   120.6333     7.9177     7.6531
  407.5000   120.3350     7.9177     7.7074
  408.0000   119.4277     7.9177     7.7079
  408.5000   118.8249     7.9177     7.8170
  409.0000   120.6900     7.9733     7.8205
  409.5000   122.5187     8.0292     7.8730
  410.0000   123.7545     8.0856     7.8735
  410.5000   122.3436     8.1995     7.8741
  411.0000   120.3787     8.3150     8.0982
  411.5000   120.3847     8.3150     8.3285
  412.0000   121.9128     8.1995     8.5056
  412.5000   121.6144     7.9733     8.6866
  413.0000   117.3586     7.5395     8.7481
  413.5000   114.9293     6.9812     8.5074
  414.0000   114.3265     6.4643     7.6073
  414.5000   117.3767     6.0277     6.8025
  415.0000   126.8196     5.8205     6.2553
  415.5000   134.1315     5.7796     5.4392
  416.0000   137.7905     5.7800     5.0017
  416.5000   138.0995     5.8654     5.1440
  417.0000   130.4967     6.0396     5.5947
  417.5000   121.6747     6.4895     6.2139
  418.0000   115.5924     7.1292     6.9988
  418.5000   114.9896     7.9177     7.5590
  419.0000   114.0824     8.5509     7.9945
  419.5000   112.8708     9.0429     8.7560
  420.0000   111.3547     9.4966     9.2605
  420.5000   113.4917     9.6303     9.5907
  421.0000   118.9849     9.7660     9.6587
  421.5000   120.8260     9.8345     9.5252
  422.0000   121.4245    10.0430     9.3521
  422.5000   119.8681    10.1845     9.1906
  423.0000   118.8957    10.6209     9.2983
  423.5000   117.1823    11.2321    10.1470
  424.0000   112.6221    11.7134    11.3491
  424.5000    98.6251    12.3874    12.4301
  425.0000    86.4546    14.2471    13.4250
  425.5000    76.7194    15.7125    15.0155
  426.0000    69.4195    17.5728    17.2709
  426.5000    63.6416    19.6534    19.1824
  427.0000    61.2123    21.3758    20.7177
  427.5000    60.9124    22.6117    23.4986
  428.0000    61.8332    23.2602    26.0993
  428.5000    62.1422    23.9273    27.7968
  429.0000    59.4100    24.6136    28.7879
  429.5000    58.8056    25.2800    28.1922
  430.0000    60.0308    25.4574    26.1066
  430.5000    63.9943    25.8159    25.5663
  431.0000    68.2621    26.1796    25.5681
  431.5000    70.0946    26.5483    25.9300
  432.0000    69.7962    26.9222    26.4816
  432.5000    64.6272    27.4930    27.2347
  433.0000    62.5023    28.2730    28.6031
  433.5000    60.6780    28.8724    30.0485
  434.0000    60.0630    29.2791    32.0180
  434.5000    60.0852    29.8999    34.0974
  435.0000    61.3902    30.1097    34.0456
  435.5000    64.1606    30.9639    33.2517
  436.0000    68.3239    31.6204    31.7804
  436.5000    68.6343    31.8423    30.2642
  437.0000    67.1183    32.0658    30.6926
  437.5000    66.2095    32.5174    31.7870
  438.0000    65.3038    32.7456    34.0920
  438.5000    64.6995    33.6746    35.3076
  439.0000    64.0982    34.3885    36.5666
  439.5000    63.4939    34.6299    38.1362
  440.0000    62.8911    34.5977    38.9475
  440.5000    62.5927    34.0653    38.9502
  441.0000    62.9047    32.5174    37.6143
  441.5000    65.6505    30.9639    35.3223
  442.0000    68.7006    30.3210    32.2548
  442.5000    72.9684    29.8999    30.9316
  443.0000    75.1054    29.2791    29.8707
  443.5000    75.4723    28.6712    29.2525
  444.0000    74.5086    28.0760    29.2546
  444.5000    72.3837    27.6860    29.2566
  445.0000    70.5632    26.9222    29.2587
  445.5000    71.7870    25.8159    29.2607
  446.0000    74.5366    24.7551    27.6680
  446.5000    76.0933    23.9044    26.5157
  447.0000    77.9218    22.7624    24.6813
  447.5000    78.8534    22.1345    22.6915
  448.0000    79.7851    21.6749    21.4918
  448.5000    80.6526    20.7843    20.2069
  449.0000    80.9631    20.2109    19.7884
  449.5000    80.9691    19.2453    19.1101
  450.0000    79.4512    18.8458    18.7014
  450.5000    76.7123    18.5840    18.5853
  451.0000    76.1035    18.4545    18.5866
  451.5000    79.7565    18.1982    18.2020
  452.0000    84.0183    17.9454    18.0764
  452.5000    85.8447    17.8203    17.9516
  453.0000    87.0624    17.8203    18.0792
  453.5000    87.0624    17.8203    17.9541
  454.0000    82.1918    17.8203    17.9557
  454.5000    79.7565    17.8274    17.7075
