~VERSION INFORMATION
 VERS.                2.0:   CWLS LOG ASCII STANDARD - VERSION 2.0
 WRAP.                 NO:   ONE LINE PER DEPTH STEP
~WELL INFORMATION
#MNEM.UNIT      DATA TYPE    INFORMATION
#----------   ------------   ------------------------------
 STRT.F           38.5000:   START DEPTH
 STOP.F          606.0000:   STOP DEPTH
 STEP.F            0.5000:   STEP LENGTH
 NULL.          -999.2500:   NO VALUE
 COMP. FENIX & SCISSON INC:   COMPANY
 WELL.      NPR-X3 #185-2:   WELL
 FLD .             TEAPOT:   FIELD
 LOC .       S2 T38N R78W:   LOCATION
 CNTY.            NATRONA:   COUNTY
 STAT.            WYOMING:   STATE
 CTRY. UNITED STATES OF AMERICA:   COUNTRY
 SRVC.            Unknown:   SERVICE COMPANY
 DATE.        30-JAN-1978:   LOGDATE
 API .       490251056200:   API NUMBER
~CURVE INFORMATION
#MNEM.UNIT       API CODE    CURVE DESCRIPTION
#----------   ------------   ------------------------------
 DEPT.F                  :   
 CALD.IN     45 280 60 00:   CALIPER
 GRD .GAPI   45 310 01 00:   GAMMA RAY FROM DENSITY LOG
 CORR.G/C3   45 356 01 00:   DENSITY CORRECTION
 RHOB.G/C3   45 350 01 00:   BULK DENSITY
 DPHI.DEC    45 890 12 00:   DENSITY POROSITY SANDSTONE
 SPR .MV     05 010 01 00:   SPONTANEOUS POTENTIAL FROM RES.
 SN  .OHMM   05 040 16 00:   SHORT NORMAL 16"
 ILD .OHMM   05 120 46 00:   INDUCTION LOG DEEP
~PARAMETER INFORMATION
#MNEM.UNIT          VALUE    DESCRIPTION
#----------   ------------   ------------------------------
 PD  .                 GL:   PERMANENT DATUM
 EPD .F              5134:   ELEVATION PERMANENT DATUM
 LMF .                 KB:   LOG MEASURED FROM
 DAPD.F                 4:   FEET ABOVE PERMANENT DATUM
 DMF .                 KB:   DRILLING MEASURED FROM
 EKB .F              5138:   KELLING BUSHING
 EGL .F              5134:   GROUND LEVEL
 DATE.            1-30-78:   RUN DATE
 RUN .                  1:   RUN NUMBER
 DD  .F               600:   DEPTH DRILLER
 DL  .F               604:   DEPTH LOGGER
 BLI .F               598:   BOTTOM LOG INTERVAL
 TLI .F                40:   TOP LOG INTERVAL
 CS  .IN            8.625:   CASING SIZE
 CBD .F                40:   CASING BOTTOM DRILLER
 CBL .F                41:   CASING BOTTOM LOGGER
 BS  .IN            7.875:   BIT SIZE
 BSD .F               600:   BIT SIZE AT DEPTH
 DFT .                KCL:   DRILLING FLUID TYPE
 DFD .                8.6:   DRILLING FLUID DENSITY
 DFV .                 34:   DRILLING FLUID VISCOSITY
 DFPH.                 10:   DRILLING FLUID PH
 DFL .                  7:   DRILLING FLUID LOSS
 MSS .                PIT:   MUD SAMPLE SOURCE
 RMS .OHMM            .65:   RESISTIVITY MUD SAMPLE
 MST .F                70:   MUD SAMPLE TEMPERATURE
 RMF .OHMM            1.2:   RESISTIVITY MUD FILTRATE SAMPLE
 MFST.F                64:   MUD FILTRATE SAMPLE TEMPERATURE
 MFSS.               MEAS:   MUD FILTRATE SAMPLE SOURCE
 RMB .OHMM            .64:   RESISTIVITY MUD AT BHT
 BHT .F                71:   BOTTOM HOLE TEMPERATURE
 TCS .HRS               3:   TIME CURCULATED STOPPED
 MRT .F                71:   MAXIMUM RECORDED TEMPERATURE
 LUN .               2958:   LOGGING UNIT NUMBER
 LUL .                CAS:   LOGGING UNIT LOCATION
 ENGI.           REYNOLDS:   RECORDING ENGINEER
 WITN.         HARRINGTON:   WITNESSED BY
 CLNT.            A2DTECH:   CLIENT CODE
 ORIG.        2" 5" PRINT:   ORIGIN OF DATA
 UWI .       490251056200:   UNIQUE WELL ID
 DICO. A2D Technologies, Inc.:   DIGITIZING COMPANY
~OTHER INFORMATION
~A   DEPT     CALD        GRD        CORR      RHOB       DPHI        SPR         SN        ILD   
# ...
  403.0000     8.0354    77.8372     0.0676     2.3737     0.1726   -60.1964    22.4322    19.2787
  403.5000     8.0452    78.4786     0.0676     2.3702     0.1734   -60.1832    21.9235    19.1025
  404.0000     8.0550    79.4815     0.0680     2.3729     0.1688   -59.8411    21.8642    19.1025
  404.5000     8.0648    80.5041     0.0711     2.3770     0.1685   -59.5446    21.7985    19.1022
  405.0000     8.0746    81.5534     0.0735     2.3802     0.1696   -59.6449    21.7329    19.1025
  405.5000     8.0781    80.4404     0.0755     2.3747     0.1728   -59.7381    21.6675    19.1026
  406.0000     8.0707    78.7048     0.0734     2.3686     0.1749   -59.7422    21.6023    19.1026
  406.5000     8.0632    80.8586     0.0757     2.3679     0.1753   -59.7417    21.5373    19.1049
  407.0000     8.0557    81.3422     0.0770     2.3674     0.1750   -59.7415    21.4726    19.0346
  407.5000     8.0482    83.1434     0.0736     2.3674     0.1705   -59.7410    21.4078    18.9356
  408.0000     8.0406    86.4653     0.0723     2.3818     0.1631   -59.7369    21.3290    18.8365
  408.5000     8.0389    86.3255     0.0764     2.3882     0.1595   -59.8912    21.3626    18.7549
  409.0000     8.0361    85.7107     0.0802     2.3978     0.1571   -60.0611    21.4082    18.9035
  409.5000     8.0334    87.2151     0.0831     2.3960     0.1503   -60.2317    21.4537    19.0315
  410.0000     8.0307    87.8458     0.0713     2.4058     0.1368   -60.4012    21.4977    19.3238
  410.5000     8.0279    83.2934     0.0647     2.4264     0.1214   -60.5404    21.6999    19.8278
  411.0000     8.0252    82.2642     0.0627     2.4612     0.1099   -60.5374    22.0647    20.1922
  411.5000     8.0224    80.1736     0.0608     2.4773     0.1041   -60.5382    22.5340    20.2604
  412.0000     8.0199    79.2341     0.0596     2.4889     0.1091   -60.5295    22.4599    20.3296
  412.5000     8.0202    78.5580     0.0620     2.4816     0.1181   -60.3680    22.3592    20.3711
  413.0000     8.0224    77.6496     0.0698     2.4599     0.1392   -60.2084    22.2589    20.3000
  413.5000     8.0244    80.1911     0.0770     2.4291     0.1557   -60.0500    22.1660    20.2393
  414.0000     8.0265    81.1729     0.0841     2.3971     0.1745   -59.8917    21.7361    20.1845
  414.5000     8.0286    81.4198     0.0912     2.3695     0.1809   -59.7333    20.9480    19.3273
  415.0000     8.0306    83.0237     0.0955     2.3579     0.1805   -59.5748    20.1796    18.5668
  415.5000     8.0327    82.7303     0.0954     2.3649     0.1768   -59.4154    19.4415    17.8385
  416.0000     8.0348    82.4713     0.0954     2.3653     0.1750   -59.2587    19.1654    17.2617
  416.5000     8.0368    82.0030     0.0954     2.3698     0.1694   -59.2104    19.0201    17.1802
  417.0000     8.0389    81.5911     0.0967     2.3772     0.1679   -59.5017    18.8758    17.0922
  417.5000     8.0396    84.0460     0.1050     2.3782     0.1674   -59.7798    18.7327    17.0052
  418.0000     8.0396    90.8895     0.1130     2.3761     0.1704   -60.0593    18.5906    16.9186
  418.5000     8.0396    96.2648     0.1123     2.3712     0.1692   -60.3286    18.4496    16.8325
  419.0000     8.0396    98.4921     0.1110     2.3762     0.1678   -60.3038    18.4136    16.7469
  419.5000     8.0396    99.2220     0.1098     2.3795     0.1693   -60.2652    18.4136    16.6444
  420.0000     8.0396   102.9157     0.1106     2.3770     0.1708   -60.2280    18.4135    16.6815
  420.5000     8.0396   104.1330     0.1167     2.3751     0.1702   -60.1912    18.4136    16.7276
  421.0000     8.0396   105.3430     0.1266     2.3743     0.1722   -60.1544    18.4136    16.7743
  421.5000     8.0396   105.8461     0.1332     2.3688     0.1758   -60.1177    18.4136    16.7979
  422.0000     8.0396   106.6748     0.1405     2.3624     0.1765   -60.0809    18.4139    16.7980
  422.5000     8.0396   108.4959     0.1418     2.3740     0.1658   -60.0441    18.3979    16.7980
  423.0000     8.0396   113.6698     0.1224     2.3814     0.1659   -60.0073    18.3768    16.7980
  423.5000     8.0396   122.5460     0.1159     2.3897     0.1661   -59.9705    18.3556    16.7986
  424.0000     8.0396   131.8300     0.1221     2.4140     0.1662   -59.9337    18.3345    16.8031
  424.5000     8.0394   131.0272     0.1288     2.3840     0.1646   -59.8969    18.3134    16.6219
  425.0000     8.0285   129.8188     0.1283     2.3846     0.1585   -59.8601    18.2924    16.4167
  425.5000     7.9994   126.0771     0.1273     2.4001     0.1496   -59.8234    18.2713    16.2141
  426.0000     7.9702   128.5414     0.1293     2.4202     0.1404   -59.7871    18.2466    16.0442
  426.5000     7.9605   123.9171     0.1312     2.4250     0.1372   -59.7548    18.2796    16.2637
  427.0000     7.9597   123.5342     0.1301     2.4290     0.1283   -59.4755    18.3253    16.5244
  427.5000     7.9585   125.9109     0.1282     2.4404     0.1181   -59.1554    18.3681    16.9896
  428.0000     7.9572   126.8716     0.1263     2.4627     0.1102   -59.1988    18.4003    17.4679
  428.5000     7.9559   122.0013     0.1265     2.4850     0.1029   -59.2558    18.9219    18.0658
  429.0000     7.9547   117.2143     0.1369     2.4954     0.1010   -59.3113    19.5514    17.9638
  429.5000     7.9534   112.7448     0.1563     2.4973     0.1025   -59.3663    20.1931    17.8370
  430.0000     7.9521    91.1193     0.1740     2.4764     0.1214   -59.4212    21.1329    17.7112
  430.5000     7.9508    89.5961     0.1861     2.4523     0.1301   -59.4758    21.0815    17.5872
  431.0000     7.9495    87.0523     0.1963     2.4427     0.1380   -59.5267    20.9730    17.1094
  431.5000     7.9483    84.4017     0.2073     2.4296     0.1497   -59.7735    20.3995    16.2494
  432.0000     7.9470    81.6419     0.2218     2.4017     0.1749   -60.0651    19.4533    15.4597
  432.5000     7.9457    80.6050     0.2271     2.3734     0.1712   -60.3340    18.1736    14.7083
  433.0000     7.9444    82.7139     0.2301     2.3691     0.1722   -60.3395    16.9886    14.2001
  433.5000     7.9432    86.1653     0.2239     2.3703     0.1709   -60.3382    16.0089    13.9797
  434.0000     7.9421    86.3273     0.2009     2.3758     0.1642   -60.3380    15.1776    13.9797
  434.5000     7.9394    86.5188     0.2090     2.3839     0.1723   -60.3386    15.1866    13.9532
  435.0000     7.9034    86.9680     0.2355     2.3854     0.1845   -60.3392    15.0077    13.9269
  435.5000     7.8664    88.1189     0.2613     2.3493     0.1905   -60.3326    14.8854    13.9006
  436.0000     7.8295    90.8147     0.2872     2.3452     0.1881   -60.0110    14.7637    13.8742
  436.5000     7.7912    93.5251     0.2859     2.3472     0.1819   -59.2057    14.6365    13.8210
  437.0000     7.7864    97.7986     0.2848     2.3570     0.1753   -58.9515    14.4560    13.5995
  437.5000     7.7954   101.0112     0.3010     2.3680     0.1741   -58.9882    14.2678    13.3815
  438.0000     7.8169   101.4773     0.2965     2.3699     0.1765   -59.0303    14.0816    13.1670
  438.5000     7.8519   103.4165     0.2426     2.3657     0.1523   -59.0715    13.9614    12.9561
  439.0000     7.9022   107.3942     0.2428     2.3942     0.1650   -59.1122    13.9202    12.7486
  439.5000     7.9205   106.7881     0.2937     2.3794     0.1427   -59.1529    13.8792    12.5444
  440.0000     7.9222   109.1635     0.2646     2.3369     0.1528   -59.1936    13.8163    12.3435
  440.5000     7.9241   109.5311     0.2728     2.3159     0.1702   -59.2344    13.5579    12.2423
  441.0000     7.9261   108.2266     0.2809     2.3817     0.1841   -59.2752    13.3356    12.1745
  441.5000     7.9282   105.4793     0.2868     2.3442     0.1873   -59.3153    13.2486    12.1071
  442.0000     7.9302   106.1633     0.2732     2.3584     0.1743   -59.3344    13.1618    12.0695
  442.5000     7.9322   102.9127     0.2304     2.3979     0.1526   -59.2995    13.0759    12.0695
  443.0000     7.9342    97.0838     0.1984     2.4387     0.1339   -59.2657    12.9904    12.0695
