~VERSION INFORMATION
 VERS.                2.0:   CWLS LOG ASCII STANDARD - VERSION 2.0
 WRAP.                 NO:   ONE LINE PER DEPTH STEP
~WELL INFORMATION
#MNEM.UNIT      DATA TYPE    INFORMATION
#----------   ------------   ------------------------------
 STRT.F           15.0000:   START DEPTH
 STOP.F          531.0000:   STOP DEPTH
 STEP.F            0.1000:   STEP LENGTH
 NULL.          -999.2500:   NO VALUE
 COMP. LAWRENCE/ALLISON INC:   COMPANY
 WELL.   NPR 3 #42-61SX10:   WELL
 FLD .          N.P.R. #3:   FIELD
 LOC .      S10 T38N R78W:   LOCATION
 CNTY.            NATRONA:   COUNTY
 STAT.            WYOMING:   STATE
 CTRY. UNITED STATES OF AMERICA:   COUNTRY
 SRVC.           Gearhart:   SERVICE COMPANY
 DATE.        06-JUL-1986:   LOGDATE
 API .       490251109500:   API NUMBER
~CURVE INFORMATION
#MNEM.UNIT       API CODE    CURVE DESCRIPTION
#----------   ------------   ------------------------------
 DEPT.F                  :   
 GRR .GAPI   07 310 01 00:   GAMMA RAY
 RILD.OHMM   07 120 46 00:   INDUCTION LOG DEEP
 RILM.OHMM   07 120 44 00:   INDUCTION LOG MEDIUM
~PARAMETER INFORMATION
#MNEM.UNIT          VALUE    DESCRIPTION
#----------   ------------   ------------------------------
 PD  .                 GL:   PERMANENT DATUM
 EPD .F              5196:   ELEVATION PERMANENT DATUM
 LMF .                 KB:   LOG MEASURED FROM
 DAPD.F                 5:   FEET ABOVE PERMANENT DATUM
 DMF .                 KB:   DRILLING MEASURED FROM
 EKB .F              5201:   KELLING BUSHING
 EGL .F              5196:   GROUND LEVEL
 DATE.        06-JUL-1986:   RUN DATE
 RUN .                  1:   RUN NUMBER
 DD  .F               548:   DEPTH DRILLER
 DL  .F               541:   DEPTH LOGGER
 BLI .F               531:   BOTTOM LOG INTERVAL
 TLI .F                15:   TOP LOG INTERVAL
 CS  .IN            8.625:   CASING SIZE
 CBD .F                47:   CASING BOTTOM DRILLER
 CBL .F                47:   CASING BOTTOM LOGGER
 BS  .IN            7.875:   BIT SIZE
 BSD .F               548:   BIT SIZE AT DEPTH
 DFT .                AIR:   DRILLING FLUID TYPE
 BHT .F                82:   BOTTOM HOLE TEMPERATURE
 TCS .HRS            2000:   TIME CURCULATED STOPPED
 TLAB.HRS            2130:   TIME LOGGER AT BOTTOM
 MRT .F                82:   MAXIMUM RECORDED TEMPERATURE
 LUN .               7609:   LOGGING UNIT NUMBER
 LUL .           GILLETTE:   LOGGING UNIT LOCATION
 ENGI.              BAUER:   RECORDING ENGINEER
 WITN.           JENNINGS:   WITNESSED BY
 CLNT.            A2DTECH:   CLIENT CODE
 ORIG.           5" PRINT:   ORIGIN OF DATA
 UWI .       490251109500:   UNIQUE WELL ID
 DICO. A2D Technologies, Inc.:   DIGITIZING COMPANY
~OTHER INFORMATION
~A   DEPT      GRR       RILD       RILM   
# ...
  269.8000   102.8782     9.1659     9.2051
  269.9000   101.8718     9.2754     9.3587
  270.0000   100.7020     9.4643     9.4763
  270.1000   100.2795     9.5568     9.5777
  270.2000    99.6189     9.6681     9.6495
  270.3000    98.9657     9.8039     9.7333
  270.4000    98.4615     9.9642     9.8303
  270.5000    97.9450    10.0829     9.8912
  270.6000    97.6981    10.1976    10.0229
  270.7000    97.4450    10.2710    10.0726
  270.8000    97.0552    10.3635    10.1310
  270.9000    96.6337    10.4640    10.2152
  271.0000    96.3806    10.5318    10.3208
  271.1000    96.1018    10.6670    10.3806
  271.2000    96.1002    10.7227    10.4407
  271.3000    95.7555    10.7850    10.5012
  271.4000    95.3686    10.8477    10.5266
  271.5000    95.1155    10.9108    10.5489
  271.6000    94.8625    10.9742    10.6100
  271.7000    94.5639    11.0495    10.6749
  271.8000    94.7684    11.1022    10.7332
  271.9000    95.0178    11.1668    10.7954
  272.0000    95.4627    11.2317    10.8254
  272.1000    96.3017    11.2970    10.8444
  272.2000    97.6085    11.3654    10.9072
  272.3000    98.8098    11.4287    10.9780
  272.4000    99.8774    11.4459    10.9779
  272.5000   100.7481    11.4811    11.0202
  272.6000   101.5781    11.5478    11.0841
  272.7000   102.5570    11.6149    11.1326
  272.8000   103.3989    11.6905    11.1343
  272.9000   104.0603    11.8105    11.2107
  273.0000   104.6453    11.9021    11.2637
  273.1000   105.1460    11.9712    11.2894
  273.2000   105.5878    12.0408    11.3149
  273.3000   105.8416    12.1108    11.3686
  273.4000   106.4412    12.1952    11.3684
  273.5000   106.6412    12.3092    11.4321
  273.6000   106.8906    12.4102    11.4983
  273.7000   107.0467    12.5094    11.6014
  273.8000   107.0058    12.6549    11.7363
  273.9000   106.7376    12.8110    11.8807
  274.0000   106.0275    12.9514    12.1088
  274.1000   103.8162    13.1023    12.3655
  274.2000   101.1790    13.2943    12.6553
  274.3000    98.8125    13.5037    13.0993
  274.4000    96.6837    13.6733    13.6968
  274.5000    92.6807    14.0376    14.2518
  274.6000    90.2962    14.2500    14.7378
  274.7000    87.8564    14.4996    15.2517
  274.8000    85.8106    14.7907    15.7077
  274.9000    83.8338    15.1558    16.0753
  275.0000    81.0687    15.5990    16.4709
  275.1000    77.8012    15.9650    16.9581
  275.2000    73.7463    16.4144    17.3519
  275.3000    70.0458    16.8397    17.7588
  275.4000    67.3105    17.2336    18.2961
  275.5000    65.5498    17.6507    18.9023
  275.6000    63.6530    18.2082    19.4397
  275.7000    61.5664    18.6022    19.9279
  275.8000    59.8364    19.0381    20.4716
  275.9000    58.5740    19.5401    20.9853
  276.0000    57.4289    20.1126    21.4135
  276.1000    55.9500    20.7010    21.7880
  276.2000    54.7869    21.4037    22.1788
  276.3000    53.9370    21.9357    22.7694
  276.4000    53.0883    22.7480    23.1143
  276.5000    52.3328    23.5708    23.6089
  276.6000    51.6270    24.2325    24.0992
  276.7000    51.1139    24.8085    24.5862
  276.8000    50.6186    25.5256    25.3019
  276.9000    50.3069    26.2756    25.8341
  277.0000    50.1924    26.9592    26.3193
  277.1000    50.1905    27.4813    26.8432
  277.2000    50.2188    27.8010    27.3129
  277.3000    50.4920    28.1557    27.7639
  277.4000    51.1719    28.4525    28.1028
  277.5000    51.7506    28.7840    28.4137
  277.6000    52.4889    29.0391    28.7443
  277.7000    53.4270    29.2078    28.9900
  277.8000    54.1684    29.3776    29.2110
  277.9000    54.7557    29.5781    29.5332
  278.0000    55.3772    29.7203    29.7237
  278.1000    56.2824    29.8931    29.8764
  278.2000    56.8879    30.0669    30.0495
  278.3000    56.8861    30.2101    30.2236
  278.4000    56.8842    30.2107    30.3986
  278.5000    56.8824    30.3802    30.5746
  278.6000    57.0687    30.5569    30.7829
  278.7000    57.1841    30.6398    30.9298
  278.8000    57.2621    30.5843    30.9990
  278.9000    57.5115    30.4085    30.9985
  279.0000    57.7891    30.2139    30.9648
  279.1000    58.0102    30.2144    30.7808
  279.2000    58.2595    30.0982    30.6075
  279.3000    58.7377    29.9252    30.5646
  279.4000    59.5498    29.7944    30.3715
  279.5000    60.5466    29.7949    30.0214
  279.6000    61.4421    29.7955    29.6960
  279.7000    62.2531    29.6572    29.5087
  279.8000    63.4051    29.4868    29.3534
  279.9000    64.5644    29.3174    29.1836
  280.0000    65.5674    29.1760    29.0147
  280.1000    66.6240    29.1766    28.8922
  280.2000    67.5734    29.0180    28.8918
  280.3000    68.2091    28.9734    28.8913
  280.4000    68.7097    28.9739    28.8909
  280.5000    69.1349    28.9744    28.8905
  280.6000    69.3842    28.9749    28.8901
  280.7000    69.6663    28.9755    28.8897
  280.8000    69.4465    28.9759    28.8893
  280.9000    69.3576    28.9764    28.8889
  281.0000    69.2458    28.9769    29.0201
  281.1000    69.0486    28.9774    29.0916
  281.2000    69.0467    28.9779    29.0912
  281.3000    69.0449    28.9784    29.0908
  281.4000    68.8443    28.9789    29.0904
  281.5000    68.7359    29.0762    29.2478
  281.6000    68.5533    29.1843    29.2945
  281.7000    68.0491    29.1848    29.2941
  281.8000    67.5089    29.1853    29.3440
  281.9000    67.0406    29.3430    29.5139
  282.0000    66.5364    29.3921    29.7070
  282.1000    66.0322    29.4775    29.7066
  282.2000    65.4572    29.6004    29.9342
  282.3000    64.7184    29.6123    30.2038
  282.4000    64.1390    29.8102    30.3786
  282.5000    63.7099    29.9577    30.5545
  282.6000    63.2057    30.0213    30.7656
  282.7000    62.5960    30.0949    30.9096
  282.8000    61.8919    30.2699    31.1965
  282.9000    61.3820    30.4477    31.4890
  283.0000    60.6352    30.4483    31.6713
  283.1000    60.0740    30.5854    31.8625
  283.2000    59.5697    30.6640    32.0393
  283.3000    58.9796    30.7254    32.2249
  283.4000    58.2559    30.8813    32.4115
  283.5000    57.7067    30.8819    32.5992
  283.6000    57.0186    30.8824    32.7879
  283.7000    56.4378    31.0074    32.9979
  283.8000    55.9336    31.1012    32.9975
  283.9000    55.4957    31.1017    33.1277
  284.0000    55.2306    31.1110    33.2290
  284.1000    54.6421    31.3222    33.2781
  284.2000    54.6406    31.3226    33.4622
  284.3000    54.6388    31.4354    33.4616
  284.4000    54.9398    31.5446    33.6228
  284.5000    55.6914    31.5451    33.8176
  284.6000    56.4653    31.5457    33.9334
  284.7000    57.4391    31.5462    33.9329
  284.8000    58.2524    31.6850    33.9325
  284.9000    59.1396    31.7698    33.9320
  285.0000    60.0610    31.7703    33.9315
  285.1000    60.8401    31.7709    33.9310
  285.2000    61.9503    31.7715    33.9306
  285.3000    62.8461    31.7720    33.9046
  285.4000    63.6787    31.7726    33.6922
  285.5000    64.4304    31.7731    33.6918
  285.6000    65.1822    31.7737    33.6913
  285.7000    65.9340    31.7742    33.5951
  285.8000    66.8247    31.7749    33.4007
  285.9000    67.2328    31.7753    33.2073
  286.0000    67.7333    31.7759    32.9873
  286.1000    68.1374    31.7765    32.9869
  286.2000    68.4292    31.7462    32.8642
  286.3000    68.9532    31.5551    32.6741
  286.4000    69.1908    31.5557    32.5256
  286.5000    69.4402    31.5562    32.5244
  286.6000    69.6895    31.5568    32.3363
  286.7000    69.9389    31.5573    32.1492
  286.8000    70.1657    31.5414    31.9632
  286.9000    70.1634    31.3376    31.7782
  287.0000    70.1618    31.3380    31.6223
  287.1000    70.1600    31.2195    31.6218
  287.2000    70.1582    31.1198    31.4497
  287.3000    70.1563    31.1203    31.2678
  287.4000    70.1545    31.1208    31.1797
  287.5000    70.1527    31.1214    31.1247
  287.6000    69.7502    30.9790    30.9445
  287.7000    69.0998    30.9046    30.7436
  287.8000    68.3445    30.9051    30.7432
  287.9000    67.5892    30.8788    30.6248
