~VERSION INFORMATION
 VERS.                2.0:   CWLS LOG ASCII STANDARD - VERSION 2.0
 WRAP.                 NO:   ONE LINE PER DEPTH STEP
~WELL INFORMATION
#MNEM.UNIT      DATA TYPE    INFORMATION
#----------   ------------   ------------------------------
 STRT.F            2.0000:   START DEPTH
 STOP.F          547.0000:   STOP DEPTH
 STEP.F            0.5000:   STEP LENGTH
 NULL.          -999.2500:   NO VALUE
 COMP. LAWRENCE/ALLISON INC:   COMPANY
 WELL. NPR # #3 68-61-SX-10:   WELL
 FLD .             TEAPOT:   FIELD
 LOC .      S10 T38N R78W:   LOCATION
 CNTY.            NATRONA:   COUNTY
 STAT.            WYOMING:   STATE
 CTRY. UNITED STATES OF AMERICA:   COUNTRY
 SRVC.           Gearhart:   SERVICE COMPANY
 DATE.        24-JUN-1987:   LOGDATE
 API .       490251114500:   API NUMBER
~CURVE INFORMATION
#MNEM.UNIT       API CODE    CURVE DESCRIPTION
#----------   ------------   ------------------------------
 DEPT.F                  :   
 GRR .GAPI   07 310 01 00:   GAMMA RAY FROM RES. LOG.
 RILD.OHMM   07 120 46 00:   INDUCTION LOG DEEP RESISTIVITY
 RILM.OHMM   07 120 44 00:   INDUCTION LOG MEDIUM RESISTIVITY
~PARAMETER INFORMATION
#MNEM.UNIT          VALUE    DESCRIPTION
#----------   ------------   ------------------------------
 PD  .                 GL:   PERMANENT DATUM
 EPD .F              5203:   ELEVATION PERMANENT DATUM
 LMF .                 KB:   LOG MEASURED FROM
 DAPD.F                 8:   FEET ABOVE PERMANENT DATUM
 DMF .                 KB:   DRILLING MEASURED FROM
 EKB .F              5211:   KELLING BUSHING
 EDF .F              5209:   DRILLING FLOOR
 EGL .F              5203:   GROUND LEVEL
 DATE.            6-24-87:   RUN DATE
 RUN .                  1:   RUN NUMBER
 DD  .F               565:   DEPTH DRILLER
 DL  .F               557:   DEPTH LOGGER
 BLI .F               549:   BOTTOM LOG INTERVAL
 TLI .F                48:   TOP LOG INTERVAL
 CS  .IN            8.625:   CASING SIZE
 CBD .F                50:   CASING BOTTOM DRILLER
 CBL .F                48:   CASING BOTTOM LOGGER
 BS  .IN             7.87:   BIT SIZE
 BSD .F               565:   BIT SIZE AT DEPTH
 DFT .                AIR:   DRILLING FLUID TYPE
 TCS .HRS            0715:   TIME CURCULATED STOPPED
 TLAB.HRS            0904:   TIME LOGGER AT BOTTOM
 LUN .               7597:   LOGGING UNIT NUMBER
 LUL .           GILLETTE:   LOGGING UNIT LOCATION
 ENGI.           JOHNSTON:   RECORDING ENGINEER
 CLNT.            A2DTECH:   CLIENT CODE
 ORIG.       2", 5" PRINT:   ORIGIN OF DATA
 UWI .       490251114500:   UNIQUE WELL ID
 DICO. A2D Technologies, Inc.:   DIGITIZING COMPANY
~OTHER INFORMATION
~A    DEPT      GRR      RILD       RILM   
# ...
  366.0000    85.4704    14.9507    14.3859
  366.5000    81.9182    15.0549    14.4951
  367.0000    81.1536    15.1599    14.6052
  367.5000    80.3310    15.2656    14.7161
  368.0000    79.4728    15.3721    14.8278
  368.5000    79.6062    15.4793    14.9404
  369.0000    81.2791    15.6769    15.0538
  369.5000    83.1036    15.5020    15.0934
  370.0000    83.6941    15.2840    15.0914
  370.5000    83.3012    15.1112    15.0986
  371.0000    82.9582    14.9322    14.6912
  371.5000    83.4652    14.7557    14.3869
  372.0000    84.0123    14.5815    14.0910
  372.5000    85.1288    14.4092    13.8013
  373.0000    86.0347    14.2389    13.5177
  373.5000    85.2283    14.0705    13.2640
  374.0000    84.4398    14.0148    13.1392
  374.5000    84.1072    14.0102    13.0256
  375.0000    85.5111    14.4522    12.9018
  375.5000    86.9075    15.0225    12.7832
  376.0000    87.6810    15.6289    13.1079
  376.5000    86.2380    16.9909    14.2246
  377.0000    84.4513    18.8140    15.4364
  377.5000    81.4700    20.6702    16.8609
  378.0000    77.7306    22.6395    19.3511
  378.5000    73.8619    24.7964    22.4755
  379.0000    70.1340    27.1588    26.0429
  379.5000    68.7033    29.7502    30.0330
  380.0000    67.3672    32.7693    34.6343
  380.5000    66.4546    33.3316    36.2021
  381.0000    66.0517    33.9284    36.5633
  381.5000    66.1169    34.3162    36.9456
  382.0000    67.4291    34.1809    36.9456
  382.5000    68.4066    34.0638    36.6781
  383.0000    67.9276    33.9473    35.9422
  383.5000    67.4778    33.8310    35.2210
  384.0000    67.0237    33.7172    34.6172
  384.5000    67.0064    33.2691    34.5171
  385.0000    67.2135    32.7342    34.4173
  385.5000    67.4236    32.2081    34.3162
  386.0000    67.6261    31.6850    33.8152
  386.5000    68.1643    31.4921    33.3136
  387.0000    69.0707    31.3370    32.8194
  387.5000    70.4280    31.1847    32.3327
  388.0000    71.2541    31.0330    31.8528
  388.5000    71.5495    30.4492    31.3818
  389.0000    70.8472    29.7742    30.8255
  389.5000    70.4613    29.1142    30.2595
  390.0000    71.1450    28.4688    29.7039
  390.5000    71.9170    27.8372    29.1585
  391.0000    72.6246    27.2201    28.6231
  391.5000    73.1704    26.8100    28.0976
  392.0000    73.7027    26.5202    27.5817
  392.5000    74.0039    26.2327    27.0753
  393.0000    73.5540    25.9482    26.7628
  393.5000    73.1305    25.6669    26.4887
  394.0000    73.1304    25.3887    26.2174
  394.5000    74.6731    25.1134    25.9489
  395.0000    76.5081    25.0742    25.6831
  395.5000    77.2569    24.9269    25.4200
  396.0000    75.0415    24.7887    25.1597
  396.5000    72.0780    24.6512    25.0742
  397.0000    71.3111    24.5146    25.0742
  397.5000    72.7916    24.3895    25.0742
  398.0000    74.4880    24.2788    25.0742
  398.5000    75.7024    24.1768    25.0744
  399.0000    75.5804    24.0752    25.0730
  399.5000    75.4823    23.9740    25.0686
  400.0000    75.3838    23.9425    25.0742
  400.5000    75.3375    23.8794    24.0577
  401.0000    75.8977    23.8218    23.4782
  401.5000    77.6436    23.7631    22.8637
  402.0000    79.1564    23.4053    22.0815
  402.5000    79.8683    22.4225    21.2549
  403.0000    78.9583    21.4810    20.4594
  403.5000    80.1267    20.5790    19.6934
  404.0000    81.5871    19.7149    18.9553
  404.5000    83.5686    18.8355    18.2418
  405.0000    85.5985    18.6625    17.5092
  405.5000    87.6682    18.6625    17.1565
  406.0000    88.4952    18.6625    17.1750
  406.5000    87.5015    19.1674    17.8481
  407.0000    85.5937    19.8627    18.6830
  407.5000    83.6703    20.5172    19.7424
  408.0000    81.7482    20.8365    20.8618
  408.5000    79.7937    21.1608    22.0447
  409.0000    77.6250    21.2973    23.2896
  409.5000    75.3062    21.4333    23.7235
  410.0000    72.9908    21.1756    22.0509
  410.5000    73.0186    20.7634    20.9086
  411.0000    74.5994    20.0555    19.8255
  411.5000    77.1788    19.3700    18.7985
  412.0000    78.4299    18.7079    17.8225
  412.5000    77.4616    18.0693    17.3850
  413.0000    76.5571    17.4523    16.9593
  413.5000    77.1365    17.1987    16.5617
  414.0000    77.8174    17.0313    16.3381
  414.5000    77.9150    16.8664    16.2129
  415.0000    76.6177    16.7028    16.0805
  415.5000    75.3287    16.5407    15.9496
  416.0000    74.4388    16.3801    15.8197
  416.5000    76.5065    16.2212    15.6909
  417.0000    79.1707    16.0637    15.5631
  417.5000    80.1546    15.9078    15.4344
  418.0000    80.6368    15.7534    15.2473
  418.5000    80.9166    15.6005    15.0626
  419.0000    81.2052    15.4922    14.8801
  419.5000    81.4915    15.4371    14.8173
  420.0000    81.6835    15.3822    14.8174
  420.5000    81.3723    15.2981    14.8185
  421.0000    81.0669    15.2098    14.8188
  421.5000    80.7669    15.1219    14.6321
  422.0000    80.6301    15.0346    14.4876
  422.5000    81.3165    14.9547    14.4127
  423.0000    81.9875    14.9339    14.4557
  423.5000    82.6697    14.9147    14.4848
  424.0000    82.4620    14.8955    14.5140
  424.5000    81.6949    14.8764    14.5463
  425.0000    80.9410    14.8573    14.4537
  425.5000    80.7156    14.8381    14.3510
  426.0000    80.5370    14.8178    14.2491
  426.5000    80.8566    14.7802    14.1479
  427.0000    81.1846    14.6612    14.0474
  427.5000    82.0882    14.5430    13.9477
  428.0000    83.3833    14.4258    13.8486
  428.5000    85.9219    14.3095    13.7502
  429.0000    88.5153    14.1943    13.6526
  429.5000    89.7043    14.0799    13.5556
  430.0000    88.8912    13.9665    13.4594
  430.5000    88.0218    13.8539    13.3638
  431.0000    87.5920    13.7423    13.2689
  431.5000    89.0170    13.6315    13.1746
  432.0000    91.3165    13.5219    13.0810
  432.5000    91.8357    13.3869    12.9881
  433.0000    92.3480    13.4106    12.8959
  433.5000    93.1556    13.4417    12.8035
  434.0000    93.5121    13.4729    12.7832
  434.5000    92.1321    13.5105    12.8446
  435.0000    91.6230    13.4948    12.8972
  435.5000    92.2336    13.4740    12.9501
  436.0000    92.2752    13.4532    13.0031
  436.5000    91.2801    13.4323    13.0563
  437.0000    89.0299    13.4117    13.1098
  437.5000    86.9610    13.3911    13.1421
  438.0000    88.5302    13.2640    13.0210
  438.5000    90.9604    13.1179    12.9208
  439.0000    91.7938    13.0015    12.8215
  439.5000    90.3073    12.8862    12.7001
  440.0000    88.6193    12.7719    12.5658
  440.5000    87.7019    12.6586    12.4329
  441.0000    89.4672    12.5463    12.3014
  441.5000    91.1555    12.4351    12.1713
  442.0000    91.0790    12.3248    12.0426
  442.5000    90.7421    12.2155    11.9152
  443.0000    90.4032    12.1071    11.7892
  443.5000    90.1561    11.9997    11.6645
  444.0000    91.1045    11.8955    11.5411
  444.5000    94.5560    11.7926    11.4191
  445.0000    97.2167    11.6888    11.2983
  445.5000    97.6739    11.4334    11.1142
  446.0000    95.3423    11.1002    10.8603
  446.5000    93.0387    10.8139    10.6112
  447.0000    91.0091    10.5769    10.3682
  447.5000    92.1854    10.3451    10.1308
  448.0000    94.5106    10.1180     9.9066
  448.5000    96.6847     9.9048     9.3451
  449.0000    97.9332     9.2738     8.5265
  449.5000    98.2189     8.4909     7.7696
  450.0000    98.4973     7.7696     7.0823
  450.5000   100.4766     7.1096     6.5038
  451.0000   103.3077     6.5057     5.9509
  451.5000   108.9904     6.1661     5.4908
  452.0000   114.8597     6.1094     5.0753
  452.5000   120.5468     6.3685     5.0742
  453.0000   115.3005     6.5473     5.5768
  453.5000   105.8793     6.9264     6.1807
  454.0000   100.9170     7.5379     6.8509
  454.5000    96.0130     8.2084     7.5127
  455.0000    95.2440     8.9384     8.1491
  455.5000    94.7012     9.7276     8.8393
  456.0000    94.5677    10.1494     9.5879
  456.5000    95.0667    10.3644    10.1494
