~VERSION INFORMATION
 VERS.                2.0:   CWLS LOG ASCII STANDARD - VERSION 2.0
 WRAP.                 NO:   ONE LINE PER DEPTH STEP
~WELL INFORMATION
#MNEM.UNIT      DATA TYPE    INFORMATION
#----------   ------------   ------------------------------
 STRT.F            0.0000:   START DEPTH
 STOP.F          547.0000:   STOP DEPTH
 STEP.F            0.1000:   STEP LENGTH
 NULL.          -999.2500:   NO VALUE
 COMP.       F D SERV INC:   COMPANY
 WELL.    87-5 SX 3 #87-3:   WELL
 FLD .             TEAPOT:   FIELD
 LOC .       S3 T38N R78W:   LOCATION
 CNTY.            NATRONA:   COUNTY
 STAT.            WYOMING:   STATE
 CTRY. UNITED STATES OF AMERICA:   COUNTRY
 SRVC.     Atlas Wireline:   SERVICE COMPANY
 DATE.        31-OCT-1992:   LOGDATE
 API .       490252254800:   API NUMBER
~CURVE INFORMATION
#MNEM.UNIT       API CODE    CURVE DESCRIPTION
#----------   ------------   ------------------------------
 DEPT.F                  :   
 GRR .GAPI   07 310 01 00:   GAMMA RAY
 RILD.OHMM   07 120 46 00:   INDUCTION LOG DEEP RESISTIVITY
 RILM.OHMM   07 120 44 00:   INDUCTION LOG MEDIUM RESISTIVITY
~PARAMETER INFORMATION
#MNEM.UNIT          VALUE    DESCRIPTION
#----------   ------------   ------------------------------
 PD  .                 GL:   PERMANENT DATUM
 EPD .F              5119:   ELEVATION PERMANENT DATUM
 LMF .                 KB:   LOG MEASURED FROM
 DAPD.F                10:   FEET ABOVE PERMANENT DATUM
 DMF .                 KB:   DRILLING MEASURED FROM
 EKB .F              5129:   KELLING BUSHING
 EDF .F              5128:   DRILLING FLOOR
 EGL .F              5119:   GROUND LEVEL
 DATE.        31-OCT-1992:   RUN DATE
 RUN .                  1:   RUN NUMBER
 DD  .F               568:   DEPTH DRILLER
 DL  .F               555:   DEPTH LOGGER
 BLI .F               547:   BOTTOM LOG INTERVAL
 TLI .F                71:   TOP LOG INTERVAL
 CS  .IN            8.625:   CASING SIZE
 CBD .F                70:   CASING BOTTOM DRILLER
 CBL .F                71:   CASING BOTTOM LOGGER
 BS  .IN            7.875:   BIT SIZE
 BSD .F               568:   BIT SIZE AT DEPTH
 DFT .           AIR FOAM:   DRILLING FLUID TYPE
 TCS .HRS               2:   TIME CURCULATED STOPPED
 MRT .F                64:   MAXIMUM RECORDED TEMPERATURE
 LUN .            HL-6274:   LOGGING UNIT NUMBER
 LUL .             CASPER:   LOGGING UNIT LOCATION
 ENGI.        P.RASHUSSEN:   RECORDING ENGINEER
 WITN.     BRUCE ANDERSON:   WITNESSED BY
 CLNT.            A2DTECH:   CLIENT CODE
 ORIG.           5" PRINT:   ORIGIN OF DATA
 UWI .       490252254800:   UNIQUE WELL ID
 DICO. A2D Technologies, Inc.:   DIGITIZING COMPANY
~OTHER INFORMATION
~A    DEPT      GRR      RILD       RILM   
# ...
  436.8000    92.1024    27.9952    24.3752
  436.9000    92.3550    27.7671    24.1043
  437.0000    92.1011    27.6053    23.9479
  437.1000    92.0455    27.4444    23.9464
  437.2000    91.8919    27.2844    23.9448
  437.3000    91.5352    27.1256    23.8739
  437.4000    91.0256    26.9676    23.7748
  437.5000    90.5159    26.9041    23.7593
  437.6000    89.9053    26.8410    23.6059
  437.7000    89.2934    26.6845    23.6044
  437.8000    88.8364    26.5290    23.5067
  437.9000    88.5800    26.5283    23.4369
  438.0000    88.3237    26.4045    23.3940
  438.1000    88.0673    26.2507    23.2706
  438.2000    87.7627    26.1584    23.2688
  438.3000    87.7602    26.1577    23.2673
  438.4000    87.7572    26.1570    23.2657
  438.5000    87.7542    25.9742    23.2641
  438.6000    87.8612    25.9737    23.2624
  438.7000    88.3600    25.8826    23.2608
  438.8000    88.6550    25.7318    23.2591
  438.9000    88.8605    25.6116    23.2576
  439.0000    89.2687    25.6108    23.2560
  439.1000    89.6646    25.6100    23.2543
  439.2000    89.9148    25.4907    23.2527
  439.3000    90.1723    25.4306    23.2511
  439.4000    90.7612    25.4299    23.2493
  439.5000    91.3899    25.4292    23.2478
  439.6000    91.9866    25.4285    23.2462
  439.7000    92.4902    25.4278    23.2446
  439.8000    92.9938    25.4271    23.2430
  439.9000    93.4877    25.4264    23.2413
  440.0000    93.7780    25.4257    23.2396
  440.1000    94.2010    25.4250    23.2381
  440.2000    96.1998    25.4243    23.2365
  440.3000    95.9836    25.2466    23.2349
  440.4000    95.8907    25.1290    23.2332
  440.5000    95.7744    25.0698    23.2316
  440.6000    95.3918    25.0110    23.2299
  440.7000    94.6159    24.8941    23.2284
  440.8000    93.4502    24.8934    23.2267
  440.9000    92.5833    24.8926    23.2251
  441.0000    92.0648    24.8920    23.2235
  441.1000    91.8084    24.8913    23.2219
  441.2000    91.5521    24.8906    23.2201
  441.3000    91.3111    24.9190    23.2186
  441.4000    91.3076    25.0635    23.2170
  441.5000    91.3050    24.8884    23.2154
  441.6000    91.4703    24.8879    23.1690
  441.7000    91.6024    24.8872    23.0506
  441.8000    91.7354    24.8288    23.0489
  441.9000    92.2211    24.6841    23.0474
  442.0000    92.5034    24.5402    22.9474
  442.1000    93.1637    24.3974    22.8838
  442.2000    93.7498    24.2553    22.8375
  442.3000    94.2534    24.1981    22.7032
  442.4000    94.6865    24.1974    22.5616
  442.5000    94.9570    24.1968    22.5602
  442.6000    95.5201    24.1961    22.5586
  442.7000    95.7408    24.1954    22.5570
  442.8000    96.3375    24.3077    22.6006
  442.9000    96.8484    24.3635    22.7121
  443.0000    97.2445    24.4196    22.7102
  443.1000    97.9559    24.5328    22.7087
  443.2000    98.2334    24.5320    22.7072
  443.3000    98.9081    24.5313    22.7056
  443.4000    99.3137    24.5306    22.7040
  443.5000    99.4385    24.5299    22.7024
  443.6000    99.4355    24.5293    22.7007
  443.7000    99.4074    24.5286    22.6992
  443.8000    99.1256    24.5279    22.6976
  443.9000    98.6663    24.6703    22.6961
  444.0000    98.3348    24.6983    22.6945
  444.1000    98.0785    24.6976    22.6929
  444.2000    97.8998    24.6969    22.6912
  444.3000    97.8419    24.6676    22.6897
  444.4000    97.2865    24.5238    22.6881
  444.5000    97.2838    24.5231    22.6865
  444.6000    97.1003    24.4087    22.6850
  444.7000    96.9742    24.2666    22.6834
  444.8000    96.9712    24.1252    22.6817
  444.9000    96.9681    24.0124    22.8072
  445.0000    96.9649    24.0118    22.8375
  445.1000    96.9621    24.0110    22.9107
  445.2000    96.9590    24.0104    22.9944
  445.3000    96.9560    24.0097    22.9928
  445.4000    96.9530    23.9534    22.9911
  445.5000    96.9499    23.8415    23.1190
  445.6000    96.9467    23.8408    23.1490
  445.7000    96.9439    23.8401    23.1474
  445.8000    97.1261    23.7290    23.1458
  445.9000    97.3764    23.6730    23.1442
  446.0000    97.6267    23.7277    23.1425
  446.1000    97.8770    23.8375    23.1409
  446.2000    98.1425    23.8368    23.2433
  446.3000    98.3775    23.9752    23.2998
  446.4000    98.6278    24.0024    23.2982
  446.5000    98.8781    24.0858    23.2966
  446.6000    99.1284    24.2255    23.2949
  446.7000    99.3419    24.3660    23.2933
  446.8000    99.3382    24.5074    23.3970
  446.9000    99.8161    24.5065    23.4533
  447.0000   100.1295    24.5060    23.4516
  447.1000   100.3797    24.5911    23.4742
  447.2000   100.5402    24.6762    23.6126
  447.3000   100.6165    24.6755    23.6110
  447.4000   101.1410    24.6748    23.7168
  447.5000   101.3809    24.6740    23.7732
  447.6000   101.4385    24.5591    23.7715
  447.7000   101.5779    24.3315    23.7950
  447.8000   101.4592    24.1050    23.9347
  447.9000   100.7804    23.9923    23.9331
  448.0000   100.5158    23.9917    24.0409
  448.1000    98.5509    23.8240    24.1797
  448.2000    97.1065    23.7131    24.1565
  448.3000    95.9819    23.6572    23.9005
  448.4000    95.0603    23.6017    23.7582
  448.5000    94.2528    23.4641    23.6205
  448.6000    93.2139    23.3274    23.3745
  448.7000    92.2203    23.3267    23.1813
  448.8000    91.4015    23.2180    23.0974
  448.9000    90.6386    23.1633    23.0957
  449.0000    89.8756    23.1089    23.0941
  449.1000    89.2534    22.9743    22.9596
  449.2000    89.2503    22.8403    22.9302
  449.3000    88.9972    22.8396    22.8496
  449.4000    88.9408    22.7332    22.7153
  449.5000    88.9378    22.6796    22.5818
  449.6000    88.9348    22.6790    22.4486
  449.7000    88.9317    22.6521    22.4470
  449.8000    88.9287    22.5201    22.4455
  449.9000    89.1782    22.5193    22.4439
  450.0000    90.0356    22.4144    22.3903
  450.1000    91.0458    22.3616    22.2587
  450.2000    91.8520    22.3610    22.1280
  450.3000    92.2519    22.3344    22.1261
  450.4000    92.2489    22.2042    22.0218
  450.5000    92.8522    22.2036    21.9694
  450.6000    93.0545    22.1001    21.9163
  450.7000    93.4595    22.0480    21.8135
  450.8000    93.9631    21.9963    21.8120
  450.9000    94.4667    21.8681    21.8102
  451.0000    94.9703    21.7406    21.6053
  451.1000    95.5655    21.4890    21.3537
  451.2000    95.9773    21.4382    21.2052
  451.3000    96.4808    21.3630    21.1522
  451.4000    96.7709    21.1896    20.9055
  451.5000    96.7678    20.9439    20.6166
  451.6000    96.7648    20.7008    20.4217
  451.7000    96.7612    20.3429    20.1839
  451.8000    96.7587    20.1769    19.9966
  451.9000    96.7557    19.9899    19.8790
  452.0000    96.7527    19.8039    19.7604
  452.1000    96.9268    19.6658    19.4883
  452.2000    97.6836    19.4375    19.3948
  452.3000    98.5640    19.2126    19.2119
  452.4000    98.9854    19.1671    19.0341
  452.5000    99.8127    19.1000    18.9222
  452.6000   100.4880    19.0328    18.8110
  452.7000   100.8613    19.0323    18.6808
  452.8000   101.6182    19.0317    18.6798
  452.9000   102.4912    19.0312    18.6784
  453.0000   103.3464    19.0307    18.6312
  453.1000   104.0281    18.9640    18.5459
  453.2000   104.6457    18.8973    18.5446
  453.3000   105.2748    18.8749    18.5431
  453.4000   105.5252    18.7649    18.5420
  453.5000   105.8114    18.7642    18.5407
  453.6000   106.0257    18.7638    18.5394
  453.7000   105.6091    18.7633    18.5630
  453.8000   104.8462    18.7628    18.6668
  453.9000   104.1496    18.7622    18.6652
  454.0000   103.6238    18.7617    18.7548
  454.1000   102.7583    18.6306    18.7936
  454.2000   102.3170    18.6302    18.7923
  454.3000   101.6382    18.6297    18.7910
  454.4000   100.7562    18.6292    18.7858
  454.5000    99.8088    18.6287    18.6574
  454.6000    99.0644    18.6281    18.6563
  454.7000    98.4913    18.6276    18.5860
  454.8000    97.8234    18.6271    18.4768
  454.9000    97.2320    18.6266    18.3937
