~VERSION INFORMATION
 VERS.                2.0:   CWLS LOG ASCII STANDARD - VERSION 2.0
 WRAP.                 NO:   ONE LINE PER DEPTH STEP
~WELL INFORMATION
#MNEM.UNIT      DATA TYPE    INFORMATION
#----------   ------------   ------------------------------
 STRT.F            0.0000:   START DEPTH
 STOP.F         4112.0000:   STOP DEPTH
 STEP.F            0.5000:   STEP LENGTH
 NULL.          -999.2500:   NO VALUE
 COMP. LAWRENCE-ALLISON &AS:   COMPANY
 WELL. N P R 3-76-1-SX #3-3:   WELL
 FLD .          N.P.R. #3:   FIELD
 LOC .       S3 T38N R78W:   LOCATION
 CNTY.            NATRONA:   COUNTY
 STAT.            WYOMING:   STATE
 CTRY. UNITED STATES OF AMERICA:   COUNTRY
 SRVC.      Dresser Atlas:   SERVICE COMPANY
 DATE.        04-SEP-1983:   LOGDATE
 API .       490251093100:   API NUMBER
~CURVE INFORMATION
#MNEM.UNIT       API CODE    CURVE DESCRIPTION
#----------   ------------   ------------------------------
 DEPT.F                  :   
 DEN .G/C3   45 350 01 00:   COMPENSATED BULK DENSTIY
 CORR.G/C3   45 356 01 00:   DENSITY CORRECTION
 PORD.DEC    45 890 12 00:   POROSITY DENSITY SANDSTONE
 CNC .DEC    42 890 03 00:   NEUTRON POROSITY SANDSTONE
 SPR .MV     07 010 01 00:   SPONTANEOUS POTENTIAL
 GRR .GAPI   07 310 01 00:   GAMMA RAY FROM RES. LOG.
 RFOC.OHMM   07 220 04 00:   RESISTIVITY FOCUSED LOG
 CALD.IN     45 280 60 00:   CALIPER
 AC  .US/F   60 520 00 00:   ACOUSTIC SONIC
 RILD.OHMM   07 120 46 00:   INDUCTION LOG DEEP RESISTIVITY
 RILM.OHMM   07 120 44 00:   INDUCTION LOG MEDIUM RESISTIVITY
~PARAMETER INFORMATION
#MNEM.UNIT          VALUE    DESCRIPTION
#----------   ------------   ------------------------------
 PD  .                 GL:   PERMANENT DATUM
 EPD .F              5147:   ELEVATION PERMANENT DATUM
 LMF .                 KB:   LOG MEASURED FROM
 DAPD.F                10:   FEET ABOVE PERMANENT DATUM
 DMF .                 KB:   DRILLING MEASURED FROM
 EKB .F              5157:   KELLING BUSHING
 EGL .F              5147:   GROUND LEVEL
 DATE.             9-4-83:   RUN DATE
 RUN .                  1:   RUN NUMBER
 DD  .F              4119:   DEPTH DRILLER
 DL  .F              4115:   DEPTH LOGGER
 BLI .F              4112:   BOTTOM LOG INTERVAL
 CS  .IN            9.625:   CASING SIZE
 CBD .F               491:   CASING BOTTOM DRILLER
 CBL .F               494:   CASING BOTTOM LOGGER
 BS  .IN             8.75:   BIT SIZE
 BSD .F              4119:   BIT SIZE AT DEPTH
 DFT .            KCL GEL:   DRILLING FLUID TYPE
 DFD .                8.9:   DRILLING FLUID DENSITY
 DFV .                 46:   DRILLING FLUID VISCOSITY
 DFPH.                  9:   DRILLING FLUID PH
 DFL .               13.6:   DRILLING FLUID LOSS
 MSS .            MUDTANK:   MUD SAMPLE SOURCE
 RMS .OHMM           .315:   RESISTIVITY MUD SAMPLE
 MST .F                92:   MUD SAMPLE TEMPERATURE
 RMF .OHMM            .25:   RESISTIVITY MUD FILTRATE SAMPLE
 MFST.F                84:   MUD FILTRATE SAMPLE TEMPERATURE
 RMC .OHMM             .4:   RESISTIVITY MUD CAKE
 MCST.F                92:   MUD CAKE SAMPLE TEMPERATURE
 MFSS.                  M:   MUD FILTRATE SAMPLE SOURCE
 MCSS.                  C:   MUD CAKE SAMPLE SOURCE
 RMB .OHMM            .22:   RESISTIVITY MUD AT BHT
 BHT .F               132:   BOTTOM HOLE TEMPERATURE
 TCS .HRS               4:   TIME CURCULATED STOPPED
 MRT .F               132:   MAXIMUM RECORDED TEMPERATURE
 LUN .               6274:   LOGGING UNIT NUMBER
 LUL .               GLTE:   LOGGING UNIT LOCATION
 ENGI.             RAUTIO:   RECORDING ENGINEER
 WITN.             STRONG:   WITNESSED BY
 CLNT.            A2DTECH:   CLIENT CODE
 ORIG. 1", 2", 2.5", 5" PRINT:   ORIGIN OF DATA
 UWI .       490251093100:   UNIQUE WELL ID
 DICO. A2D Technologies, Inc.:   DIGITIZING COMPANY
~OTHER INFORMATION
~A    DEPT     DEN       CORR       PORD        CNC        SPR          GRR     RFOC       CALD         AC       RILD       RILM   
# ...
 1677.5000     2.5498     0.0289     0.0622     0.2780   -49.9100   120.2377     7.1632     9.1333  -999.2500     6.0050     6.2301
 1678.0000     2.5459     0.0086     0.0635     0.2803   -49.8938   118.2253     7.0300     9.1340  -999.2500     6.0133     6.2150
 1678.5000     2.5422    -0.0106     0.0582     0.2735   -49.8776   119.9457     6.9922     9.1347  -999.2500     6.0216     6.1968
 1679.0000     2.5514    -0.0291     0.0529     0.2713   -49.8615   124.1067     6.9546     9.1354  -999.2500     6.0300     6.2075
 1679.5000     2.5596    -0.0193     0.0482     0.2723   -49.8452   127.8048     6.9172     9.1361  -999.2500     6.0383     6.2206
 1680.0000     2.5658     0.0306     0.0506     0.2728   -49.8291   128.2876     6.8800     9.1368  -999.2500     6.0467     6.2344
 1680.5000     2.5644     0.0541     0.0538     0.2731   -49.8132   122.0979     6.8430     9.1375  -999.2500     6.0551     6.2483
 1681.0000     2.5608     0.0425     0.0515     0.2853   -49.7924   116.6439     6.7896     9.1382  -999.2500     6.0635     6.2620
 1681.5000     2.5615     0.0208     0.0483     0.2980   -49.7612   110.5727     6.8016     9.1389  -999.2500     6.0719     6.2758
 1682.0000     2.5661     0.0301     0.0466     0.2980   -49.7304   107.2620     6.8232     9.1395  -999.2500     6.0803     6.2896
 1682.5000     2.5703     0.0462     0.0533     0.2882   -49.6995   109.5784     6.8454     9.1402  -999.2500     6.0888     6.3035
 1683.0000     2.5659     0.0670     0.0597     0.2782   -49.6685   111.4897     6.8678     9.1409  -999.2500     6.0972     6.3175
 1683.5000     2.5523     0.0547     0.0659     0.2801   -49.6376   113.2739     6.8901     9.1416  -999.2500     6.1057     6.3314
 1684.0000     2.5390     0.0192     0.0649     0.2841   -49.6067   115.4321     6.9151     9.1423  -999.2500     6.1141     6.3454
 1684.5000     2.5430     0.0201     0.0611     0.2876   -49.5757   117.0398     6.9748     9.1430  -999.2500     6.1226     6.3594
 1685.0000     2.5471     0.0325     0.0581     0.2795   -49.5448   118.5207     7.0428     9.1437  -999.2500     6.1311     6.3735
 1685.5000     2.5520     0.0419     0.0562     0.2737   -49.5138   122.3189     7.1114     9.1444  -999.2500     6.1396     6.3876
 1686.0000     2.5558     0.0512     0.0585     0.2816   -49.4830   127.6479     7.1807     9.1450  -999.2500     6.1481     6.4016
 1686.5000     2.5524     0.0503     0.0636     0.2922   -49.4520   130.6719     7.2508     9.1457  -999.2500     6.1566     6.4157
 1687.0000     2.5426     0.0409     0.0688     0.2923   -49.4202   126.0351     7.3056     9.1464  -999.2500     6.1651     6.4352
 1687.5000     2.5328     0.0063     0.0731     0.2811   -49.3971   121.5188     7.2163     9.1471  -999.2500     6.1736     6.4728
 1688.0000     2.5329    -0.0027     0.0708     0.2700   -49.3836   120.5107     7.1124     9.1478  -999.2500     6.1821     6.5106
 1688.5000     2.5373     0.0121     0.0645     0.2693   -49.3692   121.8621     7.0100     9.1485  -999.2500     6.1906     6.5486
 1689.0000     2.5447     0.0269     0.0578     0.2707   -49.3546   120.2106     6.9165     9.1492  -999.2500     6.2181     6.5868
 1689.5000     2.5536     0.0449     0.0571     0.2755   -49.3403   116.3327     7.0112     9.1498  -999.2500     6.2686     6.6253
 1690.0000     2.5596     0.0362     0.0563     0.2980   -49.3259   112.5560     7.0992     9.1505  -999.2500     6.3196     6.6640
 1690.5000     2.5564     0.0166     0.0554     0.2940   -49.3115   108.6341     7.1896     9.1512  -999.2500     6.3710     6.7029
 1691.0000     2.5556     0.0129     0.0539     0.2819   -49.2971   108.8623     7.2812     9.1519  -999.2500     6.4228     6.7421
 1691.5000     2.5622     0.0359     0.0521     0.2683   -49.2827   111.4578     7.3739     9.1526  -999.2500     6.4749     6.7815
 1692.0000     2.5635     0.0602     0.0514     0.2687   -49.2682   114.3142     7.4679     9.1523  -999.2500     6.5275     6.8135
 1692.5000     2.5620     0.0586     0.0514     0.2746   -49.2538   111.7804     7.5630     9.1519  -999.2500     6.5805     6.8437
 1693.0000     2.5606     0.0300     0.0537     0.2848   -49.2394   106.7982     7.7181     9.1516  -999.2500     6.6664     6.8740
 1693.5000     2.5603    -0.0103     0.0537     0.2962   -49.2250   102.1679     7.5834     9.1512  -999.2500     6.6416     6.9150
 1694.0000     2.5645    -0.0022     0.0520     0.2945   -49.2106   104.0334     7.5184     9.1509  -999.2500     6.5792     6.8976
 1694.5000     2.5645     0.0543     0.0524     0.2908   -49.1962   105.7812     7.4547     9.1505  -999.2500     6.5174     6.8309
 1695.0000     2.5584     0.0266     0.0560     0.2923   -49.1818   107.7677     7.3913     9.1502  -999.2500     6.4562     6.7649
 1695.5000     2.5529     0.0018     0.0597     0.2955   -49.1674   108.4326     7.3287     9.1498  -999.2500     6.3955     6.6995
 1696.0000     2.5466    -0.0201     0.0635     0.2962   -49.1529   106.2348     7.2669     9.1495  -999.2500     6.3355     6.6348
 1696.5000     2.5481    -0.0029     0.0621     0.2874   -49.1385   103.4896     7.2061     9.1491  -999.2500     6.2760     6.5707
 1697.0000     2.5501     0.0377     0.0594     0.2779   -49.1241   104.4558     7.1459     9.1488  -999.2500     6.2171     6.5073
 1697.5000     2.5519     0.0544     0.0606     0.2828   -49.1097   108.0611     7.0865     9.1484  -999.2500     6.1587     6.4446
 1698.0000     2.5457     0.0527     0.0627     0.2919   -49.0954   110.0302     7.0275     9.1481  -999.2500     6.1008     6.3825
 1698.5000     2.5423     0.0475     0.0651     0.2988   -49.0812   109.4067     6.9690     9.1477  -999.2500     6.0435     6.3211
 1699.0000     2.5488     0.0428     0.0630     0.2988   -49.0665   109.4177     6.9154     9.1474  -999.2500     5.9868     6.2595
 1699.5000     2.5539     0.0415     0.0588     0.2867   -49.0523   113.5709     6.9154     9.1470  -999.2500     5.9306     6.1956
 1700.0000     2.5553     0.0478     0.0558     0.2723   -49.0392   118.2839     6.9153     9.1467  -999.2500     5.8644     6.2251
 1700.5000     2.5560     0.0460     0.0538     0.2773   -49.0219   117.2224     6.9152     9.1463  -999.2500     5.8993     6.2565
 1701.0000     2.5513     0.0376     0.0570     0.2891   -49.0038   115.2058     6.9152     9.1460  -999.2500     5.9426     6.2881
 1701.5000     2.5471     0.0292     0.0602     0.3044   -48.8650   117.1776     6.9150     9.1456  -999.2500     5.9862     6.3199
 1702.0000     2.5426     0.0246     0.0621     0.3027   -48.7159   122.8440     6.9151     9.1453  -999.2500     6.0301     6.3518
 1702.5000     2.5378     0.0270     0.0653     0.2988   -48.5631   124.7327     6.9151     9.1449  -999.2500     6.0743     6.3839
 1703.0000     2.5379     0.0338     0.0670     0.2988   -48.4115   119.7330     6.9151     9.1446  -999.2500     6.1188     6.4161
 1703.5000     2.5424     0.0407     0.0651     0.2871   -48.2606   115.1914     6.9151     9.1442  -999.2500     6.1637     6.4485
 1704.0000     2.5466     0.0469     0.0629     0.2771   -48.1097   114.1863     6.9151     9.1439  -999.2500     6.1956     6.4811
 1704.5000     2.5500     0.0518     0.0605     0.2781   -47.9566   115.2615     6.9151     9.1435  -999.2500     6.1956     6.5138
 1705.0000     2.5519     0.0312     0.0594     0.2794   -47.8150   116.3915     6.9161     9.1432  -999.2500     6.1956     6.5455
 1705.5000     2.5510     0.0234     0.0594     0.2802   -47.6539   117.8868     6.9138     9.1428  -999.2500     6.1956     6.4470
 1706.0000     2.5488     0.0207     0.0594     0.2910   -47.5060   120.2690     6.9182     9.1425  -999.2500     6.1956     6.3535
 1706.5000     2.5477     0.0178     0.0610     0.2985   -47.3550   122.6982     6.9209     9.1421  -999.2500     6.1956     6.2620
 1707.0000     2.5374     0.0158     0.0638     0.2985   -47.1950   123.4578     6.9243     9.1418  -999.2500     5.8190     6.0089
 1707.5000     2.5204     0.0142     0.0683     0.2710   -47.0214   123.4604     6.9272     9.1414  -999.2500     5.4753     5.3798
