~VERSION INFORMATION
 VERS.                2.0:   CWLS LOG ASCII STANDARD - VERSION 2.0
 WRAP.                 NO:   ONE LINE PER DEPTH STEP
~WELL INFORMATION
#MNEM.UNIT      DATA TYPE    INFORMATION
#----------   ------------   ------------------------------
 STRT.F           61.0000:   START DEPTH
 STOP.F          527.0000:   STOP DEPTH
 STEP.F            0.5000:   STEP LENGTH
 NULL.          -999.2500:   NO VALUE
 COMP.       F D SERV INC:   COMPANY
 WELL.  82-5 SX 10 #82-10:   WELL
 FLD .             TEAPOT:   FIELD
 LOC .      S10 T38N R78W:   LOCATION
 CNTY.            NATRONA:   COUNTY
 STAT.            WYOMING:   STATE
 CTRY. UNITED STATES OF AMERICA:   COUNTRY
 SRVC.     Atlas Wireline:   SERVICE COMPANY
 DATE.        08-FEB-1993:   LOGDATE
 API .       490252258800:   API NUMBER
~CURVE INFORMATION
#MNEM.UNIT       API CODE    CURVE DESCRIPTION
#----------   ------------   ------------------------------
 DEPT.F                  :   
 C13 .IN     45 280 13 00:   CALIPER
 GRD .GAPI   45 310 01 00:   GAMMA RAY FROM DENSITY LOG
 NPHI.DEC    42 890 03 00:   NEUTRON POROSITY SANDSTONE
 PORZ.DEC    45 890 12 00:   DENSITY POROSITY SANDSTONE
 ZCOR.G/C3   45 356 01 00:   DENSITY CORRECTION
 ZDEN.G/C3   45 350 01 00:   BULK DENSITY
 RILD.OHMM   07 120 46 00:   INDUCTION LOG DEEP RESISTIVITY
 RILM.OHMM   07 120 44 00:   RESITIVITY LONG MEDIUM
~PARAMETER INFORMATION
#MNEM.UNIT          VALUE    DESCRIPTION
#----------   ------------   ------------------------------
 PD  .                 GL:   PERMANENT DATUM
 EPD .F              5166:   ELEVATION PERMANENT DATUM
 LMF .                 KB:   LOG MEASURED FROM
 DAPD.F                10:   FEET ABOVE PERMANENT DATUM
 DMF .                 KB:   DRILLING MEASURED FROM
 EKB .F              5176:   KELLING BUSHING
 EDF .F              5175:   DRILLING FLOOR
 EGL .F              5166:   GROUND LEVEL
 DATE.        08-FEB-1993:   RUN DATE
 RUN .                  1:   RUN NUMBER
 DD  .F               530:   DEPTH DRILLER
 DL  .F               532:   DEPTH LOGGER
 BLI .F               529:   BOTTOM LOG INTERVAL
 TLI .F                96:   TOP LOG INTERVAL
 CS  .IN            8.625:   CASING SIZE
 CBD .F                90:   CASING BOTTOM DRILLER
 CBL .F                96:   CASING BOTTOM LOGGER
 BS  .IN            7.875:   BIT SIZE
 BSD .F               530:   BIT SIZE AT DEPTH
 DFT .                AIR:   DRILLING FLUID TYPE
 MRT .F                60:   MAXIMUM RECORDED TEMPERATURE
 LUN .            HL 6274:   LOGGING UNIT NUMBER
 LUL .             CASPER:   LOGGING UNIT LOCATION
 ENGI.          V. RAUTIO:   RECORDING ENGINEER
 WITN.          G. STRONG:   WITNESSED BY
 CLNT.            A2DTECH:   CLIENT CODE
 ORIG.           5" PRINT:   ORIGIN OF DATA
 UWI .       490252258800:   UNIQUE WELL ID
 DICO. A2D Technologies, Inc.:   DIGITIZING COMPANY
~OTHER INFORMATION
~A   DEPT      C13        GRD       NPHI       PORZ       ZCOR       ZDEN       RILD       RILM   
# ...
  385.0000     8.1053   145.4819     0.2637     0.1233    -0.0024     2.4515    14.2908    14.1397
  385.5000     8.1053   145.7831     0.2649     0.1269     0.0021     2.4418    14.4902    14.3327
  386.0000     8.1053   145.4819     0.2652     0.1317     0.0021     2.4358    14.5910    14.4343
  386.5000     8.1053   146.3855     0.2649     0.1341    -0.0023     2.4305    14.6925    14.5365
  387.0000     8.1053   146.6868     0.2637     0.1320    -0.0008     2.4268    14.7946    14.7418
  387.5000     8.1053   145.7831     0.2609     0.1256     0.0037     2.4351    15.0011    14.7437
  388.0000     8.1053   141.2651     0.2588     0.1221     0.0023     2.4448    15.1055    14.7456
  388.5000     8.1053   142.4699     0.2585     0.1218    -0.0022     2.4486    15.1055    14.7476
  389.0000     8.1053   145.1807     0.2612     0.1254    -0.0037     2.4462    15.1055    14.7499
  389.5000     8.1053   145.7831     0.2627     0.1287    -0.0036     2.4396    15.0011    14.7518
  390.0000     8.0902   143.6747     0.2621     0.1311    -0.0036     2.4336    14.8975    14.5506
  390.5000     8.1053   142.1687     0.2624     0.1335    -0.0066     2.4291    14.7946    14.1551
  391.0000     8.1053   143.0723     0.2645     0.1338    -0.0065     2.4284    14.6925    13.9616
  391.5000     8.1053   143.9759     0.2679     0.1317    -0.0050     2.4359    14.3902    13.5817
  392.0000     8.1053   145.1807     0.2745     0.1272    -0.0050     2.4427    14.0863    13.2052
  392.5000     8.1203   147.5904     0.2757     0.1244    -0.0034     2.4487    13.6140    12.8533
  393.0000     8.1203   149.3976     0.2742     0.1226    -0.0019     2.4480    13.3339    12.6776
  393.5000     8.1202   150.0000     0.2708     0.1208     0.0026     2.4518    13.2418    12.5921
  394.0000     8.1053   147.5904     0.2690     0.1160     0.0056     2.4600    12.9694    12.5067
  394.5000     8.1203   142.7711     0.2687     0.1121    -0.0003     2.4654    12.7908    12.5088
  395.0000     8.0902   143.3735     0.2687     0.1130    -0.0093     2.4631    12.7908    12.5104
  395.5000     8.1053   145.7972     0.2693     0.1148    -0.0137     2.4601    12.7908    12.5120
  396.0000     8.1203   149.3976     0.2696     0.1127    -0.0092     2.4631    12.9694    12.6887
  396.5000     8.1203   147.2892     0.2696     0.1109    -0.0002     2.4671    13.5200    13.0470
  397.0000     8.1353   147.5904     0.2696     0.1097    -0.0032     2.4691    13.9967    13.6027
  397.5000     8.1353   149.4427     0.2684     0.1103    -0.0077     2.4669    15.2105    14.5812
  398.0000     8.1203   151.5060     0.2675     0.1130    -0.0091     2.4564    16.6445    15.6296
  398.5000     8.1053   148.4940     0.2762     0.1211    -0.0031     2.4241    18.9870    17.4647
  399.0000     8.1053   138.2530     0.2801     0.1411     0.0029     2.3919    21.8963    19.2972
  399.5000     8.1203   134.0130     0.2777     0.1725     0.0060     2.3633    27.2248    22.4202
  400.0000     8.1212   132.1251     0.2672     0.1970     0.0054     2.3138    31.4479    26.7621
  400.5000     8.1332   126.4995     0.2440     0.2344    -0.0015     2.2734    35.3447    32.0797
  401.0000     8.1451   122.2770     0.2335     0.2444     0.0210     2.2433    39.0482    36.6875
  401.5000     8.1349   121.0666     0.2299     0.2441     0.0315     2.2448    40.4303    36.9474
  402.0000     8.1047   125.2764     0.2302     0.2377     0.0345     2.2583    40.9999    36.6959
  402.5000     8.1028   129.4876     0.2389     0.2182     0.0315     2.2799    41.2918    36.1966
  403.0000     8.0893   131.3333     0.2467     0.2059     0.0255     2.3049    41.0106    35.4565
  403.5000     8.0892   132.1873     0.2521     0.1983     0.0256     2.3169    40.1733    35.4622
  404.0000     8.0890   130.9754     0.2539     0.1977     0.0136     2.3244    39.6182    35.9619
  404.5000     8.1039   127.0541     0.2479     0.1971     0.0151     2.3259    38.8152    35.9666
  405.0000     8.0887   124.6375     0.2268     0.1872     0.0286     2.3514    37.4994    36.9836
  405.5000     8.0886   123.4270     0.2061     0.1400     0.0421     2.4032    36.2269    37.2444
  406.0000     8.0884   123.1202     0.1829     0.0842     0.0451     2.4744    34.2681    34.2779
  406.5000     8.0883   123.4467     0.1810     0.0786     0.0212     2.5204    32.8868    31.7661
  407.0000     8.0881   127.6257     0.1970     0.0955     0.0062     2.5114    32.2143    30.0577
  407.5000     8.0880   131.8369     0.2145     0.1394     0.0047     2.4536    31.3377    28.8373
  408.0000     8.0878   134.8433     0.2304     0.1679     0.0182     2.3913    30.4737    28.0525
  408.5000     8.0877   135.4401     0.2449     0.1794     0.0257     2.3530    29.4514    27.2891
  409.0000     8.0875   135.4331     0.2500     0.1842     0.0212     2.3470    28.6499    26.5473
  409.5000     8.0873   135.1263     0.2518     0.1869     0.0138     2.3424    27.8694    26.5508
  410.0000     8.1023   135.8032     0.2515     0.1912     0.0138     2.3365    27.3004    26.5542
  410.5000     8.0871   138.4269     0.2506     0.1956     0.0153     2.3305    27.3048    26.3743
  411.0000     8.0869   139.3263     0.2491     0.1986     0.0169     2.3252    27.3084    26.3786
  411.5000     8.0867   137.2099     0.2473     0.2026     0.0198     2.3215    27.5010    26.5655
  412.0000     8.1017   134.4930     0.2473     0.2013     0.0213     2.3170    27.1268    26.2024
  412.5000     8.1015   134.1876     0.2506     0.1962     0.0228     2.3155    26.7569    25.6674
  413.0000     8.1013   137.1926     0.2551     0.1935     0.0258     2.3208    26.5765    25.3174
  413.5000     8.1012   140.1976     0.2569     0.1950     0.0229     2.3275    26.7648    25.3215
  414.0000     8.1161   141.6980     0.2578     0.1975     0.0079     2.3245    26.9545    25.5009
  414.5000     8.1009   142.5960     0.2581     0.1977     0.0019     2.3230    26.9588    25.5043
  415.0000     8.1007   142.8916     0.2596     0.1965     0.0079     2.3246    27.1489    25.6858
  415.5000     8.1006   143.1872     0.2581     0.1974     0.0094     2.3261    26.5945    25.6892
  416.0000     8.0854   144.0838     0.2557     0.2031     0.0035     2.3246    26.4144    25.5142
  416.5000     8.0852   142.5722     0.2551     0.2110    -0.0040     2.3132    26.0542    25.1671
  417.0000     8.0701   141.0591     0.2578     0.2158    -0.0010     2.2946    25.6989    24.8240
  417.5000     8.0549   140.1499     0.2623     0.2143     0.0050     2.2916    25.7031    24.4854
  418.0000     8.0231   141.6503     0.2623     0.2039     0.0125     2.2976    25.5289    24.1523
  418.5000     7.9944   143.4708     0.2617     0.1881     0.0200     2.3186    25.5331    23.8230
  419.0000     7.9792   143.7475     0.2608     0.1827     0.0200     2.3366    25.1849    23.8269
  419.5000     7.9791   141.6320     0.2580     0.1818     0.0141     2.3494    25.0142    23.5020
  420.0000     7.9789   140.1204     0.2538     0.1827     0.0079     2.3486    24.5027    23.3427
  420.5000     7.9788   138.3061     0.2541     0.1818     0.0006     2.3479    24.0017    22.8570
  421.0000     7.9937   137.3969     0.2568     0.1833     0.0021     2.3502    23.3493    22.2438
  421.5000     8.0086   137.0901     0.2568     0.1842     0.0021     2.3487    23.0309    21.9398
  422.0000     8.0084   137.9881     0.2565     0.1794     0.0081     2.3472    22.7168    21.1960
  422.5000     8.0083   139.1859     0.2574     0.1713     0.0112     2.3532    22.4071    20.4674
  423.0000     8.0081   140.0853     0.2592     0.1677     0.0157     2.3637    21.9489    19.9202
  423.5000     8.0079   141.2831     0.2616     0.1653     0.0172     2.3697    21.6503    19.9228
  424.0000     8.0078   143.6857     0.2637     0.1635     0.0112     2.3757    21.2075    20.2035
  424.5000     7.9776   147.5957     0.2634     0.1629     0.0082     2.3787    20.6304    20.0446
  425.0000     7.9774   148.4951     0.2619     0.1659     0.0082     2.3795    19.9310    19.1195
