~VERSION INFORMATION
 VERS.                2.0:   CWLS LOG ASCII STANDARD - VERSION 2.0
 WRAP.                 NO:   ONE LINE PER DEPTH STEP
~WELL INFORMATION
#MNEM.UNIT      DATA TYPE    INFORMATION
#----------   ------------   ------------------------------
 STRT.F           48.0000:   START DEPTH
 STOP.F          484.0000:   STOP DEPTH
 STEP.F            0.5000:   STEP LENGTH
 NULL.          -999.2500:   NO VALUE
 COMP. BROWN JOHN E&C INC:   COMPANY
 WELL.    SX 10 #55-11-10:   WELL
 FLD .             TEAPOT:   FIELD
 LOC .      S10 T38N R78W:   LOCATION
 CNTY.            NATRONA:   COUNTY
 STAT.            WYOMING:   STATE
 CTRY. UNITED STATES OF AMERICA:   COUNTRY
 SRVC.       Schlumberger:   SERVICE COMPANY
 DATE.        29-SEP-1990:   LOGDATE
 API .       490251131800:   API NUMBER
~CURVE INFORMATION
#MNEM.UNIT       API CODE    CURVE DESCRIPTION
#----------   ------------   ------------------------------
 DEPT.F                  :   
 ILD .OHMM   07 120 46 00:   INDUCTION LOG DEEP
 ILM .OHMM   07 120 44 00:   INDUCTION LOG MEDIUM
 GRR .GAPI   07 310 01 00:   GAMMA RAY FROM RES. LOG.
~PARAMETER INFORMATION
#MNEM.UNIT          VALUE    DESCRIPTION
#----------   ------------   ------------------------------
 PD  .                 GL:   PERMANENT DATUM
 EPD .F              5216:   ELEVATION PERMANENT DATUM
 LMF .                 KB:   LOG MEASURED FROM
 DAPD.F                10:   FEET ABOVE PERMANENT DATUM
 DMF .                 KB:   DRILLING MEASURED FROM
 EKB .F              5226:   KELLING BUSHING
 EDF .F              5225:   DRILLING FLOOR
 EGL .F              5216:   GROUND LEVEL
 DATE.          9-29-1990:   RUN DATE
 RUN .                  1:   RUN NUMBER
 DD  .F               490:   DEPTH DRILLER
 DL  .F               490:   DEPTH LOGGER
 BLI .F               484:   BOTTOM LOG INTERVAL
 TLI .F                48:   TOP LOG INTERVAL
 CS  .IN            8.625:   CASING SIZE
 CBD .F                53:   CASING BOTTOM DRILLER
 CBL .F                53:   CASING BOTTOM LOGGER
 BS  .IN            7.875:   BIT SIZE
 BSD .F               490:   BIT SIZE AT DEPTH
 DFT .                AIR:   DRILLING FLUID TYPE
 TLAB.HRS            1855:   TIME LOGGER AT BOTTOM
 LUN .               6887:   LOGGING UNIT NUMBER
 LUL .               CODY:   LOGGING UNIT LOCATION
 ENGI.        MIKE FISHER:   RECORDING ENGINEER
 WITN.       GARRY STRONG:   WITNESSED BY
 CLNT.            A2DTECH:   CLIENT CODE
 ORIG.      2" & 5" PRINT:   ORIGIN OF DATA
 UWI .       490251131800:   UNIQUE WELL ID
 DICO. A2D Technologies, Inc.:   DIGITIZING COMPANY
~OTHER INFORMATION
~A   DEPT      ILD        ILM         GRR  
   48.0000  -999.2500  -999.2500    96.7546
   48.5000  -999.2500  -999.2500   121.0953
   49.0000  -999.2500  -999.2500   131.9310
   49.5000  -999.2500  -999.2500   135.0431
   50.0000  -999.2500  -999.2500   134.3069
   50.5000  -999.2500  -999.2500   130.9819
   51.0000  -999.2500  -999.2500   127.6953
   51.5000  -999.2500  -999.2500   126.7339
   52.0000  -999.2500  -999.2500   128.0246
   52.5000  -999.2500  -999.2500   130.1002
   53.0000   331.2630    24.2024   131.0242
   53.5000    11.7294    20.3351   131.2390
   54.0000     7.6357    13.3370   130.7493
   54.5000     7.6800     9.5172   129.1959
   55.0000     7.9993     8.3802   127.6665
   55.5000     7.7791   183.5358   126.8268
   56.0000     8.0540   894.4067   128.3675
   56.5000     9.6344   254.0756   128.4173
   57.0000     9.5037    13.2906   124.7902
   57.5000     9.0237     8.5855   121.6248
   58.0000     8.6011     8.1106   123.3391
   58.5000     8.3268     7.9542   128.3591
   59.0000     8.1290     7.8799   131.4477
   59.5000     7.9261     7.7791   134.3030
   60.0000     7.9132     7.7925   136.7112
   60.5000     7.8994     7.8104   138.4943
   61.0000     7.8850     7.8283   137.6807
   61.5000     7.8704     7.8462   137.0029
   62.0000     7.8518     7.8518   137.6413
   62.5000     7.8713     7.8518   137.0904
   63.0000     7.8984     7.8518   136.6437
   63.5000     7.9251     7.8518   138.8199
   64.0000     7.9064     7.8525   141.6116
   64.5000     7.8836     7.8060   141.2249
   65.0000     7.8609     7.7630   139.9532
   65.5000     7.8383     7.7201   138.9323
   66.0000     7.8157     7.6774   139.4993
   66.5000     7.7932     7.6357   140.1633
   67.0000     7.7707     7.6108   139.9777
   67.5000     7.7484     7.5864   139.3562
   68.0000     7.7261     7.5650   140.3377
   68.5000     7.7076     7.6953   140.2177
   69.0000     7.8288     7.8141   139.6759
   69.5000     7.9157     7.9349   137.1219
   70.0000     8.0041     8.0570   134.8097
   70.5000     8.0930     8.1683   132.9095
   71.0000     8.1860     8.2791   133.2210
   71.5000     8.3523     8.3915   133.6889
   72.0000     8.4970     8.5057   133.0093
   72.5000     8.6442     8.6171   132.1451
   73.0000     8.6979     8.5876   133.6774
   73.5000     8.6801     8.5576   137.1529
   74.0000     8.6678     8.5294   137.9682
   74.5000     8.6556     8.5038   136.9969
   75.0000     8.6434     8.4782   134.8704
   75.5000     8.6313     8.4528   134.1193
   76.0000     8.6201     8.4274   135.6967
   76.5000     8.5455     8.4023   137.6066
   77.0000     8.4585     8.3657   138.8891
   77.5000     8.3765     8.2533   137.7598
   78.0000     8.2673     8.1422   135.1372
   78.5000     8.1840     8.0328   133.4855
   79.0000     8.0862     7.9248   133.7523
   79.5000     7.9896     7.8183   136.1605
   80.0000     7.8941     7.7071   139.0645
   80.5000     7.7997     7.6781   140.1378
   81.0000     7.7505     7.6473   140.1798
   81.5000     7.7021     7.5853   139.4413
   82.0000     7.6539     7.4949   138.1801
   82.5000     7.6060     7.5624   137.8849
   83.0000     7.5650     7.6400   138.1251
   83.5000     7.6842     7.7183   137.2327
   84.0000     7.7901     7.7975   137.2297
   84.5000     7.9065     7.8774   139.5420
   85.0000     8.0338     7.9582   141.7041
   85.5000     8.1638     8.0102   140.7655
   86.0000     8.3026     8.1123   138.2283
   86.5000     8.3500     8.2157   136.4933
   87.0000     8.4004     8.3204   135.4123
   87.5000     8.4511     8.4097   133.1985
   88.0000     8.5516     8.4768   130.9740
   88.5000     8.6620     8.5384   129.8057
   89.0000     8.7792     8.5375   130.9698
   89.5000     8.7621     8.5317   132.1174
   90.0000     8.7321     8.5159   132.3684
   90.5000     8.7020     8.5001   131.0101
   91.0000     8.6979     8.4844   131.5922
   91.5000     8.6979     8.4686   131.8647
   92.0000     8.6979     8.4583   130.6934
   92.5000     8.6980     8.4584   129.6508
   93.0000     8.7044     8.4585   130.6416
   93.5000     8.7206     8.4645   132.8772
   94.0000     8.7368     8.4902   135.0671
   94.5000     8.7530     8.5158   136.3616
   95.0000     8.7692     8.5380   135.8529
   95.5000     8.7916     8.5383   135.3813
   96.0000     8.8239     8.5353   134.9680
   96.5000     8.8593     8.6319   133.9756
   97.0000     8.9917     8.7815   132.9199
   97.5000     9.1151     8.9441   133.5372
   98.0000     9.3453     8.9441   135.6811
   98.5000     9.6356     9.2456   135.9363
   99.0000     9.6346     9.5086   132.7572
   99.5000     9.9497     9.7401   129.1032
  100.0000    10.1896     9.9771   125.3397
  100.5000    10.3123    10.1189   124.7050
  101.0000    10.4268    10.2532   124.7555
  101.5000    10.5820    10.4026   125.6042
  102.0000    10.8692    10.6197   127.9333
  102.5000    11.1642    10.8374   129.5428
  103.0000    11.4672    11.1415   127.8652
  103.5000    11.7784    11.4665   123.8873
  104.0000    11.9895    11.8207   120.0152
  104.5000    12.1672    11.9641   118.3994
  105.0000    12.3476    12.1546   117.1101
  105.5000    12.3865    12.3882   116.2094
  106.0000    12.3865    12.3653   117.1458
  106.5000    12.3865    12.3168   119.9174
  107.0000    12.3865    12.2676   119.8811
  107.5000    12.3870    12.2189   118.9622
  108.0000    12.3456    12.1695   117.2843
  108.5000    12.2894    12.1045   116.6410
  109.0000    12.2340    12.0079   117.9629
  109.5000    12.1774    11.9126   119.9989
  110.0000    12.0599    11.8180   119.0988
  110.5000    11.9065    11.7242   116.6510
  111.0000    11.7539    11.6312   114.5070
  111.5000    11.6919    11.5388   116.1799
  112.0000    11.6600    11.4981   119.1989
  112.5000    11.6195    11.4981   122.4438
  113.0000    11.6060    11.4981   124.1407
  113.5000    11.7985    11.5735   124.6497
  114.0000    11.8783    11.6927   122.3382
  114.5000    11.9352    11.8235   117.9889
  115.0000    11.8969    11.8038   113.3831
  115.5000    11.8635    11.7662   110.4531
  116.0000    11.8301    11.7287   110.3746
  116.5000    11.6409    11.5717   111.4382
  117.0000    11.4169    11.3411   112.7433
  117.5000    11.1972    11.1150   114.1493
  118.0000    10.9818    10.8738   115.0362
  118.5000    10.7705    10.6861   117.0220
  119.0000    10.4766    10.4837   120.1238
  119.5000    10.5007    10.2835   122.2737
  120.0000    10.5430    10.2294   121.9319
  120.5000    10.5753    10.1804   122.7628
  121.0000    10.4697    10.1480   123.7688
  121.5000    10.3703    10.1157   122.7040
  122.0000    10.2825    10.0766   121.1020
  122.5000    10.2075    10.0232   119.5927
  123.0000    10.1262     9.9701   118.3924
  123.5000    10.0454     9.9177   118.2489
  124.0000     9.9945     9.8303   118.6661
  124.5000     9.9676     9.7368   119.4628
  125.0000     9.9412     9.6857   120.2353
  125.5000     9.9148     9.6280   120.8590
  126.0000     9.7986     9.5706   120.5703
  126.5000     9.6351     9.5243   117.1853
  127.0000     9.6920     9.4865   113.8259
  127.5000     9.7252     9.4505   115.2538
  128.0000     9.4575     9.4204   117.8327
  128.5000     9.4575     9.3904   119.8805
  129.0000     9.5413     9.3700   118.1987
  129.5000     9.7103     9.5184   115.6868
  130.0000     9.8153     9.6351   111.6831
  130.5000     9.7551     9.6101   109.3404
  131.0000     9.7107     9.5846   109.5604
  131.5000     9.6666     9.5591   110.4307
  132.0000     9.5573     9.4014   112.3620
  132.5000     9.2743     9.1064   115.3851
  133.0000     9.0037     8.8005   118.3749
  133.5000     8.7403     8.3802   120.1729
  134.0000     8.4847     7.8742   120.9361
  134.5000     8.2366     7.7791   122.6764
  135.0000     8.0562     7.7940   124.4959
  135.5000     7.9252     7.8174   122.7939
  136.0000     7.9930     7.8408   119.0705
  136.5000     8.0698     7.8961   115.2029
  137.0000     8.1495     7.9804   116.1689
  137.5000     8.2768     8.1910   118.4442
  138.0000     8.4434     8.4440   120.8505
  138.5000     8.5448     8.5375   122.8256
