~VERSION INFORMATION
 VERS.                2.0:   CWLS LOG ASCII STANDARD - VERSION 2.0
 WRAP.                 NO:   ONE LINE PER DEPTH STEP
~WELL INFORMATION
#MNEM.UNIT      DATA TYPE    INFORMATION
#----------   ------------   ------------------------------
 STRT.F           33.0000:   START DEPTH
 STOP.F          957.0000:   STOP DEPTH
 STEP.F            0.5000:   STEP LENGTH
 NULL.          -999.2500:   NO VALUE
 COMP. TESORO PETROLEUM CORP:   COMPANY
 WELL.  NPR #3 46-S-14 #3:   WELL
 FLD .             TEAPOT:   FIELD
 LOC .      S14 T38N R78W:   LOCATION
 CNTY.            NATRONA:   COUNTY
 STAT.            WYOMING:   STATE
 CTRY. UNITED STATES OF AMERICA:   COUNTRY
 SRVC.       Schlumberger:   SERVICE COMPANY
 DATE.        25-JUN-1970:   LOGDATE
 API .       490251023100:   API NUMBER
~CURVE INFORMATION
#MNEM.UNIT       API CODE    CURVE DESCRIPTION
#----------   ------------   ------------------------------
 DEPT.F                  :   
 SPR .MV     05 010 01 00:   SPONTANEOUS POTENTIAL FROM RES.
 ILD .OHMM   05 120 46 00:   INDUCTION LOG DEEP
 CILD.MMHO   05 110 46 00:   CONDUCTIVITY INDUCTION LOG DEEP
 ASN .OHMM   05 041 16 00:   AMPLIFIED SHORT NORMAL 16"
 GR  .GAPI   30 310 01 00:   GAMMA RAY
 CALD.IN     45 280 60 00:   CALIPER FROM DENSITY LOG
 CORR.G/C3   45 356 01 00:   DENSITY CORRECTION
 DPHI.DEC    45 890 12 00:   DENSITY POROSITY SANDSTONE
 RHOB.G/C3   45 350 01 00:   BULK DENSITY
~PARAMETER INFORMATION
#MNEM.UNIT          VALUE    DESCRIPTION
#----------   ------------   ------------------------------
 PD  .                 GL:   PERMANENT DATUM
 EPD .F              5271:   ELEVATION PERMANENT DATUM
 LMF .                 KB:   LOG MEASURED FROM
 DAPD.F                10:   FEET ABOVE PERMANENT DATUM
 DMF .                 KB:   DRILLING MEASURED FROM
 EKB .F              5281:   KELLING BUSHING
 EDF .F              5280:   DRILLING FLOOR
 EGL .F              5271:   GROUND LEVEL
 DATE.        25-JUN-1970:   RUN DATE
 RUN .                  1:   RUN NUMBER
 DD  .F               950:   DEPTH DRILLER
 DL  .F               958:   DEPTH LOGGER
 BLI .F               957:   BOTTOM LOG INTERVAL
 TLI .F                33:   TOP LOG INTERVAL
 CS  .IN            10.75:   CASING SIZE
 CBD .F                30:   CASING BOTTOM DRILLER
 CBL .F                33:   CASING BOTTOM LOGGER
 BS  .IN                9:   BIT SIZE
 BSD .F               950:   BIT SIZE AT DEPTH
 DFT .         MO-MAR MUD:   DRILLING FLUID TYPE
 DFD .                9.7:   DRILLING FLUID DENSITY
 DFV .                 62:   DRILLING FLUID VISCOSITY
 DFPH.                7.4:   DRILLING FLUID PH
 DFL .                5.6:   DRILLING FLUID LOSS
 MSS .           FLOWLINE:   MUD SAMPLE SOURCE
 RMS .OHMM           1.40:   RESISTIVITY MUD SAMPLE
 MST .F                85:   MUD SAMPLE TEMPERATURE
 RMF .OHMM           0.85:   RESISTIVITY MUD FILTRATE SAMPLE
 MFST.F                87:   MUD FILTRATE SAMPLE TEMPERATURE
 MFSS.               MEAS:   MUD FILTRATE SAMPLE SOURCE
 RMB .OHMM           1.06:   RESISTIVITY MUD AT BHT
 BHT .F               112:   BOTTOM HOLE TEMPERATURE
 TCS .HRS               1:   TIME CURCULATED STOPPED
 MRT .F               112:   MAXIMUM RECORDED TEMPERATURE
 LUN .               7037:   LOGGING UNIT NUMBER
 LUL .                GLT:   LOGGING UNIT LOCATION
 ENGI.           KNOSTMAN:   RECORDING ENGINEER
 WITN.                MAY:   WITNESSED BY
 CLNT.            A2DTECH:   CLIENT CODE
 ORIG.         2.5" PRINT:   ORIGIN OF DATA
 UWI .       490251023100:   UNIQUE WELL ID
 DICO. A2D Technologies, Inc.:   DIGITIZING COMPANY
~OTHER INFORMATION
~A   DEPT       SPR        ILD       CILD       ASN         GR       CALD       CORR       DPHI       RHOB   
# ...
  617.0000   -33.8882    10.4061   102.8268    10.4545  -999.2500     9.3458     0.0166     0.1114     2.4725
  617.5000   -33.8830    10.3573   102.8116    10.4545  -999.2500     9.3451     0.0120     0.1103     2.4709
  618.0000   -33.8776    10.2788   104.3161    10.4142  -999.2500     9.3749    -0.0003     0.1176     2.4649
  618.5000   -33.8733    10.1121   105.8207    10.3030  -999.2500     9.4046    -0.0034     0.1267     2.4569
  619.0000   -33.8693    10.0078   105.8043    10.3030  -999.2500     9.3738    -0.0027     0.1250     2.4421
  619.5000   -33.8647     9.8152   105.7901    10.1515  -999.2500     9.3430     0.0057     0.1187     2.4587
  620.0000   -33.8602     9.8081   105.7751    10.0000  -999.2500     9.3425     0.0215     0.1153     2.4663
  620.5000   -33.8556     9.6588   105.7599     9.9611  -999.2500     9.3419     0.0345     0.1098     2.4712
  621.0000   -33.8511     9.5803   105.7447     9.9398  -999.2500     9.3414     0.0149     0.0996     2.4859
  621.5000   -33.8465     9.3733   105.7266     9.9096  -999.2500     9.3408     0.0133     0.1134     2.4798
  622.0000   -33.8415     9.2246   105.7125     9.9098  -999.2500     9.3403     0.0106     0.1147     2.4631
  622.5000   -33.8374     9.0833   105.6984     9.8797  -999.2500     9.3397     0.0015     0.1202     2.4567
  623.0000   -33.8328     8.9272   107.2040     9.8497  -999.2500     9.3391     0.0040     0.1287     2.4532
  623.5000   -33.8283     8.9303   107.5028     9.8195  -999.2500     9.3386     0.0185     0.1223     2.4479
  624.0000   -33.7194     8.9333   109.2402     9.7894  -999.2500     9.3380     0.0276     0.1081     2.4751
  624.5000   -33.5517     8.9364   111.7173     9.7268  -999.2500     9.3375     0.0193     0.1009     2.4966
  625.0000   -33.5099     8.9394   113.2195     9.5909  -999.2500     9.3370     0.0115     0.1091     2.4841
  625.5000   -33.5057     8.9424   114.7252     9.4057  -999.2500     9.3364     0.0146     0.1143     2.4705
  626.0000   -33.1044     8.9455   114.7111     9.2606  -999.2500     9.3359     0.0022     0.1228     2.4644
  626.5000   -32.8891     8.9485   117.7356     9.1843  -999.2500     9.3353     0.0018     0.1270     2.4413
  627.0000   -32.8845     8.9303   117.9333     9.1239  -999.2500     9.3348     0.0068     0.1291     2.4416
  627.5000   -32.8799     8.8030   119.2249     9.0635  -999.2500     9.3646     0.0007     0.1318     2.4461
  628.0000   -32.8754     8.6551   120.7295     9.0606  -999.2500     9.3639    -0.0056     0.1386     2.4340
  628.5000   -32.8702     8.6579   120.7124     9.0032  -999.2500     9.3633    -0.0022     0.1447     2.4185
  629.0000   -32.8659     8.5092   122.2181     8.9609  -999.2500     9.3627     0.0093     0.1348     2.4249
  629.5000   -32.8617     8.3605   123.7237     8.8790  -999.2500     9.3622     0.0113     0.1312     2.4400
  630.0000   -33.2016     8.3636   123.7082     8.7614  -999.2500     9.3617     0.0112     0.1278     2.4475
  630.5000   -33.5456     8.1616   124.7214     8.6404  -999.2500     9.3309     0.0157     0.1205     2.4520
  631.0000   -33.7608     8.0667   125.1976     8.5492  -999.2500     9.3304     0.0352     0.1087     2.4611
  631.5000   -34.0593     8.0197   125.1800     8.4589  -999.2500     9.3299     0.0483     0.1036     2.4943
  632.0000   -34.0541     7.9212   125.1659     8.4288  -999.2500     9.3293     0.0354     0.1121     2.4988
  632.5000   -34.0499     7.9242   125.1517     8.3987  -999.2500     9.3288     0.0295     0.1133     2.4753
  633.0000   -34.0456     7.9273   125.1368     8.3989  -999.2500     9.3282     0.0264     0.1170     2.4662
  633.5000   -34.0410     7.9303   125.1216     8.3991  -999.2500     9.3417     0.0218     0.1256     2.4488
  634.0000   -33.9432     7.9333   125.1064     8.3689  -999.2500     9.3573     0.0156     0.1364     2.4367
  634.5000   -33.7280     7.9370   125.0882     8.3388  -999.2500     9.3567     0.0386     0.1395     2.4306
  635.0000   -33.6322     7.9398   125.0741     8.3390  -999.2500     9.3561     0.0617     0.1246     2.4442
  635.5000   -33.4144     7.9426   125.0600     8.3392  -999.2500     9.3556     0.0601     0.1138     2.4759
  636.0000   -33.4101     7.9455   126.5656     8.3394  -999.2500     9.3551     0.0601     0.1114     2.4804
  636.5000   -33.4058     7.9485   128.3636     8.3093  -999.2500     9.3244     0.0601     0.1130     2.4694
  637.0000   -33.4012     7.7995   130.1012     8.2792  -999.2500     9.3238     0.0535     0.1098     2.4675
  637.5000   -33.3460     7.8030   132.5988     8.2794  -999.2500     9.3535     0.0292     0.1145     2.4728
  638.0000   -33.0395     7.8065   137.1404     8.2753  -999.2500     9.3529     0.0138     0.1196     2.4561
  638.5000   -32.7788     7.5063   138.6461     8.2405  -999.2500     9.3524     0.0122     0.1244     2.4375
  639.0000   -32.7746     7.3576   141.6717     8.1317  -999.2500     9.3518     0.0119     0.1276     2.4288
  639.5000   -32.7703     7.1976   144.6968     7.8559  -999.2500     9.3513     0.0106     0.1298     2.4152
  640.0000   -32.5566     6.9831   148.1255     7.4924  -999.2500     9.3204     0.0106     0.1305     2.4106
  640.5000   -32.4574     6.8045   149.8631     7.2199  -999.2500     9.3199     0.0142     0.1281     2.4253
  641.0000   -32.2462     6.6121   153.7660     7.0669  -999.2500     9.3194     0.0347     0.1247     2.4423
  641.5000   -31.9917     6.6152   155.2716     7.0081  -999.2500     9.3188     0.0674     0.1190     2.4513
  642.0000   -31.5312     6.6182   155.2584     7.0083  -999.2500     9.3183     0.0690     0.1106     2.4649
  642.5000   -31.5274     6.6212   155.2432     7.0394  -999.2500     9.2876     0.0287     0.1088     2.4815
  643.0000   -31.4509     6.6242   155.2280     7.1906  -999.2500     9.2568     0.0150     0.1231     2.4444
  643.5000   -31.2832     6.6273   153.6930     7.3726  -999.2500     9.2378     0.0119     0.1367     2.4331
  644.0000   -31.2097     6.6303   151.4086     7.4636  -999.2500     9.2255     0.0267     0.1283     2.4361
  644.5000   -31.2052     6.6333   149.1009     7.5244  -999.2500     9.1947     0.0385     0.1259     2.4497
  645.0000   -31.1196     6.6366   147.5670     7.5549  -999.2500     9.1942     0.0365     0.1204     2.4610
  645.5000   -30.8914     6.7910   144.5134     7.5982  -999.2500     9.1936     0.0101     0.1156     2.4693
  646.0000   -30.8872     6.9455   144.4985     7.6159  -999.2500     9.1930     0.0000     0.1344     2.4269
  646.5000   -31.1869     6.9485   144.4833     7.6161  -999.2500     9.1925     0.0025     0.1405     2.4238
  647.0000   -31.1824     7.0586   142.9483     7.6163  -999.2500     9.1919     0.0256     0.1322     2.4351
  647.5000   -31.2048     7.2576   142.9331     7.5852  -999.2500     9.1914     0.0317     0.1232     2.4601
  648.0000   -31.4178     7.2606   141.3962     7.5560  -999.2500     9.1909     0.0186     0.1109     2.4767
  648.5000   -31.4726     7.2636   141.3821     7.5563  -999.2500     9.2206     0.0193     0.1024     2.4887
  649.0000   -31.4675     7.2667   141.3678     7.6170  -999.2500     9.2503     0.0257     0.1085     2.4766
  649.5000   -31.6513     7.2697   141.3526     7.7385  -999.2500     9.2497     0.0285     0.1103     2.4826
  650.0000   -31.9149     7.2980   141.3374     7.8599  -999.2500     9.2491     0.0131     0.1044     2.4962
  650.5000   -32.0626     7.4273   141.3222     7.9813  -999.2500     9.2788     0.0069     0.1016     2.4826
  651.0000   -32.0578     7.4303   141.3070     8.0753  -999.2500     9.2945     0.0007     0.1122     2.4664
  651.5000   -32.0532     7.4336   141.8948     8.1028  -999.2500     9.3079     0.0068     0.1239     2.4539
  652.0000   -32.2094     7.4364   142.7963     8.0788  -999.2500     9.3073     0.0176     0.1206     2.4556
  652.5000   -32.3480     7.4394   142.7812     8.0259  -999.2500     9.3369     0.0222     0.1170     2.4651
  653.0000   -32.3435     7.4424   142.7659     7.9519  -999.2500     9.3666     0.0252     0.1146     2.4540
