~VERSION INFORMATION
 VERS.                2.0:   CWLS LOG ASCII STANDARD - VERSION 2.0
 WRAP.                 NO:   ONE LINE PER DEPTH STEP
~WELL INFORMATION
#MNEM.UNIT      DATA TYPE    INFORMATION
#----------   ------------   ------------------------------
 STRT.F           32.0000:   START DEPTH
 STOP.F          812.0000:   STOP DEPTH
 STEP.F            0.5000:   STEP LENGTH
 NULL.          -999.2500:   NO VALUE
 COMP. FENIX & SCISSON INC:   COMPANY
 WELL.       75 SX #15-15:   WELL
 FLD .             TEAPOT:   FIELD
 LOC .      S15 T38N R78W:   LOCATION
 CNTY.            NATRONA:   COUNTY
 STAT.            WYOMING:   STATE
 CTRY. UNITED STATES OF AMERICA:   COUNTRY
 SRVC.              Welex:   SERVICE COMPANY
 DATE.        28-FEB-1977:   LOGDATE
 API .       490251030100:   API NUMBER
~CURVE INFORMATION
#MNEM.UNIT       API CODE    CURVE DESCRIPTION
#----------   ------------   ------------------------------
 DEPT.F                  :   
 SPR .MV     07 010 01 00:   SPONTANEOUS POTENTIAL
 ILD .OHMM   07 120 46 00:   INDUCTION LOG DEEP
 SGRD.OHMM   07 220 05 00:   SHALLOW RESISTIVITY
 ILM .OHMM   07 120 44 00:   INDUCTION LOG MEDIUM
 GRD .GAPI   45 310 01 00:   GAMMA RAY FROM DENSITY LOG
 CALD.IN     45 280 60 00:   CALIPER FROM DENSITY LOG
 RHOB.G/C3   45 350 01 00:   BULK DENSITY
 DPHI.DEC    45 890 12 00:   DENSITY POROSITY SANDSTONE
 CORR.G/C3   45 356 01 00:   DENSITY CORRECTION
~PARAMETER INFORMATION
#MNEM.UNIT          VALUE    DESCRIPTION
#----------   ------------   ------------------------------
 PD  .                 GL:   PERMANENT DATUM
 EPD .F              5264:   ELEVATION PERMANENT DATUM
 LMF .                 GL:   LOG MEASURED FROM
 DMF .                 GL:   DRILLING MEASURED FROM
 EGL .F              5264:   GROUND LEVEL
 DATE.          2-28-1977:   RUN DATE
 RUN .                  1:   RUN NUMBER
 DD  .F               830:   DEPTH DRILLER
 DL  .F               814:   DEPTH LOGGER
 BLI .F               812:   BOTTOM LOG INTERVAL
 TLI .F                42:   TOP LOG INTERVAL
 CS  .IN            8.625:   CASING SIZE
 CBD .F                40:   CASING BOTTOM DRILLER
 CBL .F                42:   CASING BOTTOM LOGGER
 BS  .IN            7.875:   BIT SIZE
 BSD .F               830:   BIT SIZE AT DEPTH
 DFT .           CHEM-GEL:   DRILLING FLUID TYPE
 DFD .                9.3:   DRILLING FLUID DENSITY
 DFV .                 38:   DRILLING FLUID VISCOSITY
 DFPH.               10.5:   DRILLING FLUID PH
 DFL .               16.2:   DRILLING FLUID LOSS
 MSS .          FLOW LINE:   MUD SAMPLE SOURCE
 RMS .OHMM           0.44:   RESISTIVITY MUD SAMPLE
 MST .F                62:   MUD SAMPLE TEMPERATURE
 RMF .OHMM            .38:   RESISTIVITY MUD FILTRATE SAMPLE
 MFST.F                62:   MUD FILTRATE SAMPLE TEMPERATURE
 RMC .OHMM           0.79:   RESISTIVITY MUD CAKE
 MCST.F                62:   MUD CAKE SAMPLE TEMPERATURE
 MFSS.           MEASURED:   MUD FILTRATE SAMPLE SOURCE
 MCSS.           MEASURED:   MUD CAKE SAMPLE SOURCE
 RMB .OHMM           .368:   RESISTIVITY MUD AT BHT
 BHT .F                74:   BOTTOM HOLE TEMPERATURE
 TCS .HRS               3:   TIME CURCULATED STOPPED
 MRT .F                74:   MAXIMUM RECORDED TEMPERATURE
 LUN .               8611:   LOGGING UNIT NUMBER
 LUL .           GILLETTE:   LOGGING UNIT LOCATION
 ENGI.               DOAK:   RECORDING ENGINEER
 WITN.               JAPP:   WITNESSED BY
 CLNT.            A2DTECH:   CLIENT CODE
 ORIG.       2", 5" PRINT:   ORIGIN OF DATA
 UWI .       490251030100:   UNIQUE WELL ID
 DICO. A2D Technologies, Inc.:   DIGITIZING COMPANY
~OTHER INFORMATION
~A   DEPT      SPR        ILD       SGRD        ILM         GRD        CALD       RHOB       DPHI      CORR  
# ...
  725.5000   -38.2371    14.0769    19.1202    16.0927   111.1344     7.8462     2.5101     0.0817     0.0282
  726.0000   -38.3311    13.9088    19.1880    14.8946   109.2016     7.8413     2.5014     0.0868     0.0229
  726.5000   -38.4250    13.7427    18.8309    14.4221   106.1398     7.8365     2.4927     0.0919     0.0190
  727.0000   -38.5190    13.6468    18.5828    14.7419   103.0993     7.8316     2.4837     0.0970     0.0199
  727.5000   -38.6129    13.7540    18.3379    15.0485   101.0702     7.8268     2.4811     0.1014     0.0207
  728.0000   -38.7068    13.8302    18.1564    15.3826   101.4521     7.8219     2.4805     0.0990     0.0215
  728.5000   -38.8010    13.8997    18.5793    14.9634   101.8190     7.8182     2.4799     0.0998     0.0223
  729.0000   -38.8945    13.7362    19.0519    14.7022   102.9576     7.8160     2.4776     0.1006     0.0227
  729.5000   -38.9904    13.5842    19.5366    14.4652   105.8749     7.8139     2.4687     0.1061     0.0215
  730.0000   -38.9340    13.4348    19.9049    14.2320   109.3465     7.8117     2.4602     0.1112     0.0204
  730.5000   -38.8021    13.2871    19.0464    14.0025   106.1592     7.8096     2.4516     0.1163     0.0193
  731.0000   -38.6677    13.1411    18.3855    13.7768   102.3497     7.8074     2.4439     0.1193     0.0201
  731.5000   -38.5336    12.9966    17.7464    13.6468    99.7737     7.8053     2.4519     0.1166     0.0218
  732.0000   -38.3996    12.8956    17.1803    13.7302    98.5909     7.8032     2.4624     0.1088     0.0235
  732.5000   -38.2651    12.8538    16.9445    13.8422   103.1653     7.8010     2.4726     0.1026     0.0253
  733.0000   -38.1311    12.8120    16.7298    13.9552   105.0693     7.7989     2.4795     0.1009     0.0267
  733.5000   -38.0424    12.7705    16.5178    14.0696   106.0254     7.7967     2.4799     0.0990     0.0234
  734.0000   -38.1678    12.7290    16.2566    14.1866   104.0934     7.7946     2.4764     0.1021     0.0200
  734.5000   -38.2886    12.6877    16.4070    14.2899   101.0366     7.7924     2.4730     0.1055     0.0167
  735.0000   -38.4092    12.6466    16.5588    13.8409    99.7549     7.7903     2.4696     0.1075     0.0133
  735.5000   -38.5297    12.6054    16.2970    13.2749    98.4974     7.7881     2.4661     0.1076     0.0109
  736.0000   -38.6503    12.5612    16.1076    14.1589    99.0645     7.7860     2.4627     0.1091     0.0110
  736.5000   -38.7709    12.4706    16.1409    14.0350    99.1498     7.7838     2.4593     0.1131     0.0109
  737.0000   -38.8914    12.3725    16.1716    13.8250    94.0564     7.7817     2.4557     0.1161     0.0108
  737.5000   -39.0117    12.2759    16.2025    13.7731    92.6622     7.7794     2.4636     0.1087     0.0167
  738.0000   -39.1323    12.1453    16.2334    14.7808    96.6501     7.7806     2.4767     0.1015     0.0235
  738.5000   -39.2672    11.9720    16.2566    14.9634    97.1086     7.7820     2.4898     0.0943     0.0303
  739.0000   -39.4651    11.8001    16.0511    14.3488    97.4604     7.7834     2.4979     0.0900     0.0328
  739.5000   -39.6578    11.6321    15.8885    13.9302    98.4959     7.7848     2.4986     0.0889     0.0329
  740.0000   -39.8507    11.5606    15.7276    13.5239    99.6070     7.7863     2.4994     0.0882     0.0329
  740.5000   -40.0436    11.5619    15.5683    13.1294   102.6551     7.7877     2.4973     0.0890     0.0312
  741.0000   -40.2365    11.5619    15.4106    13.0326   104.8957     7.7891     2.4944     0.0901     0.0282
  741.5000   -40.4292    11.5619    15.2416    13.4045   104.2762     7.7905     2.4892     0.0914     0.0252
  742.0000   -40.6206    11.3914    15.0286    13.7731   104.0227     7.7919     2.4839     0.0957     0.0222
  742.5000   -40.8242    10.9935    14.7997    13.9157   103.8308     7.7933     2.4855     0.0976     0.0217
  743.0000   -41.3216    10.6076    14.5742    13.2620   104.0451     7.7947     2.4924     0.0917     0.0230
  743.5000   -41.8366    10.2365    14.3522    11.9865   106.0045     7.7962     2.4995     0.0879     0.0244
  744.0000   -42.3503     9.8774    14.1336    12.0021   107.7216     7.7976     2.4989     0.0894     0.0257
  744.5000   -42.8638     9.6168    13.9005    11.8327   107.2372     7.7990     2.4946     0.0917     0.0270
  745.0000   -43.3773     8.5885    13.7224    11.6639   109.9506     7.8004     2.4903     0.0941     0.0284
  745.5000   -43.8908     7.7371    13.4026    10.7112   113.6500     7.8018     2.4816     0.0978     0.0278
  746.0000   -44.4050     6.9685    12.7826     9.5556   118.4340     7.8032     2.4694     0.1054     0.0260
  746.5000   -44.9226     6.2810    12.1195     8.4610   123.8667     7.8046     2.4559     0.1131     0.0229
  747.0000   -45.3902     5.9421    10.5724     7.4926   132.6660     7.8060     2.4414     0.1220     0.0170
  747.5000   -45.1203     5.7947     7.1243     6.6348   141.5325     7.8075     2.4268     0.1329     0.0110
  748.0000   -44.8346     5.8550     4.6455     6.1239   149.5084     7.8089     2.4123     0.1468     0.0051
  748.5000   -44.5530     5.9347     8.5316     6.7441   143.3783     7.8103     2.4017     0.1368    -0.0007
  749.0000   -44.2716     6.3267    15.6686     7.2889   128.7782     7.8117     2.4518     0.1149     0.0022
  749.5000   -43.9902     6.8566    15.0010     7.9292   114.2687     7.8131     2.4963     0.0929     0.0083
  750.0000   -43.7089     7.4311    14.5556     8.9745   108.0702     7.8145     2.5223     0.0732     0.0153
  750.5000   -43.4275     8.0536    14.8879    10.4261   106.3402     7.8159     2.5161     0.0800     0.0157
  751.0000   -43.1459     8.7283    15.1592    11.0222   109.8542     7.8174     2.5069     0.0814     0.0163
  751.5000   -42.8632     9.4585    15.3826    11.2757   112.7873     7.8188     2.5128     0.0786     0.0188
  752.0000   -42.7109    10.1332    15.0170    11.5315   116.1466     7.8196     2.5222     0.0754     0.0214
  752.5000   -42.5854    10.4239    14.8145    11.7760   114.0276     7.8203     2.5310     0.0721     0.0240
  753.0000   -42.4602    10.7230    14.6147    11.7031   110.7395     7.8210     2.5250     0.0727     0.0213
  753.5000   -42.3346    11.0307    14.5556    11.6689   109.2786     7.8217     2.5096     0.0803     0.0155
  754.0000   -42.2090    11.3472    14.9614    12.1336   111.3511     7.8224     2.4943     0.0885     0.0097
  754.5000   -42.0835    11.6727    15.4780    12.6381   112.9769     7.8231     2.4809     0.0966     0.0089
  755.0000   -41.9579    12.0077    16.0125    13.1635   113.5621     7.8238     2.4862     0.0944     0.0089
  755.5000   -41.8323    12.3522    16.5654    13.7108   111.2343     7.8245     2.4871     0.0948     0.0090
  756.0000   -41.7068    12.6768    16.9086    14.1653   110.0360     7.8251     2.4867     0.0966     0.0089
  756.5000   -41.5812    12.7721    16.9982    14.1568   115.3006     7.8258     2.4943     0.0931     0.0121
  757.0000   -41.4555    12.8769    17.4871    14.2883   113.2034     7.8265     2.5025     0.0879     0.0162
  757.5000   -41.3296    12.9836    18.1564    14.1957   111.6881     7.8272     2.5106     0.0828     0.0202
  758.0000   -41.2169    13.0914    17.8869    14.0263   110.4007     7.8279     2.5187     0.0777     0.0243
  758.5000   -41.2068    13.1886    17.5500    13.8557   111.5201     7.8286     2.5268     0.0726     0.0284
  759.0000   -41.1977    13.2713    17.3392    13.7638   115.8629     7.8293     2.5350     0.0675     0.0325
  759.5000   -41.1883    13.3546    18.2120    14.7655   116.4943     7.8300     2.5358     0.0650     0.0366
  760.0000   -41.1789    13.4383    18.9196    15.8136   114.5654     7.8306     2.5327     0.0686     0.0355
  760.5000   -41.1695    13.5226    19.5350    15.8136   114.3298     7.8313     2.5274     0.0723     0.0312
  761.0000   -41.1601    13.6075    19.1348    15.4529   108.6919     7.8320     2.5157     0.0804     0.0269
  761.5000   -41.1507    13.6928    18.9005    15.3826   107.2517     7.8327     2.5078     0.0821     0.0226
