~VERSION INFORMATION
 VERS.                2.0:   CWLS LOG ASCII STANDARD - VERSION 2.0
 WRAP.                 NO:   ONE LINE PER DEPTH STEP
~WELL INFORMATION
#MNEM.UNIT      DATA TYPE    INFORMATION
#----------   ------------   ------------------------------
 STRT.F           99.0000:   START DEPTH
 STOP.F          750.0000:   STOP DEPTH
 STEP.F            0.5000:   STEP LENGTH
 NULL.          -999.2500:   NO VALUE
 COMP. U S NAVY/INTEX OIL CO:   COMPANY
 WELL.    NRP #3 #43-S-11:   WELL
 FLD .             TEAPOT:   FIELD
 LOC .      S11 T38N R78W:   LOCATION
 CNTY.            NATRONA:   COUNTY
 STAT.            WYOMING:   STATE
 CTRY. UNITED STATES OF AMERICA:   COUNTRY
 SRVC.       Schlumberger:   SERVICE COMPANY
 DATE.        12-JUL-1962:   LOGDATE
 API .       490250636100:   API NUMBER
~CURVE INFORMATION
#MNEM.UNIT       API CODE    CURVE DESCRIPTION
#----------   ------------   ------------------------------
 DEPT.F                  :   
 SPR .MV     05 010 01 00:   SPONTANEOUS POTENTIAL FROM RES.
 CILD.MMHO   05 110 46 00:   CONDUCTIVITY INDUCTION LOG DEEP
 ILD .OHMM   05 120 46 00:   INDUCTION LOG DEEP
 ASN .OHMM   05 041 16 00:   AMPLIFIED SHORT NORMAL 16"
 GR  .GAPI   30 310 01 00:   GAMMA RAY
~PARAMETER INFORMATION
#MNEM.UNIT          VALUE    DESCRIPTION
#----------   ------------   ------------------------------
 EPD .F              5177:   ELEVATION PERMANENT DATUM
 LMF .                 KB:   LOG MEASURED FROM
 DAPD.F                 5:   FEET ABOVE PERMANENT DATUM
 DMF .                 KB:   DRILLING MEASURED FROM
 EKB .F              5182:   KELLING BUSHING
 EGL .F              5177:   GROUND LEVEL
 DATE.          7-12-1962:   RUN DATE
 RUN .                  1:   RUN NUMBER
 DD  .F               750:   DEPTH DRILLER
 DL  .F               751:   DEPTH LOGGER
 BLI .F               750:   BOTTOM LOG INTERVAL
 TLI .F               100:   TOP LOG INTERVAL
 CBD .F                10:   CASING BOTTOM DRILLER
 BS  .IN             6.75:   BIT SIZE
 BSD .F               750:   BIT SIZE AT DEPTH
 DFT .           OIL EMUL:   DRILLING FLUID TYPE
 DFD .               10.2:   DRILLING FLUID DENSITY
 DFV .                 40:   DRILLING FLUID VISCOSITY
 DFL .                4.6:   DRILLING FLUID LOSS
 RMS .OHMM            5.2:   RESISTIVITY MUD SAMPLE
 MST .F                82:   MUD SAMPLE TEMPERATURE
 RMF .OHMM            3.7:   RESISTIVITY MUD FILTRATE SAMPLE
 MFST.F                82:   MUD FILTRATE SAMPLE TEMPERATURE
 RMC .OHMM            5.8:   RESISTIVITY MUD CAKE
 MCST.F                80:   MUD CAKE SAMPLE TEMPERATURE
 TCS .HRS              .5:   TIME CURCULATED STOPPED
 LUN .               2523:   LOGGING UNIT NUMBER
 LUL .               CSPR:   LOGGING UNIT LOCATION
 ENGI.           ELLERMAN:   RECORDING ENGINEER
 WITN.          JORGENSON:   WITNESSED BY
 CLNT.            A2DTECH:   CLIENT CODE
 ORIG.       2", 5" PRINT:   ORIGIN OF DATA
 UWI .       490250636100:   UNIQUE WELL ID
 DICO. A2D Technologies, Inc.:   DIGITIZING COMPANY
~OTHER INFORMATION
~A   DEPT      SPR       CILD        ILD          ASN       GR   
# ...
  587.0000   -54.1754   126.8445     7.1025     7.2844   114.4870
  587.5000   -54.3652   126.8806     7.1197     7.3187   114.8363
  588.0000   -53.7863   126.8806     7.1373     7.3280   108.8817
  588.5000   -53.0800   126.8806     7.1550     7.3746   108.2277
  589.0000   -52.3771   126.8806     7.1727     7.4500   110.2423
  589.5000   -51.6656   126.8806     7.1904     7.5250   107.8803
  590.0000   -51.4674   126.8806     7.2081     7.5687   103.4032
  590.5000   -51.5594   126.8806     7.2258     7.5554   107.1116
  591.0000   -51.6571   126.8806     7.2435     7.5428   108.7753
  591.5000   -51.7551   126.8806     7.2616     7.5213   107.1001
  592.0000   -51.8536   126.8806     7.3040     7.4580   105.1635
  592.5000   -51.9566   126.8806     7.3859     7.3952   102.7450
  593.0000   -51.9781   126.8806     7.4672     7.3320    99.6245
  593.5000   -50.9623   125.1722     7.5487     7.2733   101.9852
  594.0000   -49.9420   123.4905     7.6308     7.3117    93.8559
  594.5000   -49.2139   121.8088     7.7115     7.5190   100.0039
  595.0000   -50.3567   120.1271     7.7282     7.7221   107.8839
  595.5000   -50.7717   121.7768     7.4927     7.9253   110.8433
  596.0000   -49.7612   125.8776     7.1285     7.9464    88.0284
  596.5000   -47.4717   136.5834     6.5816     7.8220    82.7609
  597.0000   -46.9426   149.8882     6.0376     7.5352    90.3590
  597.5000   -49.8877   163.1925     5.4917     6.8697    88.6314
  598.0000   -51.1640   176.4713     4.9451     6.1242    91.0820
  598.5000   -50.6678   186.0582     4.5638     5.9356    89.8986
  599.0000   -51.1048   189.0672     4.6040     6.0268    95.5932
  599.5000   -52.2940   191.0732     4.6406     5.5687    94.7209
  600.0000   -53.5014   191.0732     4.7525     6.2716   102.4811
  600.5000   -53.9969   182.0461     5.1219     7.0292    97.6792
  601.0000   -53.7300   163.9920     5.7353     7.6168   108.0134
  601.5000   -53.4182   144.0653     6.9673     8.1025   110.4145
  602.0000   -53.1067   124.2549     8.1982     8.5831   101.6994
  602.5000   -52.7971   106.6041     8.9520     9.0042    89.0172
  603.0000   -52.4762   102.1429     9.3169     9.1167    87.3945
  603.5000   -52.3449    98.7898     9.4870     9.2385    89.4603
  604.0000   -51.8537    99.0039     9.5084     9.3611    82.7889
  604.5000   -51.3441    99.4199     9.5278     9.4844    78.2591
  605.0000   -50.7230    99.8235     9.5468     9.5621    82.2674
  605.5000   -51.3996   100.2271     9.5675     9.6062    78.6894
  606.0000   -52.7803   100.6307     9.6875     9.7066    65.3602
  606.5000   -51.6958    97.3369     9.9960    10.4422    56.8321
  607.0000   -50.2362    91.2208    10.5121    11.6517    51.7887
  607.5000   -48.8884    85.1283    11.3985    12.5091    54.1179
  608.0000   -50.6390    79.0371    12.2950    14.2167    53.1096
  608.5000   -51.8643    72.9482    13.5237    15.9242    61.1340
  609.0000   -53.8126    66.8592    14.7664    17.3639    54.7926
  609.5000   -55.5866    61.2437    16.0216    18.4393    56.0002
  610.0000   -57.3552    55.7399    17.7235    20.9947    58.9993
  610.5000   -58.3597    50.2362    19.4335    22.2167    61.8370
  611.0000   -58.8768    44.7324    21.1456    24.6239    60.1296
  611.5000   -59.0178    40.6219    22.8720    24.2036    67.4722
  612.0000   -59.1592    40.9246    22.8213    23.6933    59.6949
  612.5000   -59.8740    41.3944    22.5717    23.0557    54.2497
  613.0000   -61.9417    41.8705    22.3307    23.5864    58.1851
  613.5000   -62.2137    42.3438    22.1256    24.7431    63.1029
  614.0000   -62.7643    42.8166    21.7325    24.0634    55.5721
  614.5000   -63.3775    43.2896    21.1725    22.7083    56.6333
  615.0000   -63.8312    43.6309    20.6048    21.6228    55.9992
  615.5000   -63.5044    45.9356    20.0367    21.3535    62.2147
  616.0000   -62.8321    47.8446    19.4692    20.8408    53.1926
  616.5000   -62.1742    49.7536    18.9016    20.1627    56.8748
  617.0000   -61.4560    51.6626    18.3339    19.4824    53.1910
  617.5000   -59.8486    53.5718    17.7646    18.7960    56.7744
  618.0000   -58.0153    55.4806    17.1991    18.5491    59.7705
  618.5000   -58.1752    57.3895    16.6911    18.6736    59.8021
  619.0000   -60.6493    58.6760    16.5517    18.7733    65.7408
  619.5000   -60.6986    58.6760    16.4130    18.5655    64.1550
  620.0000   -59.7525    57.5936    16.8671    18.0999    61.0720
  620.5000   -58.7977    56.1221    17.3740    17.8055    58.0103
  621.0000   -57.8469    54.6506    17.8802    18.8149    56.5574
  621.5000   -57.5958    53.1791    18.3831    20.0291    59.8251
  622.0000   -57.6019    51.7076    18.8926    20.8239    65.7951
  622.5000   -58.6025    50.2361    18.8101    19.9625    64.2540
  623.0000   -60.3228    48.7646    18.3030    19.2119    71.6362
  623.5000   -62.0697    47.2931    19.1595    20.4919    69.1957
  624.0000   -62.1775    45.8216    20.2662    22.1363    64.8950
  624.5000   -61.0501    44.6339    20.7710    22.8157    60.4693
  625.0000   -61.9921    44.9682    19.5313    20.8779    66.3677
  625.5000   -63.5916    46.6499    18.5332    20.3287    60.7289
  626.0000   -64.1289    48.3317    19.8636    20.6153    55.8252
  626.5000   -62.4238    50.0134    19.6581    20.8027    62.5081
  627.0000   -62.9828    51.6951    19.2403    20.8926    68.1093
  627.5000   -62.8241    53.3768    18.8242    19.7389    61.7212
  628.0000   -59.9259    54.6640    18.4990    19.1253    60.7410
  628.5000   -59.0098    54.4746    18.4730    19.3245    61.9173
  629.0000   -58.9609    54.1778    18.4340    19.6582    63.1602
  629.5000   -60.8505    53.8811    18.3408    19.6983    61.8782
  630.0000   -62.1572    52.6580    18.0410    19.2831    65.2575
  630.5000   -61.7854    52.6580    17.7495    19.0254    61.8589
  631.0000   -61.3624    54.1940    17.4581    18.4701    67.7543
  631.5000   -60.9417    55.6355    17.1668    17.9024    56.8917
  632.0000   -60.5182    57.0770    16.9000    18.1205    58.5554
  632.5000   -59.9657    58.5184    16.8314    17.7547    62.9406
  633.0000   -58.9199    59.9599    16.7685    17.0695    60.4319
  633.5000   -57.9249    61.6851    16.7030    16.3179    49.0607
  634.0000   -57.1845    61.2676    16.7620    16.0844    59.1675
  634.5000   -58.2322    59.9040    16.8982    16.3236    63.1431
  635.0000   -59.4487    58.5405    17.3611    16.6408    65.9492
  635.5000   -59.4217    57.1769    17.8659    16.9592    65.3488
  636.0000   -59.3207    55.8134    18.3718    17.2780    73.7989
  636.5000   -58.5320    54.4498    18.8792    17.5915    70.8229
  637.0000   -57.3418    53.0863    19.3979    17.8053    69.1094
  637.5000   -55.3126    51.6550    19.5110    17.4245    73.1047
  638.0000   -54.6609    52.3332    19.5938    17.6009    71.7480
  638.5000   -57.0166    53.5604    19.0145    17.8165    71.8534
  639.0000   -57.7615    54.7876    18.3861    18.0289    61.9729
  639.5000   -57.7060    56.0148    17.7589    18.1935    66.4064
  640.0000   -55.8498    57.2420    17.1292    17.9639    65.3478
  640.5000   -57.1240    58.4691    16.5222    17.5494    72.5393
  641.0000   -58.7538    59.7221    16.2704    17.1328    75.0761
  641.5000   -59.0521    61.6446    15.8978    16.7238    64.9142
  642.0000   -59.0477    61.7070    15.5224    16.5454    66.1311
  642.5000   -58.5985    61.8109    15.2786    16.4559    64.8813
  643.0000   -58.1601    62.0157    15.2001    16.3654    70.6501
  643.5000   -57.8064    62.2217    15.1198    16.2755    71.8784
  644.0000   -57.8204    62.4277    15.0403    16.1860    73.9576
  644.5000   -57.3852    62.6336    14.9606    16.0943    73.6680
  645.0000   -56.7218    62.8395    14.8810    15.9375    75.4023
  645.5000   -56.1997    63.0455    14.8010    15.7808    79.1166
  646.0000   -56.3060    63.2506    14.7228    15.6245    73.5120
  646.5000   -56.4520    63.4591    14.5679    15.4684    65.2580
  647.0000   -56.6035    63.6473    14.3789    15.3122    69.5822
  647.5000   -56.5541    65.0933    14.1882    15.1561    75.3122
