~VERSION INFORMATION
 VERS.                2.0:   CWLS LOG ASCII STANDARD - VERSION 2.0
 WRAP.                 NO:   ONE LINE PER DEPTH STEP
~WELL INFORMATION
#MNEM.UNIT      DATA TYPE    INFORMATION
#----------   ------------   ------------------------------
 STRT.F           16.0000:   START DEPTH
 STOP.F         2438.0000:   STOP DEPTH
 STEP.F            0.5000:   STEP LENGTH
 NULL.          -999.2500:   NO VALUE
 COMP. FENIX & SCISSON INC:   COMPANY
 WELL.      15 SHX #27-27:   WELL
 FLD .             TEAPOT:   FIELD
 LOC .      S27 T39N R78W:   LOCATION
 CNTY.            NATRONA:   COUNTY
 STAT.            WYOMING:   STATE
 CTRY. UNITED STATES OF AMERICA:   COUNTRY
 SRVC.            Unknown:   SERVICE COMPANY
 DATE.        09-JUN-1978:   LOGDATE
 API .       490251064100:   API NUMBER
~CURVE INFORMATION
#MNEM.UNIT       API CODE    CURVE DESCRIPTION
#----------   ------------   ------------------------------
 DEPT.F                  :   
 CALD.IN     45 280 60 00:   CALIPER FROM DENSITY LOG
 GRD .GAPI   45 310 01 00:   GAMMA RAY FROM DENSITY LOG
 CORR.G/C3   45 356 01 00:   DENSITY CORRECTION
 RHOB.G/C3   45 350 01 00:   BULK DENSITY
 DPHI.DEC    45 890 10 00:   DENSITY POROSITY LIMESTONE
~PARAMETER INFORMATION
#MNEM.UNIT          VALUE    DESCRIPTION
#----------   ------------   ------------------------------
 PD  .                 GL:   PERMANENT DATUM
 EPD .F              5062:   ELEVATION PERMANENT DATUM
 LMF .                 KB:   LOG MEASURED FROM
 DAPD.F                10:   FEET ABOVE PERMANENT DATUM
 DMF .                 KB:   DRILLING MEASURED FROM
 EKB .F              5072:   KELLING BUSHING
 EGL .F              5062:   GROUND LEVEL
 DATE.        09-JUN-1978:   RUN DATE
 RUN .                  1:   RUN NUMBER
 DD  .F              2450:   DEPTH DRILLER
 DL  .F              2445:   DEPTH LOGGER
 BLI .F              2438:   BOTTOM LOG INTERVAL
 TLI .F                10:   TOP LOG INTERVAL
 CS  .IN            9.625:   CASING SIZE
 CBD .F               688:   CASING BOTTOM DRILLER
 CBL .F               694:   CASING BOTTOM LOGGER
 BS  .IN             8.75:   BIT SIZE
 BSD .F              2450:   BIT SIZE AT DEPTH
 DFT .           AIR MIST:   DRILLING FLUID TYPE
 TCS .HRS               1:   TIME CURCULATED STOPPED
 LUN .               2958:   LOGGING UNIT NUMBER
 LUL .                CPR:   LOGGING UNIT LOCATION
 ENGI.             MILLER:   RECORDING ENGINEER
 WITN.           MCGINLEY:   WITNESSED BY
 CLNT.            A2DTECH:   CLIENT CODE
 ORIG.           5" PRINT:   ORIGIN OF DATA
 UWI .       490251064100:   UNIQUE WELL ID
 DICO. A2D Technologies, Inc.:   DIGITIZING COMPANY
~OTHER INFORMATION
~A   DEPT     CALD         GRD      CORR       RHOB       DPHI   
# ...
 1968.0000     9.2369   106.1691    -0.0220     2.4784     0.0453
 1968.5000     9.2226   106.0321    -0.0202     2.4754     0.0511
 1969.0000     9.2086   108.1754    -0.0140     2.4740     0.0529
 1969.5000     9.2564   114.9788    -0.0077     2.4732     0.0535
 1970.0000     9.3344   117.4531    -0.0075     2.4734     0.0411
 1970.5000     9.3511   116.8553    -0.0105     2.4804     0.0362
 1971.0000     9.3525   112.7244    -0.0211     2.4920     0.0423
 1971.5000     9.2601   107.3647    -0.0241     2.4882     0.0528
 1972.0000     9.2171   105.0771    -0.0193     2.4737     0.0537
 1972.5000     9.2423   107.3978    -0.0115     2.4745     0.0388
 1973.0000     9.3736   110.9474    -0.0082     2.4877     0.0360
 1973.5000     9.3903   112.1929    -0.0066     2.4893     0.0375
 1974.0000     9.2996   114.6673    -0.0064     2.4894     0.0387
 1974.5000     9.2239   113.3014    -0.0063     2.4887     0.0387
 1975.0000     9.2256   109.9386    -0.0062     2.4888     0.0384
 1975.5000     9.2270   112.2596    -0.0108     2.4866     0.0402
 1976.0000     9.2283   111.5717    -0.0167     2.4828     0.0488
 1976.5000     9.2297   107.8419    -0.0211     2.4752     0.0509
 1977.0000     9.2311   107.8585    -0.0226     2.4684     0.0521
 1977.5000     9.2324   108.0287    -0.0147     2.4661     0.0582
 1978.0000     9.2338   111.2711    -0.0084     2.4778     0.0462
 1978.5000     9.2351   112.8238    -0.0052     2.4833     0.0400
 1979.0000     9.2365   112.6868    -0.0112     2.4826     0.0397
 1979.5000     9.2532   110.7065    -0.0157     2.4780     0.0415
 1980.0000     9.2699   107.8045    -0.0140     2.4735     0.0499
 1980.5000     9.2716   107.0489    -0.0046     2.4736     0.0479
 1981.0000     9.2730   107.0696     0.0047     2.4837     0.0346
 1981.5000     9.2743   107.7007     0.0080     2.4984     0.0361
 1982.0000     9.2757   109.1163     0.0048     2.4962     0.0389
 1982.5000     9.2770   117.4415    -0.0150     2.4917     0.0404
 1983.0000     9.2324   118.5031    -0.0178     2.4902     0.0391
 1983.5000     9.1874   116.3692    -0.0161     2.4903     0.0394
 1984.0000     9.1584   118.3868    -0.0144     2.4904     0.0409
 1984.5000     9.1598   117.6354    -0.0097     2.4904     0.0412
 1985.0000     9.1611   116.2695    -0.0095     2.4905     0.0418
 1985.5000     9.1625   114.5964    -0.0094     2.4906     0.0414
 1986.0000     9.1638   115.5346    -0.0154     2.4907     0.0380
 1986.5000     9.1959   117.3945    -0.0184     2.4900     0.0383
 1987.0000     9.2436   114.3389    -0.0214     2.4816     0.0437
 1987.5000     9.2753   112.0514    -0.0196     2.4809     0.0472
 1988.0000     9.2767   111.2999    -0.0180     2.4826     0.0422
 1988.5000     9.2323   108.0907    -0.0147     2.4842     0.0440
 1989.0000     9.2180   110.1787    -0.0130     2.4851     0.0430
 1989.5000     9.2811   113.1936    -0.0114     2.4867     0.0375
 1990.0000     9.2977   113.0602    -0.0112     2.4922     0.0365
 1990.5000     9.2378   112.1551    -0.0080     2.4961     0.0359
 1991.0000     9.1774   110.7892    -0.0063     2.4962     0.0358
 1991.5000     9.1791   109.2655    -0.0062     2.4963     0.0361
 1992.0000     9.1805   110.8224    -0.0076     2.4955     0.0389
 1992.5000     9.1972   110.3781    -0.0075     2.4957     0.0382
 1993.0000     9.1985   109.4689    -0.0104     2.4957     0.0357
 1993.5000     9.1845   110.2577    -0.0164     2.4943     0.0398
 1994.0000     9.1706   114.4706    -0.0225     2.4825     0.0483
 1994.5000     9.1566   124.2903    -0.0239     2.4783     0.0464
 1995.0000     9.1733   134.2706    -0.0237     2.4838     0.0405
 1995.5000     9.2207   139.9708    -0.0205     2.4861     0.0396
 1996.0000     9.2374   130.0135    -0.0172     2.4839     0.0463
 1996.5000     9.1777   115.7695    -0.0092     2.4809     0.0478
 1997.0000     9.1634   114.2183     0.0000     2.4810     0.0407
 1997.5000     9.1804   114.0771     0.0016     2.4957     0.0351
 1998.0000     9.2125   115.7875    -0.0028     2.4981     0.0348
 1998.5000     9.2292   116.1114    -0.0027     2.4982     0.0351
 1999.0000     9.2305   115.3599    -0.0026     2.4960     0.0363
 1999.5000     9.2319   104.6238    -0.0009     2.4953     0.0372
 2000.0000     9.1937   103.4074    -0.0002     2.4954     0.0362
 2000.5000     9.1733   105.1178     0.0035     2.4963     0.0340
 2001.0000     9.2367   105.7487     0.0056     2.5001     0.0337
 2001.5000     9.2383   104.9972     0.0057     2.5009     0.0337
 2002.0000     9.2400   104.2375    -0.0035     2.4894     0.0427
 2002.5000     9.1649   101.4618    -0.0173     2.4833     0.0463
 2003.0000     9.1973   104.5901    -0.0172     2.4818     0.0435
 2003.5000     9.2308   113.0551    -0.0171     2.4811     0.0416
 2004.0000     9.2470   112.6108    -0.0170     2.4796     0.0459
 2004.5000     9.2639   111.8593    -0.0153     2.4789     0.0483
 2005.0000     9.2809   111.7181    -0.0122     2.4782     0.0480
 2005.5000     9.2826   113.2748    -0.0059     2.4790     0.0443
 2006.0000     9.2842   115.9027    -0.0012     2.4876     0.0393
 2006.5000     9.2859   117.4554     0.0035     2.4969     0.0347
 2007.0000     9.2568   121.0049     0.0051     2.4923     0.0399
 2007.5000     9.1358   127.9574    -0.0132     2.4839     0.0467
 2008.0000     9.1374   129.1793    -0.0163     2.4816     0.0462
 2008.5000     9.1720   123.9772    -0.0161     2.4840     0.0417
 2009.0000     9.2178   120.9215    -0.0160     2.4871     0.0395
 2009.5000     9.2501   115.1009    -0.0160     2.4864     0.0438
 2010.0000     9.2824   113.5813    -0.0159     2.4834     0.0459
 2010.5000     9.2994   113.4401    -0.0158     2.4826     0.0419
 2011.0000     9.3011   115.1505    -0.0157     2.4827     0.0410
 2011.5000     9.2869   116.2423    -0.0156     2.4820     0.0468
 2012.0000     9.2583   116.2847    -0.0140     2.4813     0.0459
 2012.5000     9.2293   114.2784    -0.0090     2.4813     0.0440
 2013.0000     9.2140   110.9101     0.0017     2.4821     0.0415
 2013.5000     9.1716   109.7031     0.0110     2.4945     0.0359
 2014.0000     9.1575   114.1785     0.0142     2.4977     0.0325
 2014.5000     9.1596   121.8714     0.0065     2.4976     0.0387
 2015.0000     9.1612   118.3590    -0.0134     2.4870     0.0439
 2015.5000     9.1629   112.2311    -0.0149     2.4778     0.0460
 2016.0000     9.1645   111.4755    -0.0148     2.4740     0.0441
 2016.5000     9.1968   117.1797    -0.0177     2.4771     0.0450
 2017.0000     9.2445   117.9643    -0.0207     2.4772     0.0533
 2017.5000     9.2768   117.3663    -0.0191     2.4695     0.0552
 2018.0000     9.2631   116.0004    -0.0159     2.4665     0.0508
 2018.5000     9.2341   114.4808    -0.0158     2.4712     0.0467
 2019.0000     9.2204   111.0390    -0.0173     2.4728     0.0505
 2019.5000     9.2224   108.9839    -0.0172     2.4728     0.0483
 2020.0000     9.2241   109.4654    -0.0155     2.4729     0.0471
 2020.5000     9.2411   110.4036    -0.0155     2.4722     0.0489
 2021.0000     9.2270   112.1098    -0.0200     2.4668     0.0513
 2021.5000     9.2290   116.1202    -0.0261     2.4600     0.0587
 2022.0000     9.2307   119.6697    -0.0244     2.4569     0.0553
 2022.5000     9.2324   123.5265    -0.0182     2.4678     0.0485
 2023.0000     9.2186   136.2926    -0.0181     2.4670     0.0596
 2023.5000     9.1900   140.1494    -0.0196     2.4524     0.0648
 2024.0000     9.1759   139.0907    -0.0225     2.4479     0.0631
 2024.5000     9.1622   138.0204    -0.0224     2.4510     0.0576
 2025.0000     9.1796   137.5371    -0.0223     2.4549     0.0585
 2025.5000     9.1812   129.9278    -0.0222     2.4542     0.0628
 2026.0000     9.1829   120.2669    -0.0237     2.4497     0.0653
 2026.5000     9.1845   119.8185    -0.0267     2.4497     0.0622
 2027.0000     9.2183   123.9866    -0.0266     2.4482     0.0705
 2027.5000     9.2496   126.0000    -0.0296     2.4406     0.0745
 2028.0000     9.2512   123.2516    -0.0187     2.4445     0.0621
 2028.5000     9.2068   123.5753    -0.0063     2.4617     0.0535
