~VERSION INFORMATION
 VERS.                2.0:   CWLS LOG ASCII STANDARD - VERSION 2.0
 WRAP.                 NO:   ONE LINE PER DEPTH STEP
~WELL INFORMATION
#MNEM.UNIT      DATA TYPE    INFORMATION
#----------   ------------   ------------------------------
 STRT.F           20.0000:   START DEPTH
 STOP.F         1363.5000:   STOP DEPTH
 STEP.F            0.5000:   STEP LENGTH
 NULL.          -999.2500:   NO VALUE
 COMP.   FLUOR DANIEL INC:   COMPANY
 WELL.   NPR 3 "S" #83-14:   WELL
 FLD .             TEAPOT:   FIELD
 LOC .      S14 T38N R78W:   LOCATION
 CNTY.            NATRONA:   COUNTY
 STAT.            WYOMING:   STATE
 CTRY. UNITED STATES OF AMERICA:   COUNTRY
 SRVC. Schlumberger Well Surveying Corp:   SERVICE COMPANY
 DATE.        22-AUG-1966:   LOGDATE
 API .       490250971000:   API NUMBER
~CURVE INFORMATION
#MNEM.UNIT       API CODE    CURVE DESCRIPTION
#----------   ------------   ------------------------------
 DEPT.F                  :   
 SPR .MV     05 010 01 00:   SPONTANEOUS POTENTIAL FROM RES.
 ASN .OHMM   05 041 16 00:   AMPLIFIED SHORT NORMAL 16"
 CILD.MMHO   05 110 00 00:   CONDUCTIVITY INDUCTION LOG
 ILD .OHMM   05 120 46 00:   INDUCTION LOG DEEP
 CALD.IN     45 280 60 00:   CALIPER
 GRD .GAPI   45 310 01 00:   GAMMA RAY FROM DENSITY LOG
 CORR.G/C3   45 356 01 00:   DENSITY CORRECTION
 RHOB.G/C3   45 350 01 00:   BULK DENSITY
 DPOR.DEC    45 890 12 00:   DENSITY POROSITY SANDSTONE
~PARAMETER INFORMATION
#MNEM.UNIT          VALUE    DESCRIPTION
#----------   ------------   ------------------------------
 PD  .                 GL:   PERMANENT DATUM
 EPD .F              5300:   ELEVATION PERMANENT DATUM
 LMF .                 KB:   LOG MEASURED FROM
 DAPD.F                 5:   FEET ABOVE PERMANENT DATUM
 DMF .                 KB:   DRILLING MEASURED FROM
 EKB .F              5305:   KELLING BUSHING
 EGL .F              5300:   GROUND LEVEL
 DATE.          8-22-1966:   RUN DATE
 RUN .                  1:   RUN NUMBER
 DD  .F              1365:   DEPTH DRILLER
 DL  .F              1363:   DEPTH LOGGER
 BLI .F              1362:   BOTTOM LOG INTERVAL
 TLI .F                20:   TOP LOG INTERVAL
 CS  .IN            8.625:   CASING SIZE
 CBD .F                15:   CASING BOTTOM DRILLER
 CBL .F                20:   CASING BOTTOM LOGGER
 BS  .IN            7.875:   BIT SIZE
 BSD .F              1365:   BIT SIZE AT DEPTH
 DFT .           GEL-CHEM:   DRILLING FLUID TYPE
 DFD .                 10:   DRILLING FLUID DENSITY
 DFV .                 55:   DRILLING FLUID VISCOSITY
 DFL .                  8:   DRILLING FLUID LOSS
 MSS .          FLOW LINE:   MUD SAMPLE SOURCE
 RMS .OHMM           1.86:   RESISTIVITY MUD SAMPLE
 MST .F                73:   MUD SAMPLE TEMPERATURE
 RMF .OHMM           1.13:   RESISTIVITY MUD FILTRATE SAMPLE
 MFST.F                70:   MUD FILTRATE SAMPLE TEMPERATURE
 MFSS.                  M:   MUD FILTRATE SAMPLE SOURCE
 RMB .OHMM           1.32:   RESISTIVITY MUD AT BHT
 BHT .F               102:   BOTTOM HOLE TEMPERATURE
 TCS .HRS               1:   TIME CURCULATED STOPPED
 MRT .F               102:   MAXIMUM RECORDED TEMPERATURE
 LUN .               3527:   LOGGING UNIT NUMBER
 LUL .               CSPR:   LOGGING UNIT LOCATION
 ENGI.          TOLLEFSON:   RECORDING ENGINEER
 WITN.         MAY/TUTTLE:   WITNESSED BY
 CLNT.            A2DTECH:   CLIENT CODE
 ORIG.       2", 5" PRINT:   ORIGIN OF DATA
 UWI .       490250971000:   UNIQUE WELL ID
 DICO. A2D Technologies, Inc.:   DIGITIZING COMPANY
~OTHER INFORMATION
~A   DEPT       SPR       ASN         CILD      ILD         CALD       GRD       CORR        RHOB     DPOR   
# ...
  531.0000   -56.6145     6.5878   198.2421     5.6059     8.0005    96.3960     0.0105     2.5439     0.0944
  531.5000   -56.6860     6.7642   195.9363     5.6233     8.0110    96.1774     0.0196     2.5209     0.1011
  532.0000   -56.7574     6.7433   193.6305     5.6407     8.0213    98.2010     0.0289     2.4998     0.1077
  532.5000   -56.8290     6.7139   191.3246     5.6582     8.0317   102.9363     0.0389     2.4851     0.1144
  533.0000   -56.9007     6.6855   188.9247     5.6756     8.0421   107.4011     0.0486     2.4882     0.1164
  533.5000   -56.9706     6.6571   187.8168     5.6930     8.0526   105.1707     0.0558     2.4925     0.1128
  534.0000   -56.9537     6.6311   188.1723     5.7105     8.0629   101.0290     0.0541     2.4965     0.1099
  534.5000   -56.8029     6.6613   188.4530     5.7279     8.0734    96.3558     0.0487     2.5029     0.1064
  535.0000   -56.6476     6.7322   188.7442     5.7453     8.0835    97.1614     0.0432     2.4984     0.1099
  535.5000   -56.7577     6.8067   188.8778     5.7628     8.0945   103.2962     0.0377     2.4815     0.1141
  536.0000   -57.0132     6.8028   187.8104     5.7802     8.0981   108.7836     0.0322     2.4637     0.1182
  536.5000   -56.7867     6.7935   186.7071     5.7976     8.0893   109.1633     0.0267     2.4547     0.1224
  537.0000   -56.5042     6.7681   185.6038     5.8151     8.0813   107.5007     0.0212     2.4650     0.1267
  537.5000   -56.2226     6.7903   183.8677     5.8326     8.0728   105.9491     0.0141     2.4748     0.1236
  538.0000   -56.3199     6.8192   184.4649     5.8495     8.0646   105.1522     0.0170     2.4854     0.1204
  538.5000   -56.5115     6.8279   184.8697     5.8501     8.0562   104.7576     0.0379     2.4954     0.1172
  539.0000   -56.6091     6.8183   185.4888     5.8500     8.0479   104.1932     0.0622     2.5057     0.1139
  539.5000   -56.5138     6.8094   184.9068     5.8500     8.0396   103.3251     0.0710     2.5136     0.1096
  540.0000   -56.4207     6.8256   184.3279     5.8501     8.0313   102.2827     0.0576     2.4975     0.1132
  540.5000   -56.3280     6.8465   183.8427     5.8495     8.0230    99.9765     0.0459     2.4863     0.1207
  541.0000   -56.2354     6.8676   185.9021     5.8226     8.0147    97.1968     0.0397     2.4841     0.1170
  541.5000   -56.1424     6.8905   188.3252     5.7614     8.0064    94.5031     0.0365     2.5022     0.1116
  542.0000   -56.0496     6.8555   190.7619     5.7005     7.9981    94.0888     0.0374     2.5167     0.1061
  542.5000   -56.0647     6.7639   193.1953     5.6394     7.9898    94.9487     0.0488     2.5325     0.1006
  543.0000   -56.3564     6.6707   195.6284     5.5784     7.9815    95.6251     0.0591     2.5492     0.0916
  543.5000   -56.6008     6.5700   198.3543     5.5174     7.9732    94.4912     0.0712     2.5584     0.0932
  544.0000   -56.4937     6.4837   199.9423     5.4564     7.9648    93.4142     0.0689     2.5473     0.0976
  544.5000   -56.3817     6.3582   201.5303     5.3953     7.9579    92.6160     0.0659     2.5355     0.1021
  545.0000   -56.2702     6.2321   203.1184     5.3343     7.9588    95.3582     0.0581     2.5230     0.1066
  545.5000   -56.2206     6.1495   204.7079     5.2732     7.9693   100.3851     0.0451     2.5110     0.1110
  546.0000   -56.4001     6.1894   206.3172     5.2115     7.9791   103.3201     0.0315     2.4985     0.1155
  546.5000   -56.5811     6.2269   207.8624     5.1534     7.9891   103.6050     0.0249     2.4880     0.1220
  547.0000   -56.4870     6.2642   208.9838     5.2115     7.9990   102.6942     0.0279     2.4901     0.1190
  547.5000   -56.2771     6.2667   206.7376     5.2758     8.0089    99.9910     0.0432     2.4934     0.1137
  548.0000   -56.2888     6.2593   204.1384     5.3396     8.0188    97.4446     0.0574     2.4962     0.1064
  548.5000   -56.3807     6.2511   201.5235     5.4033     8.0287    98.2900     0.0668     2.4997     0.1122
  549.0000   -56.2948     6.2832   198.9123     5.4670     8.0386   100.0676     0.0451     2.5021     0.1213
  549.5000   -56.2128     6.3414   196.3011     5.5308     8.0486   100.9848     0.0315     2.5060     0.1244
  550.0000   -56.2131     6.4387   193.6899     5.5947     8.0570   100.1294     0.0337     2.4947     0.1209
  550.5000   -56.4593     6.5841   191.0787     5.6495     8.0502    98.5362     0.0442     2.4768     0.1192
  551.0000   -56.7355     6.6659   189.7014     5.6301     8.0417    97.0107     0.0510     2.4564     0.1236
  551.5000   -57.0060     6.7693   189.1864     5.6119     8.0334    95.4346     0.0423     2.4586     0.1328
  552.0000   -56.8941     6.7939   189.3961     5.5940     8.0251    94.1180     0.0316     2.4660     0.1306
  552.5000   -56.6857     6.7090   191.9071     5.5760     8.0167    93.7134     0.0300     2.4719     0.1245
  553.0000   -56.6750     6.6263   192.8376     5.5581     8.0085    93.2929     0.0318     2.4790     0.1184
  553.5000   -56.7644     6.6109   192.9031     5.5402     7.9998    93.0936     0.0374     2.4847     0.1092
  554.0000   -56.7369     6.5638   195.0997     5.5223     7.9923    91.7001     0.0551     2.4928     0.1132
  554.5000   -56.5824     6.4939   199.4530     5.5043     7.9822    89.4399     0.0521     2.4869     0.1215
  555.0000   -56.4295     6.4676   203.9078     5.4864     7.9827    89.2300     0.0400     2.4662     0.1299
  555.5000   -56.2719     6.3516   205.9602     5.4685     7.9999    89.8158     0.0293     2.4524     0.1388
  556.0000   -56.4494     6.2323   207.7362     5.4505     8.0165    91.8832     0.0214     2.4619     0.1356
  556.5000   -56.8233     6.2208   209.5121     5.4326     8.0324    90.6685     0.0341     2.4736     0.1302
  557.0000   -56.3675     6.2068   211.2881     5.4147     8.0511    86.9579     0.0474     2.4846     0.1247
  557.5000   -56.0092     6.1334   213.0641     5.3967     8.0509    87.6612     0.0561     2.4962     0.1193
  558.0000   -56.2384     6.0735   214.8731     5.3787     8.0298    93.2207     0.0533     2.5070     0.1139
  558.5000   -56.4976     6.1020   214.2151     5.3612     8.0119    96.4832     0.0505     2.5196     0.1085
  559.0000   -56.7643     6.1448   210.9879     5.3661     7.9927    97.4360     0.0467     2.5038     0.1020
  559.5000   -56.5826     6.1700   207.8172     5.4085     7.9731    99.4962     0.0697     2.4807     0.1122
  560.0000   -56.1889     6.1686   204.6478     5.4504     7.9617    99.8355     0.0873     2.4577     0.1251
  560.5000   -55.8156     6.1777   201.4783     5.4924     7.9937    97.6817     0.0733     2.4354     0.1380
  561.0000   -56.0380     6.3404   198.3089     5.5343     8.0239    93.8453     0.0552     2.4013     0.1520
  561.5000   -56.3743     6.4992   195.1395     5.5763     8.0567    90.5302     0.0333     2.4035     0.1496
  562.0000   -56.6071     6.5893   191.8838     5.6182     8.0854    87.0473     0.0226     2.4191     0.1442
  562.5000   -56.5230     6.5630   191.0822     5.6602     8.1221    83.4143     0.0252     2.4322     0.1388
  563.0000   -56.4452     6.5337   190.0521     5.7023     8.1282    82.9046     0.0261     2.4459     0.1333
  563.5000   -56.5069     6.5910   189.0220     5.7449     8.0873    83.4021     0.0319     2.4597     0.1279
  564.0000   -57.0044     6.6845   187.9920     5.7332     8.0513    87.1927     0.0393     2.4733     0.1225
  564.5000   -56.8349     6.7730   188.7811     5.7134     8.0126    91.8535     0.0483     2.4871     0.1172
  565.0000   -56.5545     6.8052   190.5988     5.6935     7.9746    97.0602     0.0542     2.4924     0.1125
  565.5000   -56.4631     6.8317   192.4164     5.6737     7.9407    96.5005     0.0655     2.4831     0.1282
  566.0000   -56.9122     6.7683   193.8989     5.6539     7.9359    92.4413     0.0345     2.4751     0.1319
  566.5000   -57.1656     6.6888   192.9550     5.6342     7.9502    88.8209     0.0396     2.4653     0.1234
  567.0000   -56.7959     6.6352   192.0023     5.6144     7.9784    88.4518     0.0488     2.4606     0.1182
