~VERSION INFORMATION
 VERS.                2.0:   CWLS LOG ASCII STANDARD - VERSION 2.0
 WRAP.                 NO:   ONE LINE PER DEPTH STEP
~WELL INFORMATION
#MNEM.UNIT      DATA TYPE    INFORMATION
#----------   ------------   ------------------------------
 STRT.F            0.0000:   START DEPTH
 STOP.F         3315.0000:   STOP DEPTH
 STEP.F            0.5000:   STEP LENGTH
 NULL.          -999.2500:   NO VALUE
 COMP. LAWRENCE/ALLISON INC     84-AX-:   COMPANY
 WELL.          SHX3 #1-3:   WELL
 FLD .            WILDCAT:   FIELD
 LOC .       S3 T38N R78W:   LOCATION
 CNTY.            NATRONA:   COUNTY
 STAT.            WYOMING:   STATE
 CTRY. UNITED STATES OF AMERICA:   COUNTRY
 SRVC.      Dresser Atlas:   SERVICE COMPANY
 DATE.        20-JAN-1986:   LOGDATE
 API .       490251104200:   API NUMBER
~CURVE INFORMATION
#MNEM.UNIT       API CODE    CURVE DESCRIPTION
#----------   ------------   ------------------------------
 DEPT.F                  :   
 SPR .MV     07 010 01 00:   SPONTANEOUS POTENTIAL
 RILD.OHMM   07 120 46 00:   INDUCTION LOG DEEP RESISTIVITY
 RILM.OHMM   07 120 44 00:   INDUCTION LOG MEDIUM RESISTIVITY
 RFOC.OHMM   07 220 04 00:   RESISTIVITY FOCUSED LOG
 AC  .US/F   60 520 00 00:   ACCOUSTIC
 CALD.IN     45 280 60 00:   CALIPER FROM DENSITY
 CORR.G/C3   45 356 01 00:   DENSITY CORRECTION
 DEN .G/C3   45 350 01 00:   COMPENSATED BULK DENSTIY
 PORD.DEC    45 890 12 00:   POROSITY DENSITY SANDSTONE
 CNC .DEC    42 890 03 00:   NEUTRON POROSITY SANDSTONE
 GRR .GAPI   07 310 01 00:   GAMMA RAY
~PARAMETER INFORMATION
#MNEM.UNIT          VALUE    DESCRIPTION
#----------   ------------   ------------------------------
 PD  .                 GL:   PERMANENT DATUM
 EPD .F              5136:   ELEVATION PERMANENT DATUM
 LMF .                 KB:   LOG MEASURED FROM
 DAPD.F                11:   FEET ABOVE PERMANENT DATUM
 DMF .                 KB:   DRILLING MEASURED FROM
 EKB .F              5147:   KELLING BUSHING
 EGL .F              5136:   GROUND LEVEL
 DATE.        26-JAN-1986:   RUN DATE
 RUN .                  1:   RUN NUMBER
 DD  .F              3320:   DEPTH DRILLER
 DL  .F              3317:   DEPTH LOGGER
 BLI .F              3315:   BOTTOM LOG INTERVAL
 CS  .IN            8.625:   CASING SIZE
 CBD .F               550:   CASING BOTTOM DRILLER
 CBL .F               592:   CASING BOTTOM LOGGER
 BS  .IN            7.875:   BIT SIZE
 BSD .F              3320:   BIT SIZE AT DEPTH
 DFT .        POLYMER KCL:   DRILLING FLUID TYPE
 DFD .                9.1:   DRILLING FLUID DENSITY
 DFV .                 38:   DRILLING FLUID VISCOSITY
 DFPH.                 10:   DRILLING FLUID PH
 DFL .                8.5:   DRILLING FLUID LOSS
 MSS .           FLOWLINE:   MUD SAMPLE SOURCE
 RMS .OHMM           .435:   RESISTIVITY MUD SAMPLE
 MST .F                72:   MUD SAMPLE TEMPERATURE
 RMF .OHMM           .352:   RESISTIVITY MUD FILTRATE SAMPLE
 MFST.F                72:   MUD FILTRATE SAMPLE TEMPERATURE
 RMC .OHMM            .54:   RESISTIVITY MUD CAKE
 MCST.F                72:   MUD CAKE SAMPLE TEMPERATURE
 MFSS.               MEAS:   MUD FILTRATE SAMPLE SOURCE
 MCSS.               MEAS:   MUD CAKE SAMPLE SOURCE
 RMB .OHMM            .29:   RESISTIVITY MUD AT BHT
 BHT .F               108:   BOTTOM HOLE TEMPERATURE
 TCS .HRS               3:   TIME CURCULATED STOPPED
 MRT .F               108:   MAXIMUM RECORDED TEMPERATURE
 LUN .               6274:   LOGGING UNIT NUMBER
 LUL .               GLTE:   LOGGING UNIT LOCATION
 ENGI.             RAUTIO:   RECORDING ENGINEER
 WITN.             STRONG:   WITNESSED BY
 CLNT.            A2DTECH:   CLIENT CODE
 ORIG.       2", 5" PRINT:   ORIGIN OF DATA
 UWI .       490251104200:   UNIQUE WELL ID
 DICO. A2D Technologies, Inc.:   DIGITIZING COMPANY
~OTHER INFORMATION
~A    DEPT     SPR       RILD       RILM       RFOC         AC       CALD       CORR        DEN       PORD        CNC        GRR   
# ...
 2348.5000   -48.7457    10.0134    10.9665     8.4581   110.0576     9.0426     0.0024     2.5054     0.0865     0.2553    46.2392
 2349.0000   -48.8865    10.3713    11.2771     8.3429   103.7480     9.0723     0.0144     2.5046     0.0869     0.2457    45.0470
 2349.5000   -49.1785    10.5206    11.2811     9.2600   100.1452     9.0717     0.0249     2.5046     0.0881     0.2412    43.8548
 2350.0000   -49.3192    10.5250    11.2810    11.6439    92.7078     9.0711     0.0281     2.5075     0.0858     0.2420    43.1140
 2350.5000   -49.1891    10.5269    10.9721    12.7160    87.8244     9.0787     0.0299     2.5119     0.0828     0.2492    42.6716
 2351.0000   -49.0590    10.5290    10.7497    13.7606    85.9492     9.0838     0.0276     2.5159     0.0793     0.2653    42.8452
 2351.5000   -48.9289    10.4583    10.7516    12.9315    85.8021     9.0824     0.0232     2.5180     0.0791     0.2877    43.7883
 2352.0000   -48.6823    10.2328    10.8284    10.1472    86.7852     9.0660     0.0397     2.5074     0.0806     0.2925    45.1975
 2352.5000   -48.6748     9.9664    10.9834     8.7136    87.1656     9.0497     0.0638     2.4855     0.0996     0.2929    46.4919
 2353.0000   -48.8187     9.7630    10.9149     8.0758    87.5460     9.0485     0.0758     2.4627     0.1144     0.2913    45.5932
 2353.5000   -48.8112     9.7655    10.6922     8.3052    87.8512     9.0473     0.0366     2.4530     0.1184     0.2914    43.9380
 2354.0000   -48.9569     9.7676    10.2596    10.4441    87.2542     9.0310     0.0005     2.4630     0.1138     0.2871    42.7367
 2354.5000   -49.2501     9.7696     9.9124    13.1337    87.0331     9.0147    -0.0161     2.4854     0.0963     0.2733    43.3508
 2355.0000   -49.5452     9.7716     9.8459    13.4288    86.8847     9.0135    -0.0131     2.4914     0.0945     0.2673    44.2675
 2355.5000   -49.8422     9.5060     9.7134    11.1259    86.6608     8.9972     0.0170     2.4793     0.0982     0.2667    44.4278
 2356.0000   -49.9860     8.7481     9.3847     9.8228    86.5202     8.9960     0.0515     2.4733     0.1063     0.2713    44.1342
 2356.5000   -50.1298     8.3350     8.5774    10.6783    86.4495     8.9948     0.0665     2.4755     0.1048     0.2814    44.4458
 2357.0000   -50.2736     7.9413     8.0044    12.0350    86.5428     8.9936     0.0740     2.4830     0.1000     0.2880    45.5137
 2357.5000   -50.4156     7.5663     7.6269    13.0643    86.9106     8.9924     0.0755     2.4800     0.1003     0.2921    47.9433
 2358.0000   -50.4081     7.3097     7.4718    10.3386    88.2685     8.9912     0.0724     2.4784     0.1025     0.2808    51.4319
 2358.5000   -50.4006     7.2101     7.3198     7.3047    89.1000     8.9900     0.0619     2.4852     0.0967     0.2694    54.1640
 2359.0000   -50.3932     7.1121     7.2209     6.8126    89.4805     8.9888     0.0438     2.4949     0.0910     0.2611    54.4733
 2359.5000   -50.5370     7.0158     7.0740     7.5098    89.1842     8.9874     0.0288     2.4942     0.0928     0.2590    53.2742
 2360.0000   -50.5295     6.8727     6.9302     8.8723    88.6623     8.9710     0.0227     2.4821     0.1019     0.2626    50.8626
 2360.5000   -50.5219     6.6859     6.6934    10.1952    88.4401     8.9698     0.0227     2.4760     0.1064     0.2813    49.5100
 2361.0000   -50.4991     6.3261     6.4601    10.5579    89.4983     8.9687     0.0291     2.4612     0.1086     0.2952    51.0319
 2361.5000   -50.3558     5.9443     6.1087     9.9217    90.4051     8.9675     0.0480     2.4236     0.1303     0.3088    53.4614
 2362.0000   -50.4996     5.6999     5.5564     7.8942    91.6125     8.9663     0.1023     2.3713     0.1589     0.3043    58.0629
 2362.5000   -50.6416     5.4305     5.2213     7.0665    92.5193     8.9805     0.1383     2.3441     0.1841     0.3010    63.0733
 2363.0000   -50.7872     5.3598     5.1151     7.0201    93.1252     8.9790     0.1022     2.3750     0.1768     0.2975    65.4785
 2363.5000   -50.9311     5.6480     5.3713     6.5062    93.2790     8.9933     0.0631     2.4216     0.1526     0.2894    66.0541
 2364.0000   -50.7704     6.2904     5.9623     5.1767    92.3823     9.0072     0.0646     2.4690     0.1157     0.2773    63.4934
 2364.5000   -50.4604     6.7439     6.5270     4.8983    90.2815     9.0209     0.0721     2.4743     0.1065     0.2760    61.9896
 2365.0000   -50.1504     7.0322     6.9497     6.2896    88.1055     9.0348     0.0780     2.4637     0.1096     0.2821    61.0908
 2365.5000   -49.8403     7.2820     7.3997     9.3418    86.5310     9.0638     0.0690     2.4524     0.1138     0.2975    60.3434
 2366.0000   -49.6816     7.4885     7.7164    13.9717    86.2226     9.0782     0.0449     2.4448     0.1232     0.2987    60.9575
 2366.5000   -49.3715     7.6477     7.8810    14.4687    87.0663     9.1068     0.0298     2.4425     0.1259     0.2848    65.0512
 2367.0000   -49.0615     7.7025     7.8281    12.6463    87.7475     9.1056     0.0283     2.4402     0.1265     0.2812    69.9013
 2367.5000   -49.0540     7.7041     7.7760    11.0394    88.1279     9.1196     0.0343     2.4342     0.1293     0.2851    74.2976
 2368.0000   -48.7439     7.5469     7.6184    10.7172    88.2075     9.1335     0.0463     2.4229     0.1332     0.2969    78.9965
 2368.5000   -48.5852     7.1905     7.2591     8.9271    88.1368     9.1320     0.0583     2.4191     0.1374     0.3117    79.4570
 2369.0000   -48.4264     6.7097     6.7274     7.2917    88.0661     9.1308     0.0601     2.4231     0.1380     0.3090    77.8019
 2369.5000   -48.1164     6.0057     6.0219     8.1503    88.0707     9.1296     0.0417     2.4407     0.1317     0.3037    79.1747
 2370.0000   -47.9576     5.1207     5.2429    10.3205    88.0752     9.1439     0.0386     2.4574     0.1178     0.3004    80.8478
 2370.5000   -47.9502     4.5834     4.6237    10.7612    88.0797     9.1424     0.0493     2.4438     0.1163     0.2925    79.3439
 2371.0000   -48.2453     4.3067     4.3162     8.3285    88.3107     9.1412     0.0581     2.4355     0.1275     0.2780    74.8143
 2371.5000   -48.4115     4.1033     4.1688     5.5717    89.5181     9.1400     0.0402     2.4618     0.1236     0.2830    68.6206
 2372.0000   -48.8336     3.9095     4.0599     4.3418    91.3271     9.1388     0.0024     2.4881     0.1038     0.2882    64.5448
 2372.5000   -49.2800     3.6991     3.9776     4.4037    91.7827     9.1376     0.0084     2.5084     0.0838     0.2934    64.5538
 2373.0000   -49.5770     3.5737     3.9509     5.2388    91.7120     9.1364     0.0279     2.5129     0.0823     0.2959    65.0167
 2373.5000   -49.5676     3.5497     3.9523     5.5006    91.4157     9.1352     0.0369     2.5144     0.0802     0.2944    65.1770
 2374.0000   -49.4089     3.6272     3.9809     4.9245    91.3439     9.1183     0.0369     2.5211     0.0772     0.2739    64.0912
 2374.5000   -49.0988     3.7312     4.0097     4.7251    91.8006     9.1026     0.0414     2.5324     0.0693     0.2600    61.9994
 2375.0000   -49.0914     3.8382     4.0952     4.9272    92.0306     9.0862     0.0474     2.5437     0.0618     0.2555    61.5483
 2375.5000   -48.9326     3.9426     4.1536     5.2460    91.6592     9.0697     0.0549     2.5489     0.0606     0.2558    60.6765
 2376.0000   -48.9251     3.9986     4.2128     5.4704    90.9118     9.0685     0.0578     2.5489     0.0603     0.2721    57.6598
 2376.5000   -48.7664     4.0273     4.2433     5.5483    90.3147     9.0522     0.0533     2.5489     0.0594     0.2776    56.3072
 2377.0000   -48.6076     4.0281     4.2444     5.5102    89.8681     9.0510     0.0277     2.5480     0.0591     0.2710    56.9213
 2377.5000   -48.4489     4.0289     4.2456     5.3591    89.7210     9.0652     0.0021     2.5363     0.0625     0.2667    57.8380
 2378.0000   -48.2901     4.0297     4.2468     5.3687    89.6503     9.0637    -0.0085     2.5209     0.0743     0.2686    58.3008
 2378.5000   -48.2826     4.0306     4.2185     5.4401    89.5796     9.0625     0.0020     2.5179     0.0779     0.2728    58.3098
