~VERSION INFORMATION
 VERS.                2.0:   CWLS LOG ASCII STANDARD - VERSION 2.0
 WRAP.                 NO:   ONE LINE PER DEPTH STEP
~WELL INFORMATION
#MNEM.UNIT      DATA TYPE    INFORMATION
#----------   ------------   ------------------------------
 STRT.F           41.0000:   START DEPTH
 STOP.F          473.5000:   STOP DEPTH
 STEP.F            0.5000:   STEP LENGTH
 NULL.          -999.2500:   NO VALUE
 COMP. BROWN JOHN E&C INC:   COMPANY
 WELL. SX 10 #54-43-10-10:   WELL
 FLD .             TEAPOT:   FIELD
 LOC .      S10 T38N R78W:   LOCATION
 CNTY.            NATRONA:   COUNTY
 STAT.            WYOMING:   STATE
 CTRY. UNITED STATES OF AMERICA:   COUNTRY
 SRVC.       Schlumberger:   SERVICE COMPANY
 DATE.        13-SEP-1990:   LOGDATE
 API .       490251131600:   API NUMBER
~CURVE INFORMATION
#MNEM.UNIT       API CODE    CURVE DESCRIPTION
#----------   ------------   ------------------------------
 DEPT.F                  :   
 GRR .GAPI   07 310 01 00:   GAMMA RAY
 ILD .OHMM   07 120 46 00:   INDUCTION LOG DEEP
 ILM .OHMM   07 120 44 00:   INDUCTION LOG MEDIUM
~PARAMETER INFORMATION
#MNEM.UNIT          VALUE    DESCRIPTION
#----------   ------------   ------------------------------
 PD  .                 GL:   PERMANENT DATUM
 EPD .F            5193.0:   ELEVATION PERMANENT DATUM
 LMF .                 KB:   LOG MEASURED FROM
 DAPD.F              10.0:   FEET ABOVE PERMANENT DATUM
 DMF .                 KB:   DRILLING MEASURED FROM
 EKB .F            5203.0:   KELLING BUSHING
 EDF .F            5202.0:   DRILLING FLOOR
 EGL .F            5193.0:   GROUND LEVEL
 DATE.        13-SEP-1990:   RUN DATE
 RUN .                  1:   RUN NUMBER
 DD  .F               480:   DEPTH DRILLER
 DL  .F               479:   DEPTH LOGGER
 BLI .F               473:   BOTTOM LOG INTERVAL
 TLI .F                47:   TOP LOG INTERVAL
 CS  .IN            8.625:   CASING SIZE
 CBD .F                50:   CASING BOTTOM DRILLER
 CBL .F                47:   CASING BOTTOM LOGGER
 BS  .IN            7.875:   BIT SIZE
 BSD .F               480:   BIT SIZE AT DEPTH
 DFT .          AIR/ FOAM:   DRILLING FLUID TYPE
 MSS .           MUD TANK:   MUD SAMPLE SOURCE
 MFSS.               MEAS:   MUD FILTRATE SAMPLE SOURCE
 MCSS.               CALC:   MUD CAKE SAMPLE SOURCE
 TCS .HRS            0700:   TIME CURCULATED STOPPED
 TLAB.HRS            0730:   TIME LOGGER AT BOTTOM
 LUN .               8168:   LOGGING UNIT NUMBER
 LUL .           GILLETTE:   LOGGING UNIT LOCATION
 ENGI.          M. FISHER:   RECORDING ENGINEER
 WITN.          G. STRONG:   WITNESSED BY
 CLNT.            A2DTECH:   CLIENT CODE
 ORIG.           5" PRINT:   ORIGIN OF DATA
 UWI .       490251131600:   UNIQUE WELL ID
 DICO. A2D Technologies, Inc.:   DIGITIZING COMPANY
~OTHER INFORMATION
~A   DEPT       GRR       ILD        ILM   
   41.0000    82.4846  -999.2500  -999.2500
   41.5000    79.1394  -999.2500  -999.2500
   42.0000    77.0047  -999.2500  -999.2500
   42.5000    75.4733  -999.2500  -999.2500
   43.0000    73.9419  -999.2500  -999.2500
   43.5000    72.3992  -999.2500  -999.2500
   44.0000    72.0857  -999.2500  -999.2500
   44.5000    78.3916  -999.2500  -999.2500
   45.0000    82.2901  -999.2500  -999.2500
   45.5000    84.3786  -999.2500  -999.2500
   46.0000    86.1654  -999.2500  -999.2500
   46.5000    95.2562  -999.2500  -999.2500
   47.0000   108.1142  2000.0000  2000.0000
   47.5000   120.9722  1866.8464  1416.6115
   48.0000   133.8303  1368.3309   675.0419
   48.5000   145.4690   538.0578    52.0504
   49.0000   150.2725     1.4706    17.6659
   49.5000   151.4618     2.2274     3.1927
   50.0000   151.7345    24.0815     3.9017
   50.5000   151.7057   829.6512     4.7350
   51.0000   151.3809  1504.5217     6.8145
   51.5000   150.1511  1116.6562    13.6537
   52.0000   150.7313   403.3151    19.1648
   52.5000   154.9315     6.5925    11.9632
   53.0000   157.3216     6.0229     7.0661
   53.5000   152.4662     5.8971     6.6835
   54.0000   148.5215     5.8952    10.7743
   54.5000   143.0685     6.2758    17.6119
   55.0000   143.6487     7.2510    21.9752
   55.5000   146.9439     7.9866    17.4917
   56.0000   148.7307     8.4387    11.6440
   56.5000   145.3836     8.0368     7.5057
   57.0000   143.2488     7.4448     7.2483
   57.5000   143.8291     7.1394     7.0484
   58.0000   146.2192     7.1861     6.9017
   58.5000   148.3087     7.3352     6.8522
   59.0000   147.0722     7.5387     7.4952
   59.5000   144.9375     7.7472     7.8654
   60.0000   142.1994     7.7985     7.9735
   60.5000   138.8580     7.9040     8.0268
   61.0000   136.1200     7.9569     8.0799
   61.5000   136.0969     7.9536     7.9663
   62.0000   141.1962     7.9510     7.9092
   62.5000   147.2063     7.9484     7.9071
   63.0000   150.8031     8.0010     7.9050
   63.5000   150.7800     7.9977     7.9024
   64.0000   148.3436     7.9950     7.9557
   64.5000   146.4352     7.9924     7.9531
   65.0000   144.9733     7.9897     7.9509
   65.5000   144.3469     7.9870     7.9488
   66.0000   143.7205     7.9838     7.9467
   66.5000   145.5073     8.0373     7.9998
   67.0000   150.9161     8.1467     8.0533
   67.5000   148.4719     8.2569     8.1071
   68.0000   144.2256     8.3692     8.2745
   68.5000   135.1527     8.4832     8.4460
   69.0000   131.5097     8.6577     8.6210
   69.5000   130.2799     8.8365     8.7996
   70.0000   131.5235     9.0190     8.9813
   70.5000   134.4511     9.2053     9.2312
   71.0000   136.2380     9.4599     9.4224
   71.5000   139.5331     9.7224     9.6845
   72.0000   140.7224     9.9922     9.8170
   72.5000   137.9786    10.2694    10.3011
   73.0000   135.4266    10.5544    10.9607
   73.5000   131.2901    10.7058    11.4227
   74.0000   129.7587    10.9949    11.8220
   74.5000   127.0206    11.2211    11.8188
   75.0000   124.8859    11.4528    11.7341
   75.5000   124.5610    11.6088    11.8946
   76.0000   127.5488    11.8485    11.9733
   76.5000   128.7381    11.9269    11.9701
   77.0000   127.5026    12.0058    11.8843
   77.5000   123.8596    11.9180    11.8812
   78.0000   122.3282    11.7502    11.7961
   78.5000   122.9715    11.7463    11.8741
   79.0000   128.0077    11.8370    11.8709
   79.5000   129.4987    11.9022    11.9510
   80.0000   129.4698    11.9810    11.9471
   80.5000   127.6367    11.6489    11.7796
   81.0000   128.2169    11.4848    11.6145
   81.5000   129.7407    11.2449    11.4509
   82.0000   130.5782    11.1627    11.2904
   82.5000   131.1642    11.0056    11.1322
   83.0000   131.1353    11.0019    11.1292
   83.5000   130.5089    10.9983    11.1262
   84.0000   128.0725    10.9946    11.1233
   84.5000   130.1552    10.9901    11.1976
   85.0000   131.9420    11.0637    11.2717
   85.5000   131.0139    11.2143    11.3477
   86.0000   120.7344    11.4450    11.4236
   86.5000   119.5047    11.2838    11.4198
   87.0000   122.5643    10.9607    11.1820
   87.5000   128.8041    10.8166    11.0245
   88.0000   131.2001    10.8130    10.7950
   88.5000   130.5678    10.7348    10.7176
   89.0000   130.8464    10.7312    10.5674
   89.5000   131.7283    10.7276    10.5646
   90.0000   132.6101    10.6493    10.5618
   90.5000   125.0397    10.6457    10.5583
   91.0000   121.6984    10.6422    10.5555
   91.5000   120.4744    10.5653    10.7005
   92.0000   124.3671    10.4879    10.6232
   92.5000   126.7622    10.2690    10.4742
   93.0000   127.0358    10.1947    10.3992
   93.5000   123.3870    10.1210    10.2528
   94.0000   121.8556     9.9785    10.1793
   94.5000   121.5308     9.9064    10.0366
   95.0000   120.9044     9.7668     9.8276
   95.5000   120.2544     9.6955     9.6899
   96.0000   120.8524     9.6923     9.6873
   96.5000   125.0525     9.6222     9.6841
   97.0000   128.6493     9.4867     9.6815
   97.5000   130.4419     9.4835     9.6789
   98.0000   128.6031     9.4797     9.6096
   98.5000   127.3725     9.4765     9.5407
   99.0000   126.1378     9.4734     9.6045
   99.5000   124.0031     9.5361     9.6013
  100.0000   122.6549     9.5329     9.6661
  100.5000   122.1484     9.4609     9.5955
  101.0000   122.4349     9.4558     9.5923
  101.5000   123.0129     9.6505     9.6558
  102.0000   125.4542     9.5115     9.6524
  102.5000   130.8106     9.3110     9.5158
  103.0000   136.5219     9.1096     9.2528
  103.5000   141.6299     8.8598     9.0596
  104.0000   144.0230     8.6132     8.8091
  104.5000   142.7961     8.3734     8.4470
  105.0000   139.0344     8.1403     8.1007
  105.5000   135.5109     7.8591     7.8230
  106.0000   130.6641     7.9732     8.0394
  106.5000   128.2306     8.0713     8.0933
  107.0000   128.2104     8.1231     8.0899
  107.5000   128.1799     8.1177     8.0872
  108.0000   125.1484     8.1698     8.2536
  108.5000   123.6199     8.3369     8.3089
  109.0000   123.9064     8.5062     8.4220
  109.5000   124.4844     8.5620     8.5359
  110.0000   128.3858     8.5563     8.5331
  110.5000   131.8204     8.5517     8.5296
  111.0000   136.4851     8.5472     8.5268
  111.5000   137.6766     8.3588     8.4067
  112.0000   137.0480     8.4196     8.5211
  112.5000   137.0278     8.5336     8.6371
  113.0000   137.0075     8.7070     8.7547
  113.5000   136.3790     8.7631     8.8119
  114.0000   133.9455     8.9421     8.9939
  114.5000   129.7021     9.0608     9.0541
  115.0000   126.3637     9.1823     9.1767
  115.5000   124.5335     9.2424     9.2373
  116.0000   124.5975     9.2363     9.2335
  116.5000   131.4262     9.2314     9.2304
  117.0000   138.3441     9.2264     9.2274
  117.5000   142.2455     9.2204     9.0347
  118.0000   142.5320     9.0887     8.9694
  118.5000   141.9034     8.9590     8.9038
  119.0000   140.6715     8.7701     8.9008
  119.5000   140.3497     8.8264     8.8979
  120.0000   132.7880     8.9447     8.8949
  120.5000   130.6562     8.9388     8.9538
  121.0000   131.2393     8.9974     8.9501
  121.5000   134.2797     8.9293     8.9471
  122.0000   134.8188     8.9246     9.0071
  122.5000   132.6819     8.9198     9.0033
  123.0000   132.3600     8.9140     8.9383
  123.5000   134.7531     8.7867     8.9352
  124.0000   136.8445     8.7214     8.8700
  124.5000   135.5246     8.6567     8.7451
  125.0000   133.1791     8.5331     8.6818
  125.5000   132.2540     8.4686     8.6191
  126.0000   133.4404     8.4057     8.5544
  126.5000   136.4368     8.4012     8.4942
  127.0000   137.9249     8.3968     8.4328
  127.5000   134.5813     8.3923     8.4300
  128.0000   133.3545     8.3299     8.3113
  128.5000   132.1277     8.3245     8.3086
  129.0000   130.5992     8.2056     8.2484
  129.5000   129.0567     8.1447     8.1882
  130.0000   131.5833     7.8633     8.0172
  130.5000   135.6617     7.6444     7.7418
  131.0000   136.5515     7.3212     7.3730
  131.5000   133.2080     7.0265     7.1196
