~VERSION INFORMATION
 VERS.                2.0:   CWLS LOG ASCII STANDARD - VERSION 2.0
 WRAP.                 NO:   ONE LINE PER DEPTH STEP
~WELL INFORMATION
#MNEM.UNIT      DATA TYPE    INFORMATION
#----------   ------------   ------------------------------
 STRT.F            8.0000:   START DEPTH
 STOP.F          614.0000:   STOP DEPTH
 STEP.F            0.5000:   STEP LENGTH
 NULL.          -999.2500:   NO VALUE
 COMP. FENIX & SCISSON INC:   COMPANY
 WELL.       SX 10 #34-10:   WELL
 FLD .             TEAPOT:   FIELD
 LOC .      S10 T38N R78W:   LOCATION
 CNTY.            NATRONA:   COUNTY
 STAT.            WYOMING:   STATE
 CTRY. UNITED STATES OF AMERICA:   COUNTRY
 SRVC.            Unknown:   SERVICE COMPANY
 DATE.        29-JUN-1992:   LOGDATE
 API .       490251065800:   API NUMBER
~CURVE INFORMATION
#MNEM.UNIT       API CODE    CURVE DESCRIPTION
#----------   ------------   ------------------------------
 DEPT.F                  :   
 SPR .MV     05 010 01 00:   SPONTANEOUS POTENTIAL
 ILD .OHMM   05 120 46 00:   INDUCTION LOG DEEP
 SN  .OHMM   05 040 16 00:   SHORT NORMAL 16"
 GR  .GAPI   30 310 01 00:   GAMMA RAY
~PARAMETER INFORMATION
#MNEM.UNIT          VALUE    DESCRIPTION
#----------   ------------   ------------------------------
 PD  .                 GL:   PERMANENT DATUM
 EPD .F              5244:   ELEVATION PERMANENT DATUM
 LMF .                 KB:   LOG MEASURED FROM
 DMF .                 KB:   DRILLING MEASURED FROM
 EKB .F              5246:   KELLING BUSHING
 EGL .F              5244:   GROUND LEVEL
 DATE.        29-JUN-1992:   RUN DATE
 RUN .                  1:   RUN NUMBER
 DD  .F               620:   DEPTH DRILLER
 DL  .F               381:   DEPTH LOGGER
 BLI .F               381:   BOTTOM LOG INTERVAL
 TLI .F                 8:   TOP LOG INTERVAL
 BS  .IN            7.875:   BIT SIZE
 BSD .F               620:   BIT SIZE AT DEPTH
 DFT .                KCL:   DRILLING FLUID TYPE
 LUN .                509:   LOGGING UNIT NUMBER
 LUL .           GILLETTE:   LOGGING UNIT LOCATION
 ENGI.          O. METORF:   RECORDING ENGINEER
 WITN.         JEFF CLARK:   WITNESSED BY
 CLNT.            A2DTECH:   CLIENT CODE
 ORIG.           5" PRINT:   ORIGIN OF DATA
 UWI .       490251065800:   UNIQUE WELL ID
 DICO. A2D Technologies, Inc.:   DIGITIZING COMPANY
~OTHER INFORMATION
~A    DEPT     SPR        ILD         SN          GR  
# ...
  446.0000   -45.8891     9.9985    11.4738  -999.2500
  446.5000   -45.8876     9.8600    11.3940  -999.2500
  447.0000   -45.8862     9.7908    11.3933  -999.2500
  447.5000   -45.8846     9.7894    11.2362  -999.2500
  448.0000   -45.8831     9.7880    11.2354  -999.2500
  448.5000   -45.8814     9.7865    11.2346  -999.2500
  449.0000   -45.8800     9.8530    11.1565  -999.2500
  449.5000   -46.0284     9.8517    11.1557  -999.2500
  450.0000   -46.0270     9.8504    11.1377  -999.2500
  450.5000   -46.1118     9.8083    11.0510  -999.2500
  451.0000   -46.1801     9.7662    10.9643  -999.2500
  451.5000   -46.1815     9.7241    10.9307  -999.2500
  452.0000   -46.2728     9.6820    10.9321  -999.2500
  452.5000   -46.4243     9.6483    11.0094  -999.2500
  453.0000   -46.4858     9.6483    11.0109  -999.2500
  453.5000   -46.6373     9.6483    10.9365  -999.2500
  454.0000   -46.7887     9.6526    10.9382  -999.2500
  454.5000   -46.7902     9.6743    10.8645  -999.2500
  455.0000   -46.7916     9.6960    10.8659  -999.2500
  455.5000   -46.7932     9.7176    10.8674  -999.2500
  456.0000   -46.7946     9.7393    10.8688  -999.2500
  456.5000   -46.9461     9.7609    10.9456  -999.2500
  457.0000   -46.9476     9.7826    10.9471  -999.2500
  457.5000   -46.7991     9.7152    10.9487  -999.2500
  458.0000   -46.8006     9.7152    11.0263  -999.2500
  458.5000   -46.9519     9.7826    11.0278  -999.2500
  459.0000   -46.9534     9.7826    11.0292  -999.2500
  459.5000   -46.9550     9.7826    10.9548  -999.2500
  460.0000   -47.1066     9.7826    10.8808  -999.2500
  460.5000   -47.1080     9.8504    10.8073  -999.2500
  461.0000   -46.9595     9.8504    10.8089  -999.2500
  461.5000   -46.9610     9.8504    10.7361  -999.2500
  462.0000   -46.8125     9.8504    10.7375  -999.2500
  462.5000   -47.5636     9.6483    10.7390  -999.2500
  463.0000   -47.7151     9.6151    10.7404  -999.2500
  463.5000   -47.5669     9.5819    10.7418  -999.2500
  464.0000   -47.5683     9.5159    10.7435  -999.2500
  464.5000   -47.5698     9.3853    10.6711  -999.2500
  465.0000   -47.7211     9.2565    10.5990  -999.2500
  465.5000   -47.8725     9.1295    10.6004  -999.2500
  466.0000   -48.1738     9.0981    10.6018  -999.2500
  466.5000   -48.3252     9.1295    10.5302  -999.2500
  467.0000   -48.3268     9.1295    10.5316  -999.2500
  467.5000   -48.3285     9.0666    10.5332  -999.2500
  468.0000   -48.3299     9.0042    10.5348  -999.2500
  468.5000   -48.3314     8.8806    10.5362  -999.2500
  469.0000   -48.3328     8.8194    10.4650  -999.2500
  469.5000   -48.4842     8.8194    10.3228  -999.2500
  470.0000   -48.4856     8.8194    10.2531  -999.2500
  470.5000   -48.4873     8.7587    10.2545  -999.2500
  471.0000   -48.4889     8.7587    10.1854  -999.2500
  471.5000   -48.4904     8.7587    10.2575  -999.2500
  472.0000   -48.4918     8.7587    10.2589  -999.2500
  472.5000   -48.3433     8.7587    10.2603  -999.2500
  473.0000   -48.3448     8.7587    10.2617  -999.2500
  473.5000   -48.3462     8.6984    10.2630  -999.2500
  474.0000   -48.4976     8.6984    10.2644  -999.2500
  474.5000   -48.5742     8.6984    10.2659  -999.2500
  475.0000   -48.6508     8.6385    10.3386  -999.2500
  475.5000   -48.6522     8.6385    10.3400  -999.2500
  476.0000   -48.6537     8.6385    10.3414  -999.2500
  476.5000   -48.6551     8.6385    10.4145  -999.2500
  477.0000   -48.6566     8.6385    10.4881  -999.2500
  477.5000   -48.6580     8.6984    10.4895  -999.2500
  478.0000   -48.6597     8.6984    10.6371  -999.2500
  478.5000   -48.6613     8.7587    10.7867  -999.2500
  479.0000   -48.6628     8.8194    10.7881  -999.2500
  479.5000   -48.6642     8.7587    10.7895  -999.2500
  480.0000   -48.5157     8.7587    10.7910  -999.2500
  480.5000   -48.5172     8.7587    10.7924  -999.2500
  481.0000   -48.8185     8.7587    10.7941  -999.2500
  481.5000   -48.5201     8.6984    10.7955  -999.2500
  482.0000   -48.2219     8.6385    10.8720  -999.2500
  482.5000   -48.2235     8.5790    10.8734  -999.2500
  483.0000   -48.2250     8.5495    10.8749  -999.2500
  483.5000   -48.2264     8.4613    10.8763  -999.2500
  484.0000   -48.2279     8.4613    10.8778  -999.2500
  484.5000   -48.3792     8.4030    10.8794  -999.2500
  485.0000   -48.3807     8.2324    10.8810  -999.2500
  485.5000   -48.3823     8.0618    10.8825  -999.2500
  486.0000   -48.3840     8.1177    10.8839  -999.2500
  486.5000   -48.2355     8.1177    10.8854  -999.2500
  487.0000   -47.9371     8.2591    10.8868  -999.2500
  487.5000   -47.6387     8.4321    10.9638  -999.2500
  488.0000   -47.3403     8.7587    11.1759  -999.2500
  488.5000   -47.3417     9.1295    11.4311  -999.2500
  489.0000   -47.1933     9.7152    11.7531  -999.2500
  489.5000   -46.8951    10.1966    12.1678  -999.2500
  490.0000   -46.2970    10.5551    12.6845  -999.2500
  490.5000   -45.6987    10.9639    13.3619  -999.2500
  491.0000   -45.1005    11.3101    13.8808  -999.2500
  491.5000   -44.6521    11.5470    14.1734  -999.2500
  492.0000   -44.5037    11.6271    14.0777  -999.2500
  492.5000   -43.9054    11.3101    13.9826  -999.2500
  493.0000   -43.6072    10.9261    13.7926  -999.2500
  493.5000   -43.6088    10.7761    13.4651  -999.2500
  494.0000   -43.3104    10.5560    13.1906  -999.2500
  494.5000   -42.9820    10.0567    12.8773  -999.2500
  495.0000   -42.8336    10.0567    12.8791  -999.2500
  495.5000   -42.6852    10.0567    12.6165  -999.2500
  496.0000   -42.5669    10.0567    12.5313  -999.2500
  496.5000   -42.7182    10.0567    12.5330  -999.2500
  497.0000   -42.7197    10.1264    12.4486  -999.2500
  497.5000   -42.8711    10.1264    12.4504  -999.2500
  498.0000   -43.1724    10.1264    12.4521  -999.2500
  498.5000   -43.3237    10.1966    12.3680  -999.2500
  499.0000   -43.3252    10.1966    12.3696  -999.2500
  499.5000   -43.3268    10.1966    12.2861  -999.2500
  500.0000   -43.3216    10.4102    12.2877  -999.2500
  500.5000   -43.2890    10.1966    12.2267  -999.2500
  501.0000   -43.2564    10.4102    12.1658  -999.2500
  501.5000   -43.2238    10.6282    12.1168  -999.2500
  502.0000   -43.1912    10.5917    12.1159  -999.2500
  502.5000   -43.1858    10.1264    12.1150  -999.2500
  503.0000   -43.1874     9.9874    12.1982  -999.2500
  503.5000   -43.1890     9.8504    12.2820  -999.2500
  504.0000   -43.0405     9.6995    12.2811  -999.2500
  504.5000   -43.0419     9.4504    12.3654  -999.2500
  505.0000   -42.8934     9.5819    12.4502  -999.2500
  505.5000   -42.6702     9.7152    12.4494  -999.2500
  506.0000   -42.4469     9.7826    12.5349  -999.2500
  506.5000   -42.1485     9.7826    12.4477  -999.2500
  507.0000   -42.0000     9.8504    12.3186  -999.2500
  507.5000   -41.8515     9.7826    11.6150  -999.2500
  508.0000   -42.0030     9.7152    11.6142  -999.2500
  508.5000   -42.4544     9.8504    11.7750  -999.2500
  509.0000   -42.6057    10.1264    11.8559  -999.2500
  509.5000   -43.0569    10.5551    11.9373  -999.2500
  510.0000   -43.6581    10.7761    12.0191  -999.2500
  510.5000   -43.6597    10.9261    12.1016  -999.2500
  511.0000   -43.6613    10.9261    12.2692  -999.2500
  511.5000   -44.2624    10.5553    12.3535  -999.2500
  512.0000   -44.4141    10.2673    12.3525  -999.2500
  512.5000   -44.2649    10.2673    12.3516  -999.2500
  513.0000   -44.2671    10.1264    12.3506  -999.2500
  513.5000   -44.2685    10.1264    12.2648  -999.2500
  514.0000   -44.4202     9.7826    12.2640  -999.2500
  514.5000   -44.4216     9.2565    12.2632  -999.2500
  515.0000   -44.4231     9.0666    12.1781  -999.2500
  515.5000   -44.2742     8.9422    12.2617  -999.2500
  516.0000   -44.2760     8.9422    12.3457  -999.2500
  516.5000   -45.1773     9.0666    12.3447  -999.2500
  517.0000   -45.4786     9.2565    12.3439  -999.2500
  517.5000   -45.3298     9.5819    12.3431  -999.2500
  518.0000   -45.3315    10.0567    12.3421  -999.2500
  518.5000   -45.6328    10.1264    12.3413  -999.2500
