~VERSION INFORMATION
 VERS.                2.0:   CWLS LOG ASCII STANDARD - VERSION 2.0
 WRAP.                 NO:   ONE LINE PER DEPTH STEP
~WELL INFORMATION
#MNEM.UNIT      DATA TYPE    INFORMATION
#----------   ------------   ------------------------------
 STRT.F            0.0000:   START DEPTH
 STOP.F          530.0000:   STOP DEPTH
 STEP.F            0.5000:   STEP LENGTH
 NULL.          -999.2500:   NO VALUE
 COMP.   LAWRENCE-ALLISON:   COMPANY
 WELL. NPR 3 #51-56SX10 OB3:   WELL
 FLD .             TEAPOT:   FIELD
 LOC .      S10 T38N R78W:   LOCATION
 CNTY.            NATRONA:   COUNTY
 STAT.            WYOMING:   STATE
 CTRY. UNITED STATES OF AMERICA:   COUNTRY
 SRVC.           Gearhart:   SERVICE COMPANY
 DATE.        28-JUN-1987:   LOGDATE
 API .       490251100800:   API NUMBER
~CURVE INFORMATION
#MNEM.UNIT       API CODE    CURVE DESCRIPTION
#----------   ------------   ------------------------------
 DEPT.F                  :   
 CALD.IN     45 280 60 00:   CALIPER ROM DENSITY LOG
 CNC .DEC    45 890 03 00:   NEUTRON POROSITY SANDSTONE
 CORR.G/C3   45 356 01 00:   DENSITY CORRECTION
 DEN .G/C3   45 350 01 00:   COMPENSATED BULK DENSTIY
 PORD.DEC    45 890 12 00:   POROSITY DENSITY SANDSTONE
 GRR .GAPI   07 310 01 00:   GAMMA RAY
 ILD .OHMM   07 120 46 00:   INDUCTION LOG DEEP
 ILM .OHMM   07 120 44 00:   INDUCTION LOG MEDIUM
 LL  .OHMM   07 220 00 00:   LATEROLOG RESISTIVITY
 SPR .MV     07 010 01 00:   SPONTANEOUS POTENTIAL
 DT  .US/F   60 520 00 00:   INTERVAL TRANSIT TIME
~PARAMETER INFORMATION
#MNEM.UNIT          VALUE    DESCRIPTION
#----------   ------------   ------------------------------
 PD  .                 GL:   PERMANENT DATUM
 EPD .F              5198:   ELEVATION PERMANENT DATUM
 LMF .                 KB:   LOG MEASURED FROM
 DAPD.F                 8:   FEET ABOVE PERMANENT DATUM
 DMF .                 KB:   DRILLING MEASURED FROM
 EKB .F              5206:   KELLING BUSHING
 EDF .F              5204:   DRILLING FLOOR
 EGL .F              5198:   GROUND LEVEL
 DATE.        28-JUN-1987:   RUN DATE
 RUN .                  1:   RUN NUMBER
 DD  .F               535:   DEPTH DRILLER
 DL  .F               536:   DEPTH LOGGER
 BLI .F               533:   BOTTOM LOG INTERVAL
 BS  .IN             7.87:   BIT SIZE
 BSD .F               535:   BIT SIZE AT DEPTH
 DFT .                MUD:   DRILLING FLUID TYPE
 RMS .OHMM           0.84:   RESISTIVITY MUD SAMPLE
 MST .F                57:   MUD SAMPLE TEMPERATURE
 RMF .OHMM           0.63:   RESISTIVITY MUD FILTRATE SAMPLE
 MFST.F                57:   MUD FILTRATE SAMPLE TEMPERATURE
 RMC .OHMM           1.05:   RESISTIVITY MUD CAKE
 MCST.F                57:   MUD CAKE SAMPLE TEMPERATURE
 MFSS.               CALC:   MUD FILTRATE SAMPLE SOURCE
 MCSS.               CALC:   MUD CAKE SAMPLE SOURCE
 RMB .OHMM           0.59:   RESISTIVITY MUD AT BHT
 BHT .F                80:   BOTTOM HOLE TEMPERATURE
 TCS .HRS            1200:   TIME CURCULATED STOPPED
 TLAB.HRS            1322:   TIME LOGGER AT BOTTOM
 LUN .               7650:   LOGGING UNIT NUMBER
 LUL .           GILLETTE:   LOGGING UNIT LOCATION
 ENGI. JOHNSTON/HUCKFELDT:   RECORDING ENGINEER
 WITN.             STRONG:   WITNESSED BY
 CLNT.            A2DTECH:   CLIENT CODE
 ORIG.      2.5" 5" PRINT:   ORIGIN OF DATA
 UWI .       490251100800:   UNIQUE WELL ID
 DICO. A2D Technologies, Inc.:   DIGITIZING COMPANY
~OTHER INFORMATION
~A    DEPT    CALD        CNC       CORR        DEN       PORD         GRR         ILD        ILM       LL        SPR         DT   
# ...
  183.0000     6.5201     0.3055     0.0327     2.4845     0.1170    94.7932     6.1103     5.8490     6.3793   -49.5495   109.1434
  183.5000     6.5208     0.2990     0.0072     2.4748     0.1236    94.1955     6.2131     6.0964     6.5635   -49.8498   109.3665
  184.0000     6.5215     0.2870     0.0088     2.4703     0.1256    94.1984     6.4060     6.1815     6.7531   -49.8498   109.9786
  184.5000     6.5074     0.2879     0.0435     2.4703     0.1255    94.2013     6.5464     6.4430     6.7939   -49.5495   111.6488
  185.0000     6.5082     0.2987     0.0436     2.4704     0.1255    95.4055     6.8228     6.5328     6.7948   -49.5495   112.5633
  185.5000     6.5089     0.3411     0.0452     2.4674     0.1276    97.2383     7.1133     6.6261     6.7957   -49.5856   112.7974
  186.0000     6.5097     0.3850     0.0453     2.4539     0.1323    99.0150     7.2258     6.7164     6.7966   -49.9019   112.2002
  186.5000     6.5105     0.3877     0.0439     2.4404     0.1428    99.0180     7.4253     6.7296     6.8919   -50.1502   110.2461
  187.0000     6.5111     0.3624     0.0331     2.4284     0.1515    98.9049     7.5343     6.8289     7.0856   -50.1502   108.0561
  187.5000     6.5267     0.3166     0.0016     2.4239     0.1512    97.8225     7.6449     6.9056     7.1849   -50.1502   107.0008
  188.0000     6.5276     0.3021    -0.0127     2.4330     0.1403    97.8258     7.8315     6.9355     7.2870   -50.1502   107.0045
  188.5000     6.5283     0.2972    -0.0100     2.4526     0.1335    99.0300     7.9402     7.0997     7.4904   -50.1502   107.0840
  189.0000     6.5290     0.3056     0.0172     2.4617     0.1279    99.2853     7.9402     7.2407     7.5954   -50.0020   106.8356
  189.5000     6.5298     0.3026     0.0279     2.4648     0.1282    99.6366     7.9928     7.3475     7.5965   -49.8498   106.3358
  190.0000     6.5305     0.2911     0.0234     2.4640     0.1290    98.7187     8.0505     7.5594     7.5975   -49.5495   106.2629
  190.5000     6.5312     0.2898     0.0070     2.4611     0.1320    96.0396     8.0505     7.7142     7.5985   -48.9489   106.7214
  191.0000     6.5320     0.2946     0.0086     2.4574     0.1326    94.2402     8.0505     7.8219     7.5996   -48.6486   107.0698
  191.5000     6.5178     0.3006     0.0086     2.4574     0.1319    94.0651     8.1622     7.7153     7.6006   -48.3483   107.1821
  192.0000     6.5037     0.3042     0.0072     2.4590     0.1295    94.2466     8.1622     7.7158     7.6017   -48.0480   106.7328
  192.5000     6.4896     0.2999     0.0088     2.4651     0.1249    96.6519     8.2755     7.7163     7.7083   -48.0480   106.1314
  193.0000     6.4903     0.2978     0.0104     2.4744     0.1201    97.2554     8.2755     7.7168     7.8164   -47.7477   105.9073
  193.5000     6.4911     0.2969     0.0346     2.4837     0.1097    96.6578     8.2755     7.7173     7.8177   -47.7477   105.8353
  194.0000     6.4918     0.2983     0.0588     2.4946     0.1077    96.6607     8.2755     7.7179     7.9273   -47.7477   105.8694
  194.5000     6.4926     0.2980     0.0529     2.4961     0.1103    97.8909     8.2755     7.6127     7.9283   -47.7477   105.9062
  195.0000     6.4934     0.2985     0.0409     2.4939     0.1112    99.0691     8.2755     7.6132     7.9294   -47.7477   105.9989
  195.5000     6.5010     0.2991     0.0350     2.4932     0.1112    99.7668     8.2578     7.6138     7.9305   -47.7477   106.0783
  196.0000     6.5098     0.2937     0.0351     2.4955     0.1099   100.2760     8.1384     7.6143     7.8229   -47.8198   106.0820
  196.5000     6.5105     0.2858     0.0518     2.5001     0.1075    99.0777     8.0505     7.6148     7.8240   -48.0480   106.3126
  197.0000     6.5111     0.2870     0.0578     2.5031     0.1050    98.0881     8.0505     7.5110     7.8250   -48.0480   106.7455
  197.5000     6.4969     0.2869     0.0474     2.5032     0.1044    96.4515     7.8985     7.5116     7.7189   -48.3483   107.3040
  198.0000     6.4978     0.2881     0.0158     2.4994     0.1086    95.4835     7.8315     7.5121     7.6142   -48.4845   107.7616
  198.5000     6.4986     0.3000     0.0114     2.4980     0.1091    95.7848     7.7257     7.5126     7.5978   -48.9489   107.9166
  199.0000     6.4993     0.3133     0.0416     2.4980     0.1094    97.0230     7.6185     7.3541     7.4891   -49.4174   107.7690
  199.5000     6.5000     0.3154     0.0613     2.4958     0.1103    98.4961     7.5142     7.3093     7.4101   -49.5495   107.2432
  200.0000     6.5007     0.3120     0.0539     2.4921     0.1133    97.2105     7.4113     7.3099     7.4113   -50.3716   106.7930
  200.5000     6.4884     0.2976     0.0295     2.4890     0.1141    95.8629     7.2031     6.8185     7.1907   -51.3924   106.6445
  201.0000     6.4760     0.2916    -0.0001     2.4859     0.1150    95.7978     6.9547     6.6159     6.8636   -51.6459   107.1030
  201.5000     6.4728     0.3001    -0.0015     2.4847     0.1150    97.6507     6.7062     6.2691     6.5366   -50.7417   107.5606
  202.0000     6.4734     0.3365     0.0002     2.4856     0.1147    99.1368     6.4578     6.0112     6.2058   -50.0500   107.7912
  202.5000     6.4740     0.3501     0.0033     2.4849     0.1146    96.7431     6.2941     5.8724     6.1229   -49.8348   107.7131
  203.0000     6.4895     0.3516     0.0246     2.4865     0.1140    95.5506     6.1257     5.6934     5.9591   -49.9640   107.4836
  203.5000     6.4901     0.3523     0.0232     2.4873     0.1133    96.1599     5.3389     5.3364     5.6416   -50.1291   107.3485
  204.0000     6.4907     0.3375     0.0233     2.4874     0.1170    99.1716     4.6531     4.7555     5.0544   -50.4264   107.6557
  204.5000     6.4912     0.3213     0.0250     2.4814     0.1275    99.1803     4.3449     3.9976     4.5912   -50.7237   109.4748
  205.0000     6.4918     0.3080     0.0281     2.4656     0.1434    97.9479     3.8688     3.7326     4.0436   -50.1197   111.2940
  205.5000     6.4924     0.3012     0.0403     2.4436     0.1479    96.7953     3.3211     3.4851     3.5560   -48.6153   112.7349
  206.0000     6.4930     0.2930     0.0374     2.4304     0.1449    96.8048     3.0552     2.8349     3.1514   -47.1109   113.1168
  206.5000     6.4936     0.2943     0.0104     2.4401     0.1352    96.8138     2.8382     2.5396     2.9566   -45.9068   112.3641
  207.0000     6.4795     0.2979    -0.0120     2.4614     0.1249    96.0701     2.7621     2.4376     2.7877   -45.9039   110.7036
  207.5000     6.4949     0.3316    -0.0104     2.4728     0.1234    92.2173     2.7634     2.4384     2.7632   -45.9309   110.1021
  208.0000     6.4955     0.3467     0.0123     2.4728     0.1249    87.8879     2.8821     2.4493     2.7830   -46.4987   110.7867
  208.5000     6.4961     0.3600     0.0397     2.4691     0.1294    87.5546     3.0530     2.5509     2.8256   -46.1952   115.0076
  209.0000     6.4966     0.3630     0.0503     2.4511     0.1561    90.8546     3.1761     2.5897     2.8839   -45.3033   118.1064
  209.5000     6.4972     0.3561     0.0455     2.4143     0.1819    92.0645     3.4514     2.7164     3.0069   -44.3880   120.7080
  210.0000     6.4978     0.3330     0.0295     2.3653     0.1913    95.0762     3.8027     2.9125     3.3129   -45.1251   120.7864
  210.5000     6.4834     0.3065     0.0146     2.3541     0.1789    96.8867     4.4272     3.4089     3.7521   -46.3694   117.6897
  211.0000     6.4692     0.2982    -0.0049     2.3768     0.1563    98.0966     5.0141     4.1132     4.3684   -47.0811   113.3600
  211.5000     6.4698     0.2884    -0.0048     2.4243     0.1376    99.3065     5.5275     4.6749     4.9475   -47.3779   107.9986
  212.0000     6.4704     0.2830    -0.0031     2.4598     0.1237   101.1171     5.7676     5.2218     5.4592   -47.9756   107.7757
  212.5000     6.4859     0.2853     0.0121     2.4757     0.1210   101.1261     5.9373     5.5963     5.8425   -48.2733   107.8578
  213.0000     6.4865     0.3056     0.0273     2.4750     0.1255   101.7357     6.1763     5.8346     5.9261   -48.5706   107.8630
