~VERSION INFORMATION
 VERS.                2.0:   CWLS LOG ASCII STANDARD - VERSION 2.0
 WRAP.                 NO:   ONE LINE PER DEPTH STEP
~WELL INFORMATION
#MNEM.UNIT      DATA TYPE    INFORMATION
#----------   ------------   ------------------------------
 STRT.F           16.0000:   START DEPTH
 STOP.F          900.0000:   STOP DEPTH
 STEP.F            0.5000:   STEP LENGTH
 NULL.          -999.2500:   NO VALUE
 COMP. FENIX & SCISSON INC:   COMPANY
 WELL.    NPR-3 #65S15-15:   WELL
 FLD .             TEAPOT:   FIELD
 LOC .      S15 T38N R78W:   LOCATION
 CNTY.            NATRONA:   COUNTY
 STAT.            WYOMING:   STATE
 CTRY. UNITED STATES OF AMERICA:   COUNTRY
 SRVC.            Unknown:   SERVICE COMPANY
 DATE.        11-MAY-1978:   LOGDATE
 API .       490251062400:   API NUMBER
~CURVE INFORMATION
#MNEM.UNIT       API CODE    CURVE DESCRIPTION
#----------   ------------   ------------------------------
 DEPT.F                  :   
 RHOB.G/C3   45 350 01 00:   BULK DENSITY
 DPHI.DEC    45 890 12 00:   DENSITY POROSITY SANDSTONE
 CORR.G/C3   45 356 01 00:   DENSITY CORRECTION
 GRD .GAPI   45 310 01 00:   GAMMA RAY FROM DENSITY LOG
 CALD.IN     45 280 60 00:   CALIPER FROM DENSITY LOG
 SPR .MV     05 010 01 00:   SPONTANEOUS POTENTIAL FROM RES.
 SN  .OHMM   05 040 16 00:   SHORT NORMAL 16"
 IL  .OHMM   05 120 00 00:   INDUCTION LOG
~PARAMETER INFORMATION
#MNEM.UNIT          VALUE    DESCRIPTION
#----------   ------------   ------------------------------
 PD  .                 GL:   PERMANENT DATUM
 EPD .F              5289:   ELEVATION PERMANENT DATUM
 LMF .                 KB:   LOG MEASURED FROM
 DAPD.F                 4:   FEET ABOVE PERMANENT DATUM
 DMF .                 KB:   DRILLING MEASURED FROM
 EKB .F              5293:   KELLING BUSHING
 EDF .F                  :   DRILLING FLOOR
 EGL .F              5289:   GROUND LEVEL
 DATE.          5-11-1978:   RUN DATE
 RUN .                  1:   RUN NUMBER
 DD  .F               887:   DEPTH DRILLER
 DL  .F               889:   DEPTH LOGGER
 BLI .F               883:   BOTTOM LOG INTERVAL
 TLI .F                40:   TOP LOG INTERVAL
 CS  .IN            8.625:   CASING SIZE
 CBD .F                40:   CASING BOTTOM DRILLER
 CBL .F                40:   CASING BOTTOM LOGGER
 BS  .IN            7.875:   BIT SIZE
 BSD .F               887:   BIT SIZE AT DEPTH
 DFT .                KCL:   DRILLING FLUID TYPE
 DFD .                8.6:   DRILLING FLUID DENSITY
 DFV .                 30:   DRILLING FLUID VISCOSITY
 DFPH.                9.5:   DRILLING FLUID PH
 DFL .                  8:   DRILLING FLUID LOSS
 MSS .                   :   MUD SAMPLE SOURCE
 RMS .OHMM            .42:   RESISTIVITY MUD SAMPLE
 MST .F                68:   MUD SAMPLE TEMPERATURE
 RMF .OHMM            .38:   RESISTIVITY MUD FILTRATE SAMPLE
 MFST.F                68:   MUD FILTRATE SAMPLE TEMPERATURE
 RMC .OHMM            .68:   RESISTIVITY MUD CAKE
 MCST.F                66:   MUD CAKE SAMPLE TEMPERATURE
 MFSS.           MEASURED:   MUD FILTRATE SAMPLE SOURCE
 MCSS.                   :   MUD CAKE SAMPLE SOURCE
 RMB .OHMM               :   RESISTIVITY MUD AT BHT
 BHT .F                72:   BOTTOM HOLE TEMPERATURE
 TCS .HRS               2:   TIME CURCULATED STOPPED
 TLAB.HRS                :   TIME LOGGER AT BOTTOM
 MRT .F                72:   MAXIMUM RECORDED TEMPERATURE
 LUN .              CASP.:   LOGGING UNIT NUMBER
 LUL .               2958:   LOGGING UNIT LOCATION
 ENGI.             MILLER:   RECORDING ENGINEER
 WITN.           MCGINLEY:   WITNESSED BY
 CLNT.            A2DTECH:   CLIENT CODE
 ORIG.      2" & 5" PRINT:   ORIGIN OF DATA
 UWI .       490251062400:   UNIQUE WELL ID
 DICO. A2D Technologies, Inc.:   DIGITIZING COMPANY
 OS  .                   :   OTHER SERVICES
 PWI .                   :   PRIMARY WELL IDENTIFIER
 R1  .                   :   REMARKS 1
 R2  .                   :   REMARKS 2
~OTHER INFORMATION
~A   DEPT     RHOB       DPHI       CORR         GRD      CALD        SPR         SN         IL   
# ...
  745.0000     2.3559     0.1841     0.0472    52.0766     7.5513   -32.9658    10.8542    10.4476
  745.5000     2.3643     0.1845     0.0491    52.0763     7.5474   -32.8949    10.8393    10.4424
  746.0000     2.3708     0.1844     0.0510    52.0764     7.5342   -32.8241    10.8400    10.4344
  746.5000     2.3681     0.1834     0.0529    52.0724     7.4988   -32.7531    10.8400    10.4265
  747.0000     2.3679     0.1824     0.0548    51.8622     7.4637   -32.6822    10.8400    10.4186
  747.5000     2.3698     0.1814     0.0566    51.6347     7.4286   -32.6115    10.8400    10.4107
  748.0000     2.3718     0.1805     0.0585    51.4098     7.3935   -32.5673    10.8400    10.4028
  748.5000     2.3729     0.1820     0.0604    51.2587     7.3583   -32.5497    10.8400    10.3949
  749.0000     2.3727     0.1864     0.0622    51.5239     7.3257   -33.2903    10.8400    10.3870
  749.5000     2.3685     0.1897     0.0677    52.0691     7.3198   -33.5762    10.8400    10.3792
  750.0000     2.3639     0.1840     0.0792    52.8807     7.3148   -33.6058    10.8400    10.3713
  750.5000     2.3666     0.1796     0.0968    54.5248     7.3097   -33.6280    10.8400    10.3634
  751.0000     2.3710     0.1752     0.1109    56.9402     7.3078   -33.6507    10.8400    10.3556
  751.5000     2.3765     0.1707     0.1106    59.1224     7.3270   -33.6739    10.8400    10.3477
  752.0000     2.3863     0.1663     0.1093    59.2609     7.3462   -33.6970    10.8400    10.3399
  752.5000     2.3958     0.1649     0.1080    59.2600     7.3653   -33.7202    10.8400    10.3320
  753.0000     2.3997     0.1657     0.1067    59.6131     7.3844   -33.7434    10.8400    10.3242
  753.5000     2.4002     0.1648     0.1053    60.1867     7.4034   -33.7665    10.8400    10.3164
  754.0000     2.3992     0.1620     0.1026    60.7621     7.4225   -33.7897    10.8400    10.3085
  754.5000     2.4013     0.1662     0.0933    61.2434     7.4416   -33.8129    10.8400    10.3007
  755.0000     2.4000     0.1717     0.0783    59.0964     7.4608   -33.8361    10.8400    10.2929
  755.5000     2.3944     0.1701     0.0632    55.0598     7.4812   -33.8592    10.8399    10.2851
  756.0000     2.3915     0.1704     0.0555    54.9532     7.4533   -33.8824    10.8400    10.2773
  756.5000     2.3907     0.1726     0.0520    55.9132     7.4096   -33.9054    10.8400    10.2693
  757.0000     2.3899     0.1714     0.0490    55.9993     7.3667   -33.9286    10.9315    10.2620
  757.5000     2.3912     0.1683     0.0512    56.1135     7.3613   -33.9534    11.0869    10.2562
  758.0000     2.3938     0.1639     0.0545    56.2148     7.3577   -34.0496    11.2445    10.5554
  758.5000     2.3982     0.1625     0.0578    57.1862     7.3540   -34.2315    11.4044    10.7705
  759.0000     2.4026     0.1610     0.0611    58.6109     7.3503   -34.4123    11.5666    10.9900
  759.5000     2.4070     0.1432     0.0644    59.6769     7.3462   -34.5938    11.7311    11.2139
  760.0000     2.4149     0.1395     0.0603    59.3312     7.3570   -34.7751    11.7769    11.4559
  760.5000     2.4306     0.1352     0.0557    58.6431     7.3740   -34.9564    11.7769    11.4021
  761.0000     2.4462     0.1140     0.0485    57.3848     7.4182   -35.1379    11.6689    11.3050
  761.5000     2.4618     0.1113     0.0407    56.8298     7.5209   -35.3192    11.4957    11.2087
  762.0000     2.4772     0.1221     0.0329    56.5065     7.6234   -35.5027    11.3848    11.1131
  762.5000     2.4839     0.1360     0.0295    56.1842     7.7022   -35.5573    11.2749    11.0400
  763.0000     2.4794     0.1438     0.0353    55.8430     7.6992   -35.5581    11.1663    10.8029
  763.5000     2.4512     0.1472     0.0456    58.3815     7.6927   -35.5579    11.0585    10.5776
  764.0000     2.4346     0.1409     0.0563    60.4374     7.6870   -35.5578    10.9520    10.2572
  764.5000     2.4406     0.1386     0.0458    60.5424     7.6606   -35.5578    10.8400    10.2693
  765.0000     2.4476     0.1461     0.0311    57.7277     7.6253   -35.5578    10.9041    10.2924
  765.5000     2.4371     0.1449     0.0293    54.5950     7.5896   -35.5578    10.9727    10.3155
  766.0000     2.4347     0.1418     0.0281    54.5210     7.5528   -35.5579    11.0418    10.3386
  766.5000     2.4373     0.1429     0.0270    61.4998     7.5449   -35.5585    11.1113    10.3618
  767.0000     2.4367     0.1449     0.0258    62.3950     7.5448   -35.5566    11.1818    10.3850
  767.5000     2.4327     0.1461     0.0246    62.5497     7.5449   -35.4198    11.2466    10.4081
  768.0000     2.4320     0.1506     0.0234    62.6335     7.5449   -35.2682    11.1892    10.4324
  768.5000     2.4313     0.1562     0.0230    61.8817     7.5449   -35.1167    11.1345    10.4459
  769.0000     2.4262     0.1576     0.0255    61.1059     7.5449   -34.9659    11.0806    10.3211
  769.5000     2.4172     0.1589     0.0328    60.8009     7.5449   -34.8122    11.0270    10.2932
  770.0000     2.4163     0.1538     0.0401    60.7099     7.5449   -34.8272    10.9736    10.2654
  770.5000     2.4176     0.1530     0.0456    60.6249     7.5449   -34.9258    10.9205    10.2376
  771.0000     2.4217     0.1553     0.0481    60.5369     7.5449   -35.0267    10.8676    10.2100
  771.5000     2.4194     0.1532     0.0507    60.2500     7.5449   -35.1274    10.8150    10.1824
  772.0000     2.4202     0.1505     0.0532    58.8329     7.5449   -35.2280    10.7627    10.1549
  772.5000     2.4254     0.1432     0.0514    57.4133     7.5449   -35.3285    10.7106    10.1275
  773.0000     2.4307     0.1504     0.0448    56.4274     7.5449   -35.4291    10.6587    10.1001
  773.5000     2.4296     0.1589     0.0380    55.8213     7.5449   -35.5297    10.6072    10.0728
  774.0000     2.4201     0.1601     0.0371    55.6740     7.5449   -35.6302    10.5558    10.0456
  774.5000     2.4131     0.1556     0.0378    55.5098     7.5449   -35.7308    10.5047    10.0185
  775.0000     2.4134     0.1469     0.0383    55.8244     7.5449   -35.8313    10.4539     9.9914
  775.5000     2.4205     0.1518     0.0297    56.3262     7.5461   -35.9318    10.4033     9.9644
  776.0000     2.4287     0.1579     0.0207    56.8380     7.5563   -36.0322    10.3529     9.9375
  776.5000     2.4203     0.1608     0.0127    57.3741     7.5665   -36.1318    10.3028     9.9108
  777.0000     2.4120     0.1592     0.0153    56.8929     7.5767   -36.3145    10.2572     9.8866
  777.5000     2.4111     0.1576     0.0182    56.1511     7.5869   -36.5208    10.2497     9.8957
  778.0000     2.4122     0.1566     0.0221    55.3746     7.5970   -36.5542    10.2427     9.9042
  778.5000     2.4131     0.1572     0.0210    56.3595     7.6031   -36.5543    10.2358     9.9128
  779.0000     2.4141     0.1577     0.0192    58.7529     7.5934   -36.5538    10.2289     9.9215
  779.5000     2.4155     0.1548     0.0205    60.5350     7.5841   -36.5538    10.2220     9.9301
  780.0000     2.4225     0.1460     0.0241    61.1195     7.5747   -36.5538    10.2150     9.9388
  780.5000     2.4317     0.1387     0.0277    60.4754     7.5654   -36.5538    10.2081     9.9475
  781.0000     2.4410     0.1364     0.0314    60.0882     7.5739   -36.5537    10.2012     9.9561
  781.5000     2.4468     0.1342     0.0325    60.2031     7.5839   -36.5539    10.1943     9.9648
  782.0000     2.4510     0.1319     0.0304    60.3100     7.5939   -36.5528    10.1874     9.9735
  782.5000     2.4540     0.1329     0.0260    60.4122     7.6038   -36.6215    10.1805     9.9822
  783.0000     2.4540     0.1336     0.0216    60.9424     7.6137   -36.7242    10.1736     9.9909
  783.5000     2.4541     0.1356     0.0172    61.7206     7.6237   -36.8280    10.1667     9.9996
  784.0000     2.4485     0.1419     0.0158    62.4220     7.6337   -36.9318    10.1599    10.0083
  784.5000     2.4416     0.1444     0.0209    61.5775     7.6441   -37.0355    10.1530    10.0171
  785.0000     2.4351     0.1384     0.0331    60.4939     7.6249   -37.1392    10.1461    10.0258
