~VERSION INFORMATION
 VERS.                2.0:   CWLS LOG ASCII STANDARD - VERSION 2.0
 WRAP.                 NO:   ONE LINE PER DEPTH STEP
~WELL INFORMATION
#MNEM.UNIT      DATA TYPE    INFORMATION
#----------   ------------   ------------------------------
 STRT.F           22.0000:   START DEPTH
 STOP.F          500.0000:   STOP DEPTH
 STEP.F            0.5000:   STEP LENGTH
 NULL.          -999.2500:   NO VALUE
 COMP.    FENIX & SCISSON:   COMPANY
 WELL.      NPR-3 #65S3-3:   WELL
 FLD .             teapot:   FIELD
 LOC .       S3 T38N R78W:   LOCATION
 CNTY.            NATRONA:   COUNTY
 STAT.            WYOMING:   STATE
 CTRY. UNITED STATES OF AMERICA:   COUNTRY
 SRVC.           BIRDWELL:   SERVICE COMPANY
 DATE.        07-JAN-1978:   LOGDATE
 API .       490251055200:   API NUMBER
~CURVE INFORMATION
#MNEM.UNIT       API CODE    CURVE DESCRIPTION
#----------   ------------   ------------------------------
 DEPT.F                  :   
 ILD .OHMM   05 120 46 00:   INDUCTION LOG DEEP
 SN  .OHMM   05 040 16 00:   SHORT NORMAL 16"
 SPR .MV     05 010 01 00:   SPONTANEOUS POTENTIAL FROM RES.
 CALD.IN     45 280 60 00:   CALIPER FROM DENSITY LOG
 DPHI.DEC    45 890 12 00:   DENSITY POROSITY SANDSTONE
 DRHO.G/C3   45 356 01 00:   DENSITY CORRECTION
 GRD .GAPI   45 310 01 00:   GAMMA RAY FROM DENSITY LOG
 RHOB.G/C3   45 350 01 00:   BULK DENSITY
~PARAMETER INFORMATION
#MNEM.UNIT          VALUE    DESCRIPTION
#----------   ------------   ------------------------------
 PD  .                 GL:   PERMANENT DATUM
 EPD .F              5156:   ELEVATION PERMANENT DATUM
 LMF .                 KB:   LOG MEASURED FROM
 DAPD.F                 4:   FEET ABOVE PERMANENT DATUM
 DMF .                 KB:   DRILLING MEASURED FROM
 EKB .F              5160:   KELLING BUSHING
 EGL .F              5156:   GROUND LEVEL
 DATE.        07-JAN-1978:   RUN DATE
 RUN .                  1:   RUN NUMBER
 DD  .F               500:   DEPTH DRILLER
 DL  .F               502:   DEPTH LOGGER
 BLI .F               500:   BOTTOM LOG INTERVAL
 TLI .F                30:   TOP LOG INTERVAL
 CS  .IN            8.625:   CASING SIZE
 CBD .F                40:   CASING BOTTOM DRILLER
 CBL .F                40:   CASING BOTTOM LOGGER
 BS  .IN            7.875:   BIT SIZE
 BSD .F               500:   BIT SIZE AT DEPTH
 DFT .                KCL:   DRILLING FLUID TYPE
 DFD .                8.6:   DRILLING FLUID DENSITY
 DFV .                 33:   DRILLING FLUID VISCOSITY
 DFPH.                9.0:   DRILLING FLUID PH
 DFL .                7.6:   DRILLING FLUID LOSS
 MSS .           FLOWLINE:   MUD SAMPLE SOURCE
 RMS .OHMM           0.23:   RESISTIVITY MUD SAMPLE
 MST .F                60:   MUD SAMPLE TEMPERATURE
 RMF .OHMM            2.2:   RESISTIVITY MUD FILTRATE SAMPLE
 MFST.F                60:   MUD FILTRATE SAMPLE TEMPERATURE
 RMC .OHMM            3.4:   RESISTIVITY MUD CAKE
 MCST.F                60:   MUD CAKE SAMPLE TEMPERATURE
 MFSS.               MEAS:   MUD FILTRATE SAMPLE SOURCE
 MCSS.               MEAS:   MUD CAKE SAMPLE SOURCE
 RMB .OHMM            1.9:   RESISTIVITY MUD AT BHT
 BHT .F                71:   BOTTOM HOLE TEMPERATURE
 TCS .HRS               8:   TIME CURCULATED STOPPED
 MRT .F                71:   MAXIMUM RECORDED TEMPERATURE
 LUN .               2958:   LOGGING UNIT NUMBER
 LUL .             CASPER:   LOGGING UNIT LOCATION
 ENGI.            POINTER:   RECORDING ENGINEER
 WITN.      DAVE MCGINLEY:   WITNESSED BY
 CLNT.            A2DTECH:   CLIENT CODE
 ORIG.           5" PRINT:   ORIGIN OF DATA
 UWI .       490251055200:   UNIQUE WELL ID
 DICO. A2D Technologies, Inc.:   DIGITIZING COMPANY
~OTHER INFORMATION
~A   DEPT      ILD         SN        SPR       CALD       DPHI       DRHO         GRD      RHOB   
# ...
  386.5000    22.7040    23.0426   -25.8386     8.0419     0.1663     0.0626    77.4792     2.3698
  387.0000    22.0672    23.0158   -25.8593     8.0423     0.1666     0.0588    78.9703     2.3676
  387.5000    21.8960    22.9939   -25.8800     8.0428     0.1657     0.0475    78.9733     2.3653
  388.0000    22.0315    22.9721   -25.5954     8.0582     0.1627     0.0475    78.6786     2.3669
  388.5000    22.4838    22.7906   -25.6161     8.0586     0.1596     0.0468    76.5962     2.3752
  389.0000    21.8429    22.2970   -25.3313     8.0591     0.1590     0.0445    74.8154     2.3782
  389.5000    20.2127    21.8141   -25.1996     8.0745     0.1599     0.0408    75.7649     2.3774
  390.0000    19.7780    21.7934   -25.2255     8.0750     0.1611     0.0355    76.9047     2.3745
  390.5000    19.6240    21.7643   -25.3972     8.0754     0.1626     0.0295    76.6100     2.3708
  391.0000    19.6047    21.3002   -25.8759     8.0759     0.1628     0.0242    78.6970     2.3701
  391.5000    20.1432    20.9808   -26.0494     8.0763     0.1619     0.0205    80.7833     2.3723
  392.0000    20.4139    20.6702   -26.0702     8.0772     0.1562     0.0228    80.4879     2.3814
  392.5000    20.1106    20.5069   -26.0916     8.0922     0.1400     0.0288    79.8963     2.3942
  393.0000    19.5412    20.4874   -26.1167     8.0927     0.1333     0.0409    79.3040     2.4107
  393.5000    18.9880    20.0437   -26.1375     8.0931     0.1312     0.0552    79.3070     2.4272
  394.0000    18.7094    19.8853   -26.4636     8.0936     0.1417     0.0500    81.9885     2.4295
  394.5000    18.6907    19.5909   -26.4843     8.0941     0.1651     0.0409    82.2890     2.3853
  395.0000    18.6756    19.4355   -26.5050     8.0945     0.1579     0.0471    80.2086     2.3650
  395.5000    18.5307    19.4131   -26.5258     8.0950     0.1614     0.0468    81.1045     2.3772
  396.0000    18.2591    19.5352   -26.6992     8.1104     0.1650     0.0387    81.4050     2.3689
  396.5000    17.8664    19.6534   -26.5672     8.1109     0.1608     0.0327    80.5144     2.3673
  397.0000    17.6045    19.4935   -26.5931     8.1113     0.1632     0.0289    81.7085     2.3704
  397.5000    17.3465    19.3395   -26.3085     8.1118     0.1625     0.0229    81.7115     2.3735
  398.0000    17.1955    19.3212   -26.8090     8.1122     0.1597     0.0199    81.7144     2.3725
  398.5000    16.7212    19.1685   -28.0491     8.1126     0.1573     0.0184    80.5269     2.3739
  399.0000    16.4762    18.8721   -28.0699     8.1131     0.1538     0.0154    79.3394     2.3795
  399.5000    16.0097    18.6008   -27.6411     8.1135     0.1505     0.0139    78.7470     2.3766
  400.0000    15.3407    18.3270   -27.0498     8.1140     0.1477     0.0253    76.9645     2.3856
  400.5000    14.8006    17.9312   -27.3815     8.0990     0.1456     0.0260    72.5032     2.4014
  401.0000    14.3795    17.4218   -27.5557     8.1139     0.1446     0.0253    72.5061     2.4037
  401.5000    14.3658    17.0456   -27.7299     8.1139     0.1443     0.0336    73.6995     2.4044
  402.0000    14.0546    16.9023   -27.7521     8.1139     0.1416     0.0359    75.1905     2.4142
  402.5000    13.8302    16.7757   -27.7743     8.0990     0.1371     0.0382    76.9792     2.4165
  403.0000    13.2633    16.5285   -27.4925     8.0824     0.1344     0.0503    77.8750     2.4182
  403.5000    13.1585    16.3989   -27.5273     8.0513     0.1332     0.0579    77.2431     2.4274
  404.0000    13.1460    16.2704   -28.3024     8.0390     0.1326     0.0586    76.3927     2.4331
  404.5000    13.1335    16.1429   -28.4766     8.0690     0.1331     0.0549    77.8845     2.4316
  405.0000    13.1209    16.0164   -28.9547     8.1139     0.1382     0.0323    79.6731     2.4182
  405.5000    12.8369    16.1179   -29.7368     8.1589     0.1469     0.0134    81.1641     2.4062
  406.0000    12.2133    16.2132   -30.3669     8.1739     0.1457     0.0037    80.8687     2.3957
  406.5000    12.3733    16.1985   -30.8450     8.1589     0.1292     0.0014    78.7890     2.4205
  407.0000    12.7113    16.1838   -30.8926     8.1589     0.1238     0.0030    78.1960     2.4258
  407.5000    12.8921    16.1664   -30.8891     8.1589     0.1223     0.0068    78.7949     2.4311
  408.0000    13.0461    16.1521   -31.5319     8.1589     0.1213     0.0083    80.8811     2.4431
  408.5000    13.0306    16.1378   -32.1505     8.1739     0.1198     0.0075    83.2650     2.4476
  409.0000    12.8378    16.1235   -32.0199     8.1739     0.1201     0.0058    82.6727     2.4439
  409.5000    12.7364    16.1092   -32.0476     8.1589     0.1219     0.0031    81.7828     2.4387
  410.0000    12.4607    16.0950   -32.0698     8.1589     0.1216     0.0084    81.4881     2.4553
  410.5000    12.3622    16.1934   -31.7825     8.1589     0.1177     0.0107    82.7213     2.4536
  411.0000    12.3505    16.1791   -31.6528     8.1439     0.1102     0.0122    83.6170     2.4523
  411.5000    12.2529    16.2781   -31.5230     8.1589     0.1101     0.0092    85.3667     2.4583
  412.0000    12.2410    16.2631   -31.5507     8.1589     0.1113     0.0130    85.9648     2.4561
  412.5000    12.0596    16.1326   -31.7249     8.1589     0.1083     0.0153    85.0749     2.4539
  413.0000    11.8788    16.1184   -31.9159     8.1589     0.1071     0.0130    84.1850     2.4636
  413.5000    11.7850    15.9921   -32.2308     8.1739     0.1143     0.0138    82.4022     2.4547
  414.0000    11.6919    15.9779   -31.9491     8.1739     0.1056     0.0191    81.8091     2.4577
  414.5000    11.6807    15.7424   -31.8137     8.1889     0.1011     0.0199    82.1104     2.4637
  415.0000    11.5885    15.7285   -31.8415     8.1889     0.1064     0.0169    83.3038     2.4713
  415.5000    11.4969    15.6052   -32.1677     8.2039     0.1058     0.0131    85.0925     2.4698
  416.0000    11.4061    15.5914   -32.3418     8.1889     0.1006     0.0139    85.9875     2.4631
  416.5000    11.3160    15.5773   -32.3640     8.1726     0.0998     0.0147    84.8006     2.4624
  417.0000    11.3050    15.5604   -32.3862     8.1589     0.1049     0.0132    84.8036     2.4631
  417.5000    11.2945    15.5466   -32.5709     8.1589     0.1118     0.0042    85.4018     2.4623
  418.0000    11.3627    15.5329   -32.9139     8.1589     0.1109     0.0065    84.4723     2.4534
  418.5000    11.4314    15.5191   -33.2183     8.1589     0.1090     0.0103    82.7291     2.4550
  419.0000    11.4178    15.6175   -33.0885     8.1589     0.1063     0.0095    83.3280     2.4603
  419.5000    11.4895    15.6002   -33.2627     8.1589     0.1057     0.0064    83.6278     2.4633
  420.0000    11.5562    15.4780   -33.5888     8.1589     0.1117     0.0020    83.3331     2.4626
  420.5000    11.5452    15.4643   -33.9150     8.1439     0.1162    -0.0002    85.1225     2.4581
  421.0000    11.4540    15.4506   -33.9372     8.1439     0.1140    -0.0002    86.0182     2.4514
  421.5000    11.3635    15.4366   -34.1114     8.1439     0.1092     0.0044    87.5093     2.4439
  422.0000    11.2735    15.4199   -34.1337     8.1739     0.1044     0.0172    88.1074     2.4552
  422.5000    11.1842    15.2990   -34.1565     8.1739     0.1008     0.0180    87.2175     2.4747
  423.0000    11.0937    15.1791   -33.8796     8.1739     0.0972     0.0180    86.3268     2.4785
  423.5000    11.0060    15.0602   -33.5923     8.1889     0.0939     0.0211    86.6281     2.4763
  424.0000    10.9956    15.0469   -33.7720     8.1739     0.0918     0.0211    88.4168     2.4741
  424.5000    10.9087    15.0336   -33.9462     8.1739     0.1017     0.0151    88.7173     2.4748
  425.0000    10.8225    15.0203   -33.9684     8.1739     0.1004     0.0128    88.7202     2.4757
  425.5000    10.7370    15.2182   -33.9906     8.1739     0.1007     0.0166    88.7430     2.4787
  426.0000    10.6522    15.0986   -34.0128     8.1739     0.0995     0.0181    89.9960     2.4794
  426.5000    10.4946    14.9800   -34.1870     8.1739     0.1004     0.0189    92.0036     2.4705
