~VERSION INFORMATION
 VERS.                2.0:   CWLS LOG ASCII STANDARD - VERSION 2.0
 WRAP.                 NO:   ONE LINE PER DEPTH STEP
~WELL INFORMATION
#MNEM.UNIT      DATA TYPE    INFORMATION
#----------   ------------   ------------------------------
 STRT.F           85.5000:   START DEPTH
 STOP.F         1080.5000:   STOP DEPTH
 STEP.F            0.5000:   STEP LENGTH
 NULL.          -999.2500:   NO VALUE
 COMP.         U.S.  NAVY:   COMPANY
 WELL.  N.P.R. #3 #67-S-2:   WELL
 FLD .             TEAPOT:   FIELD
 LOC .       S2 T38N R78W:   LOCATION
 CNTY.            NATRONA:   COUNTY
 STAT.            WYOMING:   STATE
 CTRY. UNITED STATES OF AMERICA:   COUNTRY
 SRVC.       Schlumberger:   SERVICE COMPANY
 DATE.        20-JUL-1964:   LOGDATE
 API .       490250639700:   API NUMBER
~CURVE INFORMATION
#MNEM.UNIT       API CODE    CURVE DESCRIPTION
#----------   ------------   ------------------------------
 DEPT.F                  :   
 GR  .GAPI   30 310 01 00:   GAMMA RAY
 DT  .US/F   60 520 33 00:   INTERVAL TRANSIT TIME
 SPR .MV     06 010 01 00:   SPONTANEOUS POTENTIAL
 CILD.MMHO   06 110 46 00:   CONDUCTIVITY INDUCTION LOG DEEP
 ASN .OHMM   06 041 16 00:   AMPLIFIED SHORT NORMAL 16"
 ILD .OHMM   06 120 46 00:   INDUCTION LOG DEEP
~PARAMETER INFORMATION
#MNEM.UNIT          VALUE    DESCRIPTION
#----------   ------------   ------------------------------
 PD  .                 GL:   PERMANENT DATUM
 EPD .F              5207:   ELEVATION PERMANENT DATUM
 LMF .                 KB:   LOG MEASURED FROM
 DAPD.F                 5:   FEET ABOVE PERMANENT DATUM
 DMF .                 KB:   DRILLING MEASURED FROM
 EKB .F              5212:   KELLING BUSHING
 EGL .F              5207:   GROUND LEVEL
 DATE.          7-20-1964:   RUN DATE
 RUN .                  1:   RUN NUMBER
 DD  .F              1080:   DEPTH DRILLER
 DL  .F              1081:   DEPTH LOGGER
 BLI .F              1080:   BOTTOM LOG INTERVAL
 TLI .F                86:   TOP LOG INTERVAL
 CS  .IN            8.625:   CASING SIZE
 CBD .F                10:   CASING BOTTOM DRILLER
 BS  .IN             6.75:   BIT SIZE
 BSD .F              1080:   BIT SIZE AT DEPTH
 DFT .            GEL-OIL:   DRILLING FLUID TYPE
 DFD .                9.5:   DRILLING FLUID DENSITY
 DFV .                 43:   DRILLING FLUID VISCOSITY
 MSS .           FLOWLINE:   MUD SAMPLE SOURCE
 RMS .OHMM           1.85:   RESISTIVITY MUD SAMPLE
 MST .F                83:   MUD SAMPLE TEMPERATURE
 RMF .OHMM           1.29:   RESISTIVITY MUD FILTRATE SAMPLE
 MFST.F                83:   MUD FILTRATE SAMPLE TEMPERATURE
 RMC .OHMM           2.49:   RESISTIVITY MUD CAKE
 MCST.F                83:   MUD CAKE SAMPLE TEMPERATURE
 MFSS.                 FP:   MUD FILTRATE SAMPLE SOURCE
 MCSS.                 FP:   MUD CAKE SAMPLE SOURCE
 TCS .HRS               2:   TIME CURCULATED STOPPED
 LUN .               4507:   LOGGING UNIT NUMBER
 LUL .               CSPR:   LOGGING UNIT LOCATION
 ENGI.             DANNER:   RECORDING ENGINEER
 WITN.          JORGENSEN:   WITNESSED BY
 CLNT.            A2DTECH:   CLIENT CODE
 ORIG.           2" PRINT:   ORIGIN OF DATA
 UWI .       490250639700:   UNIQUE WELL ID
 DICO. A2D Technologies, Inc.:   DIGITIZING COMPANY
~OTHER INFORMATION
~A   DEPT       GR         DT        SPR       CILD        ASN        ILD   
# ...
  917.5000    53.6672    97.1608   -22.6860   139.9402     8.6195     7.4377
  918.0000    55.5854    96.9342   -22.8579   139.4024     8.5356     7.5807
  918.5000    59.1455    96.6967   -22.6332   137.6320     8.4757     7.7242
  919.0000    58.9753    97.2766   -22.4085   135.8616     8.4763     7.8673
  919.5000    55.9439    97.6536   -22.1841   134.0911     8.5371     8.0106
  920.0000    51.0064    96.6443   -21.9589   132.3207     8.7682     8.1176
  920.5000    55.0304    95.5593   -21.7349   130.9761     8.9980     7.6403
  921.0000    56.1900    94.4744   -21.5093   134.2298     9.2290     7.0014
  921.5000    50.5699    93.3894   -21.2997   151.8146     9.2927     6.3620
  922.0000    47.8590    92.6583   -21.1170   175.1743     9.1244     5.7234
  922.5000    53.7906    92.3484   -20.9368   198.5340     8.9544     5.0837
  923.0000    59.3429    93.3750   -20.7539   221.8937     7.5034     4.4454
  923.5000    64.9133   100.9521   -20.5741   228.5857     6.2846     4.2673
  924.0000    64.2499   107.7077   -20.3911   226.2948     5.8671     4.3174
  924.5000    60.9560   107.9017   -20.1673   224.3277     5.8676     4.3656
  925.0000    58.1073   107.3266   -20.4935   222.6096     5.8667     4.4159
  925.5000    52.0599   106.8068   -20.9278   218.6255     5.8678     5.0312
  926.0000    55.4506   104.2302   -21.3589   194.9602     7.0122     5.9960
  926.5000    57.2660    98.0691   -21.7931   173.7151     8.0420     6.9587
  927.0000    50.2011    91.3798   -22.2244   152.4701     9.0690     7.9234
  927.5000    44.3177    92.4391   -22.4033   131.2251     9.6925     8.8862
  928.0000    41.1091    93.0057   -22.4737   111.0558    10.2774     9.2777
  928.5000    49.2919    93.1718   -22.5466   109.5244    10.4019     9.2112
  929.0000    53.2274    93.5052   -22.6172   109.8481    10.5235     9.1467
  929.5000    59.3080    93.9705   -22.6906   111.3235    10.6478     9.0803
  930.0000    65.6970    94.4358   -22.7604   112.7988    10.7870     9.0153
  930.5000    66.5757    94.5946   -22.8340   114.2741    10.9453     8.9489
  931.0000    62.3400    94.5946   -22.9032   114.7244    11.1016     9.0834
  931.5000    59.2744    94.5950   -22.9781   114.0438    11.2596     9.4326
  932.0000    59.9916    94.5136   -23.0459   110.2590    11.4163     9.7822
  932.5000    49.0012    94.4365   -23.1221   106.3247    11.6565    10.1318
  933.0000    37.8962    93.7397   -23.4377   101.6567    12.0007    10.5076
  933.5000    24.4163    92.2442   -23.9361    96.0176    12.7060    11.3486
  934.0000    11.1277    90.7487   -24.8771    90.3785    13.9143    12.2574
  934.5000     2.5069    88.9646   -26.1730    84.7394    15.1227    13.1680
  935.0000     0.0000    86.8011   -27.4498    79.1003    16.3311    14.0764
  935.5000     4.5558    88.9890   -28.7477    73.4612    17.5395    14.9875
  936.0000    12.5762    91.7183   -30.0227    67.8221    18.7479    15.8953
  936.5000    18.7993    93.0358   -31.2960    61.2550    19.9562    16.8067
  937.0000    14.1528    95.7399   -34.2622    59.0638    20.6673    17.8753
  937.5000     9.0878   101.7718   -35.0030    57.2709    20.8831    17.8084
  938.0000    10.6257   117.4559   -35.7117    57.2709    21.0657    17.5877
  938.5000     6.8644   135.9785   -36.4590    58.0553    21.0657    17.3716
  939.0000     4.5615   136.3411   -37.7581    59.2630    20.7724    17.1508
  939.5000     7.5768   136.4364   -39.1049    60.1743    20.3987    16.8823
  940.0000     7.5752   134.0453   -39.8256    61.3546    20.0249    16.3906
  940.5000    16.5228   131.2529   -38.1997    62.2510    19.6511    15.7502
  941.0000    16.5517   112.2122   -36.4739    65.6673    19.2774    15.1040
  941.5000    16.3342   103.6036   -34.7587    68.4213    18.9036    14.4635
  942.0000    18.5838    97.8138   -32.8796    71.1753    18.5299    13.8176
  942.5000    24.4141    94.9825   -32.5561    73.9293    18.1561    13.2986
  943.0000    22.9634    94.6709   -32.1987    76.1952    17.7824    13.2968
  943.5000    20.6929    91.5283   -31.8402    78.1872    17.4086    13.1991
  944.0000    17.8894    90.4905   -31.4856    76.6600    17.4967    13.3885
  944.5000    21.1215    91.4995   -31.1249    75.3486    17.8245    13.5538
  945.0000    18.4770    90.8755   -30.9748    74.0372    18.1524    13.6961
  945.5000    15.8786    90.7271   -31.1834    72.7258    18.4802    14.0471
  946.0000    18.3731    90.7627   -31.4047    71.4143    18.8081    14.4517
  946.5000    11.3922    89.8103   -31.6119    70.2191    19.1360    14.8563
  947.0000     9.0567    88.5886   -31.8350    67.8398    19.4638    15.2615
  947.5000    11.6323    89.6296   -32.0844    65.6541    19.7917    15.6655
  948.0000    15.7405    90.8352   -32.8880    63.4683    20.1193    16.0712
  948.5000    19.8343    90.8773   -34.5296    61.2826    20.2689    16.4746
  949.0000    20.6682    92.6406   -36.6365    59.4223    20.2687    16.8807
  949.5000    25.8647    95.2429   -39.2309    57.8486    20.0671    17.2787
  950.0000    24.8504    97.8451   -38.7644    56.2749    19.8703    16.9972
  950.5000    30.2429   100.4474   -38.1248    57.9992    19.6711    16.7162
  951.0000    22.5293   101.5596   -37.6520    59.4746    18.9913    16.4383
  951.5000    24.2322   101.5586   -38.2476    60.9170    18.2768    16.1574
  952.0000    20.6168   101.2835   -38.6444    62.3221    18.8918    15.8794
  952.5000    15.5732   101.0310   -38.1587    63.7272    19.5715    15.5988
  953.0000    18.3685   100.5005   -37.7741    65.1323    19.2868    15.3204
  953.5000    17.6348    99.6233   -37.4447    66.5374    18.9827    15.0403
  954.0000    22.5707    98.0571   -37.4517    67.9425    18.6789    14.7615
  954.5000    18.9646    98.1797   -37.8128    69.3476    18.3748    14.5207
  955.0000    24.2467    98.4383   -38.3686    70.5393    18.0710    14.3408
  955.5000    18.5251    98.7018   -38.8370    71.3818    17.7666    14.1605
  956.0000    18.4865    98.2153   -37.1577    72.2251    17.4634    13.9804
  956.5000    32.8505    98.7988   -35.6806    73.0676    17.1587    13.8003
  957.0000    32.5800    96.8345   -34.2089    73.9109    16.8556    13.6200
  957.5000    30.9732    96.1712   -32.8818    74.7534    16.5508    13.5083
  958.0000    27.2580    96.3139   -32.7744    75.5967    16.1861    13.5438
  958.5000    24.3069    95.8729   -32.6753    76.0456    16.1853    13.5797
  959.0000    26.4199    96.6296   -32.5772    75.5359    16.1859    13.6153
  959.5000    19.7421    97.1972   -32.4850    75.0258    16.1852    13.6511
  960.0000    18.3588    96.6504   -32.8669    74.5161    16.1859    13.6867
  960.5000    18.9516    95.4522   -33.2276    74.0060    16.1854    13.7224
  961.0000    13.5462    95.3830   -33.5874    73.4964    16.1858    13.7580
  961.5000    13.1802    95.8959   -33.9484    72.9864    16.1853    13.7936
  962.0000     8.9640    95.8959   -34.3083    72.4767    16.1856    13.8293
  962.5000    11.4637    96.1077   -34.6692    71.9667    16.1853    13.8650
  963.0000    18.9117    96.5345   -34.6691    71.4569    16.1855    13.8943
  963.5000    30.8729    96.9970   -34.6691    70.9470    16.1852    14.0024
  964.0000    30.1906    96.7447   -34.6686    70.4371    16.1853    14.0939
  964.5000    29.2608    96.4696   -34.6683    69.9273    16.1852    14.1858
  965.0000    31.0905    96.4787   -34.6681    69.4174    16.1851    14.2772
  965.5000    31.5414    96.5908   -34.6676    68.9799    16.1850    14.3693
  966.0000    25.7089    96.7029   -34.4972    68.5865    16.1850    14.4605
  966.5000    23.6657    96.7733   -34.1036    68.1932    16.1850    14.5529
  967.0000    25.4814    96.6292   -33.7108    67.7997    16.1849    14.5905
  967.5000    26.5441    96.2794   -33.3172    67.4064    16.1156    14.3647
  968.0000    24.5326    95.8695   -33.0130    67.9483    15.9938    14.1531
  968.5000    27.6040    95.4596   -32.8442    69.2344    15.8721    13.9434
  969.0000    27.9714    95.5598   -32.6762    70.5204    15.7503    13.7316
