~VERSION INFORMATION
 VERS.                2.0:   CWLS LOG ASCII STANDARD - VERSION 2.0
 WRAP.                 NO:   ONE LINE PER DEPTH STEP
~WELL INFORMATION
#MNEM.UNIT      DATA TYPE    INFORMATION
#----------   ------------   ------------------------------
 STRT.F           32.0000:   START DEPTH
 STOP.F          571.0000:   STOP DEPTH
 STEP.F            0.5000:   STEP LENGTH
 NULL.          -999.2500:   NO VALUE
 COMP. FENIX & SCISSON INCORP.:   COMPANY
 WELL.      NPR-3 #21-S-3:   WELL
 FLD .             TEAPOT:   FIELD
 LOC .       S3 T38N R78W:   LOCATION
 CNTY.            NATRONA:   COUNTY
 STAT.            WYOMING:   STATE
 CTRY. UNITED STATES OF AMERICA:   COUNTRY
 SRVC.           BIRDWELL:   SERVICE COMPANY
 DATE.        25-JUL-1978:   LOGDATE
 API .       490251067100:   API NUMBER
~CURVE INFORMATION
#MNEM.UNIT       API CODE    CURVE DESCRIPTION
#----------   ------------   ------------------------------
 DEPT.F                  :   
 CALD.IN     45 280 60 00:   CALIPER FROM DENSITY LOG
 CORR.G/C3   45 356 01 00:   DENSITY CORRECTION
 DPHI.DEC    45 890 10 00:   DENSITY POROSITY LIMESTONE
 GRD .GAPI   45 310 01 00:   GAMMA RAY FROM DENSITY LOG
 RHOB.G/C3   45 350 01 00:   BULK DENSITY
 ILD .OHMM   05 120 46 00:   INDUCTION LOG DEEP
 SN  .OHMM   05 040 16 00:   SHORT NORMAL 16"
 SPR .MV     05 010 01 00:   SPONTANEOUS POTENTIAL FROM RES.
 NPHI.DEC    42 890 01 00:   NEUTRON POROSITY LIMESTONE
~PARAMETER INFORMATION
#MNEM.UNIT          VALUE    DESCRIPTION
#----------   ------------   ------------------------------
 PD  .                 GL:   PERMANENT DATUM
 EPD .F              5203:   ELEVATION PERMANENT DATUM
 LMF .                 KB:   LOG MEASURED FROM
 DAPD.F                 4:   FEET ABOVE PERMANENT DATUM
 DMF .                 KB:   DRILLING MEASURED FROM
 EKB .F              5207:   KELLING BUSHING
 EGL .F              5203:   GROUND LEVEL
 DATE.        25-JUL-1978:   RUN DATE
 RUN .                  1:   RUN NUMBER
 DD  .F               565:   DEPTH DRILLER
 DL  .F               573:   DEPTH LOGGER
 BLI .F               566:   BOTTOM LOG INTERVAL
 TLI .F                46:   TOP LOG INTERVAL
 CS  .IN            8.625:   CASING SIZE
 CBD .F                40:   CASING BOTTOM DRILLER
 CBL .F                48:   CASING BOTTOM LOGGER
 BS  .IN            7.875:   BIT SIZE
 BSD .F               565:   BIT SIZE AT DEPTH
 DFT .                KCL:   DRILLING FLUID TYPE
 DFD .                8.6:   DRILLING FLUID DENSITY
 DFV .                 30:   DRILLING FLUID VISCOSITY
 DFPH.                  9:   DRILLING FLUID PH
 MSS .           FLOWLINE:   MUD SAMPLE SOURCE
 LUN .               2958:   LOGGING UNIT NUMBER
 LUL .               CASP:   LOGGING UNIT LOCATION
 WITN.           MCGINLEY:   WITNESSED BY
 CLNT.            A2DTECH:   CLIENT CODE
 ORIG.           5" PRINT:   ORIGIN OF DATA
 UWI .       490251067100:   UNIQUE WELL ID
 DICO. A2D Technologies, Inc.:   DIGITIZING COMPANY
~OTHER INFORMATION
~A   DEPT     CALD       CORR       DPHI         GRD      RHOB        ILD         SN        SPR       NPHI   
# ...
  433.5000     7.5212     0.0075     0.1783    88.5031     2.3873    13.6157    10.9047   -40.8056     0.2982
  434.0000     7.4765     0.0075     0.1813    85.3588     2.3880    13.5368    10.8403   -41.3799     0.2943
  434.5000     7.5365     0.0075     0.1777    81.4637     2.3850    13.3504    10.8493   -41.8006     0.2892
  435.0000     7.5192     0.0090     0.1693    79.6707     2.3880    13.2828    10.8583   -41.7806     0.2859
  435.5000     7.4770     0.0090     0.1651    80.1300     2.4007    13.2971    10.8687   -41.7605     0.2850
  436.0000     7.4622     0.0075     0.1708    84.9436     2.4045    13.3086    10.8774   -41.8941     0.2847
  436.5000     7.4773     0.0092     0.1771    86.7542     2.4060    13.2258    10.8861   -41.8690     0.2850
  437.0000     7.4774     0.0120     0.1792    86.4625     2.3997    13.2400    10.8948   -41.8484     0.2853
  437.5000     7.4776     0.0165     0.1780    86.6216     2.3895    13.0701    10.9035   -42.4182     0.2856
  438.0000     7.5076     0.0180     0.1734    86.7808     2.3895    12.9916    10.9123   -42.9925     0.2856
  438.5000     7.4629     0.0195     0.1670    86.3411     2.3970    12.9163    10.9230   -42.9725     0.2859
  439.0000     7.4332     0.0195     0.1603    83.3469     2.4135    12.9275    11.0074   -42.9524     0.2868
  439.5000     7.4483     0.0195     0.1555    82.9031     2.4195    12.8470    11.0924   -42.9324     0.2895
  440.0000     7.5082     0.0225     0.1516    85.7669     2.4262    12.9498    11.1780   -43.2095     0.2964
  440.5000     7.5383     0.0227     0.1498    86.9769     2.4285    13.0506    11.3422   -43.1887     0.2997
  441.0000     7.5384     0.0195     0.1525    87.2860     2.4285    13.2458    11.3513   -43.0158     0.3012
  441.5000     7.5685     0.0149     0.1567    87.7453     2.4284    13.4412    11.2823   -43.1494     0.3012
  442.0000     7.5836     0.0105     0.1609    88.0544     2.4237    13.5457    11.2935   -42.9757     0.2976
  442.5000     7.6286    -0.0060     0.1621    88.2134     2.4172    13.6511    11.1478   -42.8071     0.2877
  443.0000     7.6137    -0.0075     0.1611    88.3724     2.4150    13.6629    11.0778   -42.6384     0.2796
  443.5000     7.6588    -0.0060     0.1594    88.3994     2.4150    13.7692    11.0889   -42.4695     0.2697
  444.0000     7.6589    -0.0075     0.1513    88.5423     2.4180    13.7814    11.0977   -42.4447     0.2569
  444.5000     7.7338    -0.0075     0.1423    88.4009     2.4232    13.6983    11.2608   -42.7269     0.2521
  445.0000     7.7489    -0.0045     0.1486    87.9593     2.4367    13.4326    11.1923   -42.7018     0.2533
  445.5000     7.7490    -0.0015     0.1510    87.2173     2.4449    13.3490    11.2035   -42.6818     0.2602
  446.0000     7.7492     0.0015     0.1600    86.1751     2.4360    13.3633    11.2900   -42.8153     0.2692
  446.5000     7.7493     0.0060     0.1663    86.0315     2.4225    13.1013    11.2990   -42.9388     0.2868
  447.0000     7.7495     0.0090     0.1657    86.1927     2.4119    12.9332    11.3080   -42.9183     0.3036
  447.5000     7.7197     0.0090     0.1623    85.7510     2.4067    12.6823    11.3953   -42.7451     0.3073
  448.0000     7.7199     0.0120     0.1600    84.1082     2.4090    12.4336    11.4045   -42.5765     0.3132
  448.5000     7.7201     0.0150     0.1594    83.8167     2.4135    12.3562    11.3373   -42.7100     0.3138
  449.0000     7.7202     0.0150     0.1597    84.4264     2.4157    12.2003    11.3464   -42.9872     0.3168
  449.5000     7.7502     0.0165     0.1612    84.7374     2.4150    12.1266    11.3554   -43.4079     0.3207
  450.0000     7.7055     0.0165     0.1633    83.9935     2.4135    12.1374    11.3285   -43.6850     0.3216
  450.5000     7.6758     0.0226     0.1615    83.8507     2.4150    12.1483    11.4494   -43.0755     0.3216
  451.0000     7.6460     0.0196     0.1519    86.4091     2.4172    12.0751    11.4579   -42.7653     0.3168
  451.5000     7.6163     0.0197     0.1459    88.6673     2.4262    12.0882    11.4647   -42.4551     0.3048
  452.0000     7.5567     0.0198     0.1456    91.9765     2.4367    12.2665    11.6309   -42.4421     0.3015
  452.5000     7.5120     0.0151     0.1519    92.5830     2.4390    12.9728    11.8811   -42.4291     0.3006
  453.0000     7.5121     0.0169     0.1621    91.9883     2.4360    13.8145    12.0533   -42.2675     0.2907
  453.5000     7.4823     0.0230     0.1750    91.2434     2.4225    14.7109    12.3978   -42.0832     0.2796
  454.0000     7.4675     0.0260     0.1819    92.1502     2.4015    15.6655    12.8403   -40.6039     0.2704
  454.5000     7.4677     0.0261     0.1886    92.1562     2.3916    16.7206    13.0366   -40.5909     0.2650
  455.0000     7.4679     0.0261     0.2064    92.3123     2.3806    18.5180    13.5868   -39.9835     0.2629
  455.5000     7.4676     0.0277     0.2274    92.4696     2.3372    20.4106    14.4652   -39.3762     0.2614
  456.0000     7.4365     0.0338     0.2439    92.4755     2.2990    22.3423    15.6142   -39.0660     0.2611
  456.5000     7.4085     0.0353     0.2619    91.2802     2.2698    24.7960    16.5094   -38.7558     0.2656
  457.0000     7.3937     0.0339     0.2709    87.6825     2.2668    25.1618    17.2170   -38.2971     0.2737
  457.5000     7.3939     0.0416     0.2742    84.3851     2.2481    25.2090    17.7091   -38.1352     0.2760
  458.0000     7.3940     0.0555     0.2589    78.2348     2.2406    25.2054    18.0900   -37.9707     0.2766
  458.5000     7.3942     0.0596     0.2451    75.5380     2.2586    24.8823    18.4918   -37.8091     0.2707
  459.0000     7.3644     0.0581     0.2370    75.6940     2.2750    24.9093    19.0101   -37.6475     0.2665
  459.5000     7.3496     0.0567     0.2319    77.2014     2.2968    25.2768    19.2857   -37.6345     0.2654
  460.0000     7.3199     0.0553     0.2183    79.6097     2.3105    26.0056    19.4308   -37.6215     0.2597
  460.5000     7.2752     0.0538     0.2112    79.9159     2.3233    26.9403    19.5770   -37.7603     0.2456
  461.0000     7.1990     0.0524     0.2271    79.9359     2.3290    28.1016    19.7243   -37.5955     0.2331
  461.5000     7.1089     0.0509     0.2256    80.7047     2.3260    29.1117    19.8727   -37.5825     0.2160
  462.0000     6.9917     0.0525     0.2130    80.9846     2.3193    29.3384    19.8846   -37.5691     0.1939
  462.5000     6.9619     0.0631     0.1819    78.4394     2.3298    29.1623    20.0345   -37.5533     0.1687
  463.0000     6.9621     0.0753     0.1603    75.1420     2.3650    28.7883    19.9086   -37.5403     0.1672
  463.5000     6.9472     0.0842     0.1477    71.8446     2.4152    28.4190    19.9236   -37.3787     0.1666
  464.0000     6.9474     0.0828     0.1429    70.7994     2.4482    28.2485    19.7956   -37.3657     0.1969
  464.5000     6.9625     0.0723     0.1426    70.6537     2.4669    27.7007    19.4050   -37.0555     0.2271
  465.0000     6.9477     0.0694     0.1711    70.6611     2.4654    27.1577    19.0192   -36.7454     0.2529
  465.5000     6.9329     0.0769     0.2050    72.3186     2.4086    26.2610    18.6411   -36.2866     0.3241
  466.0000     6.9181     0.0935     0.2321    72.7749     2.3454    25.5695    18.3970   -35.8177     0.3253
  466.5000     6.9033     0.1131     0.2400    73.2313     2.3089    24.7019    18.4080   -35.2173     0.3253
  467.0000     6.9034     0.1297     0.2391    74.0041     2.2901    24.0741    18.1669   -34.9071     0.3248
  467.5000     6.9335     0.1372     0.2421    75.5756     2.2797    23.6073    18.0530   -34.5969     0.3215
  468.0000     6.9337     0.1433     0.2322    78.3555     2.2954    23.4605    17.6967   -34.7358     0.3215
  468.5000     6.9487     0.1464     0.2211    79.8629     2.2872    23.4860    17.3449   -34.7195     0.3209
  469.0000     6.9190     0.1389     0.2184    80.3192     2.3111    23.5064    17.0001   -34.8584     0.3191
  469.5000     6.8892     0.1210     0.2199    79.5744     2.3231    23.6895    16.7749   -34.9911     0.3158
