~VERSION INFORMATION
 VERS.                2.0:   CWLS LOG ASCII STANDARD - VERSION 2.0
 WRAP.                 NO:   ONE LINE PER DEPTH STEP
~WELL INFORMATION
#MNEM.UNIT      DATA TYPE    INFORMATION
#----------   ------------   ------------------------------
 STRT.F           44.0000:   START DEPTH
 STOP.F          485.0000:   STOP DEPTH
 STEP.F            0.5000:   STEP LENGTH
 NULL.          -999.2500:   NO VALUE
 COMP. LAWRENCE/ALLISON INC:   COMPANY
 WELL.      NPR 3 #55-51S:   WELL
 FLD .             TEAPOT:   FIELD
 LOC .       S3 T38N R78W:   LOCATION
 CNTY.            NATRONA:   COUNTY
 STAT.            WYOMING:   STATE
 CTRY. UNITED STATES OF AMERICA:   COUNTRY
 SRVC.      Dresser Atlas:   SERVICE COMPANY
 DATE.        12-DEC-1983:   LOGDATE
 API .       490251095400:   API NUMBER
~CURVE INFORMATION
#MNEM.UNIT       API CODE    CURVE DESCRIPTION
#----------   ------------   ------------------------------
 DEPT.F                  :   
 CALR.IN     10 280 01 00:   CALIPER FROM RESISTIVITY
 RATI.CMP    99 420 01 00:   RATIO
 RES .OHMM   10 220 00 00:   RESISTIVITY
 DEC .       99 000 00 00:   DEC
 P6  .G/C3   99 000 00 00:   P6
 PHAS.       99 000 00 00:   PHASE
 PORE.DEC    99 890 00 00:   PORE
~PARAMETER INFORMATION
#MNEM.UNIT          VALUE    DESCRIPTION
#----------   ------------   ------------------------------
 PD  .                 GL:   PERMANENT DATUM
 EPD .F              5161:   ELEVATION PERMANENT DATUM
 LMF .                 KB:   LOG MEASURED FROM
 DAPD.F                10:   FEET ABOVE PERMANENT DATUM
 DMF .                 KB:   DRILLING MEASURED FROM
 EKB .F              5171:   KELLING BUSHING
 EGL .F              5161:   GROUND LEVEL
 DATE.        12-DEC-1983:   RUN DATE
 RUN .                  1:   RUN NUMBER
 DD  .F               490:   DEPTH DRILLER
 DL  .F               489:   DEPTH LOGGER
 BLI .F               487:   BOTTOM LOG INTERVAL
 TLI .F                 0:   TOP LOG INTERVAL
 CS  .IN            10.75:   CASING SIZE
 CBD .F                52:   CASING BOTTOM DRILLER
 CBL .F                46:   CASING BOTTOM LOGGER
 BS  .IN             8.75:   BIT SIZE
 BSD .F               490:   BIT SIZE AT DEPTH
 DFT .           AIR FOAM:   DRILLING FLUID TYPE
 TCS .HRS               3:   TIME CURCULATED STOPPED
 MRT .F                72:   MAXIMUM RECORDED TEMPERATURE
 LUN .               6274:   LOGGING UNIT NUMBER
 LUL .               GLTE:   LOGGING UNIT LOCATION
 ENGI.             RAUTIO:   RECORDING ENGINEER
 WITN.             GROOMS:   WITNESSED BY
 CLNT.            A2DTECH:   CLIENT CODE
 ORIG.           5" PRINT:   ORIGIN OF DATA
 UWI .       490251095400:   UNIQUE WELL ID
 DICO. A2D Technologies, Inc.:   DIGITIZING COMPANY
~OTHER INFORMATION
~A   DEPT      CALR        RATI        RES       DEC          P6      PHAS        PORE 
# ...
  408.0000     8.7648     0.3250     8.6436    30.2199     2.3255    71.0191     0.4656
  408.5000     8.7796     0.3371     8.9465    29.0919     2.3171    69.0403     0.4556
  409.0000     8.8088     0.3447     9.3245    28.6416     2.3071    68.6841     0.4620
  409.5000     8.8233     0.3507     9.1315    28.7425     2.3049    73.7444     0.4926
  410.0000     8.8223     0.3398     8.1177    35.6479     2.3088    77.1792     0.5459
  410.5000     8.8064     0.3193     7.2665    41.8994     2.3311    79.5312     0.5973
  411.0000     8.7905     0.3058     6.9703    40.0936     2.3449    79.3281     0.6000
  411.5000     8.7594     0.3104     7.2145    36.1041     2.3480    76.5507     0.5738
  412.0000     8.7586     0.3175     7.6767    33.6959     2.3504    74.4986     0.5188
  412.5000     8.7579     0.3221     7.6756    35.1281     2.3596    75.2266     0.5415
  413.0000     8.7724     0.3236     7.7278    35.9579     2.3643    76.4959     0.5508
  413.5000     8.7868     0.3206     7.7493    36.4112     2.3714    77.5848     0.5603
  414.0000     8.7860     0.3192     7.7255    37.1657     2.3812    77.9519     0.5666
  414.5000     8.7853     0.3192     7.7244    37.6973     2.3889    78.1385     0.5693
  415.0000     8.7845     0.3192     7.6916    37.9317     2.4005    78.3251     0.5711
  415.5000     8.7838     0.3177     7.6691    38.3000     2.4089    78.5117     0.5738
  416.0000     8.7829     0.3193     7.6681    38.6780     2.4151    78.6984     0.5792
  416.5000     8.7822     0.3208     7.6671    39.1312     2.4213    79.0656     0.5820
  417.0000     8.7815     0.3223     7.6660    39.8857     2.4259    79.4328     0.5883
  417.5000     8.7959     0.3164     7.6122    40.3390     2.4283    79.8011     0.6000
  418.0000     8.7951     0.3179     7.6111    40.3405     2.4222    79.9878     0.6000
  418.5000     8.7943     0.3194     7.6629    40.1910     2.4168    79.9939     0.5954
  419.0000     8.7936     0.3240     7.7685    40.1175     2.4077    80.1805     0.5956
  419.5000     8.7928     0.3285     7.8757    40.3449     2.4077    79.7900     0.6000
  420.0000     8.7921     0.3302     7.8201    40.8082     2.4100    79.7955     0.6000
  420.5000     8.7914     0.3241     7.7651    40.7996     2.4086    80.1628     0.6000
  421.0000     8.7906     0.3165     7.7641    40.5003     2.4048    80.5290     0.6000
  421.5000     8.7898     0.3134     7.7630    40.2005     2.4017    79.9930     0.6000
  422.0000     8.7739     0.3121     7.8701    39.5243     2.4010    79.0960     0.5910
  422.5000     8.7731     0.3287     8.0339    39.1493     2.3995    78.7391     0.5865
  423.0000     8.7723     0.3347     8.2015    39.3766     2.4003    78.7457     0.5955
  423.5000     8.7715     0.3363     8.0318    41.1853     2.4011    79.1119     0.6000
  424.0000     8.7708     0.3344     7.9204    41.8645     2.4030    79.6586     0.6000
  424.5000     8.7700     0.3314     7.8647    42.0919     2.4062    80.3857     0.6000
  425.0000     8.7693     0.3303     7.7557    42.3946     2.4108    81.2932     0.6000
  425.5000     8.7685     0.3289     7.7503    43.2263     2.4178    82.7735     0.6000
  426.0000     8.7830     0.3319     7.7001    45.6358     2.4247    83.8617     0.6000
  426.5000     8.7822     0.3304     7.6988    45.0349     2.4279    82.9345     0.6000
  427.0000     8.7815     0.3274     7.7515    43.9822     2.4195    81.8571     0.6000
  427.5000     8.7959     0.3260     7.7501    43.0800     2.4172    81.1406     0.6000
  428.0000     8.7951     0.3294     7.8031    42.8552     2.4334    80.7837     0.6000
  428.5000     8.7791     0.3335     7.8562    43.3842     2.4465    80.9707     0.6000
  429.0000     8.7785     0.3336     7.8007    44.0633     2.4558    81.6979     0.6000
  429.5000     8.7776     0.3336     7.7459    44.5166     2.4637    82.0640     0.6000
  430.0000     8.7768     0.3246     7.6385    43.9910     2.4705    82.0694     0.6000
  430.5000     8.7761     0.3186     7.5849    43.3107     2.4744    81.8941     0.6000
  431.0000     8.7602     0.3232     7.5838    42.9217     2.4760    81.5386     0.6000
  431.5000     8.7594     0.3247     7.5828    42.3391     2.4745    81.3634     0.6000
  432.0000     8.7587     0.3202     7.6344    41.9292     2.4715    81.0078     0.6000
  432.5000     8.7579     0.3173     7.7394    41.4385     2.4700    80.8327     0.6000
  433.0000     8.7572     0.3158     7.7383    40.9128     2.4739    80.6575     0.6000
  433.5000     8.7564     0.3143     7.7912    40.4625     2.4901    79.5815     0.5973
  434.0000     8.7557     0.3238     7.8984    39.9369     2.5016    78.8649     0.5910
  434.5000     8.7700     0.3399     8.0628    40.6160     2.4971    79.2311     0.5974
  435.0000     8.7693     0.3369     8.3453    43.1778     2.4793    80.6801     0.6000
  435.5000     8.7686     0.3324     8.0607    44.0075     2.4684    81.4072     0.6000
  436.0000     8.7678     0.3295     7.8397    43.8504     2.4612    81.7734     0.6000
  436.5000     8.7670     0.3295     7.7846    43.6230     2.4636    81.7787     0.6000
  437.0000     8.7511     0.3326     7.7793    43.5602     2.4614    81.6035     0.6000
  437.5000     8.7504     0.3341     7.8909    43.4863     2.4568    81.2479     0.6000
  438.0000     8.7496     0.3341     7.9446    43.5635     2.4508    80.8923     0.6000
  438.5000     8.7488     0.3356     7.8887    44.0920     2.4439    81.4403     0.6000
  439.0000     8.7329     0.3357     7.8331    46.5785     2.4378    83.6110     0.6000
  439.5000     8.7372     0.3357     7.6712    49.4414     2.4364    85.7817     0.6000
  440.0000     8.7466     0.3327     7.6173    50.0000     2.4364    86.5075     0.6000
  440.5000     8.7458     0.3313     7.6163    46.9594     2.4435    83.4464     0.6000
  441.0000     8.7449     0.3328     7.7213    45.4548     2.4573    82.7299     0.6000
  441.5000     8.7595     0.3343     7.9368    44.6159     2.4558    82.5546     0.6000
  442.0000     8.7587     0.3344     8.0465    43.7751     2.4513    81.8383     0.6000
  442.5000     8.7615     0.3374     8.1012    43.2759     2.4475    80.7609     0.6000
  443.0000     8.7725     0.3404     8.2696    43.0511     2.4506    80.5857     0.6000
  443.5000     8.7716     0.3435     8.3836    43.9565     2.4537    80.7728     0.6000
  444.0000     8.7708     0.3465     8.4992    43.8827     2.4546    80.4172     0.6000
  444.5000     8.7549     0.3480     8.6308    43.0559     2.4554    79.5202     0.6000
  445.0000     8.7541     0.3450     8.9180    41.7019     2.4562    77.1797     0.5892
  445.5000     8.7534     0.3406     9.1037    39.4443     2.4563    75.0195     0.5567
  446.0000     8.7527     0.3076     9.2933    35.7561     2.4487    71.4158     0.4701
  446.5000     8.7519     0.2908     8.8529    28.6653     2.4402    67.9925     0.3789
  447.0000     8.7510     0.2806     7.7085    23.3213     2.4307    70.5242     0.3546
  447.5000     8.7504     0.2551     6.5289    21.8301     2.4136    73.5971     0.3501
  448.0000     8.7496     0.2326     5.4538    22.1328     2.3975    77.0310     0.3492
  448.5000     8.7336     0.2266     5.0189    23.7156     2.3792    89.9591     0.3684
  449.0000     8.7328     0.2442     4.9152    48.4159     2.3593   100.3992  -999.2500
  449.5000     8.7321     0.2763     4.9145    49.9234     2.3663   106.8227  -999.2500
  450.0000     8.7313     0.3018     5.1575    50.0000     2.3901   102.4971  -999.2500
  450.5000     8.7460     0.3153     6.2005    48.8721     2.4423    89.5099  -999.2500
  451.0000     8.7450     0.3259     7.4288    47.2169     2.4547    83.9213  -999.2500
  451.5000     8.7595     0.3304     7.9150    47.3690     2.4570    85.0093  -999.2500
  452.0000     8.7587     0.3305     7.8050    48.2801     2.4555    86.6386  -999.2500
  452.5000     8.7580     0.3320     7.8039    49.0487     2.4617    86.6439  -999.2500
  453.0000     8.7572     0.3335     7.7315    48.3527     2.4687    85.2056  -999.2500
