~VERSION INFORMATION
 VERS.                2.0:   CWLS LOG ASCII STANDARD - VERSION 2.0
 WRAP.                 NO:   ONE LINE PER DEPTH STEP
~WELL INFORMATION
#MNEM.UNIT      DATA TYPE    INFORMATION
#----------   ------------   ------------------------------
 STRT.F            6.0000:   START DEPTH
 STOP.F         4020.0000:   STOP DEPTH
 STEP.F            0.5000:   STEP LENGTH
 NULL.          -999.2500:   NO VALUE
 COMP. LAWRENCE/ALLISON INC:   COMPANY
 WELL.       66 JX #33-33:   WELL
 FLD .              NPR-3:   FIELD
 LOC .      S33 T39N R78W:   LOCATION
 CNTY.            NATRONA:   COUNTY
 STAT.            WYOMING:   STATE
 CTRY. UNITED STATES OF AMERICA:   COUNTRY
 SRVC.      Dresser Atlas:   SERVICE COMPANY
 DATE.        02-DEC-1983:   LOGDATE
 API .       490251095100:   API NUMBER
~CURVE INFORMATION
#MNEM.UNIT       API CODE    CURVE DESCRIPTION
#----------   ------------   ------------------------------
 DEPT.F                  :   
 CALD.IN     45 280 60 00:   CALIPER
 CNC .DEC    42 890 03 00:   NEUTRON POROSITY SANDSTONE
 PORD.DEC    45 890 12 00:   POROSITY DENSITY SANDSTONE
 DEN .G/C3   45 350 01 00:   COMPENSATED BULK DENSTIY
 CORR.G/C3   45 356 01 00:   DENSITY CORRECTION
 RFOC.OHMM   07 220 04 00:   RESISTIVITY FOCUSED LOG
 RILD.OHMM   07 120 46 00:   INDUCTION LOG DEEP RESISTIVITY
 RILM.OHMM   07 120 44 00:   INDUCTION LOG MEDIUM RESISTIVITY
 GRR .GAPI   07 310 01 00:   GAMMA RAY FROM RES. LOG.
 DT  .US/F   60 520 00 00:   INTERVAL TRANSIT TIME
 SPR .MV     07 010 01 00:   SPONTANEOUS POTENTIAL
~PARAMETER INFORMATION
#MNEM.UNIT          VALUE    DESCRIPTION
#----------   ------------   ------------------------------
 PD  .                 GL:   PERMANENT DATUM
 EPD .F              5141:   ELEVATION PERMANENT DATUM
 LMF .                 KB:   LOG MEASURED FROM
 DAPD.F                10:   FEET ABOVE PERMANENT DATUM
 DMF .                 KB:   DRILLING MEASURED FROM
 EKB .F              5151:   KELLING BUSHING
 EGL .F              5141:   GROUND LEVEL
 DATE.            12-2-83:   RUN DATE
 RUN .                  1:   RUN NUMBER
 DD  .F              4025:   DEPTH DRILLER
 DL  .F              4020:   DEPTH LOGGER
 BLI .F              4018:   BOTTOM LOG INTERVAL
 TLI .F                10:   TOP LOG INTERVAL
 CS  .IN            8.625:   CASING SIZE
 CBD .F               718:   CASING BOTTOM DRILLER
 CBL .F               722:   CASING BOTTOM LOGGER
 BS  .IN            7.875:   BIT SIZE
 BSD .F              4025:   BIT SIZE AT DEPTH
 DFT .            GEL/KCL:   DRILLING FLUID TYPE
 DFD .                  9:   DRILLING FLUID DENSITY
 DFV .                 45:   DRILLING FLUID VISCOSITY
 DFPH.                8.5:   DRILLING FLUID PH
 DFL .                 12:   DRILLING FLUID LOSS
 MSS .           FLOWLINE:   MUD SAMPLE SOURCE
 RMS .OHMM            .37:   RESISTIVITY MUD SAMPLE
 MST .F                88:   MUD SAMPLE TEMPERATURE
 RMF .OHMM            .29:   RESISTIVITY MUD FILTRATE SAMPLE
 MFST.F                88:   MUD FILTRATE SAMPLE TEMPERATURE
 RMC .OHMM            .46:   RESISTIVITY MUD CAKE
 MCST.F                88:   MUD CAKE SAMPLE TEMPERATURE
 MFSS.               MEAS:   MUD FILTRATE SAMPLE SOURCE
 MCSS.               CALC:   MUD CAKE SAMPLE SOURCE
 RMB .OHMM            .26:   RESISTIVITY MUD AT BHT
 BHT .F               127:   BOTTOM HOLE TEMPERATURE
 TCS .HRS               4:   TIME CURCULATED STOPPED
 MRT .F               127:   MAXIMUM RECORDED TEMPERATURE
 LUN .               6264:   LOGGING UNIT NUMBER
 LUL .              WLSTN:   LOGGING UNIT LOCATION
 ENGI.            PANASUK:   RECORDING ENGINEER
 WITN.              SCOTT:   WITNESSED BY
 CLNT.            A2DTECH:   CLIENT CODE
 ORIG.       2", 5" PRINT:   ORIGIN OF DATA
 UWI .       490251095100:   UNIQUE WELL ID
 DICO. A2D Technologies, Inc.:   DIGITIZING COMPANY
~OTHER INFORMATION
~A    DEPT    CALD        CNC       PORD        DEN       CORR       RFOC       RILD       RILM          GRR       DT        SPR   
# ...
  921.0000     9.7026     0.2776     0.0577     2.5489     0.0658     7.0642     7.5806     6.9342   103.0892  -999.2500   -34.0313
  921.5000     9.7026     0.2862     0.0602     2.5464     0.0582     6.8785     7.6131     6.9663   106.3937  -999.2500   -34.0302
  922.0000     9.7026     0.2862     0.0622     2.5463     0.0646     6.9446     7.6460     7.0062   107.5863  -999.2500   -34.0314
  922.5000     9.7026     0.2739     0.0609     2.5480     0.0688     7.1308     7.6802     7.0710   105.5798  -999.2500   -34.0316
  923.0000     9.7024     0.2625     0.0602     2.5462     0.0612     7.3218     7.8120     7.1364   103.7910  -999.2500   -34.0313
  923.5000     9.6982     0.2573     0.0642     2.5402     0.0536     7.5169     7.9873     7.3132   101.6236  -999.2500   -34.0331
  924.0000     9.6939     0.2598     0.0687     2.5331     0.0483     7.6804     8.1653     7.4671    97.6510  -999.2500   -34.0295
  924.5000     9.6897     0.2623     0.0718     2.5302     0.0741     7.7128     8.3472     7.6242    93.3613  -999.2500   -34.0366
  925.0000     9.6855     0.2624     0.0705     2.5352     0.0979     7.7399     8.5332     7.7847    91.0501  -999.2500   -33.9894
  925.5000     9.6813     0.2611     0.0674     2.5394     0.0922     7.8230     8.7234     7.9485    93.2512  -999.2500   -33.8642
  926.0000     9.6772     0.2602     0.0643     2.5425     0.0751     7.9440     8.9178     8.1158    95.8462  -999.2500   -33.7229
  926.5000     9.6730     0.2606     0.0635     2.5428     0.0635     8.0662     9.1165     8.2866    94.5722  -999.2500   -33.6116
  927.0000     9.6688     0.2532     0.0648     2.5398     0.0657     8.1899     9.2335     8.4218    92.2124  -999.2500   -33.4419
  927.5000     9.6646     0.2432     0.0667     2.5360     0.0660     8.3447     9.2335     8.4639    92.6820  -999.2500   -33.7182
  928.0000     9.6604     0.2361     0.0686     2.5322     0.0589     8.1175     9.2335     8.5053    94.0790  -999.2500   -34.2148
  928.5000     9.6562     0.2428     0.0706     2.5308     0.0524     8.1648     9.2335     8.5676    95.2444  -999.2500   -34.5884
  929.0000     9.6520     0.2521     0.0704     2.5322     0.0715     8.2683     9.2335     8.4997    94.4850  -999.2500   -34.6216
  929.5000     9.6478     0.2550     0.0691     2.5338     0.0958     8.2683     9.2335     8.4891    91.8094  -999.2500   -34.4145
  930.0000     9.6436     0.2555     0.0679     2.5353     0.1198     8.2683     9.2335     8.4790    87.2352  -999.2500   -34.2387
  930.5000     9.6394     0.2570     0.0670     2.5367     0.1332     8.2439     9.2175     8.4690    88.0594  -999.2500   -34.0526
  931.0000     9.6353     0.2604     0.0694     2.5279     0.0945     8.2158     9.1934     8.4589    92.3395  -999.2500   -33.8694
  931.5000     9.6310     0.2638     0.0772     2.5151     0.0620     8.1877     9.1693     8.4489    94.4260  -999.2500   -33.6887
  932.0000     9.6268     0.2625     0.0851     2.5029     0.0291     8.1598     9.1453     8.4389    93.3556  -999.2500   -33.5004
  932.5000     9.6230     0.2568     0.0886     2.5038     0.0175     8.1318     9.1214     8.4289    91.3231  -999.2500   -33.4251
  933.0000     9.6285     0.2542     0.0837     2.5115     0.0429     8.1017     9.0975     8.4218    88.3590  -999.2500   -33.4364
  933.5000     9.6343     0.2627     0.0759     2.5258     0.0749     8.0696     9.0737     8.3447    83.2037  -999.2500   -33.4291
  934.0000     9.6401     0.2738     0.0679     2.5367     0.1041     8.0377     9.0500     8.2922    84.0751  -999.2500   -33.4371
  934.5000     9.6459     0.2830     0.0662     2.5334     0.0941     8.0059     9.0263     8.2345    89.2059  -999.2500   -33.4262
  935.0000     9.6516     0.2770     0.0755     2.5205     0.0799     7.9741     9.0027     8.1772    94.1018  -999.2500   -33.4462
  935.5000     9.6574     0.2708     0.0798     2.5151     0.0662     7.9425     8.9821     8.1202    97.5062  -999.2500   -33.3835
  936.0000     9.6631     0.2682     0.0794     2.5220     0.0593     7.9111     8.8963     8.0637   100.5363  -999.2500   -33.2183
  936.5000     9.6689     0.2765     0.0726     2.5315     0.0664     7.8701     8.8208     8.0076   103.7529  -999.2500   -33.2129
  937.0000     9.6746     0.2837     0.0658     2.5411     0.0735     7.8211     8.7459     7.9518   102.4172  -999.2500   -33.1688
  937.5000     9.6804     0.2849     0.0604     2.5511     0.0806     7.7723     8.6717     7.8965    99.2462  -999.2500   -33.1460
  938.0000     9.6861     0.2710     0.0567     2.5553     0.0741     7.7238     8.5981     7.8415    96.1690  -999.2500   -33.1056
  938.5000     9.6919     0.2610     0.0550     2.5573     0.0664     7.6757     8.5251     7.7498    94.7946  -999.2500   -33.0861
  939.0000     9.6976     0.2659     0.0557     2.5550     0.0670     7.6278     8.4218     7.7540    95.7720  -999.2500   -33.0333
  939.5000     9.7019     0.2749     0.0563     2.5541     0.0870     7.5802     8.4466     7.8255    95.8001  -999.2500   -33.1624
  940.0000     9.6954     0.2840     0.0570     2.5591     0.1065     7.5414     8.4901     7.8221    98.4071  -999.2500   -33.4526
  940.5000     9.6889     0.2918     0.0544     2.5626     0.1264     7.6334     8.5339     7.8229   100.6677  -999.2500   -33.7194
  941.0000     9.6825     0.2859     0.0526     2.5576     0.1346     7.7123     8.5779     7.9172    99.6958  -999.2500   -33.9857
  941.5000     9.6761     0.2765     0.0573     2.5471     0.1213     7.7921     8.6221     7.9768    96.4183  -999.2500   -34.2813
  942.0000     9.6697     0.2674     0.0622     2.5503     0.1068     7.8726     8.6666     8.0371    94.9518  -999.2500   -34.4383
  942.5000     9.6632     0.2678     0.0576     2.5555     0.0949     7.9695     8.7112     8.0978    98.3643  -999.2500   -34.1267
  943.0000     9.6568     0.2754     0.0531     2.5630     0.1024     7.9765     8.7562     8.1589   102.9911  -999.2500   -33.7140
  943.5000     9.6504     0.2816     0.0491     2.5672     0.1102     7.9875     8.8013     8.2204   104.7654  -999.2500   -33.3083
  944.0000     9.6438     0.2862     0.0482     2.5672     0.1178     7.9985     8.8467     8.2683   102.2527  -999.2500   -33.3905
  944.5000     9.6427     0.2886     0.0500     2.5641     0.1261     8.0092     8.8998     8.2143   100.7456  -999.2500   -33.3068
  945.0000     9.6427     0.2910     0.0522     2.5568     0.0965     8.0198     8.8998     8.1705   102.9781  -999.2500   -33.1831
  945.5000     9.6427     0.2876     0.0573     2.5496     0.0788     8.0302     8.8998     8.1270   104.2840  -999.2500   -33.0768
  946.0000     9.6427     0.2700     0.0620     2.5424     0.0798     8.0407     8.8998     8.0837   101.0591  -999.2500   -32.9605
  946.5000     9.6427     0.2524     0.0668     2.5354     0.0852     8.0511     8.8998     8.0431    98.0683  -999.2500   -32.8526
  947.0000     9.6427     0.2494     0.0680     2.5354     0.0956     8.0617     8.8998     8.0305    96.1348  -999.2500   -32.7362
  947.5000     9.6427     0.2593     0.0675     2.5364     0.1055     8.0723     8.8998     8.0185    95.6483  -999.2500   -32.6325
  948.0000     9.6427     0.2734     0.0681     2.5329     0.1083     8.0832     8.8640     8.0065    95.5561  -999.2500   -32.5016
  948.5000     9.6425     0.2894     0.0712     2.5287     0.0864     8.0942     8.8231     7.9946    94.5153  -999.2500   -32.4546
  949.0000     9.6372     0.2831     0.0746     2.5246     0.0657     8.1053     8.7824     7.9827    92.8354  -999.2500   -32.5677
  949.5000     9.6377     0.2746     0.0749     2.5250     0.0602     8.1161     8.7419     7.9708    90.4873  -999.2500   -32.6557
  950.0000     9.6423     0.2746     0.0734     2.5282     0.0627     8.0693     8.7015     7.9589    89.0135  -999.2500   -32.7757
  950.5000     9.6882     0.2806     0.0738     2.5244     0.0512     7.9961     8.6575     7.9471    90.7524  -999.2500   -32.8134
  951.0000     9.6864     0.2802     0.0797     2.5145     0.0430     7.9254     8.6575     7.9352    94.5677  -999.2500   -32.7198
