~VERSION INFORMATION
 VERS.                2.0:   CWLS LOG ASCII STANDARD - VERSION 2.0
 WRAP.                 NO:   ONE LINE PER DEPTH STEP
~WELL INFORMATION
#MNEM.UNIT      DATA TYPE    INFORMATION
#----------   ------------   ------------------------------
 STRT.F          217.0000:   START DEPTH
 STOP.F         3170.0000:   STOP DEPTH
 STEP.F            0.5000:   STEP LENGTH
 NULL.          -999.2500:   NO VALUE
 COMP. FENIX & SCISSON INC:   COMPANY
 WELL.    51 TX 33 #51-33:   WELL
 FLD .             TEAPOT:   FIELD
 LOC .      S33 T39N R78W:   LOCATION
 CNTY.            NATRONA:   COUNTY
 STAT.            WYOMING:   STATE
 CTRY. UNITED STATES OF AMERICA:   COUNTRY
 SRVC.            Unknown:   SERVICE COMPANY
 DATE.        02-APR-1978:   LOGDATE
 API .       490251068600:   API NUMBER
~CURVE INFORMATION
#MNEM.UNIT       API CODE    CURVE DESCRIPTION
#----------   ------------   ------------------------------
 DEPT.F                  :   
 TGAS.UNITS  91 830 01 00:   TOTAL GAS FROM HOTWIRE
 ROP .MIN/FT 91 810 01 00:   RATE OF DRILLING PENETRATION
~PARAMETER INFORMATION
#MNEM.UNIT          VALUE    DESCRIPTION
#----------   ------------   ------------------------------
 DATE.         2-APR-1978:   RUN DATE
 RUN .                  1:   RUN NUMBER
 BLI .F              3150:   BOTTOM LOG INTERVAL
 TLI .F               250:   TOP LOG INTERVAL
 DFT .       CHEMICAL GEL:   DRILLING FLUID TYPE
 ENGI.            R. CABS:   RECORDING ENGINEER
 CLNT.            A2DTECH:   CLIENT CODE
 ORIG.           5" PRINT:   ORIGIN OF DATA
 UWI .       490251068600:   UNIQUE WELL ID
 DICO. A2D Technologies, Inc.:   DIGITIZING COMPANY
~OTHER INFORMATION
~A   DEPT       TGAS      ROP   
# ...
  581.5000     1.2577  -999.2500
  582.0000     1.2455  -999.2500
  582.5000     1.2332  -999.2500
  583.0000     1.2209  -999.2500
  583.5000     1.2174  -999.2500
  584.0000     1.3043  -999.2500
  584.5000     1.3202  -999.2500
  585.0000     1.3412  -999.2500
  585.5000     1.3621  -999.2500
  586.0000     1.3831  -999.2500
  586.5000     1.4040  -999.2500
  587.0000     1.4249  -999.2500
  587.5000     1.4459  -999.2500
  588.0000     1.4668  -999.2500
  588.5000     1.3913  -999.2500
  589.0000     1.3913  -999.2500
  589.5000     1.3913  -999.2500
  590.0000     1.3913  -999.2500
  590.5000     1.3913  -999.2500
  591.0000     1.3913  -999.2500
  591.5000     1.3913  -999.2500
  592.0000     1.3913  -999.2500
  592.5000     1.3913  -999.2500
  593.0000     1.3913  -999.2500
  593.5000     1.3913  -999.2500
  594.0000     1.3913  -999.2500
  594.5000     1.3913  -999.2500
  595.0000     1.3913  -999.2500
  595.5000     1.3913  -999.2500
  596.0000     1.3913  -999.2500
  596.5000     1.3486  -999.2500
  597.0000     1.3012  -999.2500
  597.5000     1.2537  -999.2500
  598.0000     1.2174  -999.2500
  598.5000     1.2174  -999.2500
  599.0000     1.2200  -999.2500
  599.5000     1.2937  -999.2500
  600.0000     1.3673  -999.2500
  600.5000     1.3913  -999.2500
  601.0000     1.3902  -999.2500
  601.5000     1.3883  -999.2500
  602.0000     1.3864  -999.2500
  602.5000     1.3846  -999.2500
  603.0000     1.3827  -999.2500
  603.5000     1.3808  -999.2500
  604.0000     1.3789  -999.2500
  604.5000     1.3771  -999.2500
  605.0000     1.3752  -999.2500
  605.5000     1.3733  -999.2500
  606.0000     1.3715  -999.2500
  606.5000     1.3696  -999.2500
  607.0000     1.3677  -999.2500
  607.5000     1.3659  -999.2500
  608.0000     1.3640  -999.2500
  608.5000     1.3621  -999.2500
  609.0000     1.3603  -999.2500
  609.5000     1.3584  -999.2500
  610.0000     1.3564  -999.2500
  610.5000     1.4120  -999.2500
  611.0000     1.4737  -999.2500
  611.5000     1.5255  -999.2500
  612.0000     1.6198  -999.2500
  612.5000     1.6396  -999.2500
  613.0000     1.6594  -999.2500
  613.5000     1.6792  -999.2500
  614.0000     1.6907  -999.2500
  614.5000     1.6886  -999.2500
  615.0000     1.6870  -999.2500
  615.5000     1.6852  -999.2500
  616.0000     1.6835  -999.2500
  616.5000     1.6817  -999.2500
  617.0000     1.6799  -999.2500
  617.5000     1.6783  -999.2500
  618.0000     1.6765  -999.2500
  618.5000     1.6748  -999.2500
  619.0000     1.6730  -999.2500
  619.5000     1.6713  -999.2500
  620.0000     1.6696  -999.2500
  620.5000     1.6678  -999.2500
  621.0000     1.6661  -999.2500
  621.5000     1.6643  -999.2500
  622.0000     1.6626  -999.2500
  622.5000     1.6609  -999.2500
  623.0000     1.6591  -999.2500
  623.5000     1.6574  -999.2500
  624.0000     1.6557  -999.2500
  624.5000     1.6539  -999.2500
  625.0000     1.6522  -999.2500
  625.5000     1.6504  -999.2500
  626.0000     1.6487  -999.2500
  626.5000     1.6470  -999.2500
  627.0000     1.6452  -999.2500
  627.5000     1.6435  -999.2500
  628.0000     1.6417  -999.2500
  628.5000     1.6400  -999.2500
  629.0000     1.6383  -999.2500
  629.5000     1.6365  -999.2500
  630.0000     1.6348  -999.2500
  630.5000     1.6330  -999.2500
  631.0000     1.6313  -999.2500
  631.5000     1.6296  -999.2500
  632.0000     1.6278  -999.2500
  632.5000     1.6261  -999.2500
  633.0000     1.6243  -999.2500
  633.5000     1.6226  -999.2500
  634.0000     1.6209  -999.2500
  634.5000     1.6191  -999.2500
  635.0000     1.6174  -999.2500
  635.5000     1.6157  -999.2500
  636.0000     1.6139  -999.2500
  636.5000     1.6122  -999.2500
  637.0000     1.6104  -999.2500
  637.5000     1.6087  -999.2500
  638.0000     1.6070  -999.2500
  638.5000     1.6052  -999.2500
  639.0000     1.6035  -999.2500
  639.5000     1.6017  -999.2500
  640.0000     1.6000  -999.2500
  640.5000     1.5983  -999.2500
  641.0000     1.5965  -999.2500
  641.5000     1.5948  -999.2500
  642.0000     1.5930  -999.2500
  642.5000     1.5913  -999.2500
  643.0000     1.5896  -999.2500
  643.5000     1.5878  -999.2500
  644.0000     1.5861  -999.2500
  644.5000     1.5843  -999.2500
  645.0000     1.5826  -999.2500
  645.5000     1.5809  -999.2500
  646.0000     1.5791  -999.2500
  646.5000     1.5774  -999.2500
  647.0000     1.5757  -999.2500
  647.5000     1.5739  -999.2500
  648.0000     1.5722  -999.2500
  648.5000     1.5704  -999.2500
  649.0000     1.5687  -999.2500
  649.5000     1.5670  -999.2500
  650.0000     1.5652  -999.2500
  650.5000     1.5437  -999.2500
  651.0000     1.5158  -999.2500
  651.5000     1.4837  -999.2500
  652.0000     1.4850  -999.2500
  652.5000     1.4672  -999.2500
  653.0000     1.4513  -999.2500
  653.5000     1.4354  -999.2500
  654.0000     1.4195  -999.2500
  654.5000     1.4066  -999.2500
  655.0000     1.4957  -999.2500
  655.5000     1.4874  -999.2500
  656.0000     1.4790  -999.2500
  656.5000     1.4705  -999.2500
  657.0000     1.4620  -999.2500
  657.5000     1.4535  -999.2500
  658.0000     1.4451  -999.2500
  658.5000     1.4366  -999.2500
  659.0000     1.4281  -999.2500
  659.5000     1.4196  -999.2500
  660.0000     1.4112  -999.2500
  660.5000     1.4027  -999.2500
  661.0000     1.3942  -999.2500
  661.5000     1.3858  -999.2500
  662.0000     1.3773  -999.2500
  662.5000     1.3688  -999.2500
  663.0000     1.3603  -999.2500
  663.5000     1.3519  -999.2500
  664.0000     1.3434  -999.2500
  664.5000     1.3349  -999.2500
  665.0000     1.3264  -999.2500
  665.5000     1.3180  -999.2500
  666.0000     1.3095  -999.2500
  666.5000     1.3010  -999.2500
  667.0000     1.2926  -999.2500
  667.5000     1.2841  -999.2500
  668.0000     1.2797  -999.2500
  668.5000     1.2914  -999.2500
  669.0000     1.3143  -999.2500
  669.5000     1.3371  -999.2500
  670.0000     1.3599  -999.2500
  670.5000     1.3828  -999.2500
  671.0000     1.4056  -999.2500
  671.5000     1.4284  -999.2500
  672.0000     1.4513  -999.2500
  672.5000     1.4696  -999.2500
  673.0000     1.4844  -999.2500
  673.5000     1.5130  -999.2500
  674.0000     1.5417  -999.2500
  674.5000     1.5703  -999.2500
  675.0000     1.5989  -999.2500
  675.5000     1.6275  -999.2500
  676.0000     1.6557  -999.2500
  676.5000     1.6577  -999.2500
  677.0000     1.6678  -999.2500
  677.5000     1.6964  -999.2500
  678.0000     1.7250  -999.2500
  678.5000     1.7516  -999.2500
  679.0000     1.7533  -999.2500
  679.5000     1.7549  -999.2500
  680.0000     1.7614  -999.2500
  680.5000     1.7685  -999.2500
  681.0000     1.7756  -999.2500
  681.5000     1.7827  -999.2500
  682.0000     1.7899  -999.2500
  682.5000     1.7970  -999.2500
  683.0000     1.8041  -999.2500
  683.5000     1.8112  -999.2500
  684.0000     1.8183  -999.2500
  684.5000     1.8254  -999.2500
  685.0000     1.8326  -999.2500
  685.5000     1.8397  -999.2500
  686.0000     1.8468  -999.2500
  686.5000     1.8539  -999.2500
  687.0000     1.8610  -999.2500
  687.5000     1.8682  -999.2500
  688.0000     1.8609  -999.2500
  688.5000     1.8485  -999.2500
  689.0000     1.8360  -999.2500
  689.5000     1.8236  -999.2500
  690.0000     1.8112  -999.2500
  690.5000     1.7988  -999.2500
  691.0000     1.7864  -999.2500
  691.5000     1.7740  -999.2500
  692.0000     1.7616  -999.2500
  692.5000     1.7491  -999.2500
  693.0000     1.7367  -999.2500
  693.5000     1.7243  -999.2500
  694.0000     1.7090  -999.2500
  694.5000     1.6900  -999.2500
  695.0000     1.6711  -999.2500
  695.5000     1.6521  -999.2500
  696.0000     1.6383  -999.2500
  696.5000     1.5530  -999.2500
  697.0000     1.5602  -999.2500
  697.5000     1.5672  -999.2500
  698.0000     1.5741  -999.2500
  698.5000     1.5811  -999.2500
  699.0000     1.5881  -999.2500
  699.5000     1.5950  -999.2500
  700.0000     1.6020  -999.2500
  700.5000     1.6090  -999.2500
  701.0000     1.6159  -999.2500
  701.5000     1.6229  -999.2500
  702.0000     1.6299  -999.2500
  702.5000     1.6368  -999.2500
