~VERSION INFORMATION
 VERS.                2.0:   CWLS LOG ASCII STANDARD - VERSION 2.0
 WRAP.                 NO:   ONE LINE PER DEPTH STEP
~WELL INFORMATION
#MNEM.UNIT      DATA TYPE    INFORMATION
#----------   ------------   ------------------------------
 STRT.F           30.0000:   START DEPTH
 STOP.F          468.0000:   STOP DEPTH
 STEP.F            0.1000:   STEP LENGTH
 NULL.          -999.2500:   NO VALUE
 COMP. LAWRENCE/ALLISON INC:   COMPANY
 WELL.    72-12 SX #10-10:   WELL
 FLD .             TEAPOT:   FIELD
 LOC .      S10 T38N R78W:   LOCATION
 CNTY.            NATRONA:   COUNTY
 STAT.            WYOMING:   STATE
 CTRY. UNITED STATES OF AMERICA:   COUNTRY
 SRVC.           Gearhart:   SERVICE COMPANY
 DATE.        17-MAY-1988:   LOGDATE
 API .       490251122400:   API NUMBER
~CURVE INFORMATION
#MNEM.UNIT       API CODE    CURVE DESCRIPTION
#----------   ------------   ------------------------------
 DEPT.F                  :   
 GRR .GAPI   07 310 01 00:   GAMMA RAY
 RILD.OHMM   07 120 46 00:   INDUCTION LOG DEEP RESISTIVITY
 RILM.OHMM   07 120 44 00:   INDUCTION LOG MEDIUM RESISTIVITY
~PARAMETER INFORMATION
#MNEM.UNIT          VALUE    DESCRIPTION
#----------   ------------   ------------------------------
 PD  .                 GL:   PERMANENT DATUM
 EPD .F              5166:   ELEVATION PERMANENT DATUM
 LMF .                 KB:   LOG MEASURED FROM
 DAPD.F              10.2:   FEET ABOVE PERMANENT DATUM
 DMF .                 KB:   DRILLING MEASURED FROM
 EKB .F            5176.2:   KELLING BUSHING
 EGL .F              5166:   GROUND LEVEL
 DATE.        17-MAY-1988:   RUN DATE
 RUN .                  1:   RUN NUMBER
 DD  .F               480:   DEPTH DRILLER
 DL  .F               476:   DEPTH LOGGER
 BLI .F               468:   BOTTOM LOG INTERVAL
 TLI .F                47:   TOP LOG INTERVAL
 CS  .IN            9.625:   CASING SIZE
 CBD .F                43:   CASING BOTTOM DRILLER
 CBL .F                47:   CASING BOTTOM LOGGER
 BS  .IN             8.75:   BIT SIZE
 BSD .F               480:   BIT SIZE AT DEPTH
 DFT .                AIR:   DRILLING FLUID TYPE
 TCS .HRS            0630:   TIME CURCULATED STOPPED
 TLAB.HRS            0930:   TIME LOGGER AT BOTTOM
 LUN .               7597:   LOGGING UNIT NUMBER
 LUL .           GILLETTE:   LOGGING UNIT LOCATION
 ENGI.             SLATKY:   RECORDING ENGINEER
 WITN.             STRONG:   WITNESSED BY
 CLNT.            A2DTECH:   CLIENT CODE
 ORIG.           5" PRINT:   ORIGIN OF DATA
 UWI .       490251122400:   UNIQUE WELL ID
 DICO. A2D Technologies, Inc.:   DIGITIZING COMPANY
~OTHER INFORMATION
~A   DEPT      GRR       RILD       RILM   
# ...
  448.6000    94.5030    10.4002    10.0705
  448.7000    94.4200    10.4002    10.0708
  448.8000    94.2057    10.4027    10.0711
  448.9000    94.2095    10.4610    10.0714
  449.0000    94.0061    10.4728    10.1176
  449.1000    93.7671    10.4728    10.1423
  449.2000    93.5281    10.4907    10.1426
  449.3000    93.2891    10.5459    10.1429
  449.4000    93.0126    10.5459    10.1432
  449.5000    92.8111    10.5459    10.1434
  449.6000    92.4291    10.5459    10.1764
  449.7000    91.9481    10.5459    10.2149
  449.8000    91.4671    10.5459    10.2197
  449.9000    90.9066    10.5459    10.2868
  450.0000    90.7071    10.5459    10.2871
  450.1000    90.3271    10.5459    10.2874
  450.2000    89.8461    10.5459    10.2877
  450.3000    89.3840    10.5405    10.2879
  450.4000    89.1036    10.4728    10.2883
  450.5000    88.9061    10.4728    10.2885
  450.6000    88.6671    10.4728    10.2888
  450.7000    88.4281    10.4728    10.2891
  450.8000    88.2058    10.4728    10.2894
  450.9000    88.2096    10.4728    10.2897
  451.0000    88.4101    10.4728    10.2899
  451.1000    88.5182    10.4368    10.2902
  451.2000    88.5212    10.4002    10.2905
  451.3000    88.5392    10.4002    10.2968
  451.4000    88.8309    10.4002    10.3630
  451.5000    89.0293    10.4002    10.3633
  451.6000    89.1394    10.4002    10.3636
  451.7000    89.2163    10.4002    10.3639
  451.8000    89.4485    10.4002    10.3641
  451.9000    89.4521    10.4002    10.3645
  452.0000    89.6485    10.4002    10.3149
  452.1000    89.7606    10.3625    10.2931
  452.2000    89.8355    10.3281    10.2934
  452.3000    90.0697    10.3281    10.2867
  452.4000    90.0727    10.3281    10.2226
  452.5000    90.0758    10.2756    10.2228
  452.6000    90.2097    10.2565    10.2231
  452.7000    90.3848    10.2324    10.2234
  452.8000    90.3879    10.1754    10.2163
  452.9000    90.3909    10.1148    10.1531
  453.0000    90.3939    10.1148    10.1533
  453.1000    90.5258    10.1148    10.1536
  453.2000    90.7030    10.0901    10.1539
  453.3000    90.7061    10.0339    10.1464
  453.4000    90.7091     9.9751    10.0840
  453.5000    90.7121     9.9751    10.0843
  453.6000    90.8420     9.9361    10.0486
  453.7000    91.0212     9.8808    10.0149
  453.8000    91.0291     9.8372    10.0070
  453.9000    91.2742     9.8372     9.9460
  454.0000    91.3333     9.7845     9.8966
  454.1000  -999.2500     9.7690     9.8775
  454.2000  -999.2500     9.7434     9.8557
  454.3000  -999.2500     9.6891     9.8095
  454.4000  -999.2500     9.6341     9.8098
  454.5000  -999.2500     9.5815     9.7606
  454.6000  -999.2500     9.5282     9.7066
  454.7000  -999.2500     9.4751     9.6529
  454.8000  -999.2500     9.4224     9.5994
  454.9000  -999.2500     9.3697     9.5418
  455.0000  -999.2500     9.3177     9.4935
  455.1000  -999.2500     9.2659     9.4409
  455.2000  -999.2500     9.2143     9.3887
  455.3000  -999.2500     9.1762     9.3455
  455.4000  -999.2500     9.1755     9.3458
  455.5000  -999.2500     9.1244     9.2981
  455.6000  -999.2500     9.0736     9.2466
  455.7000  -999.2500     9.0494     9.2174
  455.8000  -999.2500     9.0355     9.2084
  455.9000  -999.2500     8.9867     9.1539
  456.0000  -999.2500     8.9867     9.1542
  456.1000  -999.2500     8.9474     9.1544
  456.2000  -999.2500     8.9244     9.1547
  456.3000  -999.2500     8.9244     9.1454
  456.4000  -999.2500     8.9220     9.0917
  456.5000  -999.2500     8.8625     9.0919
  456.6000  -999.2500     8.8625     9.0922
  456.7000  -999.2500     8.8351     9.0924
  456.8000  -999.2500     8.8011     9.0927
  456.9000  -999.2500     8.8011     9.0930
  457.0000  -999.2500     8.8011     9.0932
  457.1000  -999.2500     8.8011     9.0935
  457.2000  -999.2500     8.8011     9.0937
  457.3000  -999.2500     8.8011     9.0940
  457.4000  -999.2500     8.8011     9.0942
  457.5000  -999.2500     8.8011     9.0945
  457.6000  -999.2500     8.7602     9.0947
  457.7000  -999.2500     8.7400     9.0717
  457.8000  -999.2500     8.7234     9.0321
  457.9000  -999.2500     8.6748     9.0324
  458.0000  -999.2500     8.6193     8.9842
  458.1000  -999.2500     8.6193     8.9702
  458.2000  -999.2500     8.5903     8.9471
  458.3000  -999.2500     8.5595     8.8975
  458.4000  -999.2500     8.5541     8.8469
  458.5000  -999.2500     8.5002     8.7518
  458.6000  -999.2500     8.4592     8.6550
  458.7000  -999.2500     8.4121     8.5592
  458.8000  -999.2500     8.3652     8.4751
  458.9000  -999.2500     8.3186     8.4273
  459.0000  -999.2500     8.2669     8.3815
  459.1000  -999.2500     8.2669     8.3352
  459.2000  -999.2500     8.2376     8.2890
  459.3000  -999.2500     8.1917     8.2431
  459.4000  -999.2500     8.1461     8.1970
  459.5000  -999.2500     8.0962     8.1521
  459.6000  -999.2500     8.0962     8.0737
  459.7000  -999.2500     8.0667     8.0062
  459.8000  -999.2500     8.0218     7.9619
  459.9000  -999.2500     7.9843     7.9177
  460.0000  -999.2500     7.9843     7.8740
  460.1000  -999.2500     7.9843     7.7978
  460.2000  -999.2500     7.9545     7.7330
  460.3000  -999.2500     7.9290     7.6902
  460.4000  -999.2500     7.9290     7.6476
  460.5000  -999.2500     7.9290     7.6053
  460.6000  -999.2500     7.9290     7.5314
  460.7000  -999.2500     7.8986     7.4271
  460.8000  -999.2500     7.8740     7.3039
  460.9000  -999.2500     7.8827     7.1832
  461.0000  -999.2500     7.9290     7.1038
  461.1000  -999.2500     7.9290     7.0253
  461.2000  -999.2500     7.9603     6.9877
  461.3000  -999.2500     8.0048     6.9879
  461.4000  -999.2500     8.0497     6.9899
  461.5000  -999.2500     8.0962     7.0686
  461.6000  -999.2500     8.2287     7.0865
  461.7000  -999.2500     8.3003     7.1287
  461.8000  -999.2500     8.3691     7.2088
  461.9000  -999.2500     8.4521     7.2898
  462.0000  -999.2500     8.5002     7.3718
  462.1000  -999.2500     8.5002     7.4548
  462.2000  -999.2500     8.5002     7.5387
  462.3000  -999.2500     8.5002     7.6234
  462.4000  -999.2500     8.4886     7.7074
  462.5000  -999.2500     8.4413     7.7507
  462.6000  -999.2500     8.4413     7.8638
  462.7000  -999.2500     8.4769     7.9723
  462.8000  -999.2500     8.5002     8.0619
  462.9000  -999.2500     8.5002     8.1525
  463.0000  -999.2500     8.5010     8.2626
  463.1000  -999.2500     8.5486     8.3371
  463.2000  -999.2500     8.5965     8.4309
  463.3000  -999.2500     8.6702     8.5256
  463.4000  -999.2500     8.7675     8.6214
  463.5000  -999.2500     8.8658     8.7371
  463.6000  -999.2500     8.9655     8.8166
  463.7000  -999.2500     9.0263     8.8878
  463.8000  -999.2500     9.1045     8.9535
  463.9000  -999.2500     9.2067     9.0508
  464.0000  -999.2500     9.3099     9.1110
  464.1000  -999.2500  -999.2500     9.1948
  464.2000  -999.2500  -999.2500     9.2686
  464.3000  -999.2500  -999.2500     9.3207
  464.4000  -999.2500  -999.2500     9.3731
  464.5000  -999.2500  -999.2500     9.4350
  464.6000  -999.2500  -999.2500     9.4788
  464.7000  -999.2500  -999.2500     9.5321
  464.8000  -999.2500  -999.2500     9.5857
  464.9000  -999.2500  -999.2500     9.6352
  465.0000  -999.2500  -999.2500     9.6355
  465.1000  -999.2500  -999.2500     9.6807
  465.2000  -999.2500  -999.2500     9.7351
  465.3000  -999.2500  -999.2500     9.7898
  465.4000  -999.2500  -999.2500     9.8448
  465.5000  -999.2500  -999.2500     9.9090
  465.6000  -999.2500  -999.2500     9.9559
  465.7000  -999.2500  -999.2500    10.0119
  465.8000  -999.2500  -999.2500    10.0682
  465.9000  -999.2500  -999.2500    10.1247
  466.0000  -999.2500  -999.2500    10.1902
  466.1000  -999.2500  -999.2500    10.2878
  466.2000  -999.2500  -999.2500    10.3684
  466.3000  -999.2500  -999.2500    10.4267
  466.4000  -999.2500  -999.2500    10.4853
  466.5000  -999.2500  -999.2500    10.5526
  466.6000  -999.2500  -999.2500    10.6036
  466.7000  -999.2500  -999.2500    10.6632
