~VERSION INFORMATION
 VERS.                2.0:   CWLS LOG ASCII STANDARD - VERSION 2.0
 WRAP.                 NO:   ONE LINE PER DEPTH STEP
~WELL INFORMATION
#MNEM.UNIT      DATA TYPE    INFORMATION
#----------   ------------   ------------------------------
 STRT.F           86.5000:   START DEPTH
 STOP.F         1282.0000:   STOP DEPTH
 STEP.F            0.5000:   STEP LENGTH
 NULL.          -999.2500:   NO VALUE
 COMP.      UNITED STATES:   COMPANY
 WELL.             NPR #3:   WELL
 FLD .        TEAPOT DOME:   FIELD
 LOC .      S14 T38N R78W:   LOCATION
 CNTY.            NATRONA:   COUNTY
 STAT.            WYOMING:   STATE
 CTRY. UNITED STATES OF AMERICA:   COUNTRY
 SRVC.       Schlumberger:   SERVICE COMPANY
 DATE.        06-JUL-1962:   LOGDATE
 API .       490250631800:   API NUMBER
~CURVE INFORMATION
#MNEM.UNIT       API CODE    CURVE DESCRIPTION
#----------   ------------   ------------------------------
 DEPT.F                  :   
 SPR .MV     05 010 01 00:   SPONTANEOUS POTENTIAL FROM RES.
 CILD.MMHO   05 110 00 00:   CONDUCTIVITY INDUCTION LOG
 ASN .OHMM   05 041 16 00:   AMPLIFIED SHORT NORMAL 16"
 ILD .OHMM   05 120 46 00:   INDUCTION LOG DEEP
 GR  .GAPI   30 310 01 00:   GAMMA RAY
~PARAMETER INFORMATION
#MNEM.UNIT          VALUE    DESCRIPTION
#----------   ------------   ------------------------------
 PD  .                 GL:   PERMANENT DATUM
 EPD .F              5288:   ELEVATION PERMANENT DATUM
 LMF .                 KB:   LOG MEASURED FROM
 DAPD.F                 5:   FEET ABOVE PERMANENT DATUM
 DMF .                 KB:   DRILLING MEASURED FROM
 EKB .F              5293:   KELLING BUSHING
 EGL .F              5288:   GROUND LEVEL
 DATE.             7-6-62:   RUN DATE
 RUN .                  1:   RUN NUMBER
 DD  .F              1286:   DEPTH DRILLER
 DL  .F              1283:   DEPTH LOGGER
 BLI .F              1282:   BOTTOM LOG INTERVAL
 TLI .F                87:   TOP LOG INTERVAL
 CBD .F                10:   CASING BOTTOM DRILLER
 BS  .IN             6.75:   BIT SIZE
 BSD .F              1286:   BIT SIZE AT DEPTH
 DFT .            GEL-OIL:   DRILLING FLUID TYPE
 DFD .               10.3:   DRILLING FLUID DENSITY
 DFV .                 53:   DRILLING FLUID VISCOSITY
 DFL .                3.6:   DRILLING FLUID LOSS
 MSS .           FLOWLINE:   MUD SAMPLE SOURCE
 RMS .OHMM           5.66:   RESISTIVITY MUD SAMPLE
 MST .F                78:   MUD SAMPLE TEMPERATURE
 RMF .OHMM           5.59:   RESISTIVITY MUD FILTRATE SAMPLE
 MFST.F                78:   MUD FILTRATE SAMPLE TEMPERATURE
 RMC .OHMM           4.47:   RESISTIVITY MUD CAKE
 MCST.F                78:   MUD CAKE SAMPLE TEMPERATURE
 MFSS.                  M:   MUD FILTRATE SAMPLE SOURCE
 MCSS.                  M:   MUD CAKE SAMPLE SOURCE
 RMB .OHMM           5.08:   RESISTIVITY MUD AT BHT
 BHT .F                88:   BOTTOM HOLE TEMPERATURE
 TCS .HRS               1:   TIME CURCULATED STOPPED
 MRT .F                88:   MAXIMUM RECORDED TEMPERATURE
 LUN .               2503:   LOGGING UNIT NUMBER
 LUL .               CSPR:   LOGGING UNIT LOCATION
 ENGI.             KNOBEL:   RECORDING ENGINEER
 WITN.          JORGENSEN:   WITNESSED BY
 CLNT.            A2DTECH:   CLIENT CODE
 ORIG.       2", 5" PRINT:   ORIGIN OF DATA
 UWI .       490250631800:   UNIQUE WELL ID
 DICO. A2D Technologies, Inc.:   DIGITIZING COMPANY
~OTHER INFORMATION
~A   DEPT      SPR       CILD        ASN        ILD         GR   
# ...
  635.5000   -33.0677   337.2639     3.5885     2.4575  -999.2500
  636.0000   -33.5597   285.9966     3.9317     2.9684  -999.2500
  636.5000   -33.9775   249.1898     4.0761     3.4738  -999.2500
  637.0000   -33.9647   235.4198     4.0732     3.9410  -999.2500
  637.5000   -33.9637   224.3862     4.0759     3.9519  -999.2500
  638.0000   -33.9513   225.9979     4.1223     3.9495  -999.2500
  638.5000   -33.8828   231.0132     4.1332     3.9492  -999.2500
  639.0000   -33.8182   235.7482     4.1429     3.9486  -999.2500
  639.5000   -33.8352   237.7503     4.1839     3.9301  -999.2500
  640.0000   -34.1976   237.7503     4.2144     3.8480  -999.2500
  640.5000   -34.5519   240.0627     4.1432     3.7679  -999.2500
  641.0000   -34.7600   245.0780     4.0615     3.6881  -999.2500
  641.5000   -34.7026   253.9030     3.9797     3.6065  -999.2500
  642.0000   -34.6143   268.0092     3.8979     3.4837  -999.2500
  642.5000   -34.5625   291.3155     3.8162     3.2179  -999.2500
  643.0000   -34.5621   314.6218     3.7075     2.9568  -999.2500
  643.5000   -34.5623   337.9281     3.5679     2.6957  -999.2500
  644.0000   -34.5622   357.8767     3.4284     2.4362  -999.2500
  644.5000   -34.3980   370.9805     3.2889     2.2417  -999.2500
  645.0000   -34.2058   373.0260     3.2145     2.2477  -999.2500
  645.5000   -34.0132   362.8219     3.2110     2.2817  -999.2500
  646.0000   -33.8214   350.9676     3.2147     2.4212  -999.2500
  646.5000   -33.6226   337.2178     3.2861     2.5532  -999.2500
  647.0000   -33.6910   322.8398     3.3590     2.7271  -999.2500
  647.5000   -33.9497   300.2375     3.5521     2.8922  -999.2500
  648.0000   -34.2107   274.1819     3.8840     3.0684  -999.2500
  648.5000   -34.4766   245.7620     4.1665     3.5900  -999.2500
  649.0000   -34.7323   222.6510     4.2675     4.0016  -999.2500
  649.5000   -34.9817   212.2025     4.3714     4.1660  -999.2500
  650.0000   -34.9627   200.7113     4.4753     4.3320  -999.2500
  650.5000   -34.9577   200.7113     4.5784     4.4266  -999.2500
  651.0000   -34.9258   203.6183     4.6558     4.4503  -999.2500
  651.5000   -34.8937   210.4263     4.6541     4.4505  -999.2500
  652.0000   -34.8618   219.7231     4.6573     4.1507  -999.2500
  652.5000   -34.8300   236.5927     4.5353     3.8014  -999.2500
  653.0000   -34.7982   263.7476     4.3890     3.4510  -999.2500
  653.5000   -34.7661   292.7419     4.1224     3.0996  -999.2500
  654.0000   -34.7596   321.7362     3.8215     2.7541  -999.2500
  654.5000   -34.7994   343.0451     3.4806     2.6128  -999.2500
  655.0000   -34.8461   352.5162     3.3533     2.4769  -999.2500
  655.5000   -34.8932   357.0477     3.2643     2.4476  -999.2500
  656.0000   -34.9403   361.9427     3.3501     2.4465  -999.2500
  656.5000   -34.9602   358.9949     3.3738     2.4476  -999.2500
  657.0000   -34.9605   349.6430     3.3099     2.4485  -999.2500
  657.5000   -35.0067   328.6102     3.3477     2.6003  -999.2500
  658.0000   -35.0882   300.1559     3.5603     2.9053  -999.2500
  658.5000   -35.1700   271.8862     3.7408     3.2108  -999.2500
  659.0000   -35.2523   251.7650     3.8370     3.5146  -999.2500
  659.5000   -35.3345   241.4141     3.9366     3.7549  -999.2500
  660.0000   -35.4167   235.6481     4.1090     3.8158  -999.2500
  660.5000   -35.4989   231.5013     4.2810     3.9209  -999.2500
  661.0000   -35.5811   230.3401     4.3419     4.0283  -999.2500
  661.5000   -35.6635   229.1789     4.3775     4.0491  -999.2500
  662.0000   -35.7455   228.0177     4.4122     4.0501  -999.2500
  662.5000   -35.7584   229.2413     4.3641     4.0476  -999.2500
  663.0000   -35.6818   233.7460     4.2776     3.9839  -999.2500
  663.5000   -35.5662   242.2066     4.1450     3.7591  -999.2500
  664.0000   -35.4501   258.3730     3.9971     3.5434  -999.2500
  664.5000   -35.3340   277.3346     3.8497     3.3277  -999.2500
  665.0000   -35.2179   296.2961     3.7085     3.1117  -999.2500
  665.5000   -35.1020   315.2576     3.5543     2.8952  -999.2500
  666.0000   -34.9859   327.4607     3.4276     2.6794  -999.2500
  666.5000   -34.8698   331.8493     3.3301     2.6483  -999.2500
  667.0000   -34.7538   334.0302     3.2704     2.6434  -999.2500
  667.5000   -34.6383   343.9410     3.2765     2.5220  -999.2500
  668.0000   -34.5603   354.6330     3.1523     2.3978  -999.2500
  668.5000   -34.5618   368.8883     3.0030     2.2736  -999.2500
  669.0000   -34.5619   375.8531     2.9727     2.1516  -999.2500
  669.5000   -34.5616   382.9475     2.9718     2.1445  -999.2500
  670.0000   -34.5613   390.0418     2.9624     2.0823  -999.2500
  670.5000   -34.5100   412.3528     2.8935     1.8620  -999.2500
  671.0000   -34.4064   441.7810     2.8185     1.6511  -999.2500
  671.5000   -34.3029   480.0053     2.7029     1.4415  -999.2500
  672.0000   -34.1990   522.1884     2.5867     1.2291  -999.2500
  672.5000   -34.0951   548.8719     2.4659     1.1487  -999.2500
  673.0000   -33.9913   555.4894     2.4319     1.1437  -999.2500
  673.5000   -33.8875   531.0692     2.4527     1.1509  -999.2500
  674.0000   -33.7808   508.3381     2.5134     1.3156  -999.2500
  674.5000   -33.9244   482.2012     2.6128     1.4797  -999.2500
  675.0000   -34.1802   448.2295     2.6517     1.6536  -999.2500
  675.5000   -34.4379   411.7134     2.7191     2.0933  -999.2500
  676.0000   -34.6974   349.2980     3.1011     2.5438  -999.2500
  676.5000   -34.9519   292.3332     3.4852     2.9920  -999.2500
  677.0000   -34.9616   266.2371     3.6672     3.4408  -999.2500
  677.5000   -34.8769   246.3889     3.7570     3.6463  -999.2500
  678.0000   -34.7295   246.0183     3.6902     3.5829  -999.2500
  678.5000   -34.5828   257.6278     3.6104     3.4610  -999.2500
  679.0000   -34.4350   269.1870     3.5516     3.3378  -999.2500
  679.5000   -34.4201   280.8520     3.5535     3.2141  -999.2500
  680.0000   -34.5324   291.8072     3.5505     3.0906  -999.2500
  680.5000   -34.5610   320.2285     3.4710     2.7750  -999.2500
  681.0000   -34.5628   356.5096     3.2875     2.3602  -999.2500
  681.5000   -34.5585   398.1062     3.1071     1.9439  -999.2500
  682.0000   -34.4666   439.7029     2.9269     1.5238  -999.2500
  682.5000   -34.3762   498.0242     2.7457     1.4466  -999.2500
  683.0000   -34.2864   488.4879     2.6368     1.4448  -999.2500
  683.5000   -34.1959   497.4974     2.6095     1.4464  -999.2500
  684.0000   -34.1638   485.9070     2.6874     1.4473  -999.2500
  684.5000   -34.1615   461.9915     2.7882     1.5819  -999.2500
  685.0000   -34.2919   437.1405     2.8618     1.8269  -999.2500
  685.5000   -34.5065   408.3895     2.9414     2.0719  -999.2500
  686.0000   -34.7183   370.0881     3.1238     2.3213  -999.2500
  686.5000   -34.9820   330.1944     3.6295     2.8108  -999.2500
  687.0000   -34.9579   276.8753     3.9908     3.3327  -999.2500
  687.5000   -34.7024   244.4427     4.1950     3.8515  -999.2500
  688.0000   -34.4269   225.7354     4.3719     4.2898  -999.2500
  688.5000   -34.3640   213.7146     4.4921     4.4104  -999.2500
  689.0000   -34.3932   210.6955     4.5851     4.5394  -999.2500
  689.5000   -34.4278   207.7085     4.6779     4.6697  -999.2500
  690.0000   -34.4622   201.0476     4.7909     4.7855  -999.2500
  690.5000   -34.4962   194.3358     4.9870     4.9863  -999.2500
  691.0000   -34.5303   187.6239     5.1847     5.1874  -999.2500
  691.5000   -34.5612   180.9120     5.3822     5.3879  -999.2500
  692.0000   -34.5620   173.6828     5.5806     5.5882  -999.2500
  692.5000   -34.5624   169.6341     5.8002     5.7886  -999.2500
  693.0000   -34.6316   165.6744     5.9543     5.9959  -999.2500
  693.5000   -34.7898   165.6744     6.0332     6.0505  -999.2500
  694.0000   -34.9474   167.0108     6.0750     6.0254  -999.2500
  694.5000   -35.1053   168.2446     6.0654     5.9865  -999.2500
  695.0000   -35.2626   168.6776     6.0222     5.9475  -999.2500
  695.5000   -35.3596   168.6776     5.9798     5.9088  -999.2500
  696.0000   -35.3460   169.5956     5.9373     5.8700  -999.2500
