~VERSION INFORMATION
 VERS.                2.0:   CWLS LOG ASCII STANDARD - VERSION 2.0
 WRAP.                 NO:   ONE LINE PER DEPTH STEP
~WELL INFORMATION
#MNEM.UNIT      DATA TYPE    INFORMATION
#----------   ------------   ------------------------------
 STRT.F           50.0000:   START DEPTH
 STOP.F         1020.0000:   STOP DEPTH
 STEP.F            0.5000:   STEP LENGTH
 NULL.          -999.2500:   NO VALUE
 COMP. LAWRENCE/ALLISON INC:   COMPANY
 WELL.      28 STX #14-14:   WELL
 FLD .             TEAPOT:   FIELD
 LOC .      S14 T38N R78W:   LOCATION
 CNTY.            NATRONA:   COUNTY
 STAT.            WYOMING:   STATE
 CTRY. UNITED STATES OF AMERICA:   COUNTRY
 SRVC.            Unknown:   SERVICE COMPANY
 DATE.        22-OCT-1984:   LOGDATE
 API .       490251099000:   API NUMBER
~CURVE INFORMATION
#MNEM.UNIT       API CODE    CURVE DESCRIPTION
#----------   ------------   ------------------------------
 DEPT.F                  :   
 SPR .MV     07 010 01 00:   SPONTANEOUS POTENTIAL
 RILD.OHMM   07 120 46 00:   INDUCTION LOG DEEP RESISTIVITY
 RILM.OHMM   07 120 44 00:   INDUCTION LOG MEDIUM RESISTIVITY
 RFOC.OHMM   07 220 04 00:   RESISTIVITY FOCUSED LOG
 GRD .GAPI   45 310 01 00:   GAMMA RAY FROM DENSITY LOG
 CALD.IN     45 280 60 00:   CALIPER
 DEN .G/C3   45 350 01 00:   COMPENSATED BULK DENSTIY
 CORR.G/C3   45 356 01 00:   DENSITY CORRECTION
 PORD.DEC    45 890 12 00:   POROSITY DENSITY SANDSTONE
 CNC .DEC    42 890 03 00:   NEUTRON POROSITY SANDSTONE
 AC  .US/F   60 520 00 00:   ACOUSTIC SONIC
~PARAMETER INFORMATION
#MNEM.UNIT          VALUE    DESCRIPTION
#----------   ------------   ------------------------------
 PD  .                 GL:   PERMANENT DATUM
 EPD .F              5257:   ELEVATION PERMANENT DATUM
 LMF .                 KB:   LOG MEASURED FROM
 DAPD.F                12:   FEET ABOVE PERMANENT DATUM
 DMF .                 KB:   DRILLING MEASURED FROM
 EKB .F              5269:   KELLING BUSHING
 EGL .F              5257:   GROUND LEVEL
 DATE.           10-22-84:   RUN DATE
 RUN .                  1:   RUN NUMBER
 DD  .F              1020:   DEPTH DRILLER
 DL  .F              1019:   DEPTH LOGGER
 BLI .F              1017:   BOTTOM LOG INTERVAL
 TLI .F                52:   TOP LOG INTERVAL
 CS  .IN               16:   CASING SIZE
 CBD .F                40:   CASING BOTTOM DRILLER
 CBL .F                52:   CASING BOTTOM LOGGER
 BS  .IN            12.25:   BIT SIZE
 BSD .F              1020:   BIT SIZE AT DEPTH
 DFT .          GEL/WATER:   DRILLING FLUID TYPE
 DFD .                9.1:   DRILLING FLUID DENSITY
 DFV .                 35:   DRILLING FLUID VISCOSITY
 MSS .           FLOWLINE:   MUD SAMPLE SOURCE
 RMS .OHMM           2.04:   RESISTIVITY MUD SAMPLE
 MST .F                76:   MUD SAMPLE TEMPERATURE
 RMF .OHMM           1.53:   RESISTIVITY MUD FILTRATE SAMPLE
 MFST.F                76:   MUD FILTRATE SAMPLE TEMPERATURE
 RMC .OHMM           2.55:   RESISTIVITY MUD CAKE
 MCST.F                76:   MUD CAKE SAMPLE TEMPERATURE
 MFSS.               CALC:   MUD FILTRATE SAMPLE SOURCE
 MCSS.               CALC:   MUD CAKE SAMPLE SOURCE
 TCS .HRS               3:   TIME CURCULATED STOPPED
 MRT .F               100:   MAXIMUM RECORDED TEMPERATURE
 LUN .            HL 6307:   LOGGING UNIT NUMBER
 LUL .           GILLETTE:   LOGGING UNIT LOCATION
 ENGI.          CROSSBERG:   RECORDING ENGINEER
 WITN.            JOHNSON:   WITNESSED BY
 CLNT.            A2DTECH:   CLIENT CODE
 ORIG.       2", 5" PRINT:   ORIGIN OF DATA
 UWI .       490251099000:   UNIQUE WELL ID
 DICO. A2D Technologies, Inc.:   DIGITIZING COMPANY
~OTHER INFORMATION
~A   DEPT      SPR       RILD       RILM       RFOC        GRD        CALD       DEN       CORR       PORD          CNC       AC   
# ...
  233.0000   -64.2792     5.1138     3.7045     4.4612    85.7040    12.3020     2.3904     0.0039     0.1722     0.2941   113.9022
  233.5000   -64.2049     5.0332     3.6414     4.3851    87.9622    12.3013     2.3877     0.0067     0.1754     0.2938   113.5013
  234.0000   -64.1567     4.8756     3.5658     4.2437    90.1908    12.3005     2.3814    -0.0013     0.1787     0.3227   113.0888
  234.5000   -63.3293     4.7000     3.4690     4.1068    89.4408    12.2997     2.3751    -0.0106     0.1819     0.3272   112.9521
  235.0000   -62.3883     4.3394     3.3749     4.0180    88.5824    12.2988     2.3702    -0.0199     0.1837     0.3162   113.9421
  235.5000   -61.4364     3.9528     3.1931     4.0077    88.3266    12.2979     2.3717    -0.0214     0.1812     0.3122   114.3014
  236.0000   -60.4929     3.6006     2.8748     3.9967    86.2642    12.2969     2.3735    -0.0029     0.1817     0.3259   113.7827
  236.5000   -59.6249     3.2798     2.5877     3.9875    83.1659    12.2960     2.3719     0.0257     0.2021     0.3466   113.4032
  237.0000   -59.1715     2.9876     2.3296     3.7666    82.7216    12.2951     2.3340     0.0544     0.2267     0.3645   114.4481
  237.5000   -58.6999     2.7087     2.0975     3.4016    87.3207    12.2941     2.2855     0.0514     0.2517     0.3825   117.1707
  238.0000   -58.2239     2.6160     1.9984     3.0719    91.5864    12.2932     2.2475     0.0432     0.2694     0.4005   121.4505
  238.5000   -57.7653     2.5167     2.0552     2.7590    93.5913    12.2922     2.2223     0.0406     0.2730     0.4148   126.0975
  239.0000   -57.7536     2.5167     2.1590     2.7590    93.2823    12.2913     2.2252     0.0446     0.2631     0.4151   126.8812
  239.5000   -58.1340     2.5634     2.2684     2.9418    92.7169    12.2904     2.2403     0.0484     0.2495     0.3739   126.6681
  240.0000   -59.1526     2.7555     2.4237     3.1114    93.4254    12.2894     2.2647     0.0349     0.2358     0.3270   125.1904
  240.5000   -60.1612     3.0962     2.6750     3.2908    90.9785    12.2885     2.2886     0.0140     0.2222     0.3174   123.5911
  241.0000   -61.1707     3.4791     2.9528     3.5325    88.0979    12.2876     2.3124    -0.0068     0.2086     0.3079   121.2488
  241.5000   -62.1806     3.9092     3.2605     3.8407    85.1906    12.2866     2.3362    -0.0096     0.1950     0.2952   116.6196
  242.0000   -63.1900     4.3926     3.5196     4.1757    82.2869    12.2857     2.3591    -0.0074     0.1853     0.3018   111.9973
  242.5000   -64.1995     4.8006     3.7703     4.4908    82.1097    12.2847     2.3684    -0.0048     0.1873     0.3230   107.6072
  243.0000   -65.2103     5.1933     3.9302     4.2577    85.8106    12.2838     2.3603    -0.0023     0.1942     0.3441   106.1178
  243.5000   -66.2219     5.6510     4.1042     4.0590    89.5176    12.2829     2.3510     0.0003     0.2005     0.3407   106.9968
  244.0000   -67.2198     5.8320     4.2859     4.1670    91.2297    12.2820     2.3428     0.0016     0.1993     0.3219   108.4406
  244.5000   -67.9350     6.0372     4.4757     4.4403    90.7095    12.2809     2.3468    -0.0161     0.1966     0.3000   109.5334
  245.0000   -68.0660     6.2485     4.6738     4.7314    89.6173    12.2807     2.3509    -0.0259     0.1939     0.2781   108.7955
  245.5000   -68.2536     6.4851     4.8807     4.8898    88.5090    12.2453     2.3547    -0.0006     0.1904     0.2730   106.8483
  246.0000   -68.4398     6.7783     5.0968     4.9123    87.5237    12.1960     2.3630     0.0347     0.1859     0.2764   104.5783
  246.5000   -68.3483     7.1113     5.2504     4.9633    88.2429    12.1461     2.3718     0.0601     0.1816     0.2781   102.9461
  247.0000   -67.6526     7.4606     5.2989     5.0422    89.8227    12.1573     2.3759     0.0463     0.1828     0.2770   102.7245
  247.5000   -65.8104     7.8271     5.3205     5.1224    90.0186    12.1762     2.3576     0.0653     0.1945     0.2746   102.7245
  248.0000   -63.9302     8.0252     5.3511     5.2038    89.6810    12.1952     2.3378     0.0918     0.2106     0.2767   102.6247
  248.5000   -62.0091     8.0483     5.3819     5.2864    90.0734    12.2140     2.3244     0.1005     0.2117     0.2841   102.3058
  249.0000   -61.7757     8.0714     5.3972     5.3705    91.2685    12.2328     2.3462     0.0574     0.1871     0.2915   101.3512
  249.5000   -61.6014     8.0875     5.4470     5.4470    92.4518    12.2516     2.3815     0.0301     0.1645     0.2989   100.3965
  250.0000   -61.4153     7.7673     5.3794     5.4470    92.6349    12.2704     2.4166     0.0204     0.1418     0.3063    99.7608
  250.5000   -61.2256     7.5283     5.3266     5.2883    91.5552    12.2797     2.4454     0.0113     0.1392     0.3137    99.8608
  251.0000   -60.9963     7.2971     5.2747     5.1481    89.0200    12.2801     2.4415     0.0022     0.1446     0.3212   100.1717
  251.5000   -60.7299     7.0733     5.1541     5.0115    86.4695    12.2803     2.4346    -0.0071     0.1490     0.3285   101.0279
  252.0000   -60.4665     6.8564     4.9720     4.8786    84.7873    12.2805     2.4275    -0.0071     0.1520     0.3338   102.2720
  252.5000   -60.4287     6.6461     4.7964     4.7492    86.1816    12.2807     2.4205     0.0006     0.1548     0.3262   103.7085
  253.0000   -60.7473     6.4423     4.6164     4.6233    88.2029    12.2809     2.4195     0.0119     0.1560     0.2850   104.2631
  253.5000   -61.0543     6.2448     4.3394     4.5007    88.1842    12.2810     2.4215     0.0232     0.1533     0.3017   104.8926
  254.0000   -61.3618     5.8072     4.0610     4.3813    86.6096    12.2812     2.4273     0.0335     0.1508     0.3186   105.8314
  254.5000   -61.6697     5.3207     3.7856     4.2957    86.7725    12.2815     2.4313     0.0384     0.1484     0.3251   107.3800
  255.0000   -61.9774     4.8752     3.4513     4.2032    89.4135    12.2816     2.4298     0.0434     0.1505     0.3369   108.8313
  255.5000   -62.2852     4.4672     3.1477     4.1128    91.1055    12.2818     2.4144     0.0484     0.1561     0.3613   109.6830
  256.0000   -62.5947     4.0927     2.8697     4.0218    90.9980    12.2820     2.3756     0.0589     0.1860     0.3681   110.9508
  256.5000   -62.8013     3.8384     2.7845     3.2959    88.6251    12.2822     2.3283     0.0723     0.2142     0.3691   114.8004
  257.0000   -62.9340     3.7743     2.9320     3.0246    86.1383    12.2824     2.2830     0.0687     0.2391     0.3488   114.9002
  257.5000   -63.0659     3.7747     3.0599     3.2016    83.6498    12.2826     2.2761     0.0416     0.2429     0.3325   113.9022
  258.0000   -62.9147     3.9355     3.2100     3.5179    83.2506    12.2828     2.3223     0.0149     0.2087     0.3163   110.9558
  258.5000   -62.3777     4.1858     3.4405     4.0883    85.8024    12.2830     2.3606    -0.0022     0.1811     0.3034   108.1244
  259.0000   -61.8449     4.5057     3.6876     4.2443    88.3123    12.2832     2.3929    -0.0013     0.1696     0.3038   105.8317
  259.5000   -61.3108     4.6437     3.9524     4.2861    89.2704    12.2834     2.4049     0.0032     0.1618     0.3118   105.1637
  260.0000   -60.7791     5.1366     4.1840     4.3284    89.8103    12.2836     2.4122     0.0061     0.1583     0.3122   105.7547
  260.5000   -60.2503     5.9314     4.2371     4.3710    88.3779    12.2838     2.4199     0.0045     0.1549     0.3034   106.3174
  261.0000   -59.8985     6.1945     4.2908     4.4141    86.9419    12.2840     2.4207     0.0026     0.1541     0.2992   105.8854
  261.5000   -59.7938     6.1645     4.3456     4.4576    86.0768    12.2842     2.4211     0.0137     0.1533     0.2854   105.2842
  262.0000   -59.6884     6.1431     4.4091     4.4908    88.2729    12.2844     2.4221     0.0293     0.1526     0.2840   104.6830
  262.5000   -59.5852     6.1219     4.3621     4.4287    90.4036    12.2846     2.4238     0.0365     0.1519     0.2846   104.2715
  263.0000   -59.4825     6.1007     4.2900     4.3794    88.2913    12.2848     2.4255     0.0277     0.1515     0.2858   104.4912
