~VERSION INFORMATION
 VERS.                2.0:   CWLS LOG ASCII STANDARD - VERSION 2.0
 WRAP.                 NO:   ONE LINE PER DEPTH STEP
~WELL INFORMATION
#MNEM.UNIT      DATA TYPE    INFORMATION
#----------   ------------   ------------------------------
 STRT.F           35.0000:   START DEPTH
 STOP.F          977.0000:   STOP DEPTH
 STEP.F            0.5000:   STEP LENGTH
 NULL.          -999.2500:   NO VALUE
 COMP. FENIX & SCISSON INC:   COMPANY
 WELL.  NPR-3 "SX" #52-14:   WELL
 FLD .             TEAPOT:   FIELD
 LOC .      S14 T38N R78W:   LOCATION
 CNTY.            NATRONA:   COUNTY
 STAT.            WYOMING:   STATE
 CTRY. UNITED STATES OF AMERICA:   COUNTRY
 SRVC.            Unknown:   SERVICE COMPANY
 DATE.        13-MAR-1978:   LOGDATE
 API .       490251059900:   API NUMBER
~CURVE INFORMATION
#MNEM.UNIT       API CODE    CURVE DESCRIPTION
#----------   ------------   ------------------------------
 DEPT.F                  :   
 CALD.IN     45 280 60 00:   CALIPER FROM DENSITY LOG
 GRD .GAPI   45 310 01 00:   GAMMA RAY FROM DENSITY LOG
 CORR.G/C3   45 356 01 00:   DENSITY CORRECTION
 RHOB.G/C3   45 350 01 00:   BULK DENSITY
 DPHI.DEC    45 890 12 00:   DENSITY POROSITY SANDSTONE
 SPR .MV     07 010 01 00:   SPONTANEOUS POTENTIAL FROM RES. LOG
 ILD .OHMM   07 120 46 00:   INDUCTION LOG DEEP
 SN  .OHMM   07 040 16 00:   SHORT NORMAL 16'
~PARAMETER INFORMATION
#MNEM.UNIT          VALUE    DESCRIPTION
#----------   ------------   ------------------------------
 PD  .                 GL:   PERMANENT DATUM
 EPD .F              5223:   ELEVATION PERMANENT DATUM
 LMF .                 KB:   LOG MEASURED FROM
 DAPD.F                 4:   FEET ABOVE PERMANENT DATUM
 DMF .                 KB:   DRILLING MEASURED FROM
 EKB .F              5227:   KELLING BUSHING
 EGL .F              5223:   GROUND LEVEL
 DATE.            3-13-78:   RUN DATE
 RUN .                  1:   RUN NUMBER
 DD  .F               975:   DEPTH DRILLER
 DL  .F               977:   DEPTH LOGGER
 BLI .F               971:   BOTTOM LOG INTERVAL
 TLI .F                50:   TOP LOG INTERVAL
 CS  .IN            8.625:   CASING SIZE
 CBD .F                40:   CASING BOTTOM DRILLER
 CBL .F                40:   CASING BOTTOM LOGGER
 BS  .IN            7.875:   BIT SIZE
 BSD .F               975:   BIT SIZE AT DEPTH
 DFT .                KCL:   DRILLING FLUID TYPE
 DFD .                8.6:   DRILLING FLUID DENSITY
 DFV .                 33:   DRILLING FLUID VISCOSITY
 DFPH.               10.5:   DRILLING FLUID PH
 DFL .               11.6:   DRILLING FLUID LOSS
 MSS .          FLOW LINE:   MUD SAMPLE SOURCE
 RMS .OHMM            .34:   RESISTIVITY MUD SAMPLE
 MST .F                60:   MUD SAMPLE TEMPERATURE
 RMF .OHMM            .36:   RESISTIVITY MUD FILTRATE SAMPLE
 MFST.F                62:   MUD FILTRATE SAMPLE TEMPERATURE
 RMC .OHMM            .75:   RESISTIVITY MUD CAKE
 MCST.F                59:   MUD CAKE SAMPLE TEMPERATURE
 MFSS.               MEAS:   MUD FILTRATE SAMPLE SOURCE
 MCSS.               MEAS:   MUD CAKE SAMPLE SOURCE
 RMB .OHMM            .27:   RESISTIVITY MUD AT BHT
 BHT .F                75:   BOTTOM HOLE TEMPERATURE
 TCS .HRS               4:   TIME CURCULATED STOPPED
 MRT .F                75:   MAXIMUM RECORDED TEMPERATURE
 LUN .               2958:   LOGGING UNIT NUMBER
 LUL .               CASP:   LOGGING UNIT LOCATION
 ENGI.             MILLER:   RECORDING ENGINEER
 WITN.            RHOADES:   WITNESSED BY
 CLNT.            A2DTECH:   CLIENT CODE
 ORIG.       2", 5" PRINT:   ORIGIN OF DATA
 UWI .       490251059900:   UNIQUE WELL ID
 DICO. A2D Technologies, Inc.:   DIGITIZING COMPANY
~OTHER INFORMATION
~A   DEPT     CALD         GRD      CORR       RHOB       DPHI        SPR        ILD         SN   
# ...
  197.0000     8.0703    83.9609     0.0119     2.4088     0.1423   -53.1805     7.1722     8.2117
  197.5000     8.0708    84.3665     0.0139     2.4049     0.1456   -52.5929     7.1729     8.1729
  198.0000     8.0712    84.1696     0.0161     2.4000     0.1483   -53.2247     7.1729     8.1343
  198.5000     8.0716    83.9931     0.0202     2.3949     0.1505   -54.1440     7.0789     8.0959
  199.0000     8.0721    83.8145     0.0313     2.3975     0.1452   -53.5572     6.8945     8.0576
  199.5000     8.0725    83.8476     0.0424     2.4072     0.1396   -52.2493     6.7150     8.0196
  200.0000     8.0730    83.9215     0.0539     2.4169     0.1402   -51.9817     6.5401     7.9817
  200.5000     8.0734    83.9960     0.0538     2.4235     0.1409   -51.7630     6.4202     7.9440
  201.0000     8.0738    84.0686     0.0312     2.4148     0.1408   -51.5406     6.4995     7.9722
  201.5000     8.0743    84.1467     0.0141     2.4071     0.1396   -51.3159     6.5725     8.0082
  202.0000     8.0747    84.2790     0.0115     2.4112     0.1384   -51.4111     6.6464     8.0443
  202.5000     8.0751    85.4195     0.0087     2.4121     0.1372   -51.8066     6.7211     8.0805
  203.0000     8.0756    87.1310     0.0137     2.4095     0.1372   -51.2599     6.7966     8.1170
  203.5000     8.0760    90.8959     0.0169     2.4172     0.1372   -50.4651     6.8730     8.1535
  204.0000     8.0765    94.6274     0.0177     2.4239     0.1346   -51.4154     6.9601     8.1903
  204.5000     8.0771    94.6951     0.0185     2.4214     0.1332   -51.8389     7.0591     8.2272
  205.0000     8.0776    92.9730     0.0194     2.4194     0.1353   -51.1902     7.1594     8.3771
  205.5000     8.0781    92.1528     0.0202     2.4178     0.1399   -51.6826     7.2611     8.5842
  206.0000     8.0786    91.6368     0.0205     2.4133     0.1446   -52.2079     7.3643     8.7967
  206.5000     8.0792    89.8390     0.0205     2.4041     0.1472   -51.0834     7.4690     8.9729
  207.0000     8.0797    89.1899     0.0232     2.4010     0.1444   -50.4131     7.5751     9.0419
  207.5000     8.0802    88.7585     0.0353     2.4064     0.1418   -50.5494     7.6828     9.1176
  208.0000     8.0808    85.6064     0.0321     2.4115     0.1388   -51.0382     7.7920     9.1010
  208.5000     8.0813    83.1622     0.0260     2.4158     0.1368   -51.3855     7.9027     9.0790
  209.0000     8.0818    84.9423     0.0229     2.4133     0.1383   -51.4058     7.9401     9.0570
  209.5000     8.0823    88.6010     0.0196     2.4098     0.1424   -51.9916     7.8916     9.0356
  210.0000     8.0829    94.3902     0.0166     2.4062     0.1441   -52.7123     7.8462     8.8792
  210.5000     8.0834    97.3557     0.0174     2.4030     0.1430   -51.6076     7.8011     8.7346
  211.0000     8.0839    95.3074     0.0186     2.4028     0.1388   -51.2331     7.5802     8.5920
  211.5000     8.0844    90.6405     0.0197     2.4038     0.1345   -52.3039     7.3375     8.4518
  212.0000     8.0850    87.2240     0.0219     2.4113     0.1303   -52.0501     7.1026     8.3138
  212.5000     8.0855    87.7121     0.0263     2.4197     0.1260   -51.6620     6.9768     8.1589
  213.0000     8.0860    87.6868     0.0250     2.4287     0.1218   -51.9077     6.9776     8.1406
  213.5000     8.0866    85.2296     0.0192     2.4387     0.1204   -52.1376     6.9771     8.1245
  214.0000     8.0871    77.0281     0.0127     2.4365     0.1226   -51.8825     6.9784     8.1078
  214.5000     8.0876    77.8138     0.0125     2.4324     0.1248   -51.7125     6.9745     8.0909
  215.0000     8.0882    81.9416     0.0125     2.4284     0.1269   -52.5891     7.0341     8.0739
  215.5000     8.0887    88.5638     0.0125     2.4240     0.1343   -52.4376     6.9817     8.0570
  216.0000     8.0892    88.4286     0.0116     2.4102     0.1414   -52.5097     6.9469     8.0402
  216.5000     8.0897    87.6858     0.0104     2.4070     0.1395   -52.7776     6.9115     8.0233
  217.0000     8.0903    86.9748     0.0093     2.4125     0.1376   -53.0425     6.8762     8.0138
  217.5000     8.0908    86.6543     0.0097     2.4150     0.1429   -53.5144     6.8081     7.9669
  218.0000     8.0913    86.8118     0.0126     2.3996     0.1485   -54.2689     6.6330     7.9217
  218.5000     8.0918    85.1190     0.0156     2.3967     0.1437   -54.2824     6.4624     7.8767
  219.0000     8.0924    83.1691     0.0153     2.4027     0.1429   -53.7685     6.2962     7.8320
  219.5000     8.0929    84.3435     0.0137     2.4016     0.1454   -52.8135     6.1343     7.7875
  220.0000     8.0934    87.9907     0.0119     2.3935     0.1457   -52.8536     6.0099     7.7434
  220.5000     8.0940    91.3126     0.0114     2.3995     0.1444   -52.9333     5.9901     7.6994
  221.0000     8.0945    91.6621     0.0180     2.4114     0.1396   -52.9610     5.9704     7.6557
  221.5000     8.0950    87.3572     0.0188     2.4174     0.1340   -54.0245     5.9628     7.6123
  222.0000     8.0956    82.9380     0.0160     2.4148     0.1292   -54.8647     5.9628     7.5691
  222.5000     8.0964    83.9556     0.0131     2.4203     0.1280   -54.1997     5.9628     7.5261
  223.0000     8.0844    84.9943     0.0106     2.4260     0.1332   -54.3340     5.9628     7.4834
  223.5000     8.0689    85.3609     0.0129     2.4153     0.1394   -54.5245     5.9629     7.4410
  224.0000     8.0534    85.7156     0.0151     2.4035     0.1468   -53.9583     5.9629     7.3989
  224.5000     8.0380    87.6175     0.0167     2.3965     0.1471   -54.1933     5.9628     7.3572
  225.0000     8.0350    89.8269     0.0107     2.4009     0.1461   -54.6912     5.9628     7.3150
  225.5000     8.0338    89.6914     0.0032     2.4052     0.1467   -54.2980     5.9330     7.2136
  226.0000     8.0326    86.8000     0.0030     2.4028     0.1458   -54.2090     5.8589     7.0988
  226.5000     8.0315    84.2156     0.0068     2.3988     0.1413   -54.7673     5.7857     6.9859
  227.0000     8.0303    84.8291     0.0106     2.4011     0.1368   -54.7510     5.7134     6.8740
  227.5000     8.0291    87.7911     0.0183     2.4097     0.1320   -54.1148     5.6413     6.7828
  228.0000     8.0279    90.4535     0.0158     2.4192     0.1312   -54.7175     5.6415     6.7701
  228.5000     8.0267    94.4080     0.0094     2.4174     0.1380   -54.8240     5.6413     6.7575
  229.0000     8.0255    98.3070     0.0029     2.4082     0.1418   -54.6027     5.6413     6.7446
  229.5000     8.0243    95.0771     0.0041     2.4020     0.1421   -55.0163     5.6413     6.7317
  230.0000     8.0231    89.7696     0.0098     2.4069     0.1424   -55.1647     5.6414     6.7188
  230.5000     8.0219    89.8253     0.0089     2.4058     0.1448   -53.9673     5.6414     6.7059
  231.0000     8.0207    90.8424     0.0069     2.3993     0.1472   -54.3686     5.6414     6.6930
  231.5000     8.0196    88.0957     0.0099     2.3936     0.1479   -53.9572     5.6027     6.6799
  232.0000     8.0184    84.3899     0.0145     2.3919     0.1480   -53.7347     5.5001     6.6665
  232.5000     8.0172    83.7888     0.0165     2.3924     0.1467   -54.6136     5.3996     6.6369
  233.0000     8.0160    83.3884     0.0166     2.3937     0.1455   -55.4929     5.3010     6.5496
  233.5000     8.0148    82.9355     0.0190     2.3979     0.1415   -56.3750     5.2041     6.2447
  234.0000     8.0136    82.6444     0.0245     2.4021     0.1339   -55.8474     5.1089     6.1894
  234.5000     8.0124    84.8652     0.0263     2.4063     0.1288   -55.3837     5.0155     6.1330
  235.0000     8.0112    86.7038     0.0165     2.4105     0.1336   -55.6149     4.9569     6.0743
  235.5000     8.0100    87.0265     0.0083     2.4148     0.1370   -55.4577     4.9706     6.0896
  236.0000     8.0088    88.4714     0.0085     2.4162     0.1407   -54.9798     4.9892     6.1055
  236.5000     8.0076    91.0677     0.0085     2.4059     0.1444   -55.3446     5.0076     6.1216
  237.0000     8.0064    91.4825     0.0085     2.4000     0.1450   -55.5110     5.0261     6.1377
