~VERSION INFORMATION
 VERS.                2.0:   CWLS LOG ASCII STANDARD - VERSION 2.0
 WRAP.                 NO:   ONE LINE PER DEPTH STEP
~WELL INFORMATION
#MNEM.UNIT      DATA TYPE    INFORMATION
#----------   ------------   ------------------------------
 STRT.F           15.0000:   START DEPTH
 STOP.F          557.0000:   STOP DEPTH
 STEP.F            0.5000:   STEP LENGTH
 NULL.          -999.2500:   NO VALUE
 COMP. FENIX & SICISSOR INC.:   COMPANY
 WELL.       NPR #85-S-10:   WELL
 FLD .             TEAPOT:   FIELD
 LOC .      S10 T38N R78W:   LOCATION
 CNTY.            NATRONA:   COUNTY
 STAT.            WYOMING:   STATE
 CTRY. UNITED STATES OF AMERICA:   COUNTRY
 SRVC.           BIRDWELL:   SERVICE COMPANY
 DATE.        27-NOV-1978:   LOGDATE
 API .       490251075300:   API NUMBER
~CURVE INFORMATION
#MNEM.UNIT       API CODE    CURVE DESCRIPTION
#----------   ------------   ------------------------------
 DEPT.F                  :   
 CALD.IN     45 280 60 00:   CALIPER FROM DENSITY LOG
 DPHI.DEC    45 890 12 00:   DENSITY POROSITY SANDSTONE
 GRD .GAPI   45 310 01 00:   GAMMA RAY FROM DENSITY LOG
 RHOB.G/C3   45 350 01 00:   BULK DENSITY
 CORR.G/C3   45 356 01 00:   DENSITY CORRECTION
 ILD .OHMM   05 120 46 00:   INDUCTION LOG DEEP
 SN  .OHMM   05 040 00 00:   SHORT NORMAL
 SPR .MV     05 010 01 00:   SPONTANEOUS POTENTIAL
~PARAMETER INFORMATION
#MNEM.UNIT          VALUE    DESCRIPTION
#----------   ------------   ------------------------------
 PD  .                 GL:   PERMANENT DATUM
 EPD .F              5196:   ELEVATION PERMANENT DATUM
 LMF .                 KB:   LOG MEASURED FROM
 DAPD.F                 4:   FEET ABOVE PERMANENT DATUM
 DMF .                 KB:   DRILLING MEASURED FROM
 EKB .F              5200:   KELLING BUSHING
 EGL .F              5196:   GROUND LEVEL
 DATE.        27-NOV-1978:   RUN DATE
 RUN .                  1:   RUN NUMBER
 DD  .F               557:   DEPTH DRILLER
 DL  .F               551:   DEPTH LOGGER
 BLI .F               545:   BOTTOM LOG INTERVAL
 TLI .F                48:   TOP LOG INTERVAL
 CS  .IN            8.625:   CASING SIZE
 CBD .F                40:   CASING BOTTOM DRILLER
 CBL .F                35:   CASING BOTTOM LOGGER
 BS  .IN            7.875:   BIT SIZE
 BSD .F               557:   BIT SIZE AT DEPTH
 DFT .                KCL:   DRILLING FLUID TYPE
 DFD .                8.8:   DRILLING FLUID DENSITY
 DFV .                 38:   DRILLING FLUID VISCOSITY
 DFPH.               11.1:   DRILLING FLUID PH
 DFL .                 14:   DRILLING FLUID LOSS
 MSS .           FLOWLINE:   MUD SAMPLE SOURCE
 RMS .OHMM           0.32:   RESISTIVITY MUD SAMPLE
 MST .F                58:   MUD SAMPLE TEMPERATURE
 RMF .OHMM           0.31:   RESISTIVITY MUD FILTRATE SAMPLE
 MFST.F                74:   MUD FILTRATE SAMPLE TEMPERATURE
 RMC .OHMM           0.53:   RESISTIVITY MUD CAKE
 MCST.F                75:   MUD CAKE SAMPLE TEMPERATURE
 MFSS.               MEAS:   MUD FILTRATE SAMPLE SOURCE
 MCSS.               MEAS:   MUD CAKE SAMPLE SOURCE
 RMB .OHMM           0.31:   RESISTIVITY MUD AT BHT
 BHT .F                59:   BOTTOM HOLE TEMPERATURE
 TCS .HRS               2:   TIME CURCULATED STOPPED
 MRT .F                59:   MAXIMUM RECORDED TEMPERATURE
 LUN .               2958:   LOGGING UNIT NUMBER
 LUL .             CASPER:   LOGGING UNIT LOCATION
 ENGI.             MILLER:   RECORDING ENGINEER
 WITN.           DINSMORE:   WITNESSED BY
 CLNT.            A2DTECH:   CLIENT CODE
 ORIG.         2.5" PRINT:   ORIGIN OF DATA
 UWI .       490251075300:   UNIQUE WELL ID
 DICO. A2D Technologies, Inc.:   DIGITIZING COMPANY
~OTHER INFORMATION
~A   DEPT     CALD       DPHI         GRD      RHOB       CORR        ILD         SN        SPR   
# ...
  339.0000     8.3118     0.1656   122.5812     2.4028     0.0072     6.7329     8.1862   -10.1281
  339.5000     8.3123     0.1703   121.6613     2.4006     0.0072     6.7320     8.1874   -10.1250
  340.0000     8.3129     0.1709   121.9759     2.3991     0.0072     6.7310     8.0521   -10.4271
  340.5000     8.2829     0.1697   129.3893     2.3991     0.0012     6.6911     7.9631   -10.4238
  341.0000     8.2835     0.1661   130.0125     2.4006    -0.0018     6.4088     7.8138   -10.4207
  341.5000     8.2840     0.1630   130.3271     2.4022    -0.0048     6.0020     7.5901   -10.4177
  342.0000     8.2847     0.1630   127.7510     2.4022    -0.0048     5.7671     7.3192   -10.4146
  342.5000     8.2853     0.1709   125.6224     2.4007    -0.0047     5.7464     6.9257   -10.4110
  343.0000     8.2859     0.1868   124.4809     2.3943    -0.0017     5.7656     6.7351   -10.7130
  343.5000     8.2865     0.1935   124.1782     2.3813    -0.0012     5.6847     6.6422   -10.7100
  344.0000     8.2871     0.1962   124.0782     2.3602     0.0020     5.6049     6.7369   -10.7071
  344.5000     8.2877     0.1968   126.0372     2.3519     0.0044     5.5198     6.8330   -10.7042
  345.0000     8.2883     0.1914   130.5093     2.3508     0.0115     5.3729     6.8339   -11.0061
  345.5000     8.3196     0.1826   131.7814     2.3672     0.0164     5.3722     6.8348   -11.0030
  346.0000     8.3204     0.1743   132.2357     2.3869     0.0119     5.3714     6.7406   -11.0000
  346.5000     8.3210     0.1658   132.2417     2.3940     0.0027     5.3707     6.5996   -10.9970
  347.0000     8.2909     0.1526   131.6304     2.4008     0.0165     5.3699     6.3747   -10.9939
  347.5000     8.3221     0.1442   127.6240     2.4205     0.0316     5.3691     6.6767   -10.9909
  348.0000     8.3227     0.1442   124.2349     2.4341     0.0346     5.3683     7.0361   -10.9878
  348.5000     8.3233     0.1460   122.6976     2.4326     0.0165     5.4432     7.1346   -10.9842
  349.0000     8.3546     0.1502   121.4507     2.4281     0.0015     5.5193     7.1356   -11.2861
  349.5000     8.3552     0.1562   120.4887     2.4190    -0.0075     5.7551     7.2373   -11.2832
  350.0000     8.3558     0.1634   120.8642     2.4100    -0.0075     6.0011     7.3405   -11.5854
  350.5000     8.3564     0.1692   119.3456     2.4005    -0.0105     6.1779     7.3414   -11.8872
  351.0000     8.3571     0.1787   117.6029     2.3893    -0.0105     6.2568     7.3424   -12.4939
  351.5000     8.3577     0.1913   116.7557     2.3716    -0.0105     6.2559     7.3435   -12.7958
  352.0000     8.3583     0.2009   116.8395     2.3540    -0.0097     6.2260     7.3445   -12.7927
  352.5000     8.3589     0.2057   118.2846     2.3445    -0.0075     5.9280     7.2431   -12.4848
  353.0000     8.3595     0.1913   120.8179     2.3375    -0.0074     5.5913     7.2117   -12.4817
  353.5000     8.3602     0.1760   130.7840     2.3477    -0.0061     5.2120     7.1442   -12.4787
  354.0000     8.3608     0.1669   130.7758     2.3833    -0.0044     4.9970     6.9008   -12.6240
  354.5000     8.3614     0.1664   129.6574     2.4010    -0.0044     4.9269     6.3663   -12.9507
  355.0000     8.3620     0.1657   125.2727     2.4011    -0.0074     4.8578     5.9568   -12.7739
  355.5000     8.3626     0.1621   122.2423     2.4011    -0.0074     4.9256     5.8746   -11.8563
  356.0000     8.3481     0.1579   121.5546     2.4041    -0.0073     4.9249     5.8755   -11.2436
  356.5000     8.3331     0.1524   121.8704     2.4132    -0.0073     5.0760     5.8762   -10.6309
  357.0000     8.3337     0.1488   118.2532     2.4253    -0.0103     5.3182     5.9600   -10.6280
  357.5000     8.3344     0.1451   116.7824     2.4344    -0.0103     5.6034     6.3204   -10.9300
  358.0000     8.3156     0.1408   116.6420     2.4422    -0.0103     5.8775     6.7903   -10.9695
  358.5000     8.3048     0.1403   116.6492     2.4466    -0.0103     6.1930     7.2226   -11.2290
  359.0000     8.3055     0.1450   117.8897     2.4423    -0.0073     6.3754     7.6334   -11.2256
  359.5000     8.3061     0.1489   119.7475     2.4341    -0.0072     6.5631     7.9373   -11.3399
  360.0000     8.3067     0.1493   120.9881     2.4315    -0.0072     6.7876     8.1734   -11.5244
  360.5000     8.3075     0.1499   121.6113     2.4315    -0.0072     6.8825     8.2995   -11.5213
  361.0000     8.3081     0.1467   121.6173     2.4308    -0.0072     7.0768     8.3534   -11.8232
  361.5000     8.3087     0.1423   121.2927     2.4285    -0.0072     7.1756     8.4725   -11.8197
  362.0000     8.3093     0.1390   121.0119     2.4376    -0.0072     7.2758     8.4736   -11.8168
  362.5000     8.3099     0.1378   120.7093     2.4452    -0.0041     7.2833     8.5944   -11.8138
  363.0000     8.2491     0.1371   120.4066     2.4456    -0.0041     7.3936     8.5955   -11.8109
  363.5000     8.2187     0.1377   121.2438     2.4437    -0.0011     7.4794     8.7181   -11.8079
  364.0000     8.1865     0.1426   122.5267     2.4407    -0.0011     7.4782     8.8424   -11.8049
  364.5000     8.1282     0.1474   123.3524     2.4377    -0.0011     7.5827     8.8436   -11.8018
  365.0000     8.0915     0.1522   123.3488     2.4331     0.0020     7.6883     8.9698   -11.7988
  365.5000     8.0680     0.1559   122.5999     2.4284     0.0020     7.7505     8.9710   -11.7957
  366.0000     8.0379     0.1582   122.9145     2.4235     0.0050     7.9044     8.9723   -12.0976
  366.5000     8.0080     0.1582   123.5378     2.4159     0.0050     7.9032     9.1681   -12.0945
  367.0000     8.0086     0.1579   124.1610     2.4135     0.0050     8.0135     9.2302   -12.2104
  367.5000     8.0092     0.1554   123.8583     2.4166     0.0050     8.1254     9.2315   -11.7831
  368.0000     8.0406     0.1529   120.1606     2.4238     0.0051     8.2388     9.3630   -11.7802
  368.5000     8.0719     0.1512   115.4847     2.4279     0.0051     8.6010     9.6306   -11.1675
  369.0000     8.0725     0.1509   111.6905     2.4287     0.0051     8.9791     9.7678   -10.8597
  369.5000     8.1037     0.1497   108.3010     2.4257     0.0051     9.4411    10.0496   -10.5407
  370.0000     8.1350     0.1509   100.9061     2.4166     0.0067    10.1599    10.3635    -9.6037
  370.5000     8.1356     0.1617    92.3898     2.4015     0.0112    10.9991    10.8636    -8.6057
  371.0000     8.1975     0.1821    83.8735     2.3757     0.0172    12.0172    11.6946    -7.3333
  371.5000     8.1982     0.2030    74.2167     2.3461     0.0202    13.5018    12.7667    -6.1662
  372.0000     8.2294     0.2306    68.6671     2.3108     0.0263    15.2351    13.8522    -5.5285
  372.5000     8.2301     0.2298    69.5990     2.3048     0.0293    16.8011    15.3258    -5.0457
  373.0000     8.2307     0.2200    68.9877     2.3018     0.0504    18.0167    17.1328    -4.7372
  373.5000     8.2313     0.2029    68.0540     2.3290     0.0715    18.7869    18.1234    -4.4294
  374.0000     8.2319     0.1951    67.4565     2.3517     0.0837    19.3176    19.1713    -4.4265
  374.5000     8.2018     0.1931    68.5571     2.3532     0.0866    20.1670    19.9974    -4.4235
  375.0000     8.1539     0.1997    71.4816     2.3442     0.0826    20.4246    20.5688    -4.4206
  375.5000     8.1111     0.2136    73.1291     2.3286     0.0665    20.7823    20.5716    -4.4177
  376.0000     8.0811     0.2075    74.2705     2.3155     0.0439    20.9988    20.8649    -4.4146
  376.5000     8.0817     0.2063    73.3796     2.3351     0.0221    21.1187    21.2107    -4.4116
  377.0000     8.0823     0.2063    72.5792     2.3344     0.0011    21.4384    21.4642    -4.4085
  377.5000     8.0828     0.2099    75.2173     2.3281    -0.0082    21.5854    21.8702    -4.4055
  378.0000     8.0528     0.2335    77.3837     2.3185    -0.0097    22.1946    22.0807    -4.4024
  378.5000     8.0534     0.2450    78.3156     2.2935    -0.0067    22.8217    22.0838    -4.3994
  379.0000     8.0540     0.2444    78.0123     2.2723     0.0024    23.4665    22.0869    -4.3963
