~VERSION INFORMATION
 VERS.                2.0:   CWLS LOG ASCII STANDARD - VERSION 2.0
 WRAP.                 NO:   ONE LINE PER DEPTH STEP
~WELL INFORMATION
#MNEM.UNIT      DATA TYPE    INFORMATION
#----------   ------------   ------------------------------
 STRT.F           50.0000:   START DEPTH
 STOP.F          854.0000:   STOP DEPTH
 STEP.F            0.5000:   STEP LENGTH
 NULL.          -999.2500:   NO VALUE
 COMP. FENIX & SCISSON INC:   COMPANY
 WELL.    45 SX 11 #45-11:   WELL
 FLD .             TEAPOT:   FIELD
 LOC .      S11 T38N R78W:   LOCATION
 CNTY.            NATRONA:   COUNTY
 STAT.            WYOMING:   STATE
 CTRY. UNITED STATES OF AMERICA:   COUNTRY
 SRVC.           BIRDWELL:   SERVICE COMPANY
 DATE.        01-MAR-1978:   LOGDATE
 API .       490251058600:   API NUMBER
~CURVE INFORMATION
#MNEM.UNIT       API CODE    CURVE DESCRIPTION
#----------   ------------   ------------------------------
 DEPT.F                  :   
 CALD.IN     45 280 60 00:   CALIPER
 CORR.G/C3   45 356 01 00:   DENSITY CORRECTION
 RHOB.G/C3   45 350 01 00:   BULK DENSITY
 DPOR.DEC    45 890 12 00:   DENSITY POROSITY SANDSTONE
 GRD .GAPI   45 310 01 00:   GAMMA RAY FROM DENSITY LOG
 SPR .MV     05 010 01 00:   SPONTANEOUS POTENTIAL FROM RES.
 SN  .OHMM   05 040 16 00:   SHORT NORMAL 16"
 ILD .OHMM   05 120 46 00:   INDUCTION LOG DEEP
~PARAMETER INFORMATION
#MNEM.UNIT          VALUE    DESCRIPTION
#----------   ------------   ------------------------------
 PD  .                 GL:   PERMANENT DATUM
 EPD .F              5186:   ELEVATION PERMANENT DATUM
 LMF .                 KB:   LOG MEASURED FROM
 DAPD.F                 4:   FEET ABOVE PERMANENT DATUM
 DMF .                 KB:   DRILLING MEASURED FROM
 EKB .F              5190:   KELLING BUSHING
 EGL .F              5186:   GROUND LEVEL
 DATE.           3-1-1978:   RUN DATE
 RUN .                  1:   RUN NUMBER
 DD  .F               848:   DEPTH DRILLER
 DL  .F               856:   DEPTH LOGGER
 BLI .F               851:   BOTTOM LOG INTERVAL
 TLI .F                50:   TOP LOG INTERVAL
 CS  .IN            8.625:   CASING SIZE
 CBD .F                40:   CASING BOTTOM DRILLER
 CBL .F                40:   CASING BOTTOM LOGGER
 BS  .IN            7.875:   BIT SIZE
 BSD .F               848:   BIT SIZE AT DEPTH
 DFT .          LIGNOSULF:   DRILLING FLUID TYPE
 DFD .                8.5:   DRILLING FLUID DENSITY
 DFV .                 30:   DRILLING FLUID VISCOSITY
 DFPH.               11.5:   DRILLING FLUID PH
 MSS .                PIT:   MUD SAMPLE SOURCE
 RMS .OHMM              2:   RESISTIVITY MUD SAMPLE
 MST .F                59:   MUD SAMPLE TEMPERATURE
 RMF .OHMM            1.8:   RESISTIVITY MUD FILTRATE SAMPLE
 MFST.F                60:   MUD FILTRATE SAMPLE TEMPERATURE
 RMC .OHMM            2.2:   RESISTIVITY MUD CAKE
 MCST.F                60:   MUD CAKE SAMPLE TEMPERATURE
 MFSS.               MEAS:   MUD FILTRATE SAMPLE SOURCE
 MCSS.               MEAS:   MUD CAKE SAMPLE SOURCE
 RMB .OHMM           1.69:   RESISTIVITY MUD AT BHT
 BHT .F                70:   BOTTOM HOLE TEMPERATURE
 TCS .HRS               3:   TIME CURCULATED STOPPED
 MRT .F                70:   MAXIMUM RECORDED TEMPERATURE
 LUN .               2959:   LOGGING UNIT NUMBER
 LUL .               CASP:   LOGGING UNIT LOCATION
 ENGI.            POINTER:   RECORDING ENGINEER
 WITN.         HARRINGTON:   WITNESSED BY
 CLNT.            A2DTECH:   CLIENT CODE
 ORIG.       2", 5" PRINT:   ORIGIN OF DATA
 UWI .       490251058600:   UNIQUE WELL ID
 DICO. A2D Technologies, Inc.:   DIGITIZING COMPANY
~OTHER INFORMATION
~A   DEPT       CALD      CORR      RHOB       DPOR        GRD        SPR         SN        ILD   
# ...
  698.0000     7.8263     0.0327     2.4114     0.1376   100.4265   -25.2688    10.7362    10.2219
  698.5000     7.8258     0.0382     2.4111     0.1367   101.2265   -24.7402    10.7284    10.2189
  699.0000     7.8253     0.0428     2.4092     0.1370   100.4957   -24.4101    10.7206    10.2159
  699.5000     7.8248     0.0473     2.4111     0.1375    99.6779   -24.3408    10.7128    10.2129
  700.0000     7.8243     0.0506     2.4166     0.1375   100.0802   -24.2724    10.7050    10.2099
  700.5000     7.8231     0.0473     2.4268     0.1288   100.7838   -24.2045    10.6972    10.2069
  701.0000     7.8157     0.0410     2.4396     0.1192   100.0967   -24.1369    10.6895    10.2039
  701.5000     7.8082     0.0347     2.4427     0.1121    99.0897   -24.0679    10.6810    10.2009
  702.0000     7.8007     0.0300     2.4532     0.1172    97.8985   -24.1827    10.6734    10.1979
  702.5000     7.7932     0.0293     2.4583     0.1243    97.1612   -24.4569    10.8633    10.1949
  703.0000     7.7857     0.0285     2.4316     0.1316    95.9331   -24.7322    11.0698    10.1919
  703.5000     7.7783     0.0302     2.4215     0.1357    96.5807   -25.0078    11.2861    10.1882
  704.0000     7.7708     0.0337     2.4164     0.1396    95.7828   -25.2804    11.3599    10.2168
  704.5000     7.7633     0.0374     2.4059     0.1423    93.0128   -25.4578    11.4364    10.2537
  705.0000     7.7559     0.0420     2.4069     0.1453    95.2278   -25.4471    11.4981    10.2909
  705.5000     7.7484     0.0425     2.4071     0.1472    98.1974   -25.8266    11.8268    10.3281
  706.0000     7.7409     0.0424     2.4040     0.1408    96.7435   -26.2962    12.1650    10.3667
  706.5000     7.7333     0.0424     2.4072     0.1340    94.0667   -26.6826    12.5023    10.8680
  707.0000     7.7273     0.0424     2.4179     0.1273    94.1479   -26.6714    13.5248    11.7144
  707.5000     7.7011     0.0425     2.4292     0.1238    94.2261   -26.6500    14.8037    12.6212
  708.0000     7.7065     0.0484     2.4366     0.1293    88.5169   -27.6093    16.4884    13.5977
  708.5000     7.7132     0.0655     2.4234     0.1415    82.4158   -28.6823    18.3649    14.6497
  709.0000     7.7199     0.0828     2.4090     0.1635    77.2287   -28.9422    20.3012    15.7762
  709.5000     7.7128     0.0874     2.3787     0.1855    77.2820   -29.3132    20.6803    16.8959
  710.0000     7.6510     0.0909     2.3471     0.1993    80.5320   -30.2628    20.6585    18.0393
  710.5000     7.5901     0.1065     2.3158     0.2107    84.5386   -31.1905    20.6356    18.6442
  711.0000     7.5389     0.1261     2.3002     0.2223    86.8337   -32.1203    20.3811    18.3253
  711.5000     7.5705     0.1117     2.2901     0.2227    85.4138   -32.9741    20.1304    18.1113
  712.0000     7.6215     0.0940     2.2890     0.1978    83.9713   -32.2663    19.8828    17.8998
  712.5000     7.6414     0.0849     2.3187     0.2041    83.0861   -31.5167    19.6385    17.6282
  713.0000     7.6439     0.0695     2.3367     0.2093    85.5052   -30.9269    19.3972    17.5531
  713.5000     7.6461     0.0550     2.3114     0.2001    88.0167   -30.5684    19.1589    17.4783
  714.0000     7.6482     0.0545     2.3189     0.1997    89.5858   -30.7167    18.9235    17.4038
  714.5000     7.6504     0.0545     2.3218     0.2106    86.3489   -30.1227    18.6977    17.3296
  715.0000     7.6525     0.0545     2.3050     0.2051    82.7309   -29.4698    18.4793    17.2103
  715.5000     7.6547     0.0548     2.3140     0.2055    83.4378   -29.0258    18.2636    17.0368
  716.0000     7.6568     0.0611     2.3132     0.2090    87.7953   -29.7923    18.0503    16.8651
  716.5000     7.6591     0.0676     2.3081     0.2083    92.0747   -30.7014    17.8395    16.6950
  717.0000     7.6605     0.0641     2.3060     0.2048    92.7270   -31.6079    17.6312    16.5267
  717.5000     7.7058     0.0541     2.3118     0.1912    92.4595   -32.2204    17.4253    16.3601
  718.0000     7.7726     0.0439     2.3280     0.1852    92.1671   -31.2733    17.2218    16.1951
  718.5000     7.8406     0.0347     2.3591     0.1848    88.5372   -30.5009    17.0208    16.0318
  719.0000     7.8425     0.0392     2.3495     0.1896    85.0201   -30.4720    16.8377    15.8702
  719.5000     7.8446     0.0441     2.3406     0.1953    83.9273   -30.4299    16.7395    15.7102
  720.0000     7.8457     0.0485     2.3316     0.2017    84.2962   -30.3848    16.6490    15.5756
  720.5000     7.8464     0.0443     2.3236     0.1902    88.1579   -30.3454    16.5590    15.3937
  721.0000     7.8471     0.0453     2.3327     0.1769    91.9416   -29.9810    16.4694    15.2140
  721.5000     7.8479     0.0581     2.3508     0.1698    93.1025   -29.4473    16.3750    15.0363
  722.0000     7.8486     0.0642     2.3687     0.1763    93.7271   -28.9085    16.0470    14.8608
  722.5000     7.8494     0.0641     2.3668     0.1687    93.9698   -28.3745    15.7063    14.6871
  723.0000     7.8501     0.0666     2.3668     0.1754    91.6462   -27.9953    15.3419    14.5090
  723.5000     7.8509     0.0640     2.3712     0.1823    88.7253   -27.7322    15.2041    14.2797
  724.0000     7.8516     0.0584     2.3569     0.1731    89.5113   -28.5308    15.0619    14.0449
  724.5000     7.8523     0.0544     2.3561     0.1785    92.8416   -28.9780    14.9210    13.8145
  725.0000     7.8531     0.0559     2.3668     0.1787    96.0310   -28.3868    14.7814    13.7195
  725.5000     7.8538     0.0575     2.3578     0.1838    96.3996   -27.9102    14.6446    13.7223
  726.0000     7.8546     0.0586     2.3464     0.1888    95.0511   -28.2271    14.5856    13.7243
  726.5000     7.8553     0.0566     2.3445     0.1856    93.2179   -28.5070    14.5273    13.5942
  727.0000     7.8560     0.0501     2.3481     0.1778    91.8678   -28.5326    14.4694    13.4433
  727.5000     7.8568     0.0443     2.3481     0.1692    91.6801   -28.6349    14.4116    13.2983
  728.0000     7.8575     0.0407     2.3716     0.1721    92.0238   -28.7371    14.3541    13.1549
  728.5000     7.8583     0.0358     2.3681     0.1733    93.7009   -28.8399    14.2968    13.0130
  729.0000     7.8590     0.0323     2.3735     0.1670    95.3531   -28.9424    14.2398    12.8727
  729.5000     7.8597     0.0324     2.3792     0.1670    96.7863   -29.0396    14.1830    12.7338
  730.0000     7.8605     0.0322     2.3807     0.1686    95.5101   -28.8659    14.1096    12.5952
  730.5000     7.8612     0.0280     2.3751     0.1580    94.3281   -28.2027    14.2188    12.5006
  731.0000     7.8620     0.0234     2.3966     0.1467    94.7805   -27.5422    14.3755    12.5749
  731.5000     7.8627     0.0228     2.4177     0.1370    91.8895   -27.2911    14.5339    12.6407
  732.0000     7.8635     0.0259     2.4274     0.1277    88.4380   -27.2563    14.6941    12.7069
  732.5000     7.8642     0.0291     2.4440     0.1210    87.3952   -26.4953    14.8561    12.7733
  733.0000     7.8650     0.0323     2.4509     0.1223    87.2527   -25.7101    15.0199    12.8403
  733.5000     7.8657     0.0343     2.4521     0.1350    88.9789   -24.9164    15.0590    12.9081
  734.0000     7.8664     0.0339     2.4325     0.1477    90.7466   -24.6251    15.0590    12.9763
  734.5000     7.8672     0.0335     2.4116     0.1604    90.9141   -25.5090    14.3813    12.9018
  735.0000     7.8679     0.0331     2.3909     0.1689    89.6816   -26.5268    13.7212    12.7486
  735.5000     7.8687     0.0327     2.3758     0.1770    88.4790   -26.9149    13.1556    12.4809
  736.0000     7.8694     0.0324     2.3695     0.1803    87.7302   -27.1984    12.8502    12.2189
  736.5000     7.8701     0.0320     2.3560     0.1766    90.1725   -27.2083    12.5518    11.9624
  737.0000     7.8709     0.0316     2.3552     0.1718    94.0326   -27.1050    12.2604    11.7110
  737.5000     7.8716     0.0312     2.3686     0.1670    95.5194   -26.9989    11.9757    11.4650
  738.0000     7.8724     0.0308     2.3776     0.1670    95.2840   -26.8928    11.6977    11.2710
