~VERSION INFORMATION
 VERS.                2.0:   CWLS LOG ASCII STANDARD - VERSION 2.0
 WRAP.                 NO:   ONE LINE PER DEPTH STEP
~WELL INFORMATION
#MNEM.UNIT      DATA TYPE    INFORMATION
#----------   ------------   ------------------------------
 STRT.F          149.5000:   START DEPTH
 STOP.F          864.5000:   STOP DEPTH
 STEP.F            0.5000:   STEP LENGTH
 NULL.          -999.2500:   NO VALUE
 COMP. U S NAVY/INTEX OIL CO:   COMPANY
 WELL.    NPR #3 #78-S-27:   WELL
 FLD .             TEAPOT:   FIELD
 LOC .      S27 T39N R78W:   LOCATION
 CNTY.            NATRONA:   COUNTY
 STAT.            WYOMING:   STATE
 CTRY. UNITED STATES OF AMERICA:   COUNTRY
 SRVC. Schlumberger Well Surveying Corp:   SERVICE COMPANY
 DATE.        25-FEB-1961:   LOGDATE
 API .       490250657800:   API NUMBER
~CURVE INFORMATION
#MNEM.UNIT       API CODE    CURVE DESCRIPTION
#----------   ------------   ------------------------------
 DEPT.F                  :   
 SPR .MV     05 010 01 00:   SPONTANEOUS POTENTIAL FROM RES.
 CILD.MMHO   05 110 46 00:   CONDUCTIVITY INDUCTION LOG DEEP
 ASN .OHMM   05 041 16 00:   AMPLIFIED SHORT NORMAL 16"
 ILD .OHMM   05 120 46 00:   INDUCTION LOG DEEP
 GR  .GAPI   81 310 01 00:   GAMMA RAY
~PARAMETER INFORMATION
#MNEM.UNIT          VALUE    DESCRIPTION
#----------   ------------   ------------------------------
 PD  .                 GL:   PERMANENT DATUM
 EPD .F              5038:   ELEVATION PERMANENT DATUM
 LMF .                 KB:   LOG MEASURED FROM
 DAPD.F                 4:   FEET ABOVE PERMANENT DATUM
 DMF .                 KB:   DRILLING MEASURED FROM
 EKB .F              5042:   KELLING BUSHING
 EGL .F              5038:   GROUND LEVEL
 DATE.            2-25-61:   RUN DATE
 RUN .                  1:   RUN NUMBER
 DD  .F               865:   DEPTH DRILLER
 DL  .F               869:   DEPTH LOGGER
 BLI .F               864:   BOTTOM LOG INTERVAL
 TLI .F               150:   TOP LOG INTERVAL
 CBD .F                12:   CASING BOTTOM DRILLER
 BS  .IN            7.875:   BIT SIZE
 BSD .F               865:   BIT SIZE AT DEPTH
 DFT .       OIL EMULSION:   DRILLING FLUID TYPE
 DFD .               10.2:   DRILLING FLUID DENSITY
 DFV .                 48:   DRILLING FLUID VISCOSITY
 DFPH.                8.5:   DRILLING FLUID PH
 DFL .               10.2:   DRILLING FLUID LOSS
 RMS .OHMM            1.7:   RESISTIVITY MUD SAMPLE
 MST .F                57:   MUD SAMPLE TEMPERATURE
 MFSS.                  C:   MUD FILTRATE SAMPLE SOURCE
 MCSS.                  C:   MUD CAKE SAMPLE SOURCE
 RMB .OHMM            1.3:   RESISTIVITY MUD AT BHT
 BHT .F                75:   BOTTOM HOLE TEMPERATURE
 TCS .HRS               1:   TIME CURCULATED STOPPED
 MRT .F                75:   MAXIMUM RECORDED TEMPERATURE
 LUN .               2572:   LOGGING UNIT NUMBER
 LUL .                 NC:   LOGGING UNIT LOCATION
 ENGI.             ROUSER:   RECORDING ENGINEER
 WITN.          JORGENSEN:   WITNESSED BY
 CLNT.            A2DTECH:   CLIENT CODE
 ORIG.       2", 5" PRINT:   ORIGIN OF DATA
 UWI .       490250657800:   UNIQUE WELL ID
 DICO. A2D Technologies, Inc.:   DIGITIZING COMPANY
~OTHER INFORMATION
~A   DEPT      SPR       CILD        ASN        ILD         GR   
# ...
  454.5000   -54.5982    92.6288    12.8813    11.1237  -999.2500
  455.0000   -54.8875    90.6814    12.8266    11.2111  -999.2500
  455.5000   -54.8742    91.9407    12.6527    11.1153  -999.2500
  456.0000   -54.5751    92.7887    12.5068    10.9543  -999.2500
  456.5000   -54.2728    93.6367    12.3436    10.8055  -999.2500
  457.0000   -53.9655    94.4848    12.1929    10.6535  -999.2500
  457.5000   -53.6712    95.3328    12.0308    10.5391  -999.2500
  458.0000   -53.3503    96.1808    11.9050    10.4471  -999.2500
  458.5000   -53.1527    97.0288    11.8962    10.3581  -999.2500
  459.0000   -53.4936    97.8768    11.8970    10.2653  -999.2500
  459.5000   -53.8498    98.7248    11.8975    10.1941  -999.2500
  460.0000   -54.2027    99.6994    11.8968    10.1899  -999.2500
  460.5000   -54.5025    99.6994    11.8986    10.1905  -999.2500
  461.0000   -54.4259    99.6994    11.8958    10.1902  -999.2500
  461.5000   -53.8561    99.6994    11.9022    10.1913  -999.2500
  462.0000   -53.2646    99.6994    11.8535    10.1897  -999.2500
  462.5000   -53.2396    99.6994    11.7684    10.1932  -999.2500
  463.0000   -53.5702    99.6994    11.6961    10.1668  -999.2500
  463.5000   -53.8103    99.6994    11.6180    10.1213  -999.2500
  464.0000   -54.0990   100.3290    11.5434    10.0828  -999.2500
  464.5000   -54.2967   101.0395    11.4665    10.0412  -999.2500
  465.0000   -54.2698   101.7501    11.3914    10.0012  -999.2500
  465.5000   -54.0269   102.4618    11.3162     9.9604  -999.2500
  466.0000   -53.8010   103.1755    11.2925     9.9201  -999.2500
  466.5000   -53.5809   103.8907    11.2966     9.8794  -999.2500
  467.0000   -53.3260   104.6055    11.2937     9.8393  -999.2500
  467.5000   -53.3465   105.3189    11.2977     9.7948  -999.2500
  468.0000   -53.5606   105.7252    11.2745     9.7881  -999.2500
  468.5000   -53.7461   105.7225    11.2016     9.7900  -999.2500
  469.0000   -53.9779   105.7198    11.1288     9.7892  -999.2500
  469.5000   -54.1118   105.7178    11.0547     9.7869  -999.2500
  470.0000   -54.0958   105.7168    10.9816     9.7208  -999.2500
  470.5000   -54.0989   105.7140    10.9032     9.6266  -999.2500
  471.0000   -53.9952   106.4512    10.8921     9.5406  -999.2500
  471.5000   -53.8550   107.2203    10.8950     9.4433  -999.2500
  472.0000   -53.7277   107.9868    10.8946     9.3582  -999.2500
  472.5000   -53.5768   108.7512    10.8863     9.2902  -999.2500
  473.0000   -53.4931   109.5161    10.7303     9.2091  -999.2500
  473.5000   -53.5026   110.2844    10.5054     9.1391  -999.2500
  474.0000   -53.4994   112.1562    10.3634     8.9972  -999.2500
  474.5000   -53.4988   115.1861    10.1951     8.7578  -999.2500
  475.0000   -53.5045   118.2200    10.0595     8.5117  -999.2500
  475.5000   -53.4464   121.2575     9.7606     8.2757  -999.2500
  476.0000   -53.2874   124.2786     9.4427     8.0133  -999.2500
  476.5000   -53.1456   127.2996     9.3101     7.8414  -999.2500
  477.0000   -52.9782   130.3206     9.1345     7.7919  -999.2500
  477.5000   -52.8921   132.5526     9.1338     7.7122  -999.2500
  478.0000   -52.9027   134.0631     9.2630     7.6749  -999.2500
  478.5000   -52.8971   134.7695     9.4271     7.6833  -999.2500
  479.0000   -52.8968   134.7695     9.5758     7.6705  -999.2500
  479.5000   -52.8443   133.1733     9.7929     7.7622  -999.2500
  480.0000   -52.7891   130.2297    10.0614     7.9751  -999.2500
  480.5000   -52.7250   127.2861    10.3588     8.1709  -999.2500
  481.0000   -52.7149   124.3425    10.5043     8.3815  -999.2500
  481.5000   -52.9779   121.3989    10.4550     8.5539  -999.2500
  482.0000   -53.2604   118.4554    10.4299     8.6775  -999.2500
  482.5000   -53.5673   115.7315    10.3912     8.8274  -999.2500
  483.0000   -53.7143   114.7295    10.3593     8.8697  -999.2500
  483.5000   -53.6955   114.7295    10.3252     8.8071  -999.2500
  484.0000   -53.7046   115.5696    10.2892     8.7628  -999.2500
  484.5000   -53.7006   116.3442    10.2595     8.7068  -999.2500
  485.0000   -53.7010   117.1189    10.2162     8.6613  -999.2500
  485.5000   -53.7043   117.8935    10.2162     8.6022  -999.2500
  486.0000   -53.6756   118.6681    10.3059     8.6143  -999.2500
  486.5000   -53.4017   119.4427    10.3926     8.6898  -999.2500
  487.0000   -53.1134   118.8793    10.4988     8.7537  -999.2500
  487.5000   -52.8206   117.4850    10.5995     8.8232  -999.2500
  488.0000   -52.6772   116.0906    10.6981     8.8902  -999.2500
  488.5000   -52.8066   114.6963    10.8080     8.9574  -999.2500
  489.0000   -53.0199   113.3020    10.8674     9.0268  -999.2500
  489.5000   -53.2151   111.9077    10.7494     9.0909  -999.2500
  490.0000   -53.4236   110.7214    10.6782     9.1650  -999.2500
  490.5000   -53.5111   110.7214    10.6021     9.1592  -999.2500
  491.0000   -53.4817   111.4930    10.5303     9.0920  -999.2500
  491.5000   -53.3362   112.6678    10.4539     9.0381  -999.2500
  492.0000   -53.1803   113.8427    10.3949     8.9781  -999.2500
  492.5000   -53.0322   115.0175    10.3910     8.9211  -999.2500
  493.0000   -52.9002   116.1924    10.3913     8.8629  -999.2500
  493.5000   -52.9163   117.3672    10.3915     8.8056  -999.2500
  494.0000   -52.7382   117.7355    10.3914     8.7736  -999.2500
  494.5000   -52.4252   117.4569    10.3919     8.7585  -999.2500
  495.0000   -52.1521   117.0541    10.3912     8.7418  -999.2500
  495.5000   -51.8689   116.7335    10.3931     8.7260  -999.2500
  496.0000   -51.5842   116.7335    10.3852     8.7096  -999.2500
  496.5000   -51.4943   117.1743    10.3300     8.6936  -999.2500
  497.0000   -51.4912   117.7941    10.2778     8.6774  -999.2500
  497.5000   -51.6206   118.4137    10.2260     8.6613  -999.2500
  498.0000   -51.8528   119.0334    10.1732     8.6451  -999.2500
  498.5000   -52.0374   119.6532    10.1225     8.6291  -999.2500
  499.0000   -52.1143   120.2752    10.0676     8.6126  -999.2500
  499.5000   -52.0890   120.7439    10.0320     8.5971  -999.2500
  500.0000   -52.1228   120.7429    10.0183     8.5798  -999.2500
  500.5000   -51.9354   120.7414    10.0024     8.5408  -999.2500
  501.0000   -51.3560   120.7404     9.9829     8.5060  -999.2500
  501.5000   -50.7332   120.7396     9.9593     8.4709  -999.2500
  502.0000   -50.3088   120.7390     9.9381     8.4360  -999.2500
  502.5000   -50.3043   120.8795     9.9150     8.4010  -999.2500
  503.0000   -50.4410   121.4175     9.9105     8.3661  -999.2500
  503.5000   -50.6513   121.9532     9.8972     8.3310  -999.2500
  504.0000   -50.8430   122.4890     9.8498     8.2962  -999.2500
  504.5000   -50.9053   123.0247     9.8027     8.2610  -999.2500
  505.0000   -50.8957   123.5604     9.7549     8.2262  -999.2500
  505.5000   -50.9014   124.0962     9.7072     8.1917  -999.2500
  506.0000   -50.8980   124.7495     9.6614     8.1812  -999.2500
  506.5000   -50.9011   124.7471     9.6459     8.1828  -999.2500
  507.0000   -50.9042   124.7522     9.6906     8.1817  -999.2500
  507.5000   -51.0798   124.7574     9.7815     8.1826  -999.2500
  508.0000   -51.3422   124.7608     9.8706     8.1835  -999.2500
  508.5000   -51.5850   124.3821     9.9630     8.2432  -999.2500
  509.0000   -51.8367   123.0786    10.0391     8.3313  -999.2500
  509.5000   -51.9058   121.7747    10.0813     8.4144  -999.2500
  510.0000   -51.9037   120.4722    10.1880     8.4999  -999.2500
  510.5000   -51.8553   119.1736    10.3257     8.5843  -999.2500
  511.0000   -51.6776   117.8786    10.4584     8.6688  -999.2500
  511.5000   -51.5012   116.5853    10.5933     8.7543  -999.2500
  512.0000   -51.3228   115.2902    10.7273     8.8375  -999.2500
  512.5000   -51.1476   113.7464    10.8611     8.9256  -999.2500
  513.0000   -51.0949   113.7426    10.9971     8.9854  -999.2500
  513.5000   -51.1015   113.7340    11.0989     8.9863  -999.2500
  514.0000   -51.0996   113.7239    11.0471     8.9875  -999.2500
  514.5000   -51.0981   113.7274    10.8695     8.9862  -999.2500
  515.0000   -51.1034   113.7274    10.6894     8.9851  -999.2500
