~VERSION INFORMATION
 VERS.                2.0:   CWLS LOG ASCII STANDARD - VERSION 2.0
 WRAP.                 NO:   ONE LINE PER DEPTH STEP
~WELL INFORMATION
#MNEM.UNIT      DATA TYPE    INFORMATION
#----------   ------------   ------------------------------
 STRT.F           90.5000:   START DEPTH
 STOP.F          836.0000:   STOP DEPTH
 STEP.F            0.5000:   STEP LENGTH
 NULL.          -999.2500:   NO VALUE
 COMP.          U.S. NAVY:   COMPANY
 WELL.    NPR #3 #38-S-35:   WELL
 FLD .           TEAPOT E:   FIELD
 LOC .      S35 T39N R78W:   LOCATION
 CNTY.            NATRONA:   COUNTY
 STAT.            WYOMING:   STATE
 CTRY. UNITED STATES OF AMERICA:   COUNTRY
 SRVC. Schlumberger Well Surveying Corp:   SERVICE COMPANY
 DATE.        21-JUL-1963:   LOGDATE
 API .       490250649100:   API NUMBER
~CURVE INFORMATION
#MNEM.UNIT       API CODE    CURVE DESCRIPTION
#----------   ------------   ------------------------------
 DEPT.F                  :   
 SPR .MV     05 010 01 00:   SPONTANEOUS POTENTIAL FROM RES.
 ASN .OHMM   05 041 16 00:   AMPLIFIED SHORT NORMAL 16"
 ILD .OHMM   05 120 46 00:   INDUCTION LOG DEEP
 CILD.MMHO   05 110 46 00:   CONDUCTIVITY INDUCTION LOG DEEP
 DT  .US/F   60 520 33 00:   INTERVAL TRANSIT TIME
 GR  .GAPI   30 310 01 00:   GAMMA RAY
~PARAMETER INFORMATION
#MNEM.UNIT          VALUE    DESCRIPTION
#----------   ------------   ------------------------------
 LMF .                 KB:   LOG MEASURED FROM
 DMF .                 KB:   DRILLING MEASURED FROM
 EKB .F              5119:   KELLING BUSHING
 EGL .F              5114:   GROUND LEVEL
 DATE.          7-21-1963:   RUN DATE
 RUN .                  1:   RUN NUMBER
 DD  .F               836:   DEPTH DRILLER
 DL  .F               837:   DEPTH LOGGER
 BLI .F               836:   BOTTOM LOG INTERVAL
 TLI .F                90:   TOP LOG INTERVAL
 CBD .F                12:   CASING BOTTOM DRILLER
 BS  .IN             6.75:   BIT SIZE
 BSD .F               836:   BIT SIZE AT DEPTH
 DFT .            GEL-OIL:   DRILLING FLUID TYPE
 DFD .                9.2:   DRILLING FLUID DENSITY
 DFV .                 85:   DRILLING FLUID VISCOSITY
 DFPH.                  8:   DRILLING FLUID PH
 DFL .                3.6:   DRILLING FLUID LOSS
 MSS .           FLOWLINE:   MUD SAMPLE SOURCE
 RMS .OHMM           2.95:   RESISTIVITY MUD SAMPLE
 MST .F                88:   MUD SAMPLE TEMPERATURE
 RMF .OHMM           2.31:   RESISTIVITY MUD FILTRATE SAMPLE
 MFST.F                88:   MUD FILTRATE SAMPLE TEMPERATURE
 RMC .OHMM           2.65:   RESISTIVITY MUD CAKE
 MCST.F                88:   MUD CAKE SAMPLE TEMPERATURE
 MFSS.                  M:   MUD FILTRATE SAMPLE SOURCE
 MCSS.                  M:   MUD CAKE SAMPLE SOURCE
 TCS .HRS               1:   TIME CURCULATED STOPPED
 LUN .               2523:   LOGGING UNIT NUMBER
 LUL .              CSPR.:   LOGGING UNIT LOCATION
 ENGI.             KNOBEL:   RECORDING ENGINEER
 WITN.          JORGENSON:   WITNESSED BY
 CLNT.            A2DTECH:   CLIENT CODE
 ORIG.      2" , 5" PRINT:   ORIGIN OF DATA
 UWI .       490250649100:   UNIQUE WELL ID
 DICO. A2D Technologies, Inc.:   DIGITIZING COMPANY
~OTHER INFORMATION
~A   DEPT      SPR        ASN        ILD       CILD         DT         GR   
# ...
  194.5000   -34.1084     6.4116     5.3460   168.6687  -999.2500  -999.2500
  195.0000   -34.2160     6.3277     5.3404   169.4391  -999.2500  -999.2500
  195.5000   -34.3333     6.1869     5.3348   170.1644  -999.2500  -999.2500
  196.0000   -34.4512     6.0956     5.3291   170.8896  -999.2500  -999.2500
  196.5000   -34.3367     6.1259     5.3234   171.6158  -999.2500  -999.2500
  197.0000   -34.0542     6.2004     5.3176   172.3421  -999.2500  -999.2500
  197.5000   -33.7687     6.2786     5.3119   173.0692  -999.2500  -999.2500
  198.0000   -33.4867     6.2644     5.3062   173.7947  -999.2500  -999.2500
  198.5000   -33.2976     6.1990     5.3005   174.5210  -999.2500  -999.2500
  199.0000   -33.3004     6.0940     5.2948   174.2840  -999.2500  -999.2500
  199.5000   -33.2996     6.0065     5.2891   173.7886  -999.2500  -999.2500
  200.0000   -33.2997     5.9391     5.2833   173.2932  -999.2500  -999.2500
  200.5000   -33.3007     5.9352     5.2776   172.7977  -999.2500  -999.2500
  201.0000   -33.3587     5.9348     5.2719   172.2419  -999.2500  -999.2500
  201.5000   -33.5263     5.9782     5.2663   171.6609  -999.2500  -999.2500
  202.0000   -33.6924     6.0322     5.2612   171.0900  -999.2500  -999.2500
  202.5000   -33.8582     6.0864     5.2513   171.1061  -999.2500  -999.2500
  203.0000   -34.0248     6.1411     5.1644   172.6647  -999.2500  -999.2500
  203.5000   -34.0991     6.1939     5.0795   175.2341  -999.2500  -999.2500
  204.0000   -34.1048     6.1580     4.9952   179.6597  -999.2500  -999.2500
  204.5000   -33.9324     6.0535     4.9110   184.0852  -999.2500  -999.2500
  205.0000   -33.7238     5.8568     4.8267   188.5107  -999.2500  -999.2500
  205.5000   -33.5079     5.6613     4.7422   192.9363  -999.2500  -999.2500
  206.0000   -33.3080     5.4727     4.6567   197.1652  -999.2500  -999.2500
  206.5000   -33.1010     5.3589     4.5922   200.2823  -999.2500  -999.2500
  207.0000   -32.8927     5.3606     4.5272   202.4743  -999.2500  -999.2500
  207.5000   -32.7015     5.3674     4.4617   201.4521  -999.2500  -999.2500
  208.0000   -32.6797     5.3736     4.4757   200.4330  -999.2500  -999.2500
  208.5000   -32.6622     5.3903     4.5006   199.4083  -999.2500  -999.2500
  209.0000   -32.6441     5.4111     4.5256   198.3863  -999.2500  -999.2500
  209.5000   -32.6259     5.4318     4.5503   197.3642  -999.2500  -999.2500
  210.0000   -32.6077     5.4516     4.5750   196.3422  -999.2500  -999.2500
  210.5000   -32.5895     5.4940     4.5998   195.3202  -999.2500  -999.2500
  211.0000   -32.5713     5.5386     4.6245   194.2982  -999.2500  -999.2500
  211.5000   -32.5531     5.5748     4.6485   193.2762  -999.2500  -999.2500
  212.0000   -32.5349     5.5622     4.7088   192.2537  -999.2500  -999.2500
  212.5000   -32.5166     5.5505     4.7780   191.2466  -999.2500  -999.2500
  213.0000   -32.5001     5.5384     4.8474   189.7018  -999.2500  -999.2500
  213.5000   -32.4999     5.5535     4.9166   187.6356  -999.2500  -999.2500
  214.0000   -32.5000     5.5914     4.9859   185.5576  -999.2500  -999.2500
  214.5000   -32.5000     5.6957     5.0552   183.4795  -999.2500  -999.2500
  215.0000   -32.5000     5.8001     5.1245   180.9029  -999.2500  -999.2500
  215.5000   -32.5000     5.9044     5.1937   177.9951  -999.2500  -999.2500
  216.0000   -32.5001     5.9966     5.2630   175.0957  -999.2500  -999.2500
  216.5000   -32.5017     5.9742     5.3323   172.1959  -999.2500  -999.2500
  217.0000   -32.4281     5.9605     5.4015   169.2963  -999.2500  -999.2500
  217.5000   -32.3339     6.1099     5.4709   166.3966  -999.2500  -999.2500
  218.0000   -32.2393     6.2661     5.5405   163.4970  -999.2500  -999.2500
  218.5000   -32.1448     6.3759     5.6084   160.5973  -999.2500  -999.2500
  219.0000   -32.0503     6.3631     5.6201   158.7911  -999.2500  -999.2500
  219.5000   -31.9571     6.3528     5.5052   159.1907  -999.2500  -999.2500
  220.0000   -31.9254     6.3415     5.3925   159.5407  -999.2500  -999.2500
  220.5000   -31.9912     6.2933     5.2797   162.5741  -999.2500  -999.2500
  221.0000   -32.0559     6.1949     5.1662   168.9998  -999.2500  -999.2500
  221.5000   -32.1209     6.0976     4.9789   177.1174  -999.2500  -999.2500
  222.0000   -32.1863     5.9943     4.7824   185.1707  -999.2500  -999.2500
  222.5000   -32.2508     5.7608     4.5860   193.1917  -999.2500  -999.2500
  223.0000   -32.2762     5.5178     4.3898   202.1221  -999.2500  -999.2500
  223.5000   -32.1518     5.2752     4.1935   211.9427  -999.2500  -999.2500
  224.0000   -32.0319     5.0328     3.9972   223.6800  -999.2500  -999.2500
  224.5000   -31.9121     4.7864     3.8005   235.4173  -999.2500  -999.2500
  225.0000   -31.7924     4.6161     3.6048   247.1546  -999.2500  -999.2500
  225.5000   -31.6732     4.4623     3.4485   258.8918  -999.2500  -999.2500
  226.0000   -31.5500     4.3085     3.4168   269.7698  -999.2500  -999.2500
  226.5000   -31.4284     4.1567     3.3817   276.7768  -999.2500  -999.2500
  227.0000   -31.3000     4.0672     3.3952   274.6346  -999.2500  -999.2500
  227.5000   -31.0295     4.1877     3.7065   266.8600  -999.2500  -999.2500
  228.0000   -30.7387     4.4411     4.0162   259.0627  -999.2500  -999.2500
  228.5000   -30.8717     4.6965     4.3253   251.2427  -999.2500  -999.2500
  229.0000   -31.0799     4.7432     4.6342   242.7427  -999.2500  -999.2500
  229.5000   -31.2910     4.7054     4.9432   226.5780  -999.2500  -999.2500
  230.0000   -31.4888     4.8496     5.2526   208.7659  -999.2500  -999.2500
  230.5000   -31.2991     5.3420     5.5546   192.4286  -999.2500  -999.2500
  231.0000   -31.0884     5.7073     5.7543   181.6386  -999.2500  -999.2500
  231.5000   -30.8798     5.9020     5.9487   170.8485  -999.2500  -999.2500
  232.0000   -30.7059     6.0526     6.1434   164.5036  -999.2500  -999.2500
  232.5000   -30.8024     6.1968     6.3382   160.0168  -999.2500  -999.2500
  233.0000   -30.8947     6.3295     6.5332   155.5301  -999.2500  -999.2500
  233.5000   -30.9864     6.4083     6.7286   151.0527  -999.2500  -999.2500
  234.0000   -31.0781     6.4606     6.9209   147.2854  -999.2500  -999.2500
  234.5000   -31.1695     6.5508     7.0502   144.4164  -999.2500  -999.2500
  235.0000   -31.2615     6.7318     6.9710   141.5219  -999.2500  -999.2500
  235.5000   -31.2995     6.8945     6.8943   138.6396  -999.2500  -999.2500
  236.0000   -31.3005     6.9722     6.8172   137.5757  -999.2500  -999.2500
  236.5000   -31.2998     7.0534     6.7404   136.6493  -999.2500  -999.2500
  237.0000   -31.2613     7.0591     6.6590   139.5519  -999.2500  -999.2500
  237.5000   -31.1251     7.0197     6.4768   142.2732  -999.2500  -999.2500
  238.0000   -30.9905     6.8962     6.2800   144.9945  -999.2500  -999.2500
  238.5000   -30.8559     6.7731     6.0830   147.6476  -999.2500  -999.2500
  239.0000   -30.7213     6.6515     5.8862   153.7798  -999.2500  -999.2500
  239.5000   -30.5868     6.4884     5.6894   159.7622  -999.2500  -999.2500
  240.0000   -30.4522     6.3286     5.4926   165.7445  -999.2500  -999.2500
  240.5000   -30.3177     6.1695     5.2958   171.7269  -999.2500  -999.2500
  241.0000   -30.1830     6.0104     5.0990   177.7092  -999.2500  -999.2500
  241.5000   -30.0477     5.8512     4.9022   183.6916  -999.2500  -999.2500
  242.0000   -29.9114     5.6979     4.7055   193.1257  -999.2500  -999.2500
  242.5000   -29.9918     5.5064     4.5085   204.2858  -999.2500  -999.2500
  243.0000   -30.0966     5.3166     4.3117   215.4458  -999.2500  -999.2500
  243.5000   -30.2026     5.1273     4.1259   226.6059  -999.2500  -999.2500
  244.0000   -30.2913     4.8982     3.9916   237.7659  -999.2500  -999.2500
  244.5000   -30.1087     4.6473     3.8560   243.7544  -999.2500  -999.2500
  245.0000   -29.9216     4.3929     3.7206   243.1050  -999.2500  -999.2500
  245.5000   -29.7360     4.1451     3.5802   240.9433  -999.2500  -999.2500
  246.0000   -29.5507     4.2966     3.6987   238.7387  -999.2500  -999.2500
