~VERSION INFORMATION
 VERS.                2.0:   CWLS LOG ASCII STANDARD - VERSION 2.0
 WRAP.                 NO:   ONE LINE PER DEPTH STEP
~WELL INFORMATION
#MNEM.UNIT      DATA TYPE    INFORMATION
#----------   ------------   ------------------------------
 STRT.F           22.5000:   START DEPTH
 STOP.F          644.0000:   STOP DEPTH
 STEP.F            0.5000:   STEP LENGTH
 NULL.          -999.2500:   NO VALUE
 COMP.    FELIX & SCISION:   COMPANY
 WELL.     NPR #3 #14-S-2:   WELL
 FLD .             TEAPOT:   FIELD
 LOC .       S2 T38N R78W:   LOCATION
 CNTY.            NATRONA:   COUNTY
 STAT.            WYOMING:   STATE
 CTRY. UNITED STATES OF AMERICA:   COUNTRY
 SRVC.           BIRDWELL:   SERVICE COMPANY
 DATE.        18-JAN-1978:   LOGDATE
 API .       490251055600:   API NUMBER
~CURVE INFORMATION
#MNEM.UNIT       API CODE    CURVE DESCRIPTION
#----------   ------------   ------------------------------
 DEPT.F                  :   
 CALD.IN     45 280 60 00:   CALIPER FROM DENSITY LOG
 CORR.G/C3   45 356 01 00:   DENSITY CORRECTION
 DPHI.DEC    45 890 12 00:   DENSITY POROSITY SANDSTONE
 GRD .GAPI   45 310 01 00:   GAMMA RAY FROM DENSITY LOG
 RHOB.G/C3   45 350 01 00:   BULK DENSITY
 ILD .OHMM   05 120 46 00:   INDUCTION LOG DEEP
 SPR .MV     05 010 01 00:   SPONTANEOUS POTENTIAL FROM RES.
 SN  .OHMM   05 040 16 00:   SHORT NORMAL 16"
~PARAMETER INFORMATION
#MNEM.UNIT          VALUE    DESCRIPTION
#----------   ------------   ------------------------------
 PD  .                 GL:   PERMANENT DATUM
 EPD .F              5121:   ELEVATION PERMANENT DATUM
 LMF .                 KB:   LOG MEASURED FROM
 DAPD.F                 4:   FEET ABOVE PERMANENT DATUM
 DMF .                 KB:   DRILLING MEASURED FROM
 EKB .F              5126:   KELLING BUSHING
 EGL .F              5121:   GROUND LEVEL
 DATE.          1-18-1978:   RUN DATE
 RUN .                  1:   RUN NUMBER
 DD  .F               645:   DEPTH DRILLER
 DL  .F               648:   DEPTH LOGGER
 BLI .F               642:   BOTTOM LOG INTERVAL
 TLI .F                39:   TOP LOG INTERVAL
 CS  .IN            8.625:   CASING SIZE
 CBD .F                39:   CASING BOTTOM DRILLER
 BS  .IN            7.875:   BIT SIZE
 BSD .F               645:   BIT SIZE AT DEPTH
 DFT .                KCL:   DRILLING FLUID TYPE
 DFD .                8.8:   DRILLING FLUID DENSITY
 DFV .                 34:   DRILLING FLUID VISCOSITY
 DFPH.                9.5:   DRILLING FLUID PH
 DFL .                6.4:   DRILLING FLUID LOSS
 MSS .                PIT:   MUD SAMPLE SOURCE
 RMS .OHMM            .38:   RESISTIVITY MUD SAMPLE
 MST .F                43:   MUD SAMPLE TEMPERATURE
 RMF .OHMM            .26:   RESISTIVITY MUD FILTRATE SAMPLE
 MFST.F                70:   MUD FILTRATE SAMPLE TEMPERATURE
 RMC .OHMM            .42:   RESISTIVITY MUD CAKE
 MCST.F                70:   MUD CAKE SAMPLE TEMPERATURE
 MFSS.           MEASURED:   MUD FILTRATE SAMPLE SOURCE
 MCSS.           MEASURED:   MUD CAKE SAMPLE SOURCE
 RMB .OHMM            .24:   RESISTIVITY MUD AT BHT
 BHT .F                69:   BOTTOM HOLE TEMPERATURE
 TCS .HRS               2:   TIME CURCULATED STOPPED
 MRT .F                69:   MAXIMUM RECORDED TEMPERATURE
 LUN .               2958:   LOGGING UNIT NUMBER
 LUL .             CASPER:   LOGGING UNIT LOCATION
 ENGI.           REYNOLDS:   RECORDING ENGINEER
 WITN.         HARRINGTON:   WITNESSED BY
 CLNT.            A2DTECH:   CLIENT CODE
 ORIG.      2" , 5" PRINT:   ORIGIN OF DATA
 UWI .       490251055600:   UNIQUE WELL ID
 DICO. A2D Technologies, Inc.:   DIGITIZING COMPANY
~OTHER INFORMATION
~A   DEPT     CALD       CORR       DPHI         GRD      RHOB        ILD        SPR         SN   
# ...
  265.5000     7.8162     0.0813     0.1228    81.9268     2.4541    10.2781   -23.2804     9.5705
  266.0000     7.8316     0.0813     0.1234    83.8650     2.4504    10.4257   -23.1243     9.7734
  266.5000     7.8471     0.0783     0.1236    82.2415     2.4520    10.5754   -22.9681     9.9807
  267.0000     7.8477     0.0753     0.1239    80.9130     2.4497    10.7273   -23.1096    10.1222
  267.5000     7.8483     0.0761     0.1254    81.6647     2.4438    10.8063   -23.1022    10.3369
  268.0000     7.8489     0.0754     0.1303    83.9023     2.4385    10.8859   -23.0949    10.4835
  268.5000     7.8643     0.0754     0.1314    85.5567     2.4363    11.0422   -23.0875    10.6322
  269.0000     7.8798     0.0747     0.1317    83.9198     2.4356    11.1235   -23.0802    10.7087
  269.5000     7.8953     0.0731     0.1316    84.8390     2.4356    11.2054   -23.0728    10.8606
  270.0000     7.9107     0.0770     0.1316    85.7405     2.4364    11.2879   -22.9167    11.0146
  270.5000     7.9411     0.0763     0.1316    85.8799     2.4365    11.3711   -22.6041    11.0176
  271.0000     7.9714     0.0754     0.1313    85.7379     2.4350    11.3757   -22.4554    11.0206
  271.5000     7.9720     0.0741     0.1331    85.1545     2.4298    11.3804   -22.4479    11.0236
  272.0000     7.9727     0.0726     0.1358    84.4181     2.4260    11.3851   -22.5897    11.0266
  272.5000     7.9726     0.0726     0.1373    85.1720     2.4246    11.3899   -22.7311    11.0296
  273.0000     7.9724     0.0749     0.1378    87.4096     2.4224    11.3946   -22.7219    11.0327
  273.5000     7.9721     0.0780     0.1381    88.4563     2.4216    11.3204   -22.5658    11.0357
  274.0000     7.9719     0.0803     0.1372    85.1983     2.4254    11.2481   -22.5584    10.9627
  274.5000     7.9717     0.0810     0.1335    84.3133     2.4330    11.2527   -22.4023    10.9658
  275.0000     7.9715     0.0818     0.1312    84.4729     2.4338    11.1785   -22.5456    10.8932
  275.5000     7.9713     0.0834     0.1308    84.0359     2.4338    11.1059   -22.5364    10.8970
  276.0000     7.9711     0.0864     0.1308    82.8559     2.4354    10.9577   -22.8266    10.7504
  276.5000     7.9709     0.0864     0.1236    82.7161     2.4424    10.8865   -22.9681    10.7534
  277.0000     7.9707     0.0857     0.1171    82.2457     2.4569    10.8158   -23.1114    10.6816
  277.5000     7.9705     0.0842     0.1115    78.5042     2.4701    10.6714   -23.4017    10.6110
  278.0000     7.9703     0.0813     0.1082    73.8293     2.4762    10.6032   -23.3925    10.6146
  278.5000     7.9700     0.0753     0.1072    70.7155     2.4800    10.6076   -23.3851    10.5437
  279.0000     7.9698     0.0738     0.1078    71.6180     2.4822    10.5376   -23.3778    10.5473
  279.5000     7.9696     0.0738     0.1111    74.7471     2.4718    10.5430   -23.3704    10.4776
  280.0000     7.9694     0.0716     0.1147    78.0248     2.4650    10.5474   -23.3631    10.4076
  280.5000     7.9692     0.0686     0.1153    80.5596     2.4620    10.4787   -23.3557    10.3388
  281.0000     7.9690     0.0664     0.1153    82.7971     2.4613    10.4832   -23.3482    10.3424
  281.5000     7.9688     0.0649     0.1150    84.8861     2.4614    10.4875   -23.1920    10.3452
  282.0000     7.9686     0.0634     0.1149    83.7062     2.4622    10.5647   -23.0342    10.3480
  282.5000     7.9684     0.0619     0.1149    77.3254     2.4622    10.4237   -23.0269    10.2796
  283.0000     7.9682     0.0603     0.1152    78.6717     2.4622    10.4280   -23.3172    10.1414
  283.5000     7.9680     0.0574     0.1170    80.3185     2.4599    10.3513   -23.4605    10.0732
  284.0000     7.9677     0.0560     0.1218    80.9183     2.4555    10.2808   -23.7489    10.0033
  284.5000     7.9675     0.0545     0.1281    80.5815     2.4435    10.1556   -24.0392     9.9416
  285.0000     7.9673     0.0621     0.1323    79.4497     2.4315    10.0896   -24.0318     9.9445
  285.5000     7.9671     0.0727     0.1338    80.5008     2.4308    10.0241   -24.0245     9.9478
  286.0000     7.9669     0.0772     0.1341    81.8447     2.4301     9.8903   -24.0171     9.8813
  286.5000     7.9667     0.0855     0.1340    80.0725     2.4294     9.8954   -24.0098     9.8167
  287.0000     7.9665     0.0893     0.1340    76.8124     2.4302     9.8994   -24.1531     9.6840
  287.5000     7.9663     0.0999     0.1340    77.7127     2.4310     9.9035   -24.5903     9.5538
  288.0000     7.9661     0.1015     0.1331    78.9101     2.4355     9.9076   -25.6252     9.4254
  288.5000     7.9659     0.1022     0.1237    80.4048     2.4438     9.9116   -25.5953     9.2993
  289.0000     7.9657     0.1030     0.1240    81.8994     2.4431     9.9157   -25.6101     9.1743
  289.5000     7.9654     0.1031     0.1234    82.9483     2.4470     9.9198   -25.7515     9.1768
  290.0000     7.9652     0.1008     0.1213    82.2141     2.4508     9.8544   -25.7440     9.1793
  290.5000     7.9650     0.1039     0.1210    80.8835     2.4500     9.8594   -26.0343     9.1186
  291.0000     7.9358     0.1099     0.1230    77.1689     2.4470     9.8635   -26.3393     9.0583
  291.5000     7.9066     0.1130     0.1197    77.2526     2.4523     9.9361   -27.1057     9.0608
  292.0000     7.8922     0.1130     0.1143    79.4282     2.4652     9.9402   -27.9450     8.9390
  292.5000     7.8334     0.1108     0.1134    79.7319     2.4675     9.9443   -28.3840     8.9414
  293.0000     7.7596     0.1025     0.1170    78.2570     2.4652    10.0175   -28.5273     8.9439
  293.5000     7.6560     0.0995     0.1184    76.9285     2.4615     9.9524   -27.0301     8.8838
  294.0000     7.5227     0.0950     0.1184    76.0435     2.4578     9.9566   -26.7251     8.7613
  294.5000     7.4637     0.0844     0.1190    76.7974     2.4548     9.9608   -27.0172     8.7074
  295.0000     7.4345     0.0799     0.1208    78.8864     2.4466     9.9657   -27.6032     8.6498
  295.5000     7.4351     0.0785     0.1253    80.0839     2.4413     9.9010   -27.3001     8.6528
  296.0000     7.4506     0.0778     0.1292    82.3214     2.4352     9.9051   -24.4636     8.7151
  296.5000     7.4810     0.0794     0.1338    84.5598     2.4247     9.7729   -23.2657     8.8381
  297.0000     7.4965     0.0801     0.1448    84.5685     2.4121     9.5759   -22.8120     8.4823
  297.5000     7.5418     0.0802     0.1469    84.2801     2.4046     9.3181   -22.5070     8.3683
  298.0000     7.5721     0.0787     0.1460    83.2488     2.4129     8.9425   -22.7991     8.1990
  298.5000     7.6025     0.0765     0.1414    82.5146     2.4175     8.6417   -23.5340     8.0331
  299.0000     7.6179     0.0750     0.1384    82.5233     2.4198     8.3510   -24.4195     7.8164
  299.5000     7.6632     0.0750     0.1378    82.3834     2.4206     8.1819   -25.6026     7.6050
  300.0000     7.7233     0.0728     0.1387    81.7979     2.4274     8.0169   -26.0426     7.1497
  300.5000     7.8132     0.0690     0.1353    82.5731     2.4387     8.0220   -25.8865     7.0550
  301.0000     7.8733     0.0690     0.1287    85.5769     2.4388     8.0258   -25.8806     7.0090
  301.5000     7.9037     0.0691     0.1287    86.8975     2.4410     8.0855   -25.8747     7.0132
  302.0000     7.9340     0.0676     0.1260    87.1887     2.4509     8.1455   -25.8688     7.1634
  302.5000     7.9346     0.0660     0.1238    86.5230     2.4517     8.0364   -25.8629     7.3675
  303.0000     7.9501     0.0639     0.1238    83.0510     2.4524     8.0971   -25.8570     7.5774
  303.5000     7.9804     0.0624     0.1241    80.0896     2.4517     8.2140   -25.8511     7.7397
  304.0000     7.9959     0.0601     0.1244    79.6515     2.4480     8.2750   -25.8452     7.8510
  304.5000     7.9965     0.0586     0.1253    84.8650     2.4443     8.3944   -25.6865     7.9640
  305.0000     7.9822     0.0602     0.1268    90.3731     2.4443     8.4568   -25.3869     8.0230
  305.5000     7.9382     0.0595     0.1285    93.6524     2.4429     8.5197   -25.5299     8.0268
