~VERSION INFORMATION
 VERS.                2.0:   CWLS LOG ASCII STANDARD - VERSION 2.0
 WRAP.                 NO:   ONE LINE PER DEPTH STEP
~WELL INFORMATION
#MNEM.UNIT      DATA TYPE    INFORMATION
#----------   ------------   ------------------------------
 STRT.F           25.0000:   START DEPTH
 STOP.F          867.0000:   STOP DEPTH
 STEP.F            0.5000:   STEP LENGTH
 NULL.          -999.2500:   NO VALUE
 COMP. LAWRENCE/ALLISON INC:   COMPANY
 WELL.    38-11 SX #35-35:   WELL
 FLD .             TEAPOT:   FIELD
 LOC .      S35 T39N R78W:   LOCATION
 CNTY.            NATRONA:   COUNTY
 STAT.            WYOMING:   STATE
 CTRY. UNITED STATES OF AMERICA:   COUNTRY
 SRVC.      Dresser Atlas:   SERVICE COMPANY
 DATE.        07-AUG-1985:   LOGDATE
 API .       490251104100:   API NUMBER
~CURVE INFORMATION
#MNEM.UNIT       API CODE    CURVE DESCRIPTION
#----------   ------------   ------------------------------
 DEPT.F                  :   
 SPR .MV     07 010 01 00:   SPONTANEOUS POTENTIAL
 RILD.OHMM   07 120 46 00:   INDUCTION LOG DEEP RESISTIVITY
 RILM.OHMM   07 120 44 00:   INDUCTION LOG MEDIUM RESISTIVITY
 RFOC.OHMM   07 220 04 00:   RESISTIVITY FOCUSED LOG
 PORD.DEC    45 890 12 00:   POROSITY DENSITY SANDSTONE
 CNC .DEC    42 890 03 00:   NEUTRON POROSITY SANDSTONE
 GRD .GAPI   45 310 01 00:   GAMMA RAY FROM DENSITY LOG
 CALD.IN     45 280 60 00:   CALIPER FROM DENSITY LOG
 CORR.G/C3   45 356 01 00:   DENSITY CORRECTION
 DEN .G/C3   45 350 01 00:   COMPENSATED BULK DENSTIY
~PARAMETER INFORMATION
#MNEM.UNIT          VALUE    DESCRIPTION
#----------   ------------   ------------------------------
 PD  .                 GL:   PERMANENT DATUM
 EPD .F              5110:   ELEVATION PERMANENT DATUM
 LMF .                 GL:   LOG MEASURED FROM
 DMF .                 GL:   DRILLING MEASURED FROM
 EGL .F              5110:   GROUND LEVEL
 DATE.             8-7-85:   RUN DATE
 RUN .                  1:   RUN NUMBER
 DD  .F               900:   DEPTH DRILLER
 DL  .F               869:   DEPTH LOGGER
 BLI .F               867:   BOTTOM LOG INTERVAL
 TLI .F                40:   TOP LOG INTERVAL
 CS  .IN            8.625:   CASING SIZE
 CBD .F                40:   CASING BOTTOM DRILLER
 CBL .F                40:   CASING BOTTOM LOGGER
 BS  .IN            7.875:   BIT SIZE
 BSD .F               900:   BIT SIZE AT DEPTH
 DFT .             4% KCL:   DRILLING FLUID TYPE
 MSS .           FLOWLINE:   MUD SAMPLE SOURCE
 RMS .OHMM           .222:   RESISTIVITY MUD SAMPLE
 MST .F                71:   MUD SAMPLE TEMPERATURE
 TCS .HRS               2:   TIME CURCULATED STOPPED
 MRT .F               100:   MAXIMUM RECORDED TEMPERATURE
 LUN .               6264:   LOGGING UNIT NUMBER
 LUL .               GLTE:   LOGGING UNIT LOCATION
 ENGI.           FAHLSING:   RECORDING ENGINEER
 WITN.              FIVAS:   WITNESSED BY
 CLNT.            A2DTECH:   CLIENT CODE
 ORIG.       2", 5" PRINT:   ORIGIN OF DATA
 UWI .       490251104100:   UNIQUE WELL ID
 DICO. A2D Technologies, Inc.:   DIGITIZING COMPANY
~OTHER INFORMATION
~A   DEPT      SPR       RILD       RILM       RFOC       PORD          CNC      GRD       CALD       CORR        DEN   
# ...
  360.0000   -66.4360     7.2289     7.2892     7.5134     0.1335     0.3074   100.9268     8.1299     0.0440     2.4554
  360.5000   -66.4240     7.2265     7.2871     7.6686     0.1347     0.3119    99.3001     8.1156     0.0321     2.4494
  361.0000   -66.2975     7.1744     7.2851     7.7731     0.1395     0.3122    94.1033     8.1148     0.0231     2.4412
  361.5000   -66.3049     7.1226     7.2308     7.7710     0.1418     0.3036    93.2242     8.0868     0.0366     2.4420
  362.0000   -66.3108     7.0226     7.0829     7.7688     0.1380     0.2999   101.6245     8.0878     0.0501     2.4517
  362.5000   -66.1649     6.9239     6.9759     7.5508     0.1326     0.3038   105.8335     8.1036     0.0621     2.4585
  363.0000   -66.1723     6.7798     6.8386     7.3332     0.1323     0.3104   104.9604     8.1044     0.0741     2.4533
  363.5000   -66.1783     6.6841     6.7431     7.2441     0.1380     0.3320    99.9018     8.1202     0.0502     2.4436
  364.0000   -66.3346     6.5903     6.6949     7.2928     0.1439     0.3388    94.5443     8.1210     0.0233     2.4376
  364.5000   -66.3405     6.5428     6.6471     7.1409     0.1433     0.3382    95.4649     8.1368     0.0009     2.4377
  365.0000   -66.3465     6.5858     6.5996     6.9445     0.1451     0.3427    99.6739     8.1376     0.0129     2.4355
  365.5000   -66.3524     6.5836     6.6435     6.8474     0.1478     0.3556   102.3882     8.1383     0.0328     2.4288
  366.0000   -66.3583     6.5361     6.6881     6.7984     0.1448     0.3685   100.0202     8.1390     0.0550     2.4349
  366.5000   -66.3643     6.4443     6.5942     6.9388     0.1442     0.3661    95.5596     8.1398     0.0414     2.4355
  367.0000   -66.3702     6.3978     6.5021     7.0339     0.1496     0.3535    95.2784     8.1252     0.0205     2.4308
  367.5000   -66.3761     6.4405     6.5457     6.9831     0.1517     0.3409    95.3080     8.1262     0.0040     2.4244
  368.0000   -66.3821     6.4829     6.6804     6.8855     0.1385     0.3370    94.1300     8.1418     0.0146     2.4409
  368.5000   -66.3880     6.5707     6.7714     6.8362     0.1286     0.3337    96.8501     8.1428     0.0670     2.4611
  369.0000   -66.3939     6.6135     6.8636     6.8344     0.1235     0.3274    99.8633     8.1435     0.1104     2.4716
  369.5000   -66.4000     6.6570     6.9570     6.8325     0.1214     0.3244   102.8766     8.1443     0.1284     2.4754
  370.0000   -66.4060     6.6089     6.9551     6.8780     0.1235     0.3301   105.2919     8.1299     0.1240     2.4769
  370.5000   -66.2614     6.5612     6.9053     6.9717     0.1253     0.3359   100.2333     8.1307     0.1075     2.4724
  371.0000   -66.2688     6.5139     6.8560     7.3149     0.1280     0.3430    90.6867     8.1314     0.0911     2.4680
  371.5000   -66.1229     6.5116     6.8066     7.3128     0.1265     0.3513    91.6909     8.1321     0.0746     2.4650
  372.0000   -65.9784     6.5094     6.7580     7.0550     0.1238     0.3547    97.1845     8.1331     0.0552     2.4665
  372.5000   -65.9859     6.5523     6.7562     6.8681     0.1247     0.3460   101.6443     8.1338     0.0448     2.4718
  373.0000   -65.9918     6.6411     6.8486     6.8663     0.1259     0.3373   100.1969     8.1346     0.0614     2.4711
  373.5000   -65.8459     6.7311     6.9419     6.9120     0.1238     0.3346    94.4023     8.1200     0.0754     2.4704
  374.0000   -65.8533     6.7754     7.0364     7.0066     0.1217     0.3361    96.5186     8.1361     0.0928     2.4741
  374.5000   -65.7074     6.8199     7.0341     7.0528     0.1223     0.3400    98.3360     8.1368     0.0793     2.4742
  375.0000   -65.5629     6.8648     7.0321     7.0023     0.1232     0.3409    95.6691     8.1527     0.0419     2.4742
  375.5000   -65.4185     6.9100     7.0302     7.0978     0.1247     0.3325    95.9918     8.1534     0.0210     2.4734
  376.0000   -65.4259     6.9071     7.0283     7.6031     0.1293     0.3262    97.8092     8.1389     0.0195     2.4680
  376.5000   -65.4318     6.9047     6.9781     7.7072     0.1310     0.3274    99.0286     8.1247     0.0196     2.4608
  377.0000   -65.4378     6.8078     6.8806     7.6516     0.1294     0.3283    99.3513     8.1101     0.0151     2.4639
  377.5000   -65.4437     6.7122     6.7845     7.3391     0.1289     0.3250    99.3750     8.0958     0.0031     2.4654
  378.0000   -65.6000     6.5273     6.6437     7.0393     0.1316     0.3199    99.6976     8.0967    -0.0058     2.4587
  378.5000   -65.6061     6.3914     6.5019     6.8932     0.1331     0.3139   101.5150     8.0824     0.0242     2.4550
  379.0000   -65.6120     6.2583     6.4084     6.7500     0.1328     0.3109   104.2293     8.0831     0.0616     2.4550
  379.5000   -65.6180     6.1277     6.2814     6.6094     0.1301     0.3103   106.9435     8.0990     0.0751     2.4595
  380.0000   -65.7756     6.0005     6.2797     6.5174     0.1262     0.3073   109.0540     8.0997     0.0796     2.4663
  380.5000   -65.6297     5.9571     6.2352     6.6062     0.1259     0.3058   105.7951     8.1004     0.0812     2.4678
  381.0000   -65.6371     5.9477     6.2767     6.6502     0.1292     0.3116   101.0355     8.1012     0.0812     2.4611
  381.5000   -65.4927     5.8711     6.2746     6.6479     0.1298     0.3260    93.8843     8.1019     0.0767     2.4619
  382.0000   -65.4986     5.8691     6.2728     6.6926     0.1286     0.3384    93.2137     8.1180     0.0678     2.4641
  382.5000   -65.5046     5.8674     6.2280     6.6903     0.1288     0.3438    99.0138     8.1187     0.0543     2.4649
  383.0000   -65.5105     5.8248     6.2263     6.6885     0.1309     0.3474   104.4187     8.1195     0.0439     2.4605
  383.5000   -65.5164     5.8228     6.2246     6.6867     0.1354     0.3504   106.5389     8.1049     0.0349     2.4523
  384.0000   -65.5224     5.8616     6.1377     6.5932     0.1393     0.3444   106.8577     8.1059     0.0335     2.4448
  384.5000   -65.5283     5.8188     6.0519     6.5010     0.1378     0.3420   103.1824     8.1066     0.0380     2.4478
  385.0000   -65.5342     5.8168     5.9674     6.4101     0.1369     0.3480    98.6746     8.1073     0.0425     2.4494
  385.5000   -65.6905     5.8556     5.9657     6.3643     0.1384     0.3552    96.1155     8.1081     0.0396     2.4445
  386.0000   -65.6965     5.9344     5.9641     6.3188     0.1426     0.3480    97.3918     8.1088     0.0306     2.4374
  386.5000   -65.7024     5.9740     6.0038     6.3608     0.1447     0.3450    98.9103     8.1096     0.0246     2.4382
  387.0000   -65.7084     6.1386     6.0481     6.6280     0.1420     0.3609   100.4287     8.1103     0.0202     2.4435
  387.5000   -65.7143     6.3082     6.2685     6.8590     0.1396     0.3791   101.0503     8.1111     0.0157     2.4503
  388.0000   -65.7203     6.4825     6.5162     7.0491     0.1366     0.3623    98.3834     8.1118     0.0219     2.4563
  388.5000   -65.7263     6.6172     6.6507     7.1452     0.1320     0.3498   100.2008     8.1126     0.0337     2.4608
  389.0000   -65.7323     6.7094     6.7884     7.0898     0.1266     0.3558   103.2140     8.1133     0.0428     2.4691
  389.5000   -65.7395     6.7496     6.8335     6.9948     0.1234     0.3686   104.7324     8.1141     0.0578     2.4721
  390.0000   -65.7455     6.7940     6.8312     6.9444     0.1276     0.3803   102.6635     8.1148     0.0458     2.4684
  390.5000   -65.5995     6.7444     6.8293     6.9906     0.1327     0.3716   100.2955     8.1155     0.0144     2.4549
  391.0000   -65.6069     6.7421     6.7806     7.1350     0.1357     0.3563   100.0143     8.1163     0.0084     2.4482
  391.5000   -65.6129     6.6935     6.7321     7.3328     0.1354     0.3390    98.2502     8.1170     0.0190     2.4513
  392.0000   -65.6188     6.6452     6.6380     7.4842     0.1351     0.3153    94.0885     8.1180     0.0340     2.4520
  392.5000   -65.6248     6.5973     6.5906     7.3288     0.1387     0.3201    92.6115     8.1187     0.0415     2.4498
  393.0000   -65.6307     6.4599     6.5888     7.1272     0.1420     0.3294    92.9401     8.1195     0.0460     2.4431
