~VERSION INFORMATION
 VERS.                2.0:   CWLS LOG ASCII STANDARD - VERSION 2.0
 WRAP.                 NO:   ONE LINE PER DEPTH STEP
~WELL INFORMATION
#MNEM.UNIT      DATA TYPE    INFORMATION
#----------   ------------   ------------------------------
 STRT.F            0.0000:   START DEPTH
 STOP.F          652.0000:   STOP DEPTH
 STEP.F            0.5000:   STEP LENGTH
 NULL.          -999.2500:   NO VALUE
 COMP. US DEPTMNT OF ENRGY:   COMPANY
 WELL. NPR ##3 14-14-SX-11:   WELL
 FLD .   TEAPOT NAVAL RES:   FIELD
 LOC .      S11 T38N R78W:   LOCATION
 CNTY.            NATRONA:   COUNTY
 STAT.            WYOMING:   STATE
 CTRY. UNITED STATES OF AMERICA:   COUNTRY
 SRVC.            Unknown:   SERVICE COMPANY
 DATE.        03-JAN-1985:   LOGDATE
 API .       490251102400:   API NUMBER
~CURVE INFORMATION
#MNEM.UNIT       API CODE    CURVE DESCRIPTION
#----------   ------------   ------------------------------
 DEPT.F                  :   
 CALD.IN     45 280 60 00:   CALIPER
 CORR.G/C3   45 356 01 00:   DENSITY CORRECTION
 PORD.DEC    45 890 12 00:   DENSITY POROSITY SANDSTONE
 CNC .DEC    42 890 03 00:   NEUTRON POROSITY SANDSTONE
 SPR .MV     11 010 01 00:   SPONTANEOUS POTENTIAL FROM RES.
 GRR .GAPI   11 310 01 00:   GAMMA RAY FROM RES.
 RS  .OHMM   11 220 09 00:   RESISTIVITY SHALLOW
 RD  .OHMM   11 220 10 00:   RESISTIVITY DEEP
 DEN .G/C3   45 350 01 00:   COMPENSATED BULK DENSTIY
~PARAMETER INFORMATION
#MNEM.UNIT          VALUE    DESCRIPTION
#----------   ------------   ------------------------------
 PD  .                 GL:   PERMANENT DATUM
 EPD .F            5197.3:   ELEVATION PERMANENT DATUM
 LMF .                 KB:   LOG MEASURED FROM
 DMF .                 KB:   DRILLING MEASURED FROM
 EKB .F            5197.3:   KELLING BUSHING
 EGL .F            5197.3:   GROUND LEVEL
 DATE.         3-JAN-1985:   RUN DATE
 RUN .                  1:   RUN NUMBER
 DD  .F               650:   DEPTH DRILLER
 DL  .F               653:   DEPTH LOGGER
 BLI .F               651:   BOTTOM LOG INTERVAL
 CS  .IN            8.625:   CASING SIZE
 CBD .F                20:   CASING BOTTOM DRILLER
 CBL .F                20:   CASING BOTTOM LOGGER
 BS  .IN             6.25:   BIT SIZE
 BSD .F               650:   BIT SIZE AT DEPTH
 DFT .                KCL:   DRILLING FLUID TYPE
 RMS .OHMM            .12:   RESISTIVITY MUD SAMPLE
 MST .F                70:   MUD SAMPLE TEMPERATURE
 RMF .OHMM            .09:   RESISTIVITY MUD FILTRATE SAMPLE
 MFST.F                70:   MUD FILTRATE SAMPLE TEMPERATURE
 RMC .OHMM            .15:   RESISTIVITY MUD CAKE
 MCST.F                70:   MUD CAKE SAMPLE TEMPERATURE
 MFSS.               CALC:   MUD FILTRATE SAMPLE SOURCE
 MCSS.               CALC:   MUD CAKE SAMPLE SOURCE
 RMB .OHMM             .1:   RESISTIVITY MUD AT BHT
 BHT .F                80:   BOTTOM HOLE TEMPERATURE
 TCS .HRS               3:   TIME CURCULATED STOPPED
 MRT .F                80:   MAXIMUM RECORDED TEMPERATURE
 LUN .               6274:   LOGGING UNIT NUMBER
 LUL .               GLTE:   LOGGING UNIT LOCATION
 ENGI.               MACK:   RECORDING ENGINEER
 WITN.               PAGE:   WITNESSED BY
 CLNT.            A2DTECH:   CLIENT CODE
 ORIG.       2", 5" PRINT:   ORIGIN OF DATA
 UWI .       490251102400:   UNIQUE WELL ID
 DICO. A2D Technologies, Inc.:   DIGITIZING COMPANY
~OTHER INFORMATION
~A    DEPT    CALD       CORR       PORD        CNC        SPR         GRR        RS         RD        DEN   
# ...
  109.5000     6.5276     0.0093     0.1291     0.2787   -62.6576   112.4682     8.2768    34.1399     2.4590
  110.0000     6.5273     0.0087     0.1279     0.2827   -62.3821   113.5997     8.4321    45.9951     2.4645
  110.5000     6.5270     0.0113     0.1285     0.2845   -62.1565   113.0781     8.4851    59.9110     2.4620
  111.0000     6.5267     0.0168     0.1264     0.2826   -61.9844   111.3023     8.4621    54.7832     2.4652
  111.5000     6.5264     0.0505     0.1234     0.2807   -61.8156   112.2552     8.4463    42.2364     2.4696
  112.0000     6.5261     0.0505     0.1207     0.2803   -61.6470   115.6993     8.4306    31.3982     2.4741
  112.5000     6.5257     0.0387     0.1209     0.2829   -61.4783   119.0842     8.4072    30.8209     2.4751
  113.0000     6.5254     0.0304     0.1217     0.2880   -61.3096   119.5545     8.4972    31.4700     2.4751
  113.5000     6.5251     0.0352     0.1207     0.2978   -61.1408   119.2003     8.6786    32.7883     2.4751
  114.0000     6.5248     0.0405     0.1211     0.3301   -60.9721   117.9234     8.8638    34.1653     2.4737
  114.5000     6.5245     0.0209     0.1229     0.2982   -60.8080   116.8101     9.0531    35.0911     2.4715
  115.0000     6.5242     0.0007     0.1232     0.2719   -60.6711   116.8571     9.2192    34.8745     2.4705
  115.5000     6.5239     0.0123     0.1227     0.2777   -60.5332   117.5701     9.2072    34.7011     2.4715
  116.0000     6.5236     0.0270     0.1222     0.2844   -60.3951   118.2869     9.1949    34.5304     2.4725
  116.5000     6.5233     0.0415     0.1214     0.2874   -60.2571   118.7754     9.1822    34.3619     2.4735
  117.0000     6.5230     0.0541     0.1199     0.2864   -60.1190   119.3017     9.1697    34.1943     2.4757
  117.5000     6.5227     0.0459     0.1194     0.2853   -59.9810   121.5219     9.1568    34.0275     2.4779
  118.0000     6.5224     0.0378     0.1201     0.2844   -59.8430   123.7449     9.1429    33.8284     2.4781
  118.5000     6.5221     0.0312     0.1207     0.2833   -59.7049   122.2390     9.1293    34.3715     2.4757
  119.0000     6.5218     0.0465     0.1197     0.2808   -59.5669   118.1150     9.4208    35.0720     2.4776
  119.5000     6.5215     0.0595     0.1179     0.2754   -59.4289   114.3207     9.7172    35.7878     2.4814
  120.0000     6.5212     0.0473     0.1129     0.2700   -59.2904   114.1461    10.0230    36.5182     2.4860
  120.5000     6.5209     0.0361     0.1078     0.2656   -59.1524   116.9599    10.2032    37.1044     2.4940
  121.0000     6.5205     0.0362     0.1026     0.2746   -59.0276   117.5870    10.2153    37.1523     2.5018
  121.5000     6.5202     0.0430     0.0997     0.2822   -59.0309   115.5927    10.2433    37.2003     2.5099
  122.0000     6.5204     0.0522     0.1008     0.2854   -59.0317   113.2993    10.2713    37.2483     2.5109
  122.5000     6.5205     0.0540     0.1041     0.2761   -59.0289   113.1000    10.2994    37.2964     2.5056
  123.0000     6.5206     0.0367     0.1075     0.2684   -58.8705   115.1318    10.3276    37.3444     2.4998
  123.5000     6.5208     0.0239     0.1095     0.2612   -58.4065   117.2265    10.3559    37.3788     2.4948
  124.0000     6.5209     0.0365     0.1070     0.2569   -58.0191   115.2839    10.3842    37.4371     2.4944
  124.5000     6.5211     0.0487     0.1028     0.2532   -58.0276   108.8710    11.0363    40.3734     2.5014
  125.0000     6.5212     0.0600     0.0925     0.2513   -58.0289   102.5335    12.0451    43.2878     2.5150
  125.5000     6.5213     0.0593     0.0837     0.2492   -58.0289    97.9932    13.1461    46.4123     2.5285
  126.0000     6.5215     0.0542     0.0886     0.2529   -58.0290   100.2383    14.0889    50.3176     2.5387
  126.5000     6.5216     0.0552     0.0966     0.2598   -58.0289   107.8861    14.2277    46.6417     2.5240
  127.0000     6.5217     0.0598     0.1046     0.2655   -58.0291   114.2517    12.8823    41.9756     2.5092
  127.5000     6.5219     0.0572     0.1125     0.2686   -58.0186   115.4324    11.9529    37.7614     2.4945
  128.0000     6.5220     0.0462     0.1205     0.2712   -58.0030   113.2635    11.0890    33.8473     2.4798
  128.5000     6.5221     0.0341     0.1259     0.2793   -57.9871   110.3880    10.8768    33.3963     2.4682
  129.0000     6.5223     0.0337     0.1251     0.2877   -57.9713   109.5719    10.8679    32.8311     2.4679
  129.5000     6.5224     0.0382     0.1233     0.2926   -57.9555   111.1549    10.8587    32.2754     2.4718
  130.0000     6.5226     0.0433     0.1214     0.2874   -57.9397   113.3876    10.8502    31.7292     2.4755
  130.5000     6.5227     0.0458     0.1199     0.2811   -57.9239   115.6363    10.8414    31.1922     2.4771
  131.0000     6.5228     0.0389     0.1223     0.2747   -57.9081   117.7613    10.8325    30.6643     2.4737
  131.5000     6.5230     0.0304     0.1246     0.2711   -57.8922   117.3114    10.8237    30.1453     2.4703
  132.0000     6.5231     0.0242     0.1263     0.2768   -57.8764   115.4898    10.8149    29.6351     2.4667
  132.5000     6.5232     0.0209     0.1226     0.2807   -57.8606   112.6156    10.8061    29.1336     2.4720
  133.0000     6.5234     0.0244     0.1183     0.2756   -57.8448   111.7006    10.7973    28.6541     2.4798
  133.5000     6.5235     0.0482     0.1137     0.2719   -57.8290   111.2870    10.7879    28.1517     2.4877
  134.0000     6.5236     0.0732     0.1121     0.2721   -57.8132   110.0203    10.7468    27.6713     2.4910
  134.5000     6.5238     0.1001     0.1111     0.2766   -57.7973   108.0000    10.6639    27.1992     2.4911
  135.0000     6.5239     0.0829     0.1076     0.2791   -57.7815   107.1433    10.5816    26.7351     2.4941
  135.5000     6.5240     0.0564     0.1029     0.2797   -57.7657   109.3115    10.5000    26.2789     2.5019
  136.0000     6.5242     0.0444     0.1009     0.2881   -57.7499   112.7680    10.4894    25.7598     2.5090
  136.5000     6.5243     0.0543     0.1027     0.2998   -57.7341   116.2721    10.4472    25.2170     2.5052
  137.0000     6.5244     0.0490     0.1059     0.2974   -57.7183   116.8204    10.2989    24.6857     2.5005
  137.5000     6.5246     0.0424     0.1088     0.3041   -57.7024   116.8203    10.1527    24.1620     2.4948
  138.0000     6.5247     0.0359     0.1124     0.2996   -57.6866   116.8347     9.9249    23.6045     2.4877
  138.5000     6.5248     0.0320     0.1185     0.2907   -57.6707   115.5938    10.0390    23.6134     2.4807
  139.0000     6.5250     0.0311     0.1243     0.2783   -57.6544   113.8220    10.1432    23.6098     2.4737
  139.5000     6.5251     0.0304     0.1258     0.2790   -57.6397   113.7578    10.2485    23.6126     2.4659
  140.0000     6.5252     0.0340     0.1271     0.2797   -57.6719   114.5629    10.2977    23.6029     2.4669
  140.5000     6.5254     0.0374     0.1281     0.2774   -57.8543   117.2596    10.1754    23.6208     2.4658
  141.0000     6.5255     0.0273     0.1286     0.2759   -58.0290   117.2424    10.0849    22.9492     2.4633
  141.5000     6.5257     0.0171     0.1284     0.2861   -58.2032   118.7501     9.9952    22.5685     2.4627
  142.0000     6.5258     0.0070     0.1283     0.2985   -58.3767   120.4269     9.9062    22.1941     2.4627
  142.5000     6.5259    -0.0033     0.1287     0.2978   -58.5600   122.1029     9.7436    21.8259     2.4617
  143.0000     6.5261     0.0040     0.1268     0.2907   -58.7770   123.7604     9.7919    21.4970     2.4637
  143.5000     6.5262     0.0141     0.1248     0.2907   -58.7054   124.7563     9.8542    21.3161     2.4682
  144.0000     6.5263     0.0242     0.1248     0.2957   -58.5659   124.3849     9.9168    21.1368     2.4688
  144.5000     6.5265     0.0255     0.1285     0.2974   -58.4374   122.2738     9.9799    20.9590     2.4621
  145.0000     6.5266     0.0179     0.1322     0.2847   -58.5475   120.0270    10.0168    20.7827     2.4549
  145.5000     6.5267     0.0104     0.1342     0.2831   -58.6693   119.0866     9.4530    20.0529     2.4529
