~VERSION INFORMATION
 VERS.                2.0:   CWLS LOG ASCII STANDARD - VERSION 2.0
 WRAP.                 NO:   ONE LINE PER DEPTH STEP
~WELL INFORMATION
#MNEM.UNIT      DATA TYPE    INFORMATION
#----------   ------------   ------------------------------
 STRT.F           36.0000:   START DEPTH
 STOP.F          700.0000:   STOP DEPTH
 STEP.F            0.5000:   STEP LENGTH
 NULL.          -999.2500:   NO VALUE
 COMP. FENIX & SCISSON INC:   COMPANY
 WELL. NPR #3 13SX14 #13-14:   WELL
 FLD .             TEAPOT:   FIELD
 LOC .      S14 T38N R78W:   LOCATION
 CNTY.            NATRONA:   COUNTY
 STAT.            WYOMING:   STATE
 CTRY. UNITED STATES OF AMERICA:   COUNTRY
 SRVC.              Welex:   SERVICE COMPANY
 DATE.        28-FEB-1977:   LOGDATE
 API .       490251029600:   API NUMBER
~CURVE INFORMATION
#MNEM.UNIT       API CODE    CURVE DESCRIPTION
#----------   ------------   ------------------------------
 DEPT.F                  :   
 CALD.IN     45 280 60 00:   CALIPER FROM DENSITY LOG
 GRD .GAPI   45 310 01 00:   GAMMA RAY FROM DENSITY LOG
 CORR.G/C3   45 356 01 00:   DENSITY CORRECTION
 RHOB.G/C3   45 350 01 00:   BULK DENSITY
 DPHI.DEC    45 890 12 00:   DENSITY POROSITY SANDSTONE
 SPR .MV     07 010 01 00:   SPONTANEOUS POTENTIAL
 SGRD.OHMM   07 220 05 00:   SHALLOW RESISTIVITY
 ILD .OHMM   07 120 46 00:   INDUCTION LOG DEEP
 ILM .OHMM   07 120 44 00:   INDUCTION LOG MEDIUM
~PARAMETER INFORMATION
#MNEM.UNIT          VALUE    DESCRIPTION
#----------   ------------   ------------------------------
 PD  .                 GL:   PERMANENT DATUM
 EPD .F              5238:   ELEVATION PERMANENT DATUM
 LMF .                 GL:   LOG MEASURED FROM
 DMF .                 GL:   DRILLING MEASURED FROM
 EGL .F              5238:   GROUND LEVEL
 DATE.            2-28-77:   RUN DATE
 RUN .                  1:   RUN NUMBER
 DD  .F               710:   DEPTH DRILLER
 DL  .F               706:   DEPTH LOGGER
 BLI .F               704:   BOTTOM LOG INTERVAL
 TLI .F                42:   TOP LOG INTERVAL
 CS  .IN            8.625:   CASING SIZE
 CBD .F                42:   CASING BOTTOM DRILLER
 CBL .F                42:   CASING BOTTOM LOGGER
 BS  .IN            7.875:   BIT SIZE
 BSD .F               710:   BIT SIZE AT DEPTH
 DFT .           CHEM-GEL:   DRILLING FLUID TYPE
 DFD .                8.7:   DRILLING FLUID DENSITY
 DFV .                 33:   DRILLING FLUID VISCOSITY
 DFPH.                  7:   DRILLING FLUID PH
 DFL .                  8:   DRILLING FLUID LOSS
 MSS .          FLOW LINE:   MUD SAMPLE SOURCE
 RMS .OHMM           .382:   RESISTIVITY MUD SAMPLE
 MST .F                54:   MUD SAMPLE TEMPERATURE
 RMF .OHMM           .342:   RESISTIVITY MUD FILTRATE SAMPLE
 MFST.F                54:   MUD FILTRATE SAMPLE TEMPERATURE
 RMC .OHMM           .821:   RESISTIVITY MUD CAKE
 MCST.F                54:   MUD CAKE SAMPLE TEMPERATURE
 MFSS.           MEASURED:   MUD FILTRATE SAMPLE SOURCE
 MCSS.           MEASURED:   MUD CAKE SAMPLE SOURCE
 RMB .OHMM           .333:   RESISTIVITY MUD AT BHT
 BHT .F                62:   BOTTOM HOLE TEMPERATURE
 TCS .HRS               3:   TIME CURCULATED STOPPED
 MRT .F                62:   MAXIMUM RECORDED TEMPERATURE
 LUN .               8611:   LOGGING UNIT NUMBER
 LUL .           GILLETTE:   LOGGING UNIT LOCATION
 ENGI.               DOAK:   RECORDING ENGINEER
 WITN.               JAPP:   WITNESSED BY
 CLNT.            A2DTECH:   CLIENT CODE
 ORIG.       2", 5" PRINT:   ORIGIN OF DATA
 UWI .       490251029600:   UNIQUE WELL ID
 DICO. A2D Technologies, Inc.:   DIGITIZING COMPANY
~OTHER INFORMATION
~A   DEPT       CALD       GRD       CORR        RHOB     DPHI         SPR        SGRD      ILD        ILM   
# ...
  547.0000     7.9349    94.5637     0.0159     2.3988     0.1440   -43.9184    16.9255    12.4677    13.4542
  547.5000     7.9418    95.9483     0.0175     2.4026     0.1447   -43.8531    16.5789    12.3765    14.8903
  548.0000     7.9381    97.3283     0.0182     2.4064     0.1449   -43.7879    16.1743    12.2859    14.0889
  548.5000     7.9343    98.6881     0.0190     2.4103     0.1420   -43.7227    16.2522    12.1960    14.4633
  549.0000     7.9305    99.6281     0.0198     2.4137     0.1391   -43.6552    16.5045    12.1067    15.2203
  549.5000     7.9267    97.0448     0.0205     2.4092     0.1377   -43.6326    16.7610    12.0451    15.4496
  550.0000     7.9229    95.0159     0.0202     2.4039     0.1421   -43.6096    17.0193    11.9953    14.5510
  550.5000     7.9191    92.9846     0.0187     2.3988     0.1465   -43.5881    17.2570    11.9405    15.0920
  551.0000     7.9154    90.8685     0.0172     2.3935     0.1509   -43.5665    17.1282    11.9345    15.7982
  551.5000     7.9116    91.0540     0.0157     2.3909     0.1544   -43.5448    17.0111    12.2007    14.6182
  552.0000     7.9078    92.0356     0.0142     2.3915     0.1518   -43.5232    16.8948    12.3829    15.1418
  552.5000     7.9040    92.8752     0.0131     2.4026     0.1426   -43.5015    16.7863    12.7184    15.7371
  553.0000     7.9002    91.8494     0.0169     2.4197     0.1361   -43.4798    16.9030    13.1275    14.6182
  553.5000     7.8965    90.8417     0.0206     2.4364     0.1225   -43.4581    16.9417    13.5498    15.7469
  554.0000     7.8927    89.8351     0.0243     2.4566     0.1081   -43.4365    17.2857    14.0406    16.9000
  554.5000     7.8889    88.6703     0.0280     2.4805     0.0944   -43.4148    18.7725    14.5811    18.1376
  555.0000     7.8851    86.9313     0.0317     2.5048     0.0807   -43.3931    22.9662    15.1425    19.4658
  555.5000     7.8824    85.2144     0.0353     2.5245     0.0683   -43.3714    28.2576    15.7254    20.6207
  556.0000     7.8813    83.4270     0.0390     2.5428     0.0614   -43.3497    33.6487    16.3283    21.6680
  556.5000     7.8801    84.1195     0.0380     2.5547     0.0536   -43.3281    35.4224    16.3283    22.7555
  557.0000     7.8790    85.8535     0.0325     2.5417     0.0592   -43.3064    33.6997    16.1785    22.9662
  557.5000     7.8779    87.7162     0.0269     2.5228     0.0704   -43.2846    28.5519    15.4521    21.9224
  558.0000     7.8768    89.5812     0.0212     2.5035     0.0816   -43.2629    23.4974    14.7421    19.6258
  558.5000     7.8757    90.1256     0.0244     2.4833     0.0928   -43.2424    18.9294    14.0647    17.5287
  559.0000     7.8746    87.6570     0.0285     2.4701     0.1040   -43.2041    16.2269    13.4185    15.6559
  559.5000     7.8735    89.1894     0.0327     2.4566     0.1104   -43.1571    15.5683    12.8020    14.1952
  560.0000     7.8724    91.2329     0.0290     2.4488     0.1146   -43.1097    15.0236    12.2138    14.0338
  560.5000     7.8713    93.2941     0.0246     2.4463     0.1189   -43.0622    15.0246    11.6526    13.8743
  561.0000     7.8702    94.6382     0.0202     2.4352     0.1232   -43.0148    15.2115    11.2655    13.7173
  561.5000     7.8691    95.8742     0.0157     2.4244     0.1268   -42.9674    15.3523    11.1838    13.5643
  562.0000     7.8680    96.7732     0.0112     2.4131     0.1296   -42.9200    15.4943    11.1028    13.4413
  562.5000     7.8669    94.2805     0.0123     2.4112     0.1323   -42.8726    15.6377    11.0223    14.2881
  563.0000     7.8658    95.5539     0.0151     2.4182     0.1294   -42.8252    15.7371    10.9424    13.4608
  563.5000     7.8646    97.1894     0.0178     2.4254     0.1255   -42.7778    15.4994    10.8631    12.7302
  564.0000     7.8635    98.8888     0.0206     2.4326     0.1217   -42.7304    15.3182    10.7843    13.0872
  564.5000     7.8627    98.3941     0.0233     2.4397     0.1194   -42.6829    15.1392    10.7062    12.9747
  565.0000     7.8668    97.1335     0.0262     2.4463     0.1172   -42.6355    14.9622    10.6285    12.7387
  565.5000     7.8708    95.8353     0.0237     2.4518     0.1150   -42.5881    14.7873    10.5865    12.3799
  566.0000     7.8748    94.5340     0.0192     2.4572     0.1129   -42.5407    14.6144    10.6143    12.4960
  566.5000     7.8787    93.2221     0.0209     2.4627     0.1093   -42.4933    14.4840    10.6572    12.9657
  567.0000     7.8827    95.9681     0.0249     2.4686     0.1060   -42.4459    14.5938    10.7003    12.3829
  567.5000     7.8866    98.6546     0.0268     2.4695     0.1030   -42.3985    14.6830    10.7436    13.2799
  568.0000     7.8906   101.1566     0.0240     2.4658     0.1054   -42.3511    14.7536    10.7870    13.0648
  568.5000     7.8945    98.9832     0.0214     2.4622     0.1076   -42.3036    14.4993    10.8306    12.6449
  569.0000     7.8984    97.7355     0.0186     2.4586     0.1097   -42.2564    14.3838    10.8834    12.0451
  569.5000     7.9024    99.3287     0.0112     2.4551     0.1119   -42.2239    14.2675    10.8361    12.3388
  570.0000     7.9063   100.5139     0.0053     2.4515     0.1129   -42.1955    14.2180    10.7768    12.9671
  570.5000     7.9103   102.2303     0.0115     2.4548     0.1100   -42.1670    14.4189    10.7178    12.3871
  571.0000     7.9142   101.1842     0.0175     2.4647     0.1067   -42.1386    14.6246    10.6592    11.8250
  571.5000     7.9182    99.0128     0.0235     2.4716     0.1038   -42.1101    14.8336    10.5868    12.0001
  572.0000     7.9221    96.8293     0.0288     2.4664     0.1067   -42.0817    15.0457    10.6035    12.1525
  572.5000     7.9261    95.2001     0.0281     2.4616     0.1093   -42.0533    15.2607    10.6269    12.3068
  573.0000     7.9300    97.0760     0.0271     2.4568     0.1119   -42.0248    15.4240    10.6501    12.4636
  573.5000     7.9339    98.9032     0.0262     2.4520     0.1146   -41.9964    14.9989    10.6843    12.6218
  574.0000     7.9380   100.7324     0.0252     2.4478     0.1171   -41.9679    14.7536    10.6544    12.7310
  574.5000     7.9420   102.5205     0.0243     2.4477     0.1173   -41.9395    14.9432    10.5974    12.3040
  575.0000     7.9382   101.3472     0.0234     2.4479     0.1173   -41.9110    15.0282    10.5407    12.0451
  575.5000     7.9337   101.1768     0.0245     2.4517     0.1165   -41.8826    14.8848    10.4894    12.2692
  576.0000     7.9291   102.0440     0.0307     2.4578     0.1134   -41.8541    14.7557    10.4589    11.9345
  576.5000     7.9246   102.2369     0.0367     2.4639     0.1089   -41.8257    14.6277    10.4248    12.3829
  577.0000     7.9201   100.4353     0.0426     2.4700     0.1044   -41.7972    14.5008    10.3908    12.1710
  577.5000     7.9155    98.6997     0.0486     2.4761     0.0999   -41.7688    14.3751    10.3568    11.7338
  578.0000     7.9110    96.9959     0.0545     2.4814     0.0959   -41.7404    14.2504    10.3227    11.5024
  578.5000     7.9065    96.0686     0.0580     2.4793     0.1007   -41.7119    14.1268    10.2981    12.0451
  579.0000     7.9019    97.5623     0.0545     2.4771     0.0979   -41.6834    14.0043    10.2967    11.8737
  579.5000     7.8974    98.9753     0.0541     2.4750     0.1002   -41.6554    13.9596    10.2977    11.7165
  580.0000     7.8929    99.2824     0.0593     2.4742     0.1025   -41.6339    14.3296    10.7057    11.7924
  580.5000     7.8884    96.6083     0.0649     2.4869     0.0949   -41.6144    14.9146    10.9842    11.9735
  581.0000     7.8838    97.4593     0.0667     2.4831     0.0927   -41.5949    15.5235    11.4478    12.1574
  581.5000     7.8793    98.9798     0.0610     2.4770     0.1052   -41.5754    16.2069    11.9107    12.3441
  582.0000     7.8748    97.1984     0.0546     2.4687     0.1200   -41.5559    17.1322    12.3922    13.6458
  582.5000     7.8703    93.4407     0.0482     2.4360     0.1370   -41.5363    18.1107    13.1113    15.1109
  583.0000     7.8657    89.6829     0.0417     2.3996     0.1540   -41.5168    19.1457    14.0972    16.2887
