~VERSION INFORMATION
 VERS.                2.0:   CWLS LOG ASCII STANDARD - VERSION 2.0
 WRAP.                 NO:   ONE LINE PER DEPTH STEP
~WELL INFORMATION
#MNEM.UNIT      DATA TYPE    INFORMATION
#----------   ------------   ------------------------------
 STRT.F            0.0000:   START DEPTH
 STOP.F          962.0000:   STOP DEPTH
 STEP.F            0.5000:   STEP LENGTH
 NULL.          -999.2500:   NO VALUE
 COMP. FENIX & SCISSON INC:   COMPANY
 WELL.      NPR #3 #51-14:   WELL
 FLD .             TEAPOT:   FIELD
 LOC .      S14 T38N R78W:   LOCATION
 CNTY.            NATRONA:   COUNTY
 STAT.            WYOMING:   STATE
 CTRY. UNITED STATES OF AMERICA:   COUNTRY
 SRVC.              Welex:   SERVICE COMPANY
 DATE.        03-MAR-1977:   LOGDATE
 API .       490251029700:   API NUMBER
~CURVE INFORMATION
#MNEM.UNIT       API CODE    CURVE DESCRIPTION
#----------   ------------   ------------------------------
 DEPT.F                  :   
 SGRD.OHMM   07 220 05 00:   SHALLOW RESISTIVITY
 ILM .OHMM   07 120 44 00:   INDUCTION LOG MEDIUM
 ILD .OHMM   07 120 46 00:   INDUCTION LOG DEEP
 SPR .MV     07 010 01 00:   SPONTANEOUS POTENTIAL
 DPHI.DEC    45 890 12 00:   DENSITY POROSITY SANDSTONE
 RHOB.G/C3   45 350 01 00:   BULK DENSITY
 CORR.G/C3   45 356 01 00:   DENSITY CORRECTION
 CALD.IN     45 280 60 00:   CALIPER
 GRD .GAPI   45 310 01 00:   GAMMA RAY FROM DENSITY LOG
~PARAMETER INFORMATION
#MNEM.UNIT          VALUE    DESCRIPTION
#----------   ------------   ------------------------------
 PD  .                 GL:   PERMANENT DATUM
 EPD .F            5221.8:   ELEVATION PERMANENT DATUM
 LMF .                 GL:   LOG MEASURED FROM
 DMF .                 GL:   DRILLING MEASURED FROM
 EGL .F            5221.8:   GROUND LEVEL
 DATE.             3-3-77:   RUN DATE
 RUN .                  1:   RUN NUMBER
 DD  .F               967:   DEPTH DRILLER
 DL  .F               964:   DEPTH LOGGER
 BLI .F               962:   BOTTOM LOG INTERVAL
 TLI .F                42:   TOP LOG INTERVAL
 CS  .IN            8.625:   CASING SIZE
 CBD .F                42:   CASING BOTTOM DRILLER
 CBL .F                42:   CASING BOTTOM LOGGER
 BS  .IN            7.875:   BIT SIZE
 BSD .F               967:   BIT SIZE AT DEPTH
 DFT .           CHEM-GEL:   DRILLING FLUID TYPE
 DFD .                8.7:   DRILLING FLUID DENSITY
 DFV .                 33:   DRILLING FLUID VISCOSITY
 DFPH.                7.2:   DRILLING FLUID PH
 DFL .                 10:   DRILLING FLUID LOSS
 MSS .          FLOW LINE:   MUD SAMPLE SOURCE
 RMS .OHMM           .422:   RESISTIVITY MUD SAMPLE
 MST .F                56:   MUD SAMPLE TEMPERATURE
 RMF .OHMM           .372:   RESISTIVITY MUD FILTRATE SAMPLE
 MFST.F                56:   MUD FILTRATE SAMPLE TEMPERATURE
 RMC .OHMM           .484:   RESISTIVITY MUD CAKE
 MCST.F                56:   MUD CAKE SAMPLE TEMPERATURE
 MFSS.           MEASURED:   MUD FILTRATE SAMPLE SOURCE
 MCSS.           MEASURED:   MUD CAKE SAMPLE SOURCE
 RMB .OHMM           .284:   RESISTIVITY MUD AT BHT
 BHT .F                83:   BOTTOM HOLE TEMPERATURE
 TCS .HRS               2:   TIME CURCULATED STOPPED
 MRT .F                83:   MAXIMUM RECORDED TEMPERATURE
 LUN .               8611:   LOGGING UNIT NUMBER
 LUL .           GILLETTE:   LOGGING UNIT LOCATION
 ENGI.          D. LAWSON:   RECORDING ENGINEER
 WITN.         STUEBINGER:   WITNESSED BY
 CLNT.            A2DTECH:   CLIENT CODE
 ORIG.        2" 5" PRINT:   ORIGIN OF DATA
 UWI .       490251029700:   UNIQUE WELL ID
 DICO. A2D Technologies, Inc.:   DIGITIZING COMPANY
~OTHER INFORMATION
~A    DEPT    SGRD        ILM        ILD        SPR       DPHI       RHOB       CORR       CALD        GRD   
# ...
  438.0000     9.6333     8.7603     6.2167   -41.6134     0.0787     2.5213     0.0662     8.0813   116.0827
  438.5000     9.4412     8.4385     6.1382   -41.7841     0.0843     2.5099     0.0644     8.0844   117.3824
  439.0000     9.2528     8.1323     6.0607   -41.9346     0.0928     2.4956     0.0627     8.0874   118.6753
  439.5000     9.0682     7.8362     5.9841   -41.9126     0.0972     2.4848     0.0610     8.0905   119.8808
  440.0000     8.9751     7.5561     5.9086   -41.8942     0.0983     2.4839     0.0593     8.0935   119.7696
  440.5000     8.9400     7.6346     5.8340   -41.8763     0.0992     2.4870     0.0579     8.0966   117.1131
  441.0000     8.9051     7.7309     5.7368   -41.8583     0.0970     2.4912     0.0615     8.0996   114.4894
  441.5000     8.8702     7.8388     5.7621   -41.8404     0.0943     2.4948     0.0651     8.1027   113.4828
  442.0000     8.8327     7.6479     5.8015   -41.8225     0.0920     2.4985     0.0678     8.1057   110.9003
  442.5000     9.2722     7.4186     5.8406   -41.8045     0.0907     2.5015     0.0677     8.1088   108.4970
  443.0000     9.6358     7.4540     5.8800   -41.7866     0.0895     2.5051     0.0677     8.1118   111.7879
  443.5000     9.7662     7.6786     5.9197   -41.7686     0.0877     2.5087     0.0677     8.1149   114.5558
  444.0000     9.8942     7.9101     5.9595   -41.7499     0.0837     2.5117     0.0677     8.1179   113.3704
  444.5000    10.0215     8.1485     5.9997   -41.7365     0.0828     2.5061     0.0675     8.1210   112.3085
  445.0000    10.3146     8.2828     6.0401   -41.8342     0.0916     2.5004     0.0666     8.1240   112.7344
  445.5000    10.5147     8.1083     6.0809   -41.9355     0.0931     2.4949     0.0658     8.1271   114.8602
  446.0000    10.6005     7.9901     6.1175   -42.0361     0.0944     2.4917     0.0649     8.1301   116.9703
  446.5000    10.3338     7.9111     6.0282   -42.1367     0.0958     2.4911     0.0641     8.1332   118.8190
  447.0000    10.1233     8.0890     5.9485   -42.2372     0.0972     2.4905     0.0633     8.1362   117.8396
  447.5000     9.8980     8.2828     5.8699   -42.3378     0.0985     2.4898     0.0624     8.1362   118.0927
  448.0000     9.5926     8.0431     5.7923   -42.4384     0.0999     2.4872     0.0616     8.1343   119.6970
  448.5000     9.2965     7.6526     5.7158   -42.5389     0.1013     2.4846     0.0608     8.1324   120.1992
  449.0000     9.0097     7.2804     5.6402   -42.6395     0.1027     2.4820     0.0599     8.1305   120.5488
  449.5000     8.9142     7.0193     5.5657   -42.7404     0.1041     2.4794     0.0591     8.1285   120.9277
  450.0000     8.9142     7.0196     5.4921   -42.8415     0.1054     2.4768     0.0582     8.1266   121.9732
  450.5000     8.9142     7.2069     5.4291   -42.9301     0.1068     2.4742     0.0574     8.1247   122.9826
  451.0000     8.9142     7.3806     5.5068   -42.8565     0.1082     2.4718     0.0565     8.1228   123.6361
  451.5000     8.9837     7.5586     5.5763   -42.7784     0.1067     2.4758     0.0557     8.1208   121.5420
  452.0000     9.2141     7.6258     5.6467   -42.7007     0.1026     2.4814     0.0580     8.1189   119.4583
  452.5000     9.4864     7.6258     5.7179   -42.6231     0.0985     2.4870     0.0606     8.1178   117.6449
  453.0000     9.7668     7.6426     5.7901   -42.5455     0.0944     2.4926     0.0632     8.1219   117.6891
  453.5000     9.9527     7.7803     5.8632   -42.4679     0.0903     2.4982     0.0658     8.1259   117.6917
  454.0000     9.9222     7.9208     5.9372   -42.3904     0.0862     2.5036     0.0684     8.1299   117.4158
  454.5000     9.8997     8.0639     6.0121   -42.3127     0.0821     2.5112     0.0710     8.1340   115.0882
  455.0000     9.8772     8.2090     6.0880   -42.2353     0.0780     2.5203     0.0736     8.1380   112.2295
  455.5000     9.8617     8.2828     6.1648   -42.1564     0.0767     2.5263     0.0757     8.1420   111.9670
  456.0000    10.0387     8.1803     6.2309   -42.1626     0.0798     2.5186     0.0751     8.1460   112.6601
  456.5000    10.2303     8.1027     6.2308   -42.2075     0.0830     2.5086     0.0746     8.1500   113.9914
  457.0000    10.2151     8.0259     6.2309   -42.2536     0.0821     2.5147     0.0740     8.1540   115.3094
  457.5000    10.1872     7.9111     6.2309   -42.2995     0.0803     2.5177     0.0713     8.1580   115.5210
  458.0000    10.1603     8.1759     6.2309   -42.3454     0.0852     2.5051     0.0653     8.1621   114.7325
  458.5000    10.1372     8.4319     6.2310   -42.3913     0.0929     2.4972     0.0598     8.1661   113.9762
  459.0000    10.2161     8.7520     6.2158   -42.4372     0.0992     2.4896     0.0599     8.1701   113.6936
  459.5000    10.2861     8.6087     6.1894   -42.4831     0.1009     2.4820     0.0602     8.1741   114.3657
  460.0000    10.3562     8.4310     6.1630   -42.5290     0.1026     2.4803     0.0604     8.1770   115.6722
  460.5000    10.4203     8.2570     6.1367   -42.5749     0.1043     2.4796     0.0607     8.1769   117.9297
  461.0000    10.2853     8.1873     6.1105   -42.6208     0.1056     2.4789     0.0609     8.1769   118.9197
  461.5000    10.1636     8.1594     6.0844   -42.6666     0.1043     2.4781     0.0612     8.1769   118.5788
  462.0000    10.0431     8.1319     6.0584   -42.7125     0.1011     2.4807     0.0614     8.1769   118.3855
  462.5000     9.9241     8.0764     6.0326   -42.7584     0.1002     2.4798     0.0616     8.1769   119.9652
  463.0000     9.8066     8.0215     6.0068   -42.8043     0.1051     2.4734     0.0572     8.1769   121.5628
  463.5000     9.6822     7.9671     5.9812   -42.8502     0.1104     2.4676     0.0539     8.1769   121.6241
  464.0000     9.6347     7.9130     5.9556   -42.8961     0.1076     2.4730     0.0548     8.1769   119.4163
  464.5000     9.5937     7.8388     5.9302   -42.9420     0.1037     2.4801     0.0557     8.1769   117.0342
  465.0000     9.5937     7.8718     5.9049   -42.9879     0.0998     2.4874     0.0565     8.1769   116.8708
  465.5000     9.5937     7.9256     5.8797   -43.0338     0.0972     2.4881     0.0574     8.1769   118.1016
  466.0000     9.5937     7.9839     5.8547   -43.0801     0.0972     2.4854     0.0583     8.1769   119.3565
  466.5000     9.5935     7.8804     5.8427   -43.1254     0.0967     2.4898     0.0591     8.1769   120.6210
  467.0000     9.5946     7.7679     5.8649   -43.1087     0.0938     2.4962     0.0600     8.1769   121.3910
  467.5000     9.6282     7.6577     5.8814   -43.0881     0.0908     2.5028     0.0609     8.1769   121.8899
  468.0000     9.6628     7.5561     5.8980   -43.0679     0.0899     2.5030     0.0617     8.1769   122.2881
  468.5000     9.6975     7.7194     5.9145   -43.0477     0.0905     2.5018     0.0626     8.1769   121.4548
  469.0000     9.7325     7.8759     5.9311   -43.0276     0.0911     2.5022     0.0635     8.1769   121.8411
  469.5000     9.7676     8.0355     5.9478   -43.0074     0.0892     2.5053     0.0643     8.1769   123.4425
  470.0000     9.8027     8.1321     5.9645   -42.9873     0.0868     2.5083     0.0652     8.1769   125.0462
  470.5000     9.8381     7.9850     5.9812   -42.9672     0.0843     2.5113     0.0653     8.1769   125.7268
  471.0000     9.8735     7.8819     5.9980   -42.9479     0.0819     2.5143     0.0643     8.1769   125.4472
  471.5000     9.9091     7.7801     6.0284   -42.9227     0.0795     2.5154     0.0633     8.1769   126.5045
  472.0000     9.9447     7.6962     6.0719   -42.7913     0.0813     2.5140     0.0623     8.1769   126.4805
  472.5000     9.9893     8.0237     6.1158   -42.6619     0.0830     2.5125     0.0613     8.1769   125.4878
  473.0000    10.0383     8.3155     6.1599   -42.5334     0.0822     2.5140     0.0604     8.1773   125.3534
  473.5000    10.1368     8.6220     6.2044   -42.4048     0.0802     2.5168     0.0594     8.1782   125.2506
  474.0000    10.2811     8.8327     6.2492   -42.2762     0.0782     2.5197     0.0584     8.1547   125.8960
