~VERSION INFORMATION
 VERS.                2.0:   CWLS LOG ASCII STANDARD - VERSION 2.0
 WRAP.                 NO:   ONE LINE PER DEPTH STEP
~WELL INFORMATION
#MNEM.UNIT      DATA TYPE    INFORMATION
#----------   ------------   ------------------------------
 STRT.F            0.0000:   START DEPTH
 STOP.F          537.0000:   STOP DEPTH
 STEP.F            0.5000:   STEP LENGTH
 NULL.          -999.2500:   NO VALUE
 COMP.   FLUOR DANIEL INC:   COMPANY
 WELL. NAVAL PETROLEUM RESERVE 3 X 83 #6-10:   WELL
 FLD .             TEAPOT:   FIELD
 LOC .      S10 T38N R78W:   LOCATION
 CNTY.            NATRONA:   COUNTY
 STAT.            WYOMING:   STATE
 CTRY. UNITED STATES OF AMERICA:   COUNTRY
 SRVC.      Western Atlas:   SERVICE COMPANY
 DATE.        30-APR-1996:   LOGDATE
 API .       490252278500:   API NUMBER
~CURVE INFORMATION
#MNEM.UNIT       API CODE    CURVE DESCRIPTION
#----------   ------------   ------------------------------
 DEPT.F                  :   
 GRR .GAPI   07 310 01 00:   GAMMA RAY FROM RES. LOG.
 RILD.OHMM   07 120 46 00:   INDUCTION LOG DEEP RESISTIVITY
 RILM.OHMM   07 120 44 00:   INDUCTION LOG MEDIUM RESISTIVITY
~PARAMETER INFORMATION
#MNEM.UNIT          VALUE    DESCRIPTION
#----------   ------------   ------------------------------
 PD  .                 GL:   PERMANENT DATUM
 EPD .F              5178:   ELEVATION PERMANENT DATUM
 LMF .                 KB:   LOG MEASURED FROM
 DAPD.F                10:   FEET ABOVE PERMANENT DATUM
 DMF .                 KB:   DRILLING MEASURED FROM
 EKB .F              5188:   KELLING BUSHING
 EDF .F              5187:   DRILLING FLOOR
 EGL .F              5178:   GROUND LEVEL
 DATE.            4-30-96:   RUN DATE
 RUN .                  1:   RUN NUMBER
 DD  .F               545:   DEPTH DRILLER
 DL  .F               545:   DEPTH LOGGER
 BLI .F               537:   BOTTOM LOG INTERVAL
 CS  .IN            9.625:   CASING SIZE
 CBD .F                96:   CASING BOTTOM DRILLER
 CBL .F                96:   CASING BOTTOM LOGGER
 BS  .IN             8.75:   BIT SIZE
 BSD .F               545:   BIT SIZE AT DEPTH
 DFT .                AIR:   DRILLING FLUID TYPE
 BHT .F                82:   BOTTOM HOLE TEMPERATURE
 MRT .F                82:   MAXIMUM RECORDED TEMPERATURE
 LUN .            ML 4116:   LOGGING UNIT NUMBER
 LUL .             CASPER:   LOGGING UNIT LOCATION
 ENGI.        VERN RAUTIO:   RECORDING ENGINEER
 WITN.         JAY LEBERU:   WITNESSED BY
 CLNT.            A2DTECH:   CLIENT CODE
 ORIG.        2" 5" PRINT:   ORIGIN OF DATA
 UWI .       490252278500:   UNIQUE WELL ID
 DICO. A2D Technologies, Inc.:   DIGITIZING COMPANY
~OTHER INFORMATION
~A    DEPT       GRR     RILD       RILM   
# ...
   91.0000    73.0965  -999.2500  -999.2500
   91.5000    71.1019  -999.2500  -999.2500
   92.0000    70.5858  -999.2500  -999.2500
   92.5000    70.0625  -999.2500  -999.2500
   93.0000    69.5402  -999.2500  -999.2500
   93.5000    69.7435  -999.2500  -999.2500
   94.0000    72.1665  -999.2500  -999.2500
   94.5000    76.7977  -999.2500  -999.2500
   95.0000    86.2641  -999.2500  -999.2500
   95.5000    95.6103  -999.2500  -999.2500
   96.0000   104.7717  -999.2500  -999.2500
   96.5000   108.7365     2.8333     3.1996
   97.0000   111.1520     2.9813     2.7550
   97.5000   114.4439     5.1309     3.3256
   98.0000   116.3895     7.9217     4.3485
   98.5000   117.0319    13.6334     6.0920
   99.0000   117.7273    23.4634     8.4975
   99.5000   118.7038    28.2673    13.7044
  100.0000   119.8935     7.7058    17.8772
  100.5000   121.0271     7.9556    12.8070
  101.0000   122.6205     8.3101     9.8939
  101.5000   124.8188     8.5406     8.4611
  102.0000   125.7631     6.9526     9.4822
  102.5000   126.7433     6.9526     9.8265
  103.0000   127.1796     7.6806     9.0954
  103.5000   127.4117     8.5424     8.6816
  104.0000   126.7994     8.3090     8.3882
  104.5000   125.9589     7.9161     8.1048
  105.0000   125.1096     7.5418     7.8309
  105.5000   124.2548     7.1852     7.5663
  106.0000   123.4970     6.8879     7.3106
  106.5000   125.7782     6.8238     7.1258
  107.0000   129.4415     6.8527     7.0838
  107.5000   133.0610     6.8742     7.1257
  108.0000   134.6357     6.8957     7.1776
  108.5000   131.5719     6.9173     7.2300
  109.0000   128.3342     6.9389     7.2854
  109.5000   126.0980     6.9946     7.4692
  110.0000   123.5707     7.2358     7.6677
  110.5000   120.5856     7.4853     7.8713
  111.0000   118.4293     7.7435     8.0828
  111.5000   116.7201     7.9250     8.2531
  112.0000   114.8179     7.9385     8.4869
  112.5000   112.3520     7.9770     8.5406
  113.0000   111.2267     7.9995     8.4669
  113.5000   111.9462     7.9699     8.4056
  114.0000   112.7063     7.9489     8.3447
  114.5000   113.4626     7.9281     8.2916
  115.0000   114.2118     7.9074     8.2535
  115.5000   114.9794     7.8866     8.2155
  116.0000   114.5676     7.8655     8.1777
  116.5000   113.5152     7.8513     8.1505
  117.0000   112.4622     7.9470     8.2366
  117.5000   113.7641     8.0364     8.3167
  118.0000   117.8685     8.1267     8.4243
  118.5000   120.7704     8.2180     8.6499
  119.0000   113.8919     8.3043     8.8661
  119.5000   107.8563     8.4484     8.9277
  120.0000   107.0355     8.5859     8.9865
  120.5000   115.1058     8.7018     9.0373
  121.0000   118.7968     8.7835     9.1233
  121.5000   121.8855     8.6010     8.9288
  122.0000   123.4478     8.4523     8.7744
  122.5000   121.2224     8.3062     8.6227
  123.0000   118.7761     8.1616     8.4737
  123.5000   116.3297     8.0728     8.3799
  124.0000   114.2254     8.0593     8.3668
  124.5000   113.4541     8.0471     8.3538
  125.0000   113.4738     8.0345     8.3407
  125.5000   115.2718     8.0220     8.3277
  126.0000   117.1886     8.0094     8.3146
  126.5000   118.0090     7.9995     8.3043
  127.0000   118.2825     8.0080     8.3132
  127.5000   117.1970     8.0164     8.3219
  128.0000   116.1112     8.0248     8.3307
  128.5000   116.4473     8.0333     8.3394
  129.0000   118.9562     8.0417     8.3482
  129.5000   120.9249     8.0502     8.3570
  130.0000   119.1538     8.0588     8.3659
  130.5000   117.3051     8.0672     8.3745
  131.0000   117.0664     8.0746     8.3821
  131.5000   118.6497     8.0306     8.3365
  132.0000   120.2338     7.9838     8.2881
  132.5000   120.7744     7.9373     8.2398
  133.0000   119.8279     7.8910     8.1917
  133.5000   120.0390     7.8450     8.1440
  134.0000   120.6983     7.7993     8.0965
  134.5000   121.3518     7.7538     8.0493
  135.0000   121.8180     7.7086     8.0024
  135.5000   122.1726     7.6637     7.9557
  136.0000   122.5170     7.6191     7.9095
  136.5000   122.5828     7.5630     7.8513
  137.0000   124.2437     7.5686     7.8570
  137.5000   124.8292     7.5788     7.8676
  138.0000   122.6361     7.5890     7.8782
  138.5000   121.0325     7.5992     7.8888
  139.0000   122.9803     7.6093     7.8994
  139.5000   124.9850     7.6197     7.9100
  140.0000   125.0317     7.6301     7.9207
  140.5000   123.9435     7.6949     7.9887
  141.0000   122.8350     7.7997     8.0969
  141.5000   121.7333     7.9053     8.2065
  142.0000   120.6289     7.9995     8.3043
  142.5000   120.1431     8.0148     8.3203
  143.0000   120.0687     8.0359     8.3421
  143.5000   118.2179     8.0569     8.3640
  144.0000   116.2915     8.0780     8.3859
  144.5000   116.1587     8.0992     8.4079
  145.0000   117.2069     8.1203     8.4299
  145.5000   118.2645     8.1415     8.4521
  146.0000   119.3232     8.1505     8.4611
  146.5000   120.6755     8.0840     8.3919
  147.0000   123.1745     8.0366     8.3428
  147.5000   125.8051     7.9895     8.2940
  148.0000   126.3950     7.9428     8.2455
  148.5000   124.5341     7.8966     8.1975
  149.0000   123.7286     7.8513     8.1505
  149.5000   123.1458     7.7439     8.0390
  150.0000   122.8218     7.6407     7.9319
  150.5000   122.5933     7.5389     7.8262
  151.0000   122.6165     7.4385     7.7220
  151.5000   124.6348     7.3394     7.6191
  152.0000   126.3478     7.2651     7.5420
  152.5000   122.6267     7.1828     7.4566
  153.0000   120.5528     7.0831     7.3531
  153.5000   120.6465     7.1036     7.3743
  154.0000   123.7956     7.1372     7.4103
  154.5000   126.9493     7.2011     7.4749
  155.0000   127.7568     7.3105     7.5896
  155.5000   125.6294     7.4239     7.7060
  156.0000   121.3123     7.5128     7.8002
  156.5000   117.0568     7.6234     7.9136
  157.0000   118.3054     7.7339     8.0287
  157.5000   121.3417     7.8464     8.1455
  158.0000   124.3752     7.9604     8.2642
  158.5000   125.8669     8.0755     8.3833
  159.0000   123.7564     8.0740     8.3817
  159.5000   119.8837     8.1299     8.4398
  160.0000   116.1018     8.1830     8.4949
  160.5000   115.4737     8.2270     8.5406
  161.0000   118.3020     8.2270     8.5406
  161.5000   120.9439     8.2137     8.5267
  162.0000   119.3579     8.1843     8.4962
  162.5000   118.5706     8.1547     8.4655
  163.0000   121.5078     8.1253     8.4350
  163.5000   124.6034     8.0960     8.4045
  164.0000   126.2956     8.0724     8.3757
  164.5000   124.9469     8.0640     8.3501
  165.0000   123.4817     8.0557     8.3247
  165.5000   121.9970     8.0473     8.2994
  166.0000   121.8494     8.0390     8.2742
  166.5000   122.3747     8.0307     8.2492
  167.0000   122.8897     8.0223     8.2267
  167.5000   123.4022     8.0138     8.2537
  168.0000   123.9142     8.0007     8.2825
  168.5000   124.4618     7.9973     8.3043
  169.0000   123.9781     8.2382     8.5535
  169.5000   121.4927     8.4742     8.7973
  170.0000   119.4204     8.7161     9.0480
  170.5000   117.9084     8.9651     9.3060
  171.0000   116.4319     9.2039     9.5547
  171.5000   114.9047     9.3433     9.6994
  172.0000   112.4798     9.5063     9.8685
  172.5000   112.2406     9.6720    10.0406
  173.0000   113.7410     9.8407    10.2157
  173.5000   114.9260    10.0122    10.3938
  174.0000   112.5961    10.2010    10.5898
  174.5000   110.0328    10.3522    10.7467
  175.0000   111.6045    10.5148    10.9155
  175.5000   113.0501    10.6798    11.0870
  176.0000   107.9993    10.8481    11.2612
  176.5000   102.9081    11.0998    11.5229
  177.0000   101.5047    11.0935    11.6368
  177.5000   104.2016    11.2513    11.6343
  178.0000   106.9698    11.2992    11.6813
  178.5000   108.1308    11.3492    11.7082
  179.0000   104.0170    11.3996    11.7370
  179.5000   101.4901    11.4123    11.6657
  180.0000   105.0899    11.2245    11.5901
  180.5000   107.6548    11.0967    11.5196
  181.0000   106.0890    10.9827    11.3621
  181.5000   105.1594    10.8805    11.2154
