~VERSION INFORMATION
 VERS.                2.0:   CWLS LOG ASCII STANDARD - VERSION 2.0
 WRAP.                 NO:   ONE LINE PER DEPTH STEP
~WELL INFORMATION
#MNEM.UNIT      DATA TYPE    INFORMATION
#----------   ------------   ------------------------------
 STRT.F            2.0000:   START DEPTH
 STOP.F          832.0000:   STOP DEPTH
 STEP.F            0.5000:   STEP LENGTH
 NULL.          -999.2500:   NO VALUE
 COMP. U S NAVY-INTEX OIL:   COMPANY
 WELL.        NPR #46-S-2:   WELL
 FLD .             TEAPOT:   FIELD
 LOC .       S2 T38N R78W:   LOCATION
 CNTY.            NATRONA:   COUNTY
 STAT.            WYOMING:   STATE
 CTRY. UNITED STATES OF AMERICA:   COUNTRY
 SRVC.      NL McCullough:   SERVICE COMPANY
 DATE.        13-AUG-1961:   LOGDATE
 API .       490250641500:   API NUMBER
~CURVE INFORMATION
#MNEM.UNIT       API CODE    CURVE DESCRIPTION
#----------   ------------   ------------------------------
 DEPT.F                  :   
 GR  .MG/TON 35 310 30 00:   GAMMA RAY
 NEUT.NAPI   35 330 01 00:   NEUTRON
~PARAMETER INFORMATION
#MNEM.UNIT          VALUE    DESCRIPTION
#----------   ------------   ------------------------------
 PD  .                 GL:   PERMANENT DATUM
 EPD .F              5150:   ELEVATION PERMANENT DATUM
 LMF .                 KB:   LOG MEASURED FROM
 DAPD.F                 6:   FEET ABOVE PERMANENT DATUM
 DMF .                 KB:   DRILLING MEASURED FROM
 EKB .F              5156:   KELLING BUSHING
 EGL .F              5150:   GROUND LEVEL
 DATE.        13-AUG-1961:   RUN DATE
 RUN .                  1:   RUN NUMBER
 DD  .F               830:   DEPTH DRILLER
 DL  .F               834:   DEPTH LOGGER
 BLI .F             832.5:   BOTTOM LOG INTERVAL
 BS  .IN            7.875:   BIT SIZE
 BSD .F               830:   BIT SIZE AT DEPTH
 DFT .       OIL EMULSION:   DRILLING FLUID TYPE
 DFD .                9.5:   DRILLING FLUID DENSITY
 TCS .HRS               1:   TIME CURCULATED STOPPED
 LUN .               1296:   LOGGING UNIT NUMBER
 ENGI.            JACKSON:   RECORDING ENGINEER
 WITN.          JORGENSEN:   WITNESSED BY
 CLNT.            A2DTECH:   CLIENT CODE
 ORIG.        2" 5" PRINT:   ORIGIN OF DATA
 UWI .       490250641500:   UNIQUE WELL ID
 DICO. A2D Technologies, Inc.:   DIGITIZING COMPANY
~OTHER INFORMATION
~A    DEPT        GR     NEUT   
# ...
  123.5000     5.6794   181.3645
  124.0000     5.6556   172.2339
  124.5000     5.6152   164.8401
  125.0000     5.5522   163.1684
  125.5000     5.5040   164.5952
  126.0000     5.6683   161.7991
  126.5000     5.6782   153.7211
  127.0000     5.6540   150.7318
  127.5000     5.7505   158.9963
  128.0000     5.8274   163.9580
  128.5000     5.9380   168.1334
  129.0000     6.0493   170.2870
  129.5000     6.1260   174.5601
  130.0000     6.1376   189.8051
  130.5000     5.9504   197.2039
  131.0000     5.7607   193.6078
  131.5000     5.7304   178.6071
  132.0000     5.6063   177.5213
  132.5000     5.5306   170.3274
  133.0000     5.4928   150.1677
  133.5000     5.4790   142.6807
  134.0000     5.5508   164.4384
  134.5000     5.6703   170.5996
  135.0000     5.8227   174.2113
  135.5000     5.9209   150.9915
  136.0000     5.9887   130.7645
  136.5000     6.0173   121.7341
  137.0000     5.9699   114.5279
  137.5000     5.8689   105.8846
  138.0000     5.9198    99.3416
  138.5000     5.9931    97.4938
  139.0000     6.0486    97.1205
  139.5000     6.0432   100.8872
  140.0000     5.9598   113.6430
  140.5000     5.9493   127.9015
  141.0000     6.0212   122.0688
  141.5000     6.0501   113.0009
  142.0000     6.0469   108.4576
  142.5000     5.9848   105.2849
  143.0000     6.0212   123.8282
  143.5000     6.1199   140.8097
  144.0000     6.1634   147.4962
  144.5000     5.9986   148.2619
  145.0000     5.9118   148.6507
  145.5000     5.8364   149.0394
  146.0000     5.8501   147.5587
  146.5000     5.9572   144.0105
  147.0000     6.0538   139.3407
  147.5000     6.1133   135.4823
  148.0000     6.1956   132.3238
  148.5000     6.2994   128.1426
  149.0000     6.3876   126.4317
  149.5000     6.4424   121.8368
  150.0000     6.3507   111.9440
  150.5000     6.3382   104.4378
  151.0000     6.3200    96.7325
  151.5000     6.1351    91.8115
  152.0000     6.0191    87.5663
  152.5000     6.0933    93.7804
  153.0000     6.1615   101.4393
  153.5000     6.1642   108.0511
  154.0000     6.1301   110.0150
  154.5000     6.1994   110.3299
  155.0000     6.2779   110.3464
  155.5000     6.1904   117.4812
  156.0000     6.0662   132.9635
  156.5000     6.2092   133.3533
  157.0000     6.2009   131.4693
  157.5000     6.1850   127.6619
  158.0000     6.0182   123.8281
  158.5000     6.0006   120.7197
  159.0000     5.9847   117.9632
  159.5000     5.9267   122.3987
  160.0000     5.9270   135.2324
  160.5000     5.9177   137.9585
  161.0000     5.9201   139.5352
  161.5000     5.9592   143.5246
  162.0000     6.0548   146.4867
  162.5000     5.9434   148.0510
  163.0000     5.8257   145.0703
  163.5000     5.7800   140.8595
  164.0000     5.6581   139.1010
  164.5000     5.5804   142.4888
  165.0000     5.6021   155.3722
  165.5000     5.6754   169.1324
  166.0000     5.7159   172.7437
  166.5000     5.7521   173.6582
  167.0000     5.7545   173.1984
  167.5000     5.7675   169.9401
  168.0000     5.8026   163.2096
  168.5000     5.8650   154.7151
  169.0000     5.8504   144.6476
  169.5000     5.6612   136.2695
  170.0000     5.4858   132.5337
  170.5000     5.6691   149.0409
  171.0000     5.7341   159.9501
  171.5000     5.7103   165.9745
  172.0000     5.6768   170.8264
  172.5000     5.7432   172.6512
  173.0000     5.7857   175.4272
  173.5000     5.8005   177.6162
  174.0000     5.8757   170.7347
  174.5000     5.9710   158.1570
  175.0000     5.9955   144.6779
  175.5000     5.9363   135.1723
  176.0000     5.8292   127.4688
  176.5000     5.7580   126.7691
  177.0000     5.7536   133.4935
  177.5000     5.7418   148.0009
  178.0000     5.6695   155.7123
  178.5000     5.6361   172.5205
  179.0000     5.6484   178.1560
  179.5000     5.6555   197.2117
  180.0000     5.5912   210.0450
  180.5000     5.4250   216.0445
  181.0000     5.5801   225.8180
  181.5000     5.7693   228.8306
  182.0000     5.9476   228.6456
  182.5000     5.9832   225.1148
  183.0000     5.9168   220.2798
  183.5000     5.8255   216.1471
  184.0000     5.6532   214.0630
  184.5000     5.4722   208.2932
  185.0000     5.4389   202.7002
  185.5000     5.5327   208.8980
  186.0000     5.6668   214.8725
  186.5000     5.7423   220.7376
  187.0000     5.8239   223.2234
  187.5000     5.8477   223.7639
  188.0000     5.8542   222.2289
  188.5000     5.8546   217.6462
  189.0000     5.8196   201.3215
  189.5000     5.7642   184.1678
  190.0000     5.6965   157.8711
  190.5000     5.6163   141.3318
  191.0000     5.5729   136.9615
  191.5000     5.6266   129.4317
  192.0000     5.7116   123.9480
  192.5000     5.7676   121.9632
  193.0000     5.7780   133.2262
  193.5000     5.7830   136.8740
  194.0000     5.7058   150.4954
  194.5000     5.5536   167.4513
  195.0000     5.5082   176.6366
  195.5000     5.6128   182.7756
  196.0000     5.7731   185.6372
  196.5000     5.8068   187.3012
  197.0000     5.6897   179.7701
  197.5000     5.6860   167.4660
  198.0000     5.7832   152.8648
  198.5000     5.8244   144.7327
  199.0000     5.8161   136.7016
  199.5000     5.7717   128.9231
  200.0000     5.7720   126.6867
  200.5000     5.7573   113.2120
  201.0000     5.6173   105.9221
  201.5000     5.3921    98.2586
  202.0000     5.3036    85.9068
  202.5000     5.3364    70.5584
  203.0000     5.3799    63.0839
  203.5000     5.3640    60.2886
  204.0000     5.1581    57.8710
  204.5000     4.9845    61.8253
  205.0000     4.9183    78.1483
  205.5000     4.8446   105.1551
  206.0000     4.7990   123.9130
  206.5000     4.7884   134.8013
  207.0000     4.8193   139.6955
  207.5000     4.9861   139.7114
  208.0000     5.2024   138.9805
  208.5000     5.2995   137.3126
  209.0000     5.1725   131.7092
  209.5000     5.1137   125.5449
  210.0000     5.1513   140.1797
  210.5000     5.2208   151.5368
  211.0000     5.2878   153.7106
  211.5000     5.3033   140.4238
  212.0000     5.1771   127.1365
  212.5000     5.0259   122.0014
  213.0000     4.9076   120.4244
  213.5000     4.8684   129.4430
  214.0000     4.8702   124.2127
  214.5000     4.9350   109.8012
  215.0000     5.0048   100.2653
  215.5000     4.9381    99.2504
  216.0000     4.9135    96.5517
  216.5000     4.9088    88.6994
  217.0000     4.8854    94.5276
  217.5000     4.8028   119.8478
  218.0000     4.6786   143.4783
  218.5000     4.6797   165.0485
  219.0000     4.7908   180.6251
  219.5000     4.7837   190.5735
  220.0000     4.8013   194.1529
  220.5000     4.8736   190.6110
  221.0000     4.9359   178.2609
  221.5000     4.9800   158.2285
  222.0000     4.9936   148.5009
  222.5000     4.9973   161.0758
  223.0000     5.0028   166.5321
  223.5000     5.0317   163.4560
  224.0000     5.0592   147.8261
  224.5000     5.0843   132.3839
  225.0000     5.1243   124.2504
  225.5000     5.1519   123.1447
  226.0000     5.0330   123.9130
  226.5000     4.9714   122.1514
  227.0000     4.9285   119.4557
  227.5000     4.9443   119.4715
  228.0000     4.9893   132.2339
  228.5000     5.0268   151.8367
  229.0000     5.0345   161.3193
  229.5000     5.0136   181.0172
  230.0000     4.9903   190.4048
  230.5000     5.0415   188.4559
  231.0000     5.0728   173.5786
  231.5000     5.0508   166.7541
  232.0000     5.0659   167.6162
  232.5000     5.1556   178.7856
  233.0000     5.2726   180.3973
  233.5000     5.3274   180.4175
  234.0000     5.1564   181.9340
  234.5000     5.3786   182.7961
  235.0000     5.5176   183.4736
  235.5000     5.5670   176.7432
  236.0000     5.5747   157.2714
  236.5000     5.5898   137.0503
  237.0000     5.6180   122.4513
  237.5000     5.6648   114.6004
  238.0000     5.6055   106.3717
  238.5000     5.5427    98.4257
  239.0000     5.5315    92.1693
  239.5000     5.4871    90.2174
  240.0000     5.3259    97.4513
  240.5000     5.1299   103.8419
  241.0000     5.1016   111.7316
  241.5000     5.2351   113.3433
  242.0000     5.2947   101.6492
  242.5000     5.3207    88.3622
  243.0000     5.3045    75.8274
  243.5000     5.1837    70.0337
  244.0000     5.1665    67.6162
  244.5000     5.2363    63.9805
