~VERSION INFORMATION
 VERS.                2.0:   CWLS LOG ASCII STANDARD - VERSION 2.0
 WRAP.                 NO:   ONE LINE PER DEPTH STEP
~WELL INFORMATION
#MNEM.UNIT      DATA TYPE    INFORMATION
#----------   ------------   ------------------------------
 STRT.F           38.0000:   START DEPTH
 STOP.F          846.0000:   STOP DEPTH
 STEP.F            0.5000:   STEP LENGTH
 NULL.          -999.2500:   NO VALUE
 COMP. FENIX & SCISSON INC:   COMPANY
 WELL.    NPR 3 #34-SX-14:   WELL
 FLD .        TEAPOT DOME:   FIELD
 LOC .      S14 T38N R78W:   LOCATION
 CNTY.            NATRONA:   COUNTY
 STAT.            WYOMING:   STATE
 CTRY. UNITED STATES OF AMERICA:   COUNTRY
 SRVC.           BIRDWELL:   SERVICE COMPANY
 DATE.        26-APR-1978:   LOGDATE
 API .       490251063500:   API NUMBER
~CURVE INFORMATION
#MNEM.UNIT       API CODE    CURVE DESCRIPTION
#----------   ------------   ------------------------------
 DEPT.F                  :   
 NEUT.CPS    81 330 30 00:   NEUTRON
 TT  .US/F   81 520 00 00:   TRANSIT TIME
 GRD .GAPI   45 310 01 00:   GAMMA RAY FROM DENSITY LOG
 RHOB.G/C3   45 350 01 00:   BULK DENSITY
 DPOR.DEC    45 890 10 00:   DENSITY POROSITY
 CALD.IN     45 280 60 00:   CALIPER FROM DENSITY LOG
 CORR.G/C3   45 356 01 00:   DENSITY CORRECTION
~PARAMETER INFORMATION
#MNEM.UNIT          VALUE    DESCRIPTION
#----------   ------------   ------------------------------
 PD  .                 GL:   PERMANENT DATUM
 EPD .F              5232:   ELEVATION PERMANENT DATUM
 LMF .                 KB:   LOG MEASURED FROM
 DMF .                 KB:   DRILLING MEASURED FROM
 EKB .F              5236:   KELLING BUSHING
 EGL .F              5232:   GROUND LEVEL
 DATE.          4-26-1978:   RUN DATE
 RUN .                  1:   RUN NUMBER
 DD  .F               855:   DEPTH DRILLER
 DL  .F               853:   DEPTH LOGGER
 BLI .F               846:   BOTTOM LOG INTERVAL
 TLI .F                40:   TOP LOG INTERVAL
 CS  .IN            8.625:   CASING SIZE
 CBD .F                40:   CASING BOTTOM DRILLER
 CBL .F                40:   CASING BOTTOM LOGGER
 BS  .IN            7.875:   BIT SIZE
 BSD .F               855:   BIT SIZE AT DEPTH
 DFT .                KCL:   DRILLING FLUID TYPE
 DFD .                8.5:   DRILLING FLUID DENSITY
 DFV .                 31:   DRILLING FLUID VISCOSITY
 DFPH.                 10:   DRILLING FLUID PH
 DFL .               10.4:   DRILLING FLUID LOSS
 MSS .          FLUID PIT:   MUD SAMPLE SOURCE
 RMS .OHMM            .36:   RESISTIVITY MUD SAMPLE
 MST .F                68:   MUD SAMPLE TEMPERATURE
 RMF .OHMM            .28:   RESISTIVITY MUD FILTRATE SAMPLE
 MFST.F                74:   MUD FILTRATE SAMPLE TEMPERATURE
 RMC .OHMM            .48:   RESISTIVITY MUD CAKE
 MCST.F                79:   MUD CAKE SAMPLE TEMPERATURE
 MFSS.               MEAS:   MUD FILTRATE SAMPLE SOURCE
 RMB .OHMM            .33:   RESISTIVITY MUD AT BHT
 BHT .F                75:   BOTTOM HOLE TEMPERATURE
 TCS .HRS               1:   TIME CURCULATED STOPPED
 MRT .F                75:   MAXIMUM RECORDED TEMPERATURE
 LUN .               3006:   LOGGING UNIT NUMBER
 LUL .              CASP.:   LOGGING UNIT LOCATION
 ENGI.             MILLER:   RECORDING ENGINEER
 WITN.           MCGINLEY:   WITNESSED BY
 CLNT.            A2DTECH:   CLIENT CODE
 ORIG.      2" , 5" PRINT:   ORIGIN OF DATA
 UWI .       490251063500:   UNIQUE WELL ID
 DICO. A2D Technologies, Inc.:   DIGITIZING COMPANY
~OTHER INFORMATION
~A   DEPT     NEUT         TT         GRD      RHOB       DPOR       CALD       CORR   
# ...
   83.5000  -999.2500  -999.2500    82.4168     2.3795     0.1510     8.6407     0.0556
   84.0000  -999.2500  -999.2500    83.5601     2.3740     0.1532     8.6204     0.0571
   84.5000  -999.2500  -999.2500    84.2817     2.3691     0.1576     8.5733     0.0587
   85.0000  -999.2500  -999.2500    83.0725     2.3624     0.1624     8.5431     0.0602
   85.5000  -999.2500  -999.2500    81.8072     2.3533     0.1671     8.2809     0.0619
   86.0000  -999.2500  -999.2500    81.1899     2.3441     0.1718     7.9823     0.0599
   86.5000  -999.2500  -999.2500    81.6426     2.3350     0.1765     7.6834     0.0572
   87.0000  -999.2500  -999.2500    82.0905     2.3269     0.1827     7.3847     0.0504
   87.5000  -999.2500  -999.2500    82.0696     2.3217     0.1934     7.2050     0.0417
   88.0000  -999.2500  -999.2500    80.1489     2.2935     0.1991     7.2254     0.0335
   88.5000  -999.2500  -999.2500    78.0373     2.2845     0.2054     7.4639     0.0310
   89.0000  -999.2500  -999.2500    78.6979     2.2769     0.2137     7.7344     0.0282
   89.5000  -999.2500  -999.2500    80.2758     2.2590     0.2221     8.0049     0.0254
   90.0000  -999.2500  -999.2500    81.0030     2.2390     0.2305     8.2758     0.0249
   90.5000  -999.2500  -999.2500    80.0868     2.2213     0.2329     8.5554     0.0469
   91.0000  -999.2500  -999.2500    79.0822     2.2260     0.2234     8.7021     0.0689
   91.5000  -999.2500  -999.2500    80.0811     2.2309     0.2072     8.7630     0.0906
   92.0000  -999.2500  -999.2500    81.1216     2.2432     0.1910     8.7632     0.1080
   92.5000  -999.2500  -999.2500    82.1441     2.2925     0.1747     8.7594     0.1139
   93.0000  -999.2500  -999.2500    82.8167     2.3233     0.1675     8.7026     0.1113
   93.5000  -999.2500  -999.2500    81.9127     2.3304     0.1621     8.4733     0.1073
   94.0000  -999.2500  -999.2500    80.9749     2.3343     0.1568     8.2525     0.0860
   94.5000  -999.2500  -999.2500    80.0388     2.3291     0.1543     8.0306     0.0652
   95.0000  -999.2500  -999.2500    79.1186     2.3219     0.1625     7.8075     0.0443
   95.5000  -999.2500  -999.2500    79.1396     2.3184     0.1727     7.5848     0.0246
   96.0000  -999.2500  -999.2500    80.4566     2.3192     0.1673     7.3624     0.0247
   96.5000  -999.2500  -999.2500    81.7728     2.3322     0.1607     7.2445     0.0284
   97.0000  -999.2500  -999.2500    82.7276     2.3488     0.1540     7.2475     0.0320
   97.5000  -999.2500  -999.2500    82.0974     2.3655     0.1474     7.3919     0.0356
   98.0000  -999.2500  -999.2500    81.2735     2.3823     0.1407     7.5666     0.0392
   98.5000  -999.2500  -999.2500    80.4392     2.3990     0.1348     7.7411     0.0428
   99.0000  -999.2500  -999.2500    79.8904     2.4159     0.1299     7.9155     0.0463
   99.5000  -999.2500  -999.2500    80.3639     2.4161     0.1250     8.0899     0.0499
  100.0000  -999.2500  -999.2500    80.3414     2.4152     0.1236     8.2644     0.0535
  100.5000  -999.2500  -999.2500    78.8659     2.4188     0.1238     8.4386     0.0571
  101.0000  -999.2500  -999.2500    78.0444     2.4223     0.1231     8.6134     0.0607
  101.5000  -999.2500  -999.2500    79.0175     2.4258     0.1217     8.7180     0.0639
  102.0000  -999.2500  -999.2500    79.8942     2.4292     0.1244     8.7231     0.0591
  102.5000  -999.2500  -999.2500    79.3796     2.4305     0.1290     8.7220     0.0541
  103.0000  -999.2500  -999.2500    78.6305     2.4232     0.1336     8.7017     0.0491
  103.5000  -999.2500  -999.2500    78.6669     2.4132     0.1382     8.6354     0.0443
  104.0000  -999.2500  -999.2500    79.6436     2.4031     0.1429     8.5123     0.0447
  104.5000  -999.2500  -999.2500    80.6193     2.3930     0.1475     8.3883     0.0454
  105.0000  -999.2500  -999.2500    80.8777     2.3829     0.1506     8.2644     0.0460
  105.5000  -999.2500  -999.2500    78.9486     2.3738     0.1520     8.1406     0.0467
  106.0000  -999.2500  -999.2500    77.0087     2.3723     0.1533     8.0169     0.0473
  106.5000  -999.2500  -999.2500    75.4762     2.3705     0.1563     7.8932     0.0480
  107.0000  -999.2500  -999.2500    75.2894     2.3674     0.1604     7.7699     0.0465
  107.5000  -999.2500  -999.2500    75.7475     2.3589     0.1644     7.6064     0.0428
  108.0000  -999.2500  -999.2500    76.3858     2.3507     0.1685     7.3522     0.0392
  108.5000  -999.2500  -999.2500    76.9690     2.3425     0.1725     7.1126     0.0355
  109.0000  -999.2500  -999.2500    77.2934     2.3342     0.1766     7.1530     0.0342
  109.5000  -999.2500  -999.2500    77.5302     2.3260     0.1812     7.2673     0.0380
  110.0000  -999.2500  -999.2500    79.4752     2.3192     0.1718     7.3797     0.0420
  110.5000  -999.2500  -999.2500    82.0375     2.3372     0.1609     7.4923     0.0459
  111.0000  -999.2500  -999.2500    81.8110     2.3625     0.1500     7.6047     0.0429
  111.5000  -999.2500  -999.2500    80.6761     2.3882     0.1406     7.7170     0.0393
  112.0000  -999.2500  -999.2500    79.5204     2.3995     0.1366     7.8284     0.0362
  112.5000  -999.2500  -999.2500    78.3557     2.4032     0.1326     7.9598     0.0389
  113.0000  -999.2500  -999.2500    77.4923     2.4067     0.1303     8.2012     0.0417
  113.5000  -999.2500  -999.2500    77.9844     2.4102     0.1306     8.4446     0.0444
  114.0000  -999.2500  -999.2500    78.4837     2.4117     0.1309     8.6885     0.0472
  114.5000  -999.2500  -999.2500    78.9727     2.4030     0.1346     8.7880     0.0447
  115.0000  -999.2500  -999.2500    79.3042     2.3918     0.1402     8.8029     0.0401
  115.5000  -999.2500  -999.2500    79.3047     2.3847     0.1454     8.7998     0.0405
  116.0000  -999.2500  -999.2500    79.3188     2.3825     0.1480     8.6989     0.0409
  116.5000  -999.2500  -999.2500    78.9234     2.3803     0.1523     8.5943     0.0412
  117.0000  -999.2500  -999.2500    77.8039     2.3740     0.1591     8.4902     0.0416
  117.5000  -999.2500  -999.2500    76.4056     2.3621     0.1659     8.3862     0.0420
  118.0000  -999.2500  -999.2500    75.0177     2.3503     0.1708     8.2822     0.0403
  118.5000  -999.2500  -999.2500    73.6281     2.3384     0.1742     8.1783     0.0379
  119.0000  -999.2500  -999.2500    72.2382     2.3265     0.1788     8.0741     0.0354
  119.5000  -999.2500  -999.2500    70.8151     2.3159     0.1887     7.9695     0.0329
  120.0000  -999.2500  -999.2500    69.7005     2.3059     0.1996     7.8666     0.0304
  120.5000  -999.2500  -999.2500    70.7684     2.2862     0.2133     7.8631     0.0280
  121.0000  -999.2500  -999.2500    72.1418     2.2626     0.2284     7.8664     0.0256
  121.5000  -999.2500  -999.2500    73.5138     2.2388     0.2433     7.9208     0.0239
  122.0000  -999.2500  -999.2500    74.8827     2.2148     0.2433     7.9749     0.0357
  122.5000  -999.2500  -999.2500    76.2521     2.2025     0.2330     8.0286     0.0536
  123.0000  -999.2500  -999.2500    77.6355     2.2808     0.2063     8.0824     0.0721
  123.5000  -999.2500  -999.2500    78.0368     2.3591     0.1771     8.1363     0.0728
  124.0000  -999.2500  -999.2500    76.6098     2.3814     0.1534     8.1854     0.0477
  124.5000  -999.2500  -999.2500    74.3989     2.3806     0.1518     8.1830     0.0268
  125.0000  -999.2500  -999.2500    73.2110     2.3800     0.1500     8.1405     0.0221
  125.5000  -999.2500  -999.2500    75.2517     2.3793     0.1495     8.0951     0.0239
  126.0000  -999.2500  -999.2500    77.4522     2.3795     0.1495     8.0496     0.0260
  126.5000  -999.2500  -999.2500    78.2915     2.3799     0.1495     8.0053     0.0280
  127.0000  -999.2500  -999.2500    78.5086     2.3802     0.1495     7.9364     0.0281
  127.5000  -999.2500  -999.2500    78.2628     2.3795     0.1500     7.9280     0.0260
  128.0000  -999.2500  -999.2500    77.2616     2.3785     0.1504     7.9933     0.0236
  128.5000  -999.2500  -999.2500    75.8030     2.3774     0.1508     8.0552     0.0241
