~VERSION INFORMATION
 VERS.                2.0:   CWLS LOG ASCII STANDARD - VERSION 2.0
 WRAP.                 NO:   ONE LINE PER DEPTH STEP
~WELL INFORMATION
#MNEM.UNIT      DATA TYPE    INFORMATION
#----------   ------------   ------------------------------
 STRT.F           70.0000:   START DEPTH
 STOP.F          806.0000:   STOP DEPTH
 STEP.F            0.5000:   STEP LENGTH
 NULL.          -999.2500:   NO VALUE
 COMP. U S NAVY/INTEX OIL CO:   COMPANY
 WELL. RES 3 TEAPOT DOME #33-S-2:   WELL
 FLD .             TEAPOT:   FIELD
 LOC .       S2 T38N R78W:   LOCATION
 CNTY.            NATRONA:   COUNTY
 STAT.            WYOMING:   STATE
 CTRY. UNITED STATES OF AMERICA:   COUNTRY
 SRVC.         Lane Wells:   SERVICE COMPANY
 DATE.        15-MAR-1980:   LOGDATE
 API .       490250644600:   API NUMBER
~CURVE INFORMATION
#MNEM.UNIT       API CODE    CURVE DESCRIPTION
#----------   ------------   ------------------------------
 DEPT.F                  :   
 GR  .GAPI   30 310 01 00:   GAMMA RAY
 SPR .MV     05 010 01 00:   SPONTANEOUS POTENTIAL FROM RES.
 CILD.MMHO   05 110 46 00:   CONDUCTIVITY INDUCTION LOG DEEP
 ASN .OHMM   05 041 16 00:   AMPLIFIED SHORT NORMAL 16"
 ILD .OHMM   05 120 46 00:   INDUCTION LOG DEEP
~PARAMETER INFORMATION
#MNEM.UNIT          VALUE    DESCRIPTION
#----------   ------------   ------------------------------
 PD  .                 GL:   PERMANENT DATUM
 EPD .F              5119:   ELEVATION PERMANENT DATUM
 LMF .                 KB:   LOG MEASURED FROM
 DAPD.F                 5:   FEET ABOVE PERMANENT DATUM
 DMF .                 KB:   DRILLING MEASURED FROM
 EKB .F              5124:   KELLING BUSHING
 EGL .F              5119:   GROUND LEVEL
 DATE.            3-15-60:   RUN DATE
 RUN .                  1:   RUN NUMBER
 DD  .F               810:   DEPTH DRILLER
 DL  .F               808:   DEPTH LOGGER
 BLI .F               806:   BOTTOM LOG INTERVAL
 TLI .F                70:   TOP LOG INTERVAL
 CS  .IN            8.625:   CASING SIZE
 CBD .F                12:   CASING BOTTOM DRILLER
 BS  .IN            7.875:   BIT SIZE
 BSD .F               810:   BIT SIZE AT DEPTH
 DFT .   GEL/OIL EMULSION:   DRILLING FLUID TYPE
 DFD .                6.8:   DRILLING FLUID DENSITY
 DFV .                 34:   DRILLING FLUID VISCOSITY
 DFPH.                7.6:   DRILLING FLUID PH
 DFL .                9.4:   DRILLING FLUID LOSS
 MSS .           FLOWLINE:   MUD SAMPLE SOURCE
 RMS .OHMM            4.2:   RESISTIVITY MUD SAMPLE
 MST .F                65:   MUD SAMPLE TEMPERATURE
 RMF .OHMM            3.3:   RESISTIVITY MUD FILTRATE SAMPLE
 MFST.F                68:   MUD FILTRATE SAMPLE TEMPERATURE
 RMC .OHMM              4:   RESISTIVITY MUD CAKE
 MCST.F                68:   MUD CAKE SAMPLE TEMPERATURE
 MFSS.                MUD:   MUD FILTRATE SAMPLE SOURCE
 MCSS.              PRESS:   MUD CAKE SAMPLE SOURCE
 RMB .OHMM            3.9:   RESISTIVITY MUD AT BHT
 BHT .F                71:   BOTTOM HOLE TEMPERATURE
 MRT .F                71:   MAXIMUM RECORDED TEMPERATURE
 LUN .             L-4474:   LOGGING UNIT NUMBER
 LUL .             CASPER:   LOGGING UNIT LOCATION
 ENGI.      GRIGGS/NELSON:   RECORDING ENGINEER
 WITN.   JORGENSEN/HUDSON:   WITNESSED BY
 CLNT.            A2DTECH:   CLIENT CODE
 ORIG. 1", 2.5", 5" PRINT:   ORIGIN OF DATA
 UWI .       490250644600:   UNIQUE WELL ID
 DICO. A2D Technologies, Inc.:   DIGITIZING COMPANY
~OTHER INFORMATION
~A   DEPT       GR        SPR        CILD         ASN        ILD 
# ...
  558.0000    67.0270   -31.0495   187.4780     7.0508     6.3736
  558.5000    75.0599   -30.6339   181.8720     7.2102     6.5268
  559.0000    82.9307   -30.3627   182.6777     7.2933     6.6277
  559.5000    86.4621   -30.3465   183.6769     7.3130     6.6058
  560.0000    92.4830   -30.4617   184.6761     7.2786     6.4805
  560.5000    81.2021   -30.5562   185.4265     7.1802     6.3358
  561.0000    86.5126   -30.6079   188.2184     7.0309     6.2178
  561.5000    98.7627   -30.6283   191.4886     6.8791     6.1063
  562.0000    79.0971   -30.5301   194.7587     6.7477     5.9781
  562.5000    82.3058   -30.2575   198.0289     6.5951     5.8465
  563.0000    71.7356   -30.0061   200.7820     6.3671     5.7286
  563.5000    75.4385   -30.0672   203.1991     6.0809     5.5990
  564.0000    79.3035   -30.3895   211.5166     5.8137     5.4019
  564.5000    76.2009   -30.5880   217.4171     5.5871     5.1360
  565.0000    69.6155   -30.4989   235.1896     5.3150     4.9114
  565.5000    71.3264   -30.3998   238.6197     4.9457     4.8520
  566.0000    64.7100   -30.5379   242.2986     4.6046     4.9344
  566.5000    77.6930   -30.8056   242.2986     4.4837     5.0173
  567.0000    73.2435   -31.0303   238.1280     4.6184     5.0488
  567.5000    73.4453   -31.1944   235.1896     4.8937     5.1314
  568.0000    87.0790   -31.2372   226.9360     5.2351     5.3488
  568.5000    89.9933   -31.0493   218.8424     5.6440     5.6447
  569.0000    86.1626   -30.7780   210.7488     6.0653     5.9186
  569.5000    87.1997   -30.7355   203.1991     6.3801     6.1330
  570.0000    77.4695   -30.9210   196.8009     6.5514     6.2888
  570.5000    92.2733   -31.0085   188.9810     6.6598     6.3900
  571.0000   102.9799   -30.8436   186.8957     6.7740     6.4667
  571.5000   104.1827   -30.5977   183.8981     6.8853     6.5560
  572.0000    97.4284   -30.4162   180.9005     6.9762     6.6446
  572.5000   103.8768   -30.2495   177.9028     7.0652     6.6915
  573.0000    99.9154   -30.0699   174.6877     7.1643     6.7007
  573.5000    94.7694   -29.9801   175.1111     7.2576     6.7133
  574.0000    99.8086   -30.0421   175.6613     7.3330     6.7415
  574.5000   107.1469   -30.1749   175.9961     7.3853     6.7636
  575.0000   105.5043   -30.2764   176.6283     7.3957     6.7766
  575.5000   107.1387   -30.3428   176.9296     7.3608     6.8011
  576.0000    87.2764   -30.4280   177.5877     7.3237     6.8327
  576.5000    81.3109   -30.5433   177.8939     7.3228     6.8299
  577.0000    83.3539   -30.6357   178.3353     7.3312     6.7669
  577.5000    88.1643   -30.6332   180.3451     7.2963     6.6655
  578.0000    92.8643   -30.5024   181.9230     7.2229     6.5589
  578.5000    95.9958   -30.2917   182.9334     7.1649     6.4567
  579.0000    92.5129   -30.1082   184.2921     7.1453     6.3587
  579.5000    83.6189   -30.0327   185.2311     7.1355     6.2629
  580.0000    75.1552   -30.0924   188.1505     7.1117     6.1438
  580.5000    66.5469   -30.3122   192.7380     7.0780     5.9753
  581.0000    64.9311   -30.6642   197.9858     7.0080     5.7879
  581.5000    65.1245   -30.9394   203.1991     6.8135     5.6452
  582.0000    71.7231   -30.8615   211.8009     6.4397     5.5528
  582.5000    78.4540   -30.4308   224.5261     5.9668     5.4555
  583.0000    87.2279   -29.9844   226.2796     5.5536     5.3337
  583.5000    93.0597   -29.8026   229.2773     5.2912     5.2354
  584.0000    95.4821   -29.8168   231.6351     5.1824     5.1965
  584.5000    91.7073   -29.8000   228.8759     5.2267     5.1850
  585.0000    97.1211   -29.6841   225.5036     5.4185     5.1513
  585.5000   104.2040   -29.5874   220.9716     5.6732     5.1000
  586.0000    98.5748   -29.6450   220.9716     5.8501     5.0746
  586.5000    89.1272   -29.8778   226.0111     5.8546     5.0811
  587.0000    81.0640   -30.1546   230.0079     5.6748     5.0694
  587.5000    78.4554   -30.3030   235.1896     5.3636     5.0109
  588.0000    77.6739   -30.3086   242.2986     5.0411     4.9509
  588.5000    74.8257   -30.3113   240.4590     4.8378     4.9528
  589.0000    75.1813   -30.3513   236.1214     4.8504     5.0210
  589.5000    63.4828   -30.2731   232.3578     4.9818     5.1185
  590.0000    61.7005   -29.9875   228.0692     5.1901     5.2338
  590.5000    72.1320   -29.6907   221.9661     5.5165     5.3880
  591.0000    78.5446   -29.6766   215.9098     5.9190     5.5801
  591.5000    80.9605   -29.9676   209.1486     6.2349     5.7655
  592.0000    79.3654   -30.2541   203.5847     6.3645     5.8986
  592.5000    78.5942   -30.2313   202.6959     6.4106     5.9724
  593.0000    80.0359   -29.9323   203.7873     6.4845     5.9876
  593.5000    81.7181   -29.6599   202.5752     6.5056     5.9105
  594.0000    84.4494   -29.6254   203.8593     6.4056     5.7271
  594.5000    93.0103   -29.7596   209.7041     6.2556     5.5245
  595.0000   101.2867   -29.8860   214.4583     6.0047     5.4176
  595.5000    95.3893   -29.9502   226.6710     5.5617     5.3926
  596.0000    82.4172   -30.0164   230.5697     5.1477     5.3412
  596.5000    91.6680   -30.1269   228.0806     4.9803     5.2660
  597.0000    97.8388   -30.2432   226.5166     4.9598     5.3089
  597.5000    90.5256   -30.3142   223.5190     5.1545     5.5376
  598.0000    71.9546   -30.3687   220.9716     5.5893     5.8402
  598.5000    76.5460   -30.4894   211.5683     6.1505     6.0896
  599.0000    81.5794   -30.6434   203.3929     6.6281     6.2990
  599.5000    74.8926   -30.6268   195.2176     6.9445     6.5410
  600.0000    71.0003   -30.3392   185.4265     7.2018     6.8024
  600.5000    69.5321   -30.0333   179.9666     7.4790     7.0040
  601.0000    76.7231   -30.0649   174.7630     7.7207     7.1218
  601.5000    80.6967   -30.4058   173.4340     7.8561     7.2062
  602.0000    85.9082   -30.6451   171.8576     7.9066     7.2950
  602.5000    75.3963   -30.5140   170.2813     7.9377     7.3691
  603.0000    79.8983   -30.1913   168.7049     7.9773     7.4033
  603.5000    73.3688   -30.0063   167.1286     8.0153     7.4114
  604.0000    71.5206   -30.0473   165.4884     8.0508     7.4218
  604.5000    79.0407   -30.1989   163.9230     8.0970     7.4405
  605.0000    76.0464   -30.3858   162.2691     8.1420     7.4584
  605.5000    71.8700   -30.5696   160.5239     8.1491     7.4728
  606.0000    78.5645   -30.6161   160.3994     8.1186     7.4855
  606.5000    84.4640   -30.4190   160.5234     8.1006     7.4980
  607.0000    82.6425   -30.1254   160.4548     8.1139     7.5150
  607.5000    80.8819   -30.0039   160.4832     8.1102     7.5358
  608.0000    79.1433   -30.1018   160.5751     8.0621     7.5462
  608.5000    84.8749   -30.2628   160.4234     8.0335     7.5343
  609.0000    89.9702   -30.4254   161.7753     8.1029     7.4983
  609.5000    85.2455   -30.6036   162.5442     8.2503     7.4219
  610.0000    79.2482   -30.6380   164.3347     8.3806     7.2600
  610.5000    89.4154   -30.3666   165.7146     8.4224     6.9903
  611.0000    94.0851   -30.0333   167.8629     8.3240     6.6656
  611.5000    79.0399   -30.0926   180.3788     7.9904     6.3691
  612.0000    82.9150   -30.5562   190.8091     7.3824     6.1290
  612.5000    73.1194   -30.9324   196.0901     6.5764     5.9355
  613.0000    70.9877   -30.8763   198.3017     5.9104     5.8228
  613.5000    86.7868   -30.5247   200.3160     5.6836     5.8361
  614.0000    80.5394   -30.1698   203.1991     5.8592     5.9398
  614.5000    73.3503   -29.9680   199.6445     6.3255     6.0916
  615.0000    75.2060   -29.9936   196.0901     7.1162     6.3752
  615.5000    70.5902   -30.1986   181.3611     8.1016     6.8899
  616.0000    70.5862   -30.3039   166.6321     8.9216     7.5267
  616.5000    80.9754   -30.1185   149.8815     9.4015     8.0413
  617.0000    73.1803   -29.9291   149.8815     9.6682     8.3378
  617.5000    79.5668   -30.1139   146.7452     9.8632     8.5192
  618.0000    89.2659   -30.4652   144.6125    10.0943     8.6912
  618.5000    85.6397   -30.5116   142.4798    10.4902     8.8650
