~VERSION INFORMATION
 VERS.                2.0:   CWLS LOG ASCII STANDARD - VERSION 2.0
 WRAP.                 NO:   ONE LINE PER DEPTH STEP
~WELL INFORMATION
#MNEM.UNIT      DATA TYPE    INFORMATION
#----------   ------------   ------------------------------
 STRT.F           19.5000:   START DEPTH
 STOP.F         1292.5000:   STOP DEPTH
 STEP.F            0.5000:   STEP LENGTH
 NULL.          -999.2500:   NO VALUE
 COMP. FENIX & SCISSON INC:   COMPANY
 WELL.  NPR-3 "SX" #74-14:   WELL
 FLD .             TEAPOT:   FIELD
 LOC .      S14 T38N R78W:   LOCATION
 CNTY.            NATRONA:   COUNTY
 STAT.            WYOMING:   STATE
 CTRY. UNITED STATES OF AMERICA:   COUNTRY
 SRVC.            Unknown:   SERVICE COMPANY
 DATE.        22-MAR-1978:   LOGDATE
 API .       490251060300:   API NUMBER
~CURVE INFORMATION
#MNEM.UNIT       API CODE    CURVE DESCRIPTION
#----------   ------------   ------------------------------
 DEPT.F                  :   
 SPR .MV     05 010 01 00:   SPONTANEOUS POTENTIAL
 SN  .OHMM   05 040 16 00:   SHORT NORMAL 16'
 ILD .OHMM   05 120 46 00:   INDUCTION LOG DEEP
 CALD.IN     45 280 60 00:   CALIPER
 GRD .GAPI   45 310 01 00:   GAMMA RAY FROM DENSITY LOG
 CORR.G/C3   45 356 01 00:   DENSITY CORRECTION
 RHOB.G/C3   45 350 01 00:   BULK DENSITY
 DPHI.DEC    45 890 12 00:   DENSITY POROSITY SANDSTONE
~PARAMETER INFORMATION
#MNEM.UNIT          VALUE    DESCRIPTION
#----------   ------------   ------------------------------
 PD  .                 GL:   PERMANENT DATUM
 EPD .F              5312:   ELEVATION PERMANENT DATUM
 LMF .                 KB:   LOG MEASURED FROM
 DMF .                 KB:   DRILLING MEASURED FROM
 EKB .F              5316:   KELLING BUSHING
 EGL .F              5312:   GROUND LEVEL
 DATE.          3-22-1978:   RUN DATE
 RUN .                  1:   RUN NUMBER
 DD  .F              1280:   DEPTH DRILLER
 DL  .F              1292:   DEPTH LOGGER
 BLI .F              1286:   BOTTOM LOG INTERVAL
 TLI .F                50:   TOP LOG INTERVAL
 CS  .IN            8.625:   CASING SIZE
 CBD .F                50:   CASING BOTTOM DRILLER
 CBL .F                50:   CASING BOTTOM LOGGER
 BS  .IN            7.875:   BIT SIZE
 BSD .F              1280:   BIT SIZE AT DEPTH
 DFT .                KCL:   DRILLING FLUID TYPE
 DFD .                8.6:   DRILLING FLUID DENSITY
 DFV .                 31:   DRILLING FLUID VISCOSITY
 DFPH.               10.5:   DRILLING FLUID PH
 DFL .               11.6:   DRILLING FLUID LOSS
 MSS .            MUD PIT:   MUD SAMPLE SOURCE
 RMS .OHMM            .38:   RESISTIVITY MUD SAMPLE
 MST .F                52:   MUD SAMPLE TEMPERATURE
 RMF .OHMM            .32:   RESISTIVITY MUD FILTRATE SAMPLE
 MFST.F                66:   MUD FILTRATE SAMPLE TEMPERATURE
 RMC .OHMM             .4:   RESISTIVITY MUD CAKE
 MCST.F                68:   MUD CAKE SAMPLE TEMPERATURE
 MFSS.           MEASURED:   MUD FILTRATE SAMPLE SOURCE
 RMB .OHMM            .24:   RESISTIVITY MUD AT BHT
 BHT .F                82:   BOTTOM HOLE TEMPERATURE
 TCS .HRS               4:   TIME CURCULATED STOPPED
 MRT .F                82:   MAXIMUM RECORDED TEMPERATURE
 LUN .               2958:   LOGGING UNIT NUMBER
 LUL .               CASP:   LOGGING UNIT LOCATION
 ENGI.            POINTER:   RECORDING ENGINEER
 WITN.           MCGINLEY:   WITNESSED BY
 CLNT.            A2DTECH:   CLIENT CODE
 ORIG.        2" 5" PRINT:   ORIGIN OF DATA
 UWI .       490251060300:   UNIQUE WELL ID
 DICO. A2D Technologies, Inc.:   DIGITIZING COMPANY
~OTHER INFORMATION
~A   DEPT      SPR         SN        ILD       CALD         GRD      CORR       RHOB       DPHI   
# ...
  465.0000   -50.3485     6.3895     6.1557     8.1562    84.3342     0.0175     2.4088     0.1302
  465.5000   -50.1379     6.3959     6.1618     8.1569    84.8868     0.0190     2.4113     0.1294
  466.0000   -50.9696     6.4023     6.1680     8.1576    95.2067     0.0171     2.4113     0.1287
  466.5000   -51.3271     6.4088     6.1742     8.1583   101.2026     0.0103     2.4109     0.1325
  467.0000   -50.6103     6.4152     6.1804     8.1589    97.8462     0.0080     2.4086     0.1329
  467.5000   -50.7053     6.4217     6.1866     8.1596    90.8531     0.0080     2.4083     0.1281
  468.0000   -51.2552     6.4281     6.1928     8.1603    84.6666     0.0098     2.4156     0.1274
  468.5000   -51.5201     6.4346     6.1990     8.1610    85.0102     0.0183     2.4171     0.1224
  469.0000   -51.6889     6.4349     6.2018     8.1616    89.2534     0.0206     2.4236     0.1166
  469.5000   -51.2354     6.4348     6.2018     8.1623    90.5551     0.0177     2.4332     0.1203
  470.0000   -50.7499     6.4348     6.2019     8.1630    90.0426     0.0123     2.4323     0.1247
  470.5000   -50.5383     6.4348     6.2018     8.1637    90.1653     0.0083     2.4198     0.1309
  471.0000   -50.3543     6.4349     6.2019     8.1644    91.0429     0.0104     2.4121     0.1285
  471.5000   -50.4646     6.4349     6.2020     8.1650    87.0114     0.0109     2.4108     0.1209
  472.0000   -50.8352     6.4349     6.2021     8.1657    81.7624     0.0050     2.4190     0.1226
  472.5000   -50.6944     6.4349     6.1879     8.1664    77.6514     0.0062     2.4249     0.1253
  473.0000   -50.3624     6.4047     6.1183     8.1671    80.0674     0.0097     2.4221     0.1202
  473.5000   -50.4525     6.3272     6.0494     8.1678    88.0155     0.0134     2.4245     0.1223
  474.0000   -50.6438     6.2507     5.9814     8.1684    90.4466     0.0120     2.4272     0.1266
  474.5000   -50.8407     6.1750     5.9169     8.1691    83.6336     0.0095     2.4153     0.1309
  475.0000   -51.0406     6.1002     5.8724     8.1698    80.4279     0.0080     2.4070     0.1327
  475.5000   -51.3156     6.0323     5.8283     8.1705    81.1614     0.0080     2.4055     0.1337
  476.0000   -51.9665     5.9777     5.7751     8.1712    86.1529     0.0080     2.4051     0.1337
  476.5000   -52.5990     5.9272     5.7080     8.1718    87.7559     0.0080     2.4048     0.1343
  477.0000   -52.4530     5.8772     5.7242     8.1725    87.0551     0.0080     2.4037     0.1352
  477.5000   -51.9006     5.8681     5.7436     8.1732    84.3363     0.0080     2.4021     0.1350
  478.0000   -50.9211     5.9108     5.7631     8.1739    83.5751     0.0080     2.4012     0.1345
  478.5000   -50.3357     5.9465     5.7827     8.1746    85.0469     0.0080     2.4042     0.1351
  479.0000   -50.5101     5.9825     5.8023     8.1752    86.2550     0.0080     2.4036     0.1345
  479.5000   -51.5080     6.0186     5.8221     8.1759    82.5765     0.0080     2.4029     0.1321
  480.0000   -52.5695     6.0550     5.8418     8.1766    79.5247     0.0080     2.4049     0.1282
  480.5000   -52.5673     6.0885     5.8616     8.1773    79.7139     0.0080     2.4117     0.1247
  481.0000   -52.4331     6.1070     5.8681     8.1779    85.3362     0.0079     2.4184     0.1233
  481.5000   -52.2614     6.1466     5.9034     8.1786    88.5248     0.0115     2.4232     0.1182
  482.0000   -51.2751     6.1863     5.9369     8.1793    84.6007     0.0158     2.4241     0.1098
  482.5000   -50.9023     6.2264     5.9704     8.1800    80.2648     0.0155     2.4334     0.1132
  483.0000   -50.8980     6.2667     6.0043     8.1807    76.2840     0.0149     2.4389     0.1175
  483.5000   -50.8876     6.3073     6.0382     8.1814    75.1294     0.0144     2.4338     0.1197
  484.0000   -51.0022     6.3481     6.0885     8.1821    73.5629     0.0152     2.4295     0.1183
  484.5000   -50.3615     6.3892     6.0582     8.1828    79.4868     0.0233     2.4340     0.1056
  485.0000   -50.0685     6.4306     6.0015     8.1835    89.7432     0.0312     2.4465     0.0978
  485.5000   -50.7546     6.3976     5.9453     8.1841    91.1497     0.0379     2.4592     0.1011
  486.0000   -51.4008     6.3565     5.8896     8.1848    87.4563     0.0244     2.4663     0.1103
  486.5000   -51.0907     6.3173     5.8156     8.1855    80.8627     0.0183     2.4524     0.1199
  487.0000   -51.4412     6.2190     5.8206     8.1862    79.3648     0.0189     2.4254     0.1351
  487.5000   -51.6898     6.1269     5.8308     8.1869    82.0494     0.0194     2.4054     0.1317
  488.0000   -51.6912     6.0344     5.8409     8.1876    84.2461     0.0199     2.4031     0.1299
  488.5000   -51.6935     5.9775     5.8511     8.1883    82.3932     0.0168     2.4059     0.1314
  489.0000   -51.6934     5.9767     5.8612     8.1890    80.8581     0.0142     2.4116     0.1329
  489.5000   -51.6932     6.0334     5.8802     8.1897    81.7032     0.0157     2.4084     0.1311
  490.0000   -51.6919     6.0760     5.9174     8.1903    83.0402     0.0172     2.4037     0.1307
  490.5000   -51.6909     6.1092     5.9548     8.1910    80.3580     0.0145     2.4034     0.1336
  491.0000   -51.7052     6.1505     5.9925     8.1917    77.6608     0.0083     2.4044     0.1364
  491.5000   -52.0425     6.1920     6.0303     8.1924    77.4920     0.0144     2.3971     0.1381
  492.0000   -53.2991     6.2340     6.0685     8.1931    84.9223     0.0213     2.3860     0.1382
  492.5000   -52.4863     6.2687     6.1069     8.1938    90.7940     0.0246     2.4010     0.1294
  493.0000   -51.6833     6.2924     6.1455     8.1945    87.4020     0.0191     2.4109     0.1315
  493.5000   -50.8706     6.3163     6.2017     8.1952    85.6230     0.0216     2.4091     0.1343
  494.0000   -50.8861     6.3401     6.1940     8.1959    85.6836     0.0265     2.4023     0.1338
  494.5000   -51.0923     6.3641     6.1801     8.1966    84.9353     0.0306     2.4041     0.1297
  495.0000   -51.0967     6.3881     6.1662     8.1972    82.7762     0.0326     2.4085     0.1304
  495.5000   -51.0955     6.4122     6.1523     8.1979    83.1496     0.0345     2.4114     0.1312
  496.0000   -51.2763     6.4349     6.1384     8.1986    84.1687     0.0358     2.4081     0.1321
  496.5000   -51.5116     6.4018     6.1246     8.1993    82.9955     0.0350     2.4046     0.1329
  497.0000   -50.9705     6.3634     6.1108     8.2000    82.4477     0.0341     2.4047     0.1345
  497.5000   -50.3529     6.3250     6.0970     8.2007    86.0169     0.0318     2.4047     0.1370
  498.0000   -50.1373     6.2824     6.0640     8.2014    91.8752     0.0161     2.4035     0.1393
  498.5000   -50.3309     6.2388     6.0010     8.2021    94.4498     0.0063     2.3987     0.1529
  499.0000   -50.5257     6.1956     5.9385     8.2028    90.6192     0.0089     2.3853     0.1490
  499.5000   -50.6965     6.1526     5.8768     8.2034    86.6608     0.0146     2.3754     0.1434
  500.0000   -50.6974     6.1099     5.8158     8.2041    83.9461     0.0212     2.3891     0.1378
  500.5000   -50.6953     6.0885     5.7609     8.2048    82.6681     0.0255     2.3975     0.1346
  501.0000   -50.7071     6.0885     5.7652     8.2055    82.8267     0.0232     2.4032     0.1324
  501.5000   -50.9464     6.0885     5.7701     8.2062    82.9775     0.0238     2.4089     0.1316
  502.0000   -51.1819     6.1387     5.7750     8.2069    83.1283     0.0278     2.4079     0.1304
  502.5000   -51.4258     6.1857     5.7799     8.2076    83.8442     0.0282     2.4090     0.1270
  503.0000   -51.7029     6.2018     5.7848     8.2083    86.3899     0.0244     2.4139     0.1264
  503.5000   -52.1647     6.2018     5.7897     8.2090    87.0299     0.0206     2.4189     0.1304
  504.0000   -52.6186     6.2018     5.7946     8.2097    86.7332     0.0191     2.4151     0.1304
  504.5000   -52.6584     6.2018     5.7995     8.2103    86.5359     0.0179     2.4069     0.1297
  505.0000   -52.1233     6.2018     5.8045     8.2110    86.3883     0.0138     2.4114     0.1326
