~VERSION INFORMATION
 VERS.                2.0:   CWLS LOG ASCII STANDARD - VERSION 2.0
 WRAP.                 NO:   ONE LINE PER DEPTH STEP
~WELL INFORMATION
#MNEM.UNIT      DATA TYPE    INFORMATION
#----------   ------------   ------------------------------
 STRT.F           35.0000:   START DEPTH
 STOP.F          601.0000:   STOP DEPTH
 STEP.F            0.5000:   STEP LENGTH
 NULL.          -999.2500:   NO VALUE
 COMP. FENIX & SCISSON INC:   COMPANY
 WELL. NPR #3 71SX #71-15:   WELL
 FLD .             TEAPOT:   FIELD
 LOC .      S15 T38N R78W:   LOCATION
 CNTY.            NATRONA:   COUNTY
 STAT.            WYOMING:   STATE
 CTRY. UNITED STATES OF AMERICA:   COUNTRY
 SRVC.              Welex:   SERVICE COMPANY
 DATE.        10-MAR-1977:   LOGDATE
 API .       490251031200:   API NUMBER
~CURVE INFORMATION
#MNEM.UNIT       API CODE    CURVE DESCRIPTION
#----------   ------------   ------------------------------
 DEPT.F                  :   
 SPR .MV     07 010 01 00:   SPONTANEOUS POTENTIAL
 SGRD.OHMM   07 220 05 00:   SHALLOW RESISTIVITY
 DRES.OHMM   07 120 46 00:   INDUCTION LOG DEEP
 MRES.OHMM   07 120 44 00:   INDUCTION LOG MEDIUM
 GRD .GAPI   45 310 01 00:   GAMMA RAY FROM DENSITY LOG
 CALD.IN     45 280 60 00:   CALIPER
 RHOB.G/C3   45 350 01 00:   BULK DENSITY
 DPHI.DEC    45 890 12 00:   DENSITY POROSITY
 CORR.G/C3   45 356 01 00:   DENSITY CORRECTION
~PARAMETER INFORMATION
#MNEM.UNIT          VALUE    DESCRIPTION
#----------   ------------   ------------------------------
 PD  .                 GL:   PERMANENT DATUM
 EPD .F              5241:   ELEVATION PERMANENT DATUM
 LMF .                 GL:   LOG MEASURED FROM
 DMF .                 GL:   DRILLING MEASURED FROM
 EGL .F              5241:   GROUND LEVEL
 DATE.            3-10-77:   RUN DATE
 RUN .                  1:   RUN NUMBER
 DD  .F               600:   DEPTH DRILLER
 DL  .F               603:   DEPTH LOGGER
 BLI .F               601:   BOTTOM LOG INTERVAL
 TLI .F                35:   TOP LOG INTERVAL
 CS  .IN            8.625:   CASING SIZE
 CBD .F                40:   CASING BOTTOM DRILLER
 CBL .F                40:   CASING BOTTOM LOGGER
 BS  .IN            7.875:   BIT SIZE
 BSD .F               600:   BIT SIZE AT DEPTH
 DFT .            KCL MUD:   DRILLING FLUID TYPE
 DFD .                8.6:   DRILLING FLUID DENSITY
 DFV .                 10:   DRILLING FLUID VISCOSITY
 DFPH.                7.2:   DRILLING FLUID PH
 DFL .                  8:   DRILLING FLUID LOSS
 MSS .            MUD PIT:   MUD SAMPLE SOURCE
 RMS .OHMM            .36:   RESISTIVITY MUD SAMPLE
 MST .F                47:   MUD SAMPLE TEMPERATURE
 RMF .OHMM            .35:   RESISTIVITY MUD FILTRATE SAMPLE
 MFST.F                47:   MUD FILTRATE SAMPLE TEMPERATURE
 RMC .OHMM            .40:   RESISTIVITY MUD CAKE
 MCST.F                47:   MUD CAKE SAMPLE TEMPERATURE
 MFSS.           FANN KIT:   MUD FILTRATE SAMPLE SOURCE
 MCSS.           FANN KIT:   MUD CAKE SAMPLE SOURCE
 RMB .OHMM            .31:   RESISTIVITY MUD AT BHT
 BHT .F                53:   BOTTOM HOLE TEMPERATURE
 TCS .HRS             1.5:   TIME CURCULATED STOPPED
 MRT .F                53:   MAXIMUM RECORDED TEMPERATURE
 LUN .               8611:   LOGGING UNIT NUMBER
 LUL .           GILLETTE:   LOGGING UNIT LOCATION
 ENGI.               DOAK:   RECORDING ENGINEER
 WITN.         STUEBINGER:   WITNESSED BY
 CLNT.            A2DTECH:   CLIENT CODE
 ORIG.       2", 5" PRINT:   ORIGIN OF DATA
 UWI .       490251031200:   UNIQUE WELL ID
 DICO. A2D Technologies, Inc.:   DIGITIZING COMPANY
~OTHER INFORMATION
~A   DEPT      SPR       SGRD       DRES       MRES         GRD      CALD       RHOB       DPHI       CORR   
# ...
   71.5000   -38.2305     9.9109     6.7403     8.2090   105.6368     7.9658     2.4667     0.1076     0.0576
   72.0000   -38.0741     9.8198     6.9084     8.3856   101.7788     7.9653     2.4775     0.1035     0.0569
   72.5000   -37.9174    10.4551     7.0807     8.5996    97.7511     7.9650     2.4828     0.0993     0.0567
   73.0000   -37.7612    12.1901     7.2574     8.8190    92.9062     7.9646     2.4878     0.0954     0.0589
   73.5000   -37.6302    19.9777     7.4384     9.0440    90.3756     7.9643     2.4885     0.0938     0.0610
   74.0000   -37.6698    27.8538     7.6235     9.2049    94.0414     7.9639     2.4856     0.0922     0.0623
   74.5000   -37.7111    14.6761     7.7941     9.1475    97.4059     7.9636     2.4711     0.1055     0.0624
   75.0000   -37.7519    10.9616     7.6795     9.1039   100.7576     7.9633     2.4567     0.1143     0.0573
   75.5000   -37.7926    11.2571     7.5763     9.0600   104.0905     7.9629     2.4428     0.1218     0.0527
   76.0000   -37.8333    11.4868     7.4744     9.0164   107.4157     7.9626     2.4442     0.1195     0.0560
   76.5000   -37.8740    11.2913     7.3739     8.9731   110.0880     7.9622     2.4493     0.1166     0.0591
   77.0000   -37.9146    11.0791     7.2747     8.9301   111.4706     7.9619     2.4542     0.1137     0.0621
   77.5000   -37.9553    10.8689     7.1769     8.8873   110.8753     7.9615     2.4521     0.1174     0.0594
   78.0000   -37.9960    10.6628     7.0804     8.8447   110.1303     7.9612     2.4453     0.1231     0.0563
   78.5000   -38.0367    10.4605     6.9852     8.8021   110.0095     7.9608     2.4385     0.1274     0.0533
   79.0000   -38.0774    10.2620     6.8912     8.6911   110.1214     7.9605     2.4317     0.1304     0.0502
   79.5000   -38.1182    10.0674     6.7986     8.5526   109.7324     7.9601     2.4249     0.1334     0.0470
   80.0000   -38.1587     9.8198     6.7071     8.4163   109.2690     7.9598     2.4180     0.1364     0.0468
   80.5000   -38.1985     9.9376     6.6619     8.2821   108.8064     7.9594     2.4140     0.1311     0.0475
   81.0000   -38.1805    10.0268     6.6619     8.1632   107.6382     7.9591     2.4319     0.1248     0.0482
   81.5000   -38.0733    10.1168     6.7629     8.3067   105.2825     7.9587     2.4492     0.1186     0.0490
   82.0000   -37.9670    10.2077     6.8561     8.4393   106.9854     7.9584     2.4504     0.1170     0.0497
   82.5000   -37.8603    10.3018     6.9506     8.5739   108.7405     7.9580     2.4482     0.1178     0.0496
   83.0000   -37.7537    10.4000     7.0464     8.7109   106.4285     7.9577     2.4475     0.1195     0.0464
   83.5000   -37.6470    10.4527     7.1435     8.8500   104.0475     7.9573     2.4521     0.1212     0.0433
   84.0000   -37.5404    13.2580     7.1838     8.9913   101.6883     7.9570     2.4566     0.1203     0.0402
   84.5000   -37.4338    16.7804     7.1996     9.1203   102.0049     7.9566     2.4482     0.1233     0.0356
   85.0000   -37.3272    13.5683     7.2150     9.1203   104.4679     7.9563     2.4203     0.1325     0.0311
   85.5000   -37.2206    10.4758     7.2306     9.1203   106.0669     7.9559     2.4095     0.1419     0.0265
   86.0000   -37.1138    10.6556     7.2463     9.1203   106.9501     7.9556     2.4093     0.1435     0.0220
   86.5000   -37.0070    10.9112     7.2620     9.1202   107.3469     7.9552     2.4061     0.1451     0.0181
   87.0000   -36.9009    11.1835     7.2777     9.1202   107.8933     7.9549     2.4027     0.1468     0.0182
   87.5000   -36.8307    11.4924     7.2935     9.1202   108.6040     7.9545     2.3996     0.1461     0.0183
   88.0000   -36.8893    11.4879     7.3093     9.1203   109.1431     7.9542     2.4108     0.1381     0.0220
   88.5000   -36.9469    11.4897     7.3251     9.1203   108.5275     7.9539     2.4230     0.1320     0.0261
   89.0000   -37.0043    11.4897     7.3409     9.1202   108.5555     7.9535     2.4351     0.1293     0.0295
   89.5000   -37.0617    11.4897     7.3567     9.1213   109.5423     7.9532     2.4437     0.1266     0.0329
   90.0000   -37.1191    11.4897     7.3745     9.0964   110.5169     7.9528     2.4439     0.1239     0.0364
   90.5000   -37.1765    11.4897     7.3405     9.0494   111.4900     7.9525     2.4444     0.1212     0.0398
   91.0000   -37.2339    11.4897     7.2922     9.0026   111.2796     7.9521     2.4444     0.1198     0.0391
   91.5000   -37.2913    11.4103     7.2442     8.9559   109.4076     7.9518     2.4388     0.1228     0.0379
   92.0000   -37.3487    11.2533     7.1966     8.9095   108.9862     7.9514     2.4320     0.1272     0.0367
   92.5000   -37.4061    11.0984     7.1493     8.8633   109.2262     7.9511     2.4252     0.1316     0.0354
   93.0000   -37.4636    10.9457     7.1022     8.8174   108.3482     7.9507     2.4214     0.1358     0.0343
   93.5000   -37.5212    10.7954     7.0555     8.7717   106.3907     7.9504     2.4285     0.1305     0.0362
   94.0000   -37.5780    10.5737     7.0089     8.7262   104.4319     7.9500     2.4358     0.1254     0.0381
   94.5000   -37.6167    10.6063     6.9766     8.6810   102.5915     7.9497     2.4431     0.1202     0.0400
   95.0000   -37.5606    10.6713     6.9656     8.6360   101.9065     7.9493     2.4479     0.1165     0.0419
   95.5000   -37.5062    10.7698     6.9556     8.5912   103.1852     7.9490     2.4536     0.1136     0.0439
   96.0000   -37.4522    10.7453     6.9456     8.5467   106.1927     7.9486     2.4593     0.1109     0.0457
   96.5000   -37.3981    10.6958     6.9356     8.5024   107.6925     7.9483     2.4650     0.1081     0.0477
   97.0000   -37.3439    10.6465     6.9256     8.4583   107.0545     7.9479     2.4707     0.1054     0.0496
   97.5000   -37.2898    10.5730     6.9130     8.4145   106.3151     7.9476     2.4771     0.1009     0.0515
   98.0000   -37.2357    10.6642     6.9249     8.3926   106.2601     7.9472     2.4862     0.0949     0.0534
   98.5000   -37.1816    10.8470     6.9427     8.4313   106.5307     7.9469     2.4920     0.0922     0.0538
   99.0000   -37.1275    11.0328     6.9605     8.4611   107.7535     7.9466     2.4866     0.0970     0.0530
   99.5000   -37.0734    11.2809     6.9783     8.4911   107.9961     7.9462     2.4770     0.1022     0.0522
  100.0000   -37.0193    11.0939     6.9961     8.5211   107.3494     7.9459     2.4666     0.1074     0.0514
  100.5000   -36.9652    10.8259     7.0140     8.5513   106.7011     7.9455     2.4562     0.1126     0.0506
  101.0000   -36.9111    10.5643     7.0319     8.5816   106.7978     7.9452     2.4458     0.1179     0.0472
  101.5000   -36.8570    10.3795     7.0499     8.6120   107.6573     7.9448     2.4365     0.1231     0.0427
  102.0000   -36.8029    10.6762     7.0679     8.6425   108.5373     7.9445     2.4359     0.1245     0.0382
  102.5000   -36.7488    10.9595     7.0859     8.6731   109.8095     7.9441     2.4355     0.1242     0.0343
  103.0000   -36.6946    11.1756     7.1041     8.7038   112.3593     7.9438     2.4350     0.1240     0.0361
  103.5000   -36.6405    10.9112     7.1222     8.7346   114.8153     7.9435     2.4346     0.1238     0.0379
  104.0000   -36.5864    10.6712     7.1404     8.7654   115.1397     7.9431     2.4365     0.1213     0.0397
  104.5000   -36.5323    11.0402     7.1586     8.8025   114.4224     7.9428     2.4409     0.1189     0.0400
  105.0000   -36.4783    11.4897     7.1729     8.8604   113.8714     7.9424     2.4354     0.1225     0.0397
  105.5000   -36.4265    11.3469     7.2855     8.9186   113.7508     7.9421     2.4228     0.1268     0.0393
  106.0000   -36.3860    11.1749     7.3977     8.9772   113.6215     7.9418     2.4116     0.1312     0.0390
  106.5000   -36.3470    10.9710     7.5115     9.0361   113.4920     7.9414     2.4148     0.1315     0.0386
  107.0000   -36.3080    11.1715     7.6271     9.0955   113.3537     7.9411     2.4182     0.1290     0.0383
  107.5000   -36.2690    11.5180     7.7445     9.1552   113.4280     7.9407     2.4272     0.1266     0.0400
