~VERSION INFORMATION
 VERS.                2.0:   CWLS LOG ASCII STANDARD - VERSION 2.0
 WRAP.                 NO:   ONE LINE PER DEPTH STEP
~WELL INFORMATION
#MNEM.UNIT      DATA TYPE    INFORMATION
#----------   ------------   ------------------------------
 STRT.F            0.5000:   START DEPTH
 STOP.F          696.0000:   STOP DEPTH
 STEP.F            0.5000:   STEP LENGTH
 NULL.          -999.2500:   NO VALUE
 COMP. LAWRENCE/ALLISON INC:   COMPANY
 WELL. SX 11 WP #26-44-11:   WELL
 FLD .             TEAPOT:   FIELD
 LOC .      S11 T38N R78W:   LOCATION
 CNTY.            NATRONA:   COUNTY
 STAT.            WYOMING:   STATE
 CTRY. UNITED STATES OF AMERICA:   COUNTRY
 SRVC.      Dresser Atlas:   SERVICE COMPANY
 DATE.        08-SEP-1984:   LOGDATE
 API .       490251097600:   API NUMBER
~CURVE INFORMATION
#MNEM.UNIT       API CODE    CURVE DESCRIPTION
#----------   ------------   ------------------------------
 DEPT.F                  :   
 AC  .US/F   60 520 00 00:   ACCOUSTIC
 SPR .MV     07 010 01 00:   SPONTANEOUS POTENTIAL FROM RES.
 RILD.OHMM   07 120 46 00:   RESISTIVITY INDUCTION LOG DEEP
 RILM.OHMM   07 120 44 00:   RESISTIVITY INDUCTION LOG MEDIUM
 RFOC.OHMM   07 220 04 00:   RESISTIVITY FOCUSED LOG
 GRR .GAPI   07 310 01 00:   GAMMA RAY FROM RESISTIVITY
 CALD.IN     45 280 60 00:   CALIPER FROM DENSITY LOG
 DEN .G/C3   45 350 01 00:   COMPENSATED BULK DENSTIY
 CORR.G/C3   45 356 01 00:   DENSITY CORRECTION
 PORD.DEC    45 890 12 00:   POROSITY DENSITY SANDSTONE
 CNC .DEC    42 890 03 00:   NEUTRON POROSITY SANDSTONE
~PARAMETER INFORMATION
#MNEM.UNIT          VALUE    DESCRIPTION
#----------   ------------   ------------------------------
 PD  .                 GL:   PERMANENT DATUM
 EPD .F              5186:   ELEVATION PERMANENT DATUM
 LMF .                 GL:   LOG MEASURED FROM
 DMF .                 GL:   DRILLING MEASURED FROM
 EGL .F              5186:   GROUND LEVEL
 DATE.         8-SEP-1984:   RUN DATE
 RUN .                  1:   RUN NUMBER
 DD  .F               712:   DEPTH DRILLER
 DL  .F               695:   DEPTH LOGGER
 BLI .F               693:   BOTTOM LOG INTERVAL
 CS  .IN            8.625:   CASING SIZE
 CBD .F                40:   CASING BOTTOM DRILLER
 CBL .F                45:   CASING BOTTOM LOGGER
 BS  .IN            7.875:   BIT SIZE
 BSD .F               712:   BIT SIZE AT DEPTH
 DFT .          KCL WATER:   DRILLING FLUID TYPE
 MSS .           FLOWLINE:   MUD SAMPLE SOURCE
 RMS .OHMM            .22:   RESISTIVITY MUD SAMPLE
 MST .F                72:   MUD SAMPLE TEMPERATURE
 RMF .OHMM            .17:   RESISTIVITY MUD FILTRATE SAMPLE
 MFST.F                72:   MUD FILTRATE SAMPLE TEMPERATURE
 RMC .OHMM            .28:   RESISTIVITY MUD CAKE
 MCST.F                72:   MUD CAKE SAMPLE TEMPERATURE
 MFSS.               CALC:   MUD FILTRATE SAMPLE SOURCE
 MCSS.               CALC:   MUD CAKE SAMPLE SOURCE
 RMB .OHMM            .18:   RESISTIVITY MUD AT BHT
 BHT .F                90:   BOTTOM HOLE TEMPERATURE
 TCS .HRS               3:   TIME CURCULATED STOPPED
 MRT .F                90:   MAXIMUM RECORDED TEMPERATURE
 LUN .               6274:   LOGGING UNIT NUMBER
 LUL .               GLTE:   LOGGING UNIT LOCATION
 ENGI.             RAUTIO:   RECORDING ENGINEER
 WITN.           JENNINGS:   WITNESSED BY
 CLNT.            A2DTECH:   CLIENT CODE
 ORIG. 1", 2', 2.5", 5" PRNT:   ORIGIN OF DATA
 UWI .       490251097600:   UNIQUE WELL ID
 DICO. A2D Technologies, Inc.:   DIGITIZING COMPANY
~OTHER INFORMATION
~A    DEPT      AC        SPR       RILD       RILM       RFOC         GRR      CALD        DEN       CORR       PORD        CNC   
# ...
  214.0000   105.8370    -1.4670     8.9730     9.2650     9.3570   100.6664     7.8580     2.4890     0.0110     0.1150     0.3112
  214.5000   105.6370    -1.6130     8.9530     9.2380     9.3290    99.5002     7.8600     2.4830     0.0180     0.1180     0.2961
  215.0000   105.1390    -1.7590     8.7720     9.2100     9.3010    98.0454     7.8630     2.4780     0.0260     0.1200     0.2859
  215.5000   104.6410    -1.9390     8.5410     9.0570     9.2610    96.2905     7.8650     2.4830     0.0350     0.1180     0.2702
  216.0000   104.2430    -2.2650     8.3090     8.8060     9.1980    99.8727     7.8680     2.4900     0.0430     0.1150     0.2883
  216.5000   104.7210    -2.5960     8.0770     8.5560     8.9090   103.1548     7.8700     2.4930     0.0400     0.1120     0.3120
  217.0000   105.0400    -2.9260     7.8450     8.3050     8.6090   105.5480     7.8710     2.4880     0.0260     0.1130     0.3168
  217.5000   106.1690    -3.2570     7.6140     8.0540     8.3090   107.0561     7.8710     2.4830     0.0140     0.1170     0.3174
  218.0000   107.1090    -3.5920     7.4600     7.7960     7.9400   109.1454     7.8710     2.4790     0.0170     0.1200     0.3167
  218.5000   108.0500    -3.6600     7.4990     7.8910     7.9560   107.6944     7.8710     2.4800     0.0200     0.1190     0.3145
  219.0000   108.4860    -3.6630     7.6430     8.0150     7.9760   105.6432     7.8710     2.4800     0.0160     0.1190     0.3024
  219.5000   108.5860    -3.6630     7.7870     8.1390     7.9970   103.5958     7.8710     2.4810     0.0130     0.1190     0.2985
  220.0000   108.5260    -3.6630     7.9320     8.2630     8.1010    98.2853     7.8710     2.4880     0.0090     0.1160     0.2944
  220.5000   106.5340    -3.6630     8.0760     8.3870     8.5860    91.4933     7.8710     2.4930     0.0050     0.1110     0.2893
  221.0000   104.1680    -3.6630     8.2200     8.5110     9.0710    88.8495     7.8710     2.4920     0.0040     0.1110     0.3022
  221.5000   101.8030    -3.6210     8.3640     8.6350     9.3630    87.9796     7.8720     2.4840     0.0020     0.1160     0.3047
  222.0000    99.4370    -3.5510     8.5080     8.7850     9.3090    94.8249     7.8740     2.4750     0.0030     0.1210     0.3028
  222.5000    97.0720    -3.4800     8.6250     8.7690     9.2650    96.3293     7.8760     2.4750     0.0040     0.1230     0.3024
  223.0000    98.7080    -3.4090     8.5610     8.7490     9.2220    95.1669     7.8790     2.4760     0.0050     0.1210     0.3091
  223.5000   100.3440    -3.3380     8.5070     8.7280     9.1780    92.8194     7.8810     2.4750     0.0060     0.1220     0.3131
  224.0000   101.6530    -3.2790     8.4530     8.7080     9.1350    90.4757     7.8830     2.4710     0.0080     0.1240     0.3069
  224.5000   102.2510    -3.5490     8.3990     8.6880     9.0920    90.1946     7.8850     2.4680     0.0090     0.1260     0.3027
  225.0000   102.2510    -3.8290     8.3460     8.6680     9.0480    89.6287     7.8870     2.4670     0.0110     0.1280     0.2998
  225.5000   102.3840    -4.0640     8.2920     8.6470     9.0050    91.7294     7.8900     2.4640     0.0080     0.1290     0.2953
  226.0000   102.7160    -4.0590     8.2380     8.6270     8.9610    93.8263     7.8910     2.4620    -0.0090     0.1300     0.2833
  226.5000   103.0480    -3.9170     8.1840     8.6070     8.9180    93.2528     7.8910     2.4680    -0.0090     0.1260     0.2734
  227.0000   103.0480    -3.6900     8.1300     8.5860     8.8660    92.3943     7.8910     2.4760     0.0080     0.1210     0.2874
  227.5000   103.0480    -3.4630     8.0880     8.5660     8.8940    91.5283     7.8910     2.4830     0.0250     0.1170     0.2990
  228.0000   103.0480    -3.2350     8.1640     8.5460     8.9390    90.6585     7.8910     2.4870     0.0400     0.1150     0.2902
  228.5000   103.4960    -3.0080     8.2270     8.5920     8.9850    92.4667     7.8910     2.4870     0.0380     0.1150     0.2809
  229.0000   103.8700    -2.8350     8.2900     8.6380     9.0300    94.2673     7.8910     2.4830     0.0300     0.1170     0.2762
  229.5000   104.2430    -2.7460     8.3530     8.6840     9.0750    93.4013     7.8860     2.4830     0.0220     0.1170     0.2676
  230.0000   103.9110    -2.6710     8.4160     8.7300     9.1210    92.2389     7.8800     2.4960     0.0140     0.1130     0.2687
  230.5000   103.5790    -2.7670     8.4790     8.7750     9.1660    91.0728     7.8750     2.4990     0.0100     0.1100     0.2801
  231.0000   103.2470    -2.9150     8.5420     8.8210     9.2120    91.6958     7.8730     2.4900     0.0090     0.1120     0.2849
  231.5000   103.0480    -3.0630     8.6060     8.8670     9.2830    93.2002     7.8750     2.4820     0.0080     0.1160     0.2824
  232.0000   103.0480    -3.2130     8.6690     8.9130     9.2620    95.2933     7.8780     2.4770     0.0060     0.1200     0.2756
  232.5000   103.0480    -3.2510     8.7050     8.9480     9.2110    94.4272     7.8800     2.4760     0.0130     0.1210     0.2722
  233.0000   103.0480    -3.2160     8.7050     8.9360     9.1600    93.5612     7.8830     2.4780     0.0210     0.1190     0.2700
  233.5000   103.0480    -3.1810     8.7050     8.9230     9.1100    93.2878     7.8860     2.4850     0.0300     0.1160     0.2724
  234.0000   103.0480    -3.1460     8.7050     8.9110     9.0590    94.5034     7.8880     2.4930     0.0240     0.1120     0.2951
  234.5000   102.9620    -3.1100     8.7050     8.8990     9.0310    93.3411     7.8910     2.4960     0.0100     0.1120     0.3185
  235.0000   102.8910    -3.0720     8.7050     8.8870     9.0930    92.1749     7.8880     2.4820    -0.0050     0.1160     0.3042
  235.5000   102.7240    -3.1820     8.7050     8.8750     9.1440    89.8350     7.8860     2.4680    -0.0180     0.1240     0.2958
  236.0000   102.4130    -3.3130     8.7050     8.8620     9.1950    92.5245     7.8830     2.4550    -0.0140     0.1320     0.2786
  236.5000   102.1020    -3.4450     8.7050     8.8500     9.2450    94.6214     7.8810     2.4450    -0.0080     0.1400     0.2782
  237.0000   101.7900    -3.5770     8.7050     8.8380     9.2830    96.1258     7.8780     2.4470    -0.0080     0.1400     0.2757
  237.5000   101.4790    -3.7100     8.7040     8.8260     9.2390    96.1524     7.8750     2.4550    -0.0150     0.1340     0.2674
  238.0000   101.1680    -3.8410     8.7050     8.8140     9.2040    96.1753     7.8730     2.4640    -0.0220     0.1290     0.2643
  238.5000   100.8570    -3.8610     8.6540     8.8010     9.1680    96.1981     7.8710     2.4690    -0.0280     0.1260     0.2676
  239.0000   101.2160    -3.8610     8.6070     8.7890     9.1330    97.1099     7.8710     2.4630    -0.0190     0.1300     0.2672
  239.5000   101.5760    -3.8620     8.5590     8.7640     9.0970    97.1365     7.8710     2.4580    -0.0040     0.1320     0.2672
  240.0000   101.9360    -3.9600     8.5110     8.7330     9.0620    96.2705     7.8710     2.4680     0.0110     0.1260     0.2804
  240.5000   102.2950    -4.0740     8.4630     8.7010     9.0270    95.7007     7.8710     2.4820     0.0240     0.1170     0.2914
  241.0000   102.6550    -4.1880     8.4160     8.6700     8.9910    94.8309     7.8710     2.4970     0.0240     0.1120     0.2920
  241.5000   103.0150    -4.3080     8.3680     8.6380     8.9560    94.2649     7.8710     2.4960     0.0130     0.1140     0.2913
  242.0000   103.4460    -4.4410     8.3200     8.6070     8.9200    93.3989     7.8710     2.4740    -0.0020     0.1240     0.2903
  242.5000   103.4460    -4.2640     8.2720     8.5750     8.8850    95.2033     7.8710     2.4560    -0.0130     0.1350     0.2887
  243.0000   103.4460    -4.3260     8.2380     8.5460     8.8370    97.5965     7.8730     2.4470    -0.0170     0.1390     0.2875
  243.5000   103.2470    -4.3760     8.2720     8.5830     8.7750    99.9898     7.8750     2.4480    -0.0200     0.1380     0.2911
  244.0000   103.0480    -4.4280     8.3140     8.6170     8.7140    98.5349     7.8760     2.4550    -0.0210     0.1340     0.3046
