~VERSION INFORMATION
 VERS.                2.0:   CWLS LOG ASCII STANDARD - VERSION 2.0
 WRAP.                 NO:   ONE LINE PER DEPTH STEP
~WELL INFORMATION
#MNEM.UNIT      DATA TYPE    INFORMATION
#----------   ------------   ------------------------------
 STRT.F           30.5000:   START DEPTH
 STOP.F          692.0000:   STOP DEPTH
 STEP.F            0.5000:   STEP LENGTH
 NULL.          -999.2500:   NO VALUE
 COMP. FENIX & SCISSON INC:   COMPANY
 WELL.   27-S-11-WP #3-11:   WELL
 FLD .  TEAPOT DOME NPR-3:   FIELD
 LOC .      S11 T38N R78W:   LOCATION
 CNTY.            NATRONA:   COUNTY
 STAT.            WYOMING:   STATE
 CTRY. UNITED STATES OF AMERICA:   COUNTRY
 SRVC.       Schlumberger:   SERVICE COMPANY
 DATE.        18-FEB-1978:   LOGDATE
 API .       490251058100:   API NUMBER
~CURVE INFORMATION
#MNEM.UNIT       API CODE    CURVE DESCRIPTION
#----------   ------------   ------------------------------
 DEPT.F                  :   
 CALD.IN     45 280 60 00:   CALIPER FROM DENSITY LOG
 CORR.G/C3   45 356 01 00:   DENSITY CORRECTION
 DPHI.DEC    45 890 12 00:   DENSITY POROSITY SANDSTONE
 GRD .GAPI   45 310 01 00:   GAMMA RAY FROM DENSITY LOG
 RHOB.G/C3   45 350 01 00:   BULK DENSITY
 ILD .OHMM   05 110 46 00:   INDUCTION LOG DEEP
 SN  .OHMM   05 040 16 00:   SHORT NORMAL 16"
 SPR .MV     05 010 01 00:   SPONTANEOUS POTENSIAL FROM RES.
~PARAMETER INFORMATION
#MNEM.UNIT          VALUE    DESCRIPTION
#----------   ------------   ------------------------------
 PD  .                 GL:   PERMANENT DATUM
 EPD .F              5195:   ELEVATION PERMANENT DATUM
 LMF .                 KB:   LOG MEASURED FROM
 DAPD.F                 4:   FEET ABOVE PERMANENT DATUM
 DMF .                 KB:   DRILLING MEASURED FROM
 EKB .F              5199:   KELLING BUSHING
 EGL .F              5195:   GROUND LEVEL
 DATE.        18-FEB-1978:   RUN DATE
 RUN .                  1:   RUN NUMBER
 DD  .F               690:   DEPTH DRILLER
 DL  .F               695:   DEPTH LOGGER
 BLI .F               688:   BOTTOM LOG INTERVAL
 TLI .F                40:   TOP LOG INTERVAL
 CS  .IN            8.625:   CASING SIZE
 CBD .F                40:   CASING BOTTOM DRILLER
 CBL .F                40:   CASING BOTTOM LOGGER
 BS  .IN            7.875:   BIT SIZE
 BSD .F               690:   BIT SIZE AT DEPTH
 DFT .       LIGNO/ SULF.:   DRILLING FLUID TYPE
 DFD .                8.8:   DRILLING FLUID DENSITY
 DFV .                 33:   DRILLING FLUID VISCOSITY
 DFPH.               10.0:   DRILLING FLUID PH
 DFL .                5.0:   DRILLING FLUID LOSS
 MSS .           FLOWLINE:   MUD SAMPLE SOURCE
 RMS .OHMM            1.7:   RESISTIVITY MUD SAMPLE
 MST .F                66:   MUD SAMPLE TEMPERATURE
 RMF .OHMM            2.0:   RESISTIVITY MUD FILTRATE SAMPLE
 MFST.F                58:   MUD FILTRATE SAMPLE TEMPERATURE
 RMC .OHMM            3.0:   RESISTIVITY MUD CAKE
 MCST.F                60:   MUD CAKE SAMPLE TEMPERATURE
 MFSS.               MEAS:   MUD FILTRATE SAMPLE SOURCE
 RMB .OHMM           1.65:   RESISTIVITY MUD AT BHT
 BHT .F                68:   BOTTOM HOLE TEMPERATURE
 TCS .HRS               2:   TIME CURCULATED STOPPED
 MRT .F                68:   MAXIMUM RECORDED TEMPERATURE
 LUN .               2958:   LOGGING UNIT NUMBER
 LUL .             CASPER:   LOGGING UNIT LOCATION
 ENGI.            POINTER:   RECORDING ENGINEER
 WITN.           MCGINLEY:   WITNESSED BY
 CLNT.            A2DTECH:   CLIENT CODE
 ORIG.           5" PRINT:   ORIGIN OF DATA
 UWI .       490251058100:   UNIQUE WELL ID
~OTHER INFORMATION
~A   DEPT     CALD       CORR       DPHI         GRD      RHOB        ILD         SN        SPR   
# ...
  557.0000     7.8223     0.0276     0.1905    68.4324     2.3321    20.3263    23.0552   -45.4240
  557.5000     7.7584     0.0305     0.1893    66.6936     2.3328    20.0272    22.7051   -45.1450
  558.0000     7.6485     0.0349     0.1876    69.1001     2.3356    19.8710    22.3603   -45.1725
  558.5000     7.7229     0.0437     0.1852    74.2338     2.3385    19.7161    22.0208   -45.2127
  559.0000     7.7825     0.0482     0.1818    76.4887     2.3331    19.4259    21.9921   -46.1435
  559.5000     7.7641     0.0494     0.1798    77.2329     2.3421    19.4098    21.6581   -46.4747
  560.0000     7.7310     0.0508     0.1823    75.3925     2.3503    19.3845    21.6299   -45.2869
  560.5000     7.7132     0.0506     0.1836    72.6474     2.3456    19.2421    21.6017   -44.6964
  561.0000     7.7569     0.0504     0.1837    70.5083     2.3401    19.2259    21.5734   -44.4180
  561.5000     7.8313     0.0452     0.1880    70.0237     2.3468    19.2067    21.5447   -44.2923
  562.0000     7.8596     0.0372     0.1959    71.5333     2.3421    19.0569    21.5161   -44.7839
  562.5000     7.8571     0.0330     0.1942    73.3714     2.3237    19.0412    21.6401   -44.9635
  563.0000     7.8547     0.0343     0.1760    74.7292     2.3373    18.8927    21.6049   -44.9904
  563.5000     7.8522     0.0341     0.1724    74.0512     2.3610    18.8770    21.4262   -45.0174
  564.0000     7.8653     0.0340     0.1746    72.2152     2.3682    18.7299    21.3983   -45.0443
  564.5000     7.8782     0.0353     0.1692    70.8338     2.3521    18.4542    21.3704   -44.9064
  565.0000     7.8911     0.0336     0.1611    69.6038     2.3763    18.1826    21.3425   -44.6157
  565.5000     7.9041     0.0334     0.1703    69.7375     2.3853    18.0409    21.0184   -44.6738
  566.0000     7.9011     0.0347     0.1752    70.9318     2.3615    17.9002    20.5549   -44.8533
  566.5000     7.8986     0.0345     0.1722    72.7322     2.3576    17.7606    20.1015   -45.0262
  567.0000     7.8962     0.0343     0.1673    73.4720     2.3681    17.3772    19.5211   -44.2965
  567.5000     7.8938     0.0341     0.1600    73.6061     2.3801    16.8835    19.2246   -43.4074
  568.0000     7.9227     0.0354     0.1562    74.3455     2.3884    16.6350    18.9322   -42.9696
  568.5000     7.9197     0.0352     0.1524    75.0852     2.3905    16.3902    18.6442   -42.6979
  569.0000     7.9327     0.0366     0.1495    75.0667     2.3949    16.0363    18.3561   -42.5710
  569.5000     7.9456     0.0364     0.1514    75.2011     2.3994    15.7912    17.5783   -42.4458
  570.0000     7.9432     0.0361     0.1529    75.6378     2.3992    15.6767    17.0707   -42.4733
  570.5000     7.9407     0.0360     0.1530    76.0701     2.3968    15.6635    16.8115   -42.1949
  571.0000     7.9382     0.0357     0.1552    76.0523     2.3974    15.5388    16.7896   -42.2229
  571.5000     7.9353     0.0340     0.1619    76.1247     2.3988    15.2033    16.6507   -42.0960
  572.0000     7.9329     0.0338     0.1577    76.7253     2.3933    14.7714    16.5131   -42.1297
  572.5000     7.9305     0.0337     0.1426    77.2689     2.3803    14.5540    16.3765   -42.1566
  573.0000     7.9281     0.0365     0.1318    77.7993     2.4009    14.2398    16.2411   -42.3362
  573.5000     7.9256     0.0439     0.1312    78.3875     2.4236    14.1288    16.1068   -42.3631
  574.0000     7.9232     0.0483     0.1328    78.9758     2.4318    14.1171    15.9735   -42.5427
  574.5000     7.9208     0.0527     0.1329    79.4125     2.4330    14.1054    15.9523   -42.5696
  575.0000     7.9184     0.0540     0.1281    78.2577     2.4298    14.0937    15.9311   -42.7492
  575.5000     7.9160     0.0644     0.1044    76.6451     2.4327    14.0820    15.9060   -42.7761
  576.0000     7.9136     0.0718     0.0903    75.5667     2.4858    14.0703    15.8853   -42.8031
  576.5000     7.9111     0.0746     0.0900    74.7913     2.5070    14.1574    15.9760   -42.8305
  577.0000     7.9087     0.0713     0.0995    76.1372     2.5030    14.3451    15.9551   -42.8569
  577.5000     7.9063     0.0649     0.1138    77.1800     2.4915    14.5354    16.0515   -42.2799
  578.0000     7.9038     0.0588     0.1409    77.1621     2.4525    14.6252    16.2565   -42.6121
  578.5000     7.9014     0.0571     0.1546    77.4474     2.3999    14.5110    16.0044   -43.4024
  579.0000     7.8984     0.0554     0.1555    78.4902     2.3921    14.3884    15.5423   -44.6507
  579.5000     7.8960     0.0537     0.1532    78.3208     2.3920    13.9885    15.0935   -44.8303
  580.0000     7.8936     0.0489     0.1538    76.6364     2.3934    13.7802    14.6577   -44.8572
  580.5000     7.9225     0.0426     0.1536    76.9338     2.3932    13.7688    14.6386   -44.2734
  581.0000     7.9195     0.0379     0.1533    77.5344     2.3939    13.5662    14.4159   -43.2317
  581.5000     7.9171     0.0346     0.1522    78.2451     2.3937    13.1807    14.0816   -42.8006
  582.0000     7.9147     0.0314     0.1510    78.4323     2.3943    12.9867    13.7829   -42.8275
  582.5000     7.9436     0.0328     0.1469    76.9974     2.3965    12.7956    13.5736   -43.3130
  583.0000     7.9565     0.0356     0.1405    76.3735     2.4003    12.6073    13.5559   -43.1867
  583.5000     7.9381     0.0369     0.1379    75.1436     2.4064    12.5969    13.3501   -42.9082
  584.0000     7.9050     0.0382     0.1361    72.7015     2.4147    12.5864    13.3327   -42.9419
  584.5000     7.8411     0.0472     0.1337    71.9306     2.4233    12.5760    13.1302   -42.8094
  585.0000     7.7773     0.0547     0.1314    73.2720     2.4300    12.5656    12.8406   -42.8431
  585.5000     7.7441     0.0604     0.1336    74.6178     2.4314    12.5552    12.7344   -42.8700
  586.0000     7.7263     0.0633     0.1345    73.8424     2.4282    12.5448    12.5411   -42.8969
  586.5000     7.7233     0.0646     0.1310    73.0667     2.4265    12.5344    12.5247   -42.9238
  587.0000     7.7209     0.0644     0.1280    72.8970     2.4294    12.5240    12.2479   -42.9507
  587.5000     7.7031     0.0627     0.1253    73.0314     2.4369    12.5136    12.1469   -42.9777
  588.0000     7.7007     0.0625     0.1233    73.0091     2.4444    12.3247    12.1172   -43.0046
  588.5000     7.6983     0.0623     0.1221    72.9913     2.4488    12.0630    11.9432   -43.0321
  589.0000     7.6959     0.0621     0.1222    73.4281     2.4502    11.8853    11.9277   -42.9058
  589.5000     7.6935     0.0634     0.1222    73.5662     2.4501    11.7906    11.9121   -42.4814
  590.0000     7.6910     0.0632     0.1235    73.5440     2.4499    11.7809    11.8966   -42.0503
  590.5000     7.6579     0.0651     0.1248    73.5262     2.4490    11.7711    11.8811   -42.0772
  591.0000     7.6248     0.0674     0.1273    73.5083     2.4451    11.7613    11.8656   -41.9515
  591.5000     7.5916     0.0717     0.1310    73.4905     2.4335    11.7516    11.8501   -41.5204
  592.0000     7.5738     0.0776     0.1304    74.0788     2.4303    11.7419    11.8347   -41.3879
  592.5000     7.5561     0.0837     0.1267    74.8434     2.4325    11.7321    11.8192   -41.4215
  593.0000     7.5382     0.0896     0.1225    75.7344     2.4362    11.7224    11.8038   -41.4484
  593.5000     7.5204     0.0940     0.1215    77.8088     2.4440    11.7127    11.7884   -41.4754
  594.0000     7.5175     0.0981     0.1216    79.9122     2.4533    11.7030    11.7728   -41.6550
  594.5000     7.4997     0.0995     0.1216    81.4095     2.4532    11.6933    11.7571   -41.8351
  595.0000     7.5133     0.0992     0.1223    82.4523     2.4485    11.6836    11.7385   -42.0153
  595.5000     7.5102     0.0990     0.1224    82.7420     2.4476    11.6739    11.7232   -42.0478
  596.0000     7.5539     0.0958     0.1224    82.2652     2.4497    11.5829    11.7080   -42.0747
  596.5000     7.6129     0.0910     0.1222    81.7928     2.4488    11.5733    11.6927   -42.1016
  597.0000     7.6720     0.0878     0.1219    81.3205     2.4479    11.5637    11.6774   -41.8165
