~VERSION INFORMATION
 VERS.                2.0:   CWLS LOG ASCII STANDARD - VERSION 2.0
 WRAP.                 NO:   ONE LINE PER DEPTH STEP
~WELL INFORMATION
#MNEM.UNIT      DATA TYPE    INFORMATION
#----------   ------------   ------------------------------
 STRT.F            0.0000:   START DEPTH
 STOP.F         1283.5000:   STOP DEPTH
 STEP.F            0.5000:   STEP LENGTH
 NULL.          -999.2500:   NO VALUE
 COMP.      U.S. NAVY NPR:   COMPANY
 WELL. NAVAL PETROLEUM RESERVE 3 ST-11 #88-11:   WELL
 FLD .             TEAPOT:   FIELD
 LOC .      S11 T38N R78W:   LOCATION
 CNTY.            NATRONA:   COUNTY
 STAT.            WYOMING:   STATE
 CTRY. UNITED STATES OF AMERICA:   COUNTRY
 SRVC.       Schlumberger:   SERVICE COMPANY
 DATE.        01-NOV-1958:   LOGDATE
 API .       490250632600:   API NUMBER
~CURVE INFORMATION
#MNEM.UNIT       API CODE    CURVE DESCRIPTION
#----------   ------------   ------------------------------
 DEPT.F                  :   
 GRN .GAPI   35 310 01 00:   GAMMA RAY
 NEUT.NAPI   35 330 01 00:   NEUTRON
 ASN .OHMM   01 041 16 00:   AMPLIFIED SHORT NORMAL
 LAT .OHMM   01 070 18 00:   LATERAL 18"
 LN  .OHMM   01 060 64 00:   LONG NORMAL 64"
 SPR .MV     01 010 01 00:   SPONTANEOUS POTENTIAL
 CALM.IN     15 280 01 00:   CALIPER FROM MICRO LOG
~PARAMETER INFORMATION
#MNEM.UNIT          VALUE    DESCRIPTION
#----------   ------------   ------------------------------
 LMF .                 KB:   LOG MEASURED FROM
 DMF .                 KB:   DRILLING MEASURED FROM
 EKB .F              5289:   KELLING BUSHING
 EGL .F              5279:   GROUND LEVEL
 DATE.        01-NOV-1958:   RUN DATE
 RUN .                  1:   RUN NUMBER
 DD  .F              1280:   DEPTH DRILLER
 DL  .F              1283:   DEPTH LOGGER
 BLI .F              1282:   BOTTOM LOG INTERVAL
 TLI .F               150:   TOP LOG INTERVAL
 CBD .F                45:   CASING BOTTOM DRILLER
 BS  .IN            7.875:   BIT SIZE
 BSD .F              1280:   BIT SIZE AT DEPTH
 DFT .                GEL:   DRILLING FLUID TYPE
 DFD .                9.1:   DRILLING FLUID DENSITY
 DFV .                 63:   DRILLING FLUID VISCOSITY
 DFL .                2.1:   DRILLING FLUID LOSS
 RMS .OHMM            2.4:   RESISTIVITY MUD SAMPLE
 MST .F                56:   MUD SAMPLE TEMPERATURE
 RMF .OHMM           1.45:   RESISTIVITY MUD FILTRATE SAMPLE
 MFST.F                79:   MUD FILTRATE SAMPLE TEMPERATURE
 RMC .OHMM            1.7:   RESISTIVITY MUD CAKE
 MCST.F                79:   MUD CAKE SAMPLE TEMPERATURE
 MFSS.               MEAS:   MUD FILTRATE SAMPLE SOURCE
 MCSS.               MEAS:   MUD CAKE SAMPLE SOURCE
 RMB .OHMM            1.6:   RESISTIVITY MUD AT BHT
 BHT .F                79:   BOTTOM HOLE TEMPERATURE
 TCS .HRS               1:   TIME CURCULATED STOPPED
 MRT .F                79:   MAXIMUM RECORDED TEMPERATURE
 LUN .               2544:   LOGGING UNIT NUMBER
 LUL .                 NC:   LOGGING UNIT LOCATION
 ENGI.            EARNEST:   RECORDING ENGINEER
 WITN.             MARTIN:   WITNESSED BY
 CLNT.            A2DTECH:   CLIENT CODE
 ORIG.         2.5" PRINT:   ORIGIN OF DATA
 UWI .       490250632600:   UNIQUE WELL ID
 DICO. A2D Technologies, Inc.:   DIGITIZING COMPANY
~OTHER INFORMATION
~A    DEPT       GRN     NEUT        ASN        LAT         LN        SPR       CALM   
# ...
  409.5000     5.4228   392.7025     5.7480     5.3637     5.3790   -12.2058     8.1784
  410.0000     5.4601   389.6581     5.6658     5.3670     5.2471   -12.4742     8.1747
  410.5000     5.4342   379.9052     5.5707     5.3704     5.1151   -13.0158     8.1709
  411.0000     5.3663   382.0938     5.5584     5.3737     5.1199   -13.0103     8.1672
  411.5000     5.0213   394.7311     5.5591     5.3771     5.1240   -13.0049     8.1635
  412.0000     4.8987   393.1377     5.5871     5.3804     5.1281   -12.9994     8.1597
  412.5000     4.7425   388.6594     5.5878     5.3895     5.1322   -12.9339     8.1560
  413.0000     4.5138   396.8692     5.6428     5.5231     5.2722   -12.8231     8.1523
  413.5000     4.4329   408.0450     5.7250     5.5265     5.2763   -12.7123     8.1485
  414.0000     4.5919   409.4055     5.9159     5.5299     5.2812   -12.5879     8.1448
  414.5000     5.0309   391.0953     6.1068     5.5333     5.4211   -12.5784     8.1411
  415.0000     5.1517   395.7845     6.2433     5.5367     5.4251   -12.2953     8.1393
  415.5000     5.1890   400.6610     6.3798     5.5401     5.4292   -12.2858     8.1673
  416.0000     5.2907   397.7753     6.4077     5.5109     5.4332   -12.2763     8.1681
  416.5000     5.3727   394.9474     6.3811     5.4106     5.4372   -12.2668     8.1961
  417.0000     5.4633   394.8969     6.3275     5.2780     5.3048   -12.2573     8.2266
  417.5000     5.6342   370.9635     6.1923     5.2819     5.1730   -12.2478     8.2521
  418.0000     5.4727   361.2106     6.0299     5.2853     5.1773   -12.5119     8.2529
  418.5000     5.2965   365.6382     5.8132     5.1522     5.1813   -12.5024     8.2537
  419.0000     5.0897   364.8414     5.5693     5.1562     5.1853   -12.4929     8.2546
  419.5000     4.7408   359.3760     5.3798     5.1596     5.1893   -12.4833     8.2554
  420.0000     4.6598   353.0441     5.2174     5.1630     5.0574   -12.4738     8.2453
  420.5000     4.7589   361.5604     5.1359     5.1664     5.0614   -12.7381     8.1903
  421.0000     4.8580   366.5332     5.0829     5.3057     4.7935   -13.0020     8.1763
  421.5000     5.5169   369.8134     5.0876     5.3091     4.6616   -12.9924     8.1771
  422.0000     5.5760   360.1794     5.1984     5.3913     4.6659   -12.9829     8.1779
  422.5000     5.4533   366.2301     5.2853     5.4524     4.6699   -12.9734     8.1788
  423.0000     5.5080   370.4739     5.4239     5.5916     4.7012   -12.9638     8.1796
  423.5000     5.6845   382.2740     5.5577     5.7309     4.8140   -12.9544     8.1804
  424.0000     5.7521   395.6577     5.6957     5.8701     4.8544   -12.9447     8.1812
  424.5000     5.5153   405.3097     5.8064     5.8734     4.9989   -12.9164     8.1820
  425.0000     5.1883   412.9756     5.8899     5.8768     5.1435   -12.6520     8.1828
  425.5000     5.2175   408.1941     5.9932     5.8801     5.2382   -12.6155     8.1836
  426.0000     5.1740   402.1729     6.0842     5.8835     5.3782   -12.3593     8.1844
  426.5000     5.2468   402.9000     6.2038     5.8868     5.4412   -12.3497     8.1852
  427.0000     5.3059   404.3110     6.3424     5.7541     5.5224   -12.3401     8.1860
  427.5000     5.2049   405.8977     6.5183     5.7577     5.5944   -12.3305     8.1821
  428.0000     5.0639   416.3342     6.6739     5.7610     5.6665   -12.3210     8.1604
  428.5000     5.0207   413.8763     6.7663     5.7644     5.6705   -12.3114     8.1689
  429.0000     5.1427   413.0651     6.7120     5.7677     5.6754   -12.3018     8.1893
  429.5000     5.2247   414.8962     6.6447     5.7711     5.5435   -12.2922     8.1901
  430.0000     5.1600   406.1341     6.5489     5.7745     5.4115   -12.2827     8.1909
  430.5000     5.0991   397.9616     6.3988     5.7779     5.2790   -12.3410     8.1918
  431.0000     5.1843   383.7307     6.3736     5.7812     5.1471   -12.5383     8.1926
  431.5000     5.2172   399.3534     6.3743     5.7846     5.0157   -12.6036     8.1934
  432.0000     4.9893   386.6151     6.3208     5.7681     5.0197   -12.8717     8.1943
  432.5000     4.8025   380.4226     6.1312     5.6553     4.8875   -13.3305     8.1950
  433.0000     5.0738   388.0068     5.9417     5.6313     4.7556   -13.3195     8.1959
  433.5000     5.1900   402.1368     5.8065     5.5261     4.7599   -13.0363     8.1967
  434.0000     5.0073   401.9448     5.6985     5.5299     4.7639   -12.7532     8.1975
  434.5000     5.3109   398.0562     5.6176     5.5333     4.7679   -12.4701     8.1983
  435.0000     5.3333   396.0147     5.6183     5.5367     4.7719   -12.4605     8.1991
  435.5000     5.2690   399.6959     5.6190     5.5401     4.9119   -12.1774     8.1999
  436.0000     5.2280   391.4361     5.7283     5.5942     4.9251   -12.1678     8.2007
  436.5000     5.2471   384.7415     5.8377     5.6827     5.0560   -11.8847     8.2015
  437.0000     5.2990   387.6500     5.9742     5.6861     5.0782   -11.8751     8.1751
  437.5000     5.3851   399.1061     6.1108     5.6895     5.2002   -11.8655     8.1760
  438.0000     5.3493   391.9549     6.3017     5.6929     5.2042   -11.8559     8.1768
  438.5000     5.2742   401.6068     6.4382     5.6963     5.2083   -11.8464     8.1776
  439.0000     5.2013   407.5271     6.4660     5.6997     5.2486   -11.5632     8.1784
  439.5000     5.1008   407.9902     6.4395     5.7031     5.3524   -11.5536     8.1792
  440.0000     5.2198   404.4408     6.4130     5.7072     5.3565   -11.5441     8.1801
  440.5000     5.2242   404.3903     6.3865     5.7105     5.3606   -11.5345     8.1809
  441.0000     5.3179   409.7815     6.3600     5.7139     5.5006   -11.5249     8.1817
  441.5000     5.3278   419.5336     6.3043     5.7172     5.5047   -11.6735     8.1827
  442.0000     4.9560   422.3048     6.1114     5.7206     5.5722   -11.7793     8.2378
  442.5000     5.1950   424.5439     6.0903     5.7239     5.6488   -12.0415     8.2386
  443.0000     5.1140   422.8721     6.1223     5.7273     5.7254   -12.3073     8.2938
  443.5000     5.1760   410.5922     6.1780     5.8665     5.7929   -12.5713     8.1858
  444.0000     5.4080   410.7020     6.2391     5.8699     5.7978   -12.5601     8.1322
  444.5000     5.4512   417.8268     6.2955     5.8732     5.8018   -12.5506     8.1330
  445.0000     5.7883   421.0766     6.3723     5.8766     5.9418   -12.8161     8.1338
  445.5000     5.9883   421.7799     6.4626     5.8799     5.9458   -12.8051     8.1356
  446.0000     5.9913   415.7513     6.5815     5.8833     5.9498   -12.7956     8.1626
  446.5000     5.3268   408.2374     6.7113     5.8866     5.9538   -12.5125     8.1362
  447.0000     4.9859   404.4552     6.8587     5.8900     6.0938   -12.7766     8.1371
  447.5000     5.1049   414.1071     6.9395     5.8933     6.0978   -12.7671     8.1379
  448.0000     5.1039   406.5933     6.9402     5.8967     6.1018   -12.7576     8.1387
  448.5000     5.0630   413.1546     6.9137     5.9001     6.2417   -12.2010     8.1395
  449.0000     5.0420   422.2799     6.8750     5.9035     6.2458   -12.1915     8.1404
  449.5000     5.1210   418.4933     6.8607     6.0428     6.2498   -11.9084     8.1412
  450.0000     5.1000   410.3634     6.9022     6.0462     6.2538   -11.8989     8.1420
  450.5000     5.1191   414.2517     7.0136     6.0496     6.2579   -11.8894     8.1428
  451.0000     4.8782   415.6674     7.1644     6.0530     6.2529   -11.8799     8.1166
  451.5000     5.0240   407.1840     7.2751     6.1923     5.9939   -11.8704     8.1174
  452.0000     4.8653   391.2374     7.4349     6.1957     5.8620   -11.8609     8.1182
  452.5000     4.6550   407.6064     7.5715     6.1990     5.8663   -12.1254     8.1190
  453.0000     4.9138   415.0256     7.5721     6.2024     5.8704   -12.1154     8.1198
  453.5000     5.0529   408.9981     7.4913     6.2554     6.0104   -12.6531     8.1206
  454.0000     4.9919   397.7525     7.4104     6.3451     6.0145   -12.6435     8.1213
  454.5000     4.8247   398.4484     7.2481     6.3485     6.1953   -12.9078     8.1222
