~VERSION INFORMATION
 VERS.                2.0:   CWLS LOG ASCII STANDARD - VERSION 2.0
 WRAP.                 NO:   ONE LINE PER DEPTH STEP
~WELL INFORMATION
#MNEM.UNIT      DATA TYPE    INFORMATION
#----------   ------------   ------------------------------
 STRT.F           16.0000:   START DEPTH
 STOP.F          900.0000:   STOP DEPTH
 STEP.F            0.5000:   STEP LENGTH
 NULL.          -999.2500:   NO VALUE
 COMP. FENIX & SCISSON INC:   COMPANY
 WELL.    NPR-3 #65S15-15:   WELL
 FLD .             TEAPOT:   FIELD
 LOC .      S15 T38N R78W:   LOCATION
 CNTY.            NATRONA:   COUNTY
 STAT.            WYOMING:   STATE
 CTRY. UNITED STATES OF AMERICA:   COUNTRY
 SRVC.            Unknown:   SERVICE COMPANY
 DATE.        11-MAY-1978:   LOGDATE
 API .       490251062400:   API NUMBER
~CURVE INFORMATION
#MNEM.UNIT       API CODE    CURVE DESCRIPTION
#----------   ------------   ------------------------------
 DEPT.F                  :   
 RHOB.G/C3   45 350 01 00:   BULK DENSITY
 DPHI.DEC    45 890 12 00:   DENSITY POROSITY SANDSTONE
 CORR.G/C3   45 356 01 00:   DENSITY CORRECTION
 GRD .GAPI   45 310 01 00:   GAMMA RAY FROM DENSITY LOG
 CALD.IN     45 280 60 00:   CALIPER FROM DENSITY LOG
 SPR .MV     05 010 01 00:   SPONTANEOUS POTENTIAL FROM RES.
 SN  .OHMM   05 040 16 00:   SHORT NORMAL 16"
 IL  .OHMM   05 120 00 00:   INDUCTION LOG
~PARAMETER INFORMATION
#MNEM.UNIT          VALUE    DESCRIPTION
#----------   ------------   ------------------------------
 PD  .                 GL:   PERMANENT DATUM
 EPD .F              5289:   ELEVATION PERMANENT DATUM
 LMF .                 KB:   LOG MEASURED FROM
 DAPD.F                 4:   FEET ABOVE PERMANENT DATUM
 DMF .                 KB:   DRILLING MEASURED FROM
 EKB .F              5293:   KELLING BUSHING
 EDF .F                  :   DRILLING FLOOR
 EGL .F              5289:   GROUND LEVEL
 DATE.          5-11-1978:   RUN DATE
 RUN .                  1:   RUN NUMBER
 DD  .F               887:   DEPTH DRILLER
 DL  .F               889:   DEPTH LOGGER
 BLI .F               883:   BOTTOM LOG INTERVAL
 TLI .F                40:   TOP LOG INTERVAL
 CS  .IN            8.625:   CASING SIZE
 CBD .F                40:   CASING BOTTOM DRILLER
 CBL .F                40:   CASING BOTTOM LOGGER
 BS  .IN            7.875:   BIT SIZE
 BSD .F               887:   BIT SIZE AT DEPTH
 DFT .                KCL:   DRILLING FLUID TYPE
 DFD .                8.6:   DRILLING FLUID DENSITY
 DFV .                 30:   DRILLING FLUID VISCOSITY
 DFPH.                9.5:   DRILLING FLUID PH
 DFL .                  8:   DRILLING FLUID LOSS
 MSS .                   :   MUD SAMPLE SOURCE
 RMS .OHMM            .42:   RESISTIVITY MUD SAMPLE
 MST .F                68:   MUD SAMPLE TEMPERATURE
 RMF .OHMM            .38:   RESISTIVITY MUD FILTRATE SAMPLE
 MFST.F                68:   MUD FILTRATE SAMPLE TEMPERATURE
 RMC .OHMM            .68:   RESISTIVITY MUD CAKE
 MCST.F                66:   MUD CAKE SAMPLE TEMPERATURE
 MFSS.           MEASURED:   MUD FILTRATE SAMPLE SOURCE
 MCSS.                   :   MUD CAKE SAMPLE SOURCE
 RMB .OHMM               :   RESISTIVITY MUD AT BHT
 BHT .F                72:   BOTTOM HOLE TEMPERATURE
 TCS .HRS               2:   TIME CURCULATED STOPPED
 TLAB.HRS                :   TIME LOGGER AT BOTTOM
 MRT .F                72:   MAXIMUM RECORDED TEMPERATURE
 LUN .              CASP.:   LOGGING UNIT NUMBER
 LUL .               2958:   LOGGING UNIT LOCATION
 ENGI.             MILLER:   RECORDING ENGINEER
 WITN.           MCGINLEY:   WITNESSED BY
 CLNT.            A2DTECH:   CLIENT CODE
 ORIG.      2" & 5" PRINT:   ORIGIN OF DATA
 UWI .       490251062400:   UNIQUE WELL ID
 DICO. A2D Technologies, Inc.:   DIGITIZING COMPANY
 OS  .                   :   OTHER SERVICES
 PWI .                   :   PRIMARY WELL IDENTIFIER
 R1  .                   :   REMARKS 1
 R2  .                   :   REMARKS 2
~OTHER INFORMATION
~A   DEPT     RHOB       DPHI       CORR         GRD      CALD        SPR         SN         IL   
# ...
  218.5000     2.4540     0.1370     0.0292    66.8326     7.4711   -42.6837     5.1408     5.0007
  219.0000     2.4642     0.1255     0.0297    66.8015     7.4794   -42.6636     5.3222     5.1573
  219.5000     2.4650     0.1284     0.0301    68.2637     7.4876   -42.6432     5.4992     5.3094
  220.0000     2.4655     0.1340     0.0309    73.2610     7.4958   -42.6227     5.6005     5.3980
  220.5000     2.4630     0.1266     0.0331    74.5625     7.5040   -42.6023     5.6300     5.4264
  221.0000     2.4618     0.1228     0.0315    74.0267     7.5050   -42.5818     5.7519     5.5204
  221.5000     2.4669     0.1337     0.0234    73.1136     7.5051   -42.5614     5.9572     5.6754
  222.0000     2.4658     0.1388     0.0206    70.9808     7.5143   -42.5410     6.1697     5.8348
  222.5000     2.4554     0.1313     0.0206    68.9515     7.5459   -42.5269     6.3898     5.9987
  223.0000     2.4537     0.1260     0.0210    70.2294     7.5784   -42.5206     6.6178     6.1672
  223.5000     2.4665     0.1208     0.0214    71.7761     7.5661   -42.5142     6.8539     6.3538
  224.0000     2.4754     0.1148     0.0217    72.0201     7.5413   -42.5078     6.9668     6.3578
  224.5000     2.4845     0.1216     0.0221    71.3448     7.5161   -42.5014     6.9583     6.3634
  225.0000     2.4849     0.1216     0.0225    71.1583     7.4911   -42.4950     6.9520     6.3689
  225.5000     2.4750     0.1206     0.0192    71.8332     7.4661   -42.4886     6.9456     6.3745
  226.0000     2.4758     0.1212     0.0144    71.6697     7.4411   -42.4823     6.9393     6.3801
  226.5000     2.4756     0.1248     0.0097    72.7003     7.4160   -42.4759     6.9330     6.3857
  227.0000     2.4725     0.1272     0.0068    74.3386     7.3910   -42.4695     6.9267     6.3913
  227.5000     2.4694     0.1272     0.0080    75.2336     7.3660   -42.4631     6.9205     6.3969
  228.0000     2.4662     0.1272     0.0091    74.9663     7.3410   -42.4567     6.9143     6.4026
  228.5000     2.4660     0.1261     0.0102    73.5946     7.3160   -42.4503     6.9080     6.4081
  229.0000     2.4659     0.1250     0.0156    72.3732     7.2910   -42.4439     6.8909     6.4122
  229.5000     2.4689     0.1222     0.0220    71.5440     7.2660   -42.4375     6.8297     6.3739
  230.0000     2.4737     0.1190     0.0285    70.6882     7.2409   -42.4311     6.7695     6.3419
  230.5000     2.4785     0.1157     0.0349    69.9244     7.2160   -42.4248     6.7098     6.3101
  231.0000     2.4834     0.1131     0.0387    72.5442     7.1914   -42.4184     6.6506     6.2785
  231.5000     2.4862     0.1176     0.0315    75.3272     7.1661   -42.4120     6.5919     6.2470
  232.0000     2.4873     0.1262     0.0208    75.3359     7.1077   -42.4056     6.5338     6.2157
  232.5000     2.4725     0.1349     0.0101    75.3498     6.8925   -42.3992     6.4762     6.1845
  233.0000     2.4587     0.1385     0.0054    75.6590     6.7204   -42.3928     6.4190     6.1532
  233.5000     2.4506     0.1395     0.0071    76.8288     6.7133   -42.3864     6.3538     6.1242
  234.0000     2.4422     0.1406     0.0089    78.5014     6.7032   -42.3801     6.4417     6.1797
  234.5000     2.4426     0.1416     0.0117    78.9970     6.6928   -42.3737     6.5464     6.2337
  235.0000     2.4457     0.1417     0.0205    79.7797     6.6823   -42.3673     6.6535     6.2882
  235.5000     2.4469     0.1416     0.0295    80.6565     6.6718   -42.3609     6.7622     6.3432
  236.0000     2.4463     0.1400     0.0385    79.6971     6.6668   -42.3545     6.8727     6.3986
  236.5000     2.4451     0.1371     0.0474    77.1472     6.6809   -42.3481     6.9853     6.4545
  237.0000     2.4462     0.1340     0.0564    74.5616     6.7282   -42.3413     7.0961     6.5318
  237.5000     2.4548     0.1200     0.0653    72.3798     6.7764   -42.3354     7.0891     6.5164
  238.0000     2.4709     0.1088     0.0710    71.8875     6.7864   -42.3584     7.0813     6.4923
  238.5000     2.4966     0.1088     0.0568    71.9380     6.7864   -42.4832     7.0738     6.4683
  239.0000     2.4917     0.1168     0.0399    72.0144     6.7870   -42.6035     7.0663     6.4444
  239.5000     2.4849     0.1224     0.0230    71.4227     6.8226   -42.7237     7.0589     6.4206
  240.0000     2.4781     0.1238     0.0173    70.4204     6.9153   -42.8437     7.0515     6.3968
  240.5000     2.4720     0.1246     0.0142    69.6182     7.0072   -42.9646     7.0444     6.3731
  241.0000     2.4696     0.1254     0.0134    69.6398     7.0992   -43.0816     7.0324     6.3498
  241.5000     2.4675     0.1299     0.0125    69.6411     7.1876   -43.4064     7.0340     6.3261
  242.0000     2.4635     0.1355     0.0116    73.5461     7.2608   -43.8332     6.8478     6.3027
  242.5000     2.4552     0.1410     0.0108    78.1094     7.3260   -44.2665     6.6786     6.1400
  243.0000     2.4469     0.1466     0.0093    80.0278     7.3492   -44.7044     6.5137     5.9222
  243.5000     2.4387     0.1579     0.0066    78.4454     7.3704   -44.8607     6.1991     5.7120
  244.0000     2.4238     0.1714     0.0031    73.9033     7.3819   -45.0044     5.8277     5.2264
  244.5000     2.4036     0.1848    -0.0003    69.1325     7.3703   -45.1506     5.4832     4.3852
  245.0000     2.3833     0.1985    -0.0039    66.8675     7.3591   -45.2966     4.6907     3.6794
  245.5000     2.3629     0.2186    -0.0074    67.6838     7.3487   -45.4375     4.0212     3.0871
  246.0000     2.3322     0.2443    -0.0115    70.4735     7.2899   -45.2741     3.4473     2.7229
  246.5000     2.2859     0.2788     0.0085    74.2529     7.2671   -44.7623     2.9553     2.6438
  247.0000     2.2395     0.3083     0.0265    81.9671     7.3237   -44.2560     2.5335     2.5734
  247.5000     2.1931     0.3284     0.0407    89.6173     7.4135   -43.2023     2.4380     2.5278
  248.0000     2.1467     0.3488     0.0452    90.9461     7.5222   -41.9753     2.5796     2.6691
  248.5000     2.1002     0.3843     0.1077    82.1178     7.6251   -40.7380     2.7983     2.8251
  249.0000     2.0535     0.3987     0.1695    75.3361     7.6627   -40.3249     3.0356     2.9884
  249.5000     2.0116     0.3887     0.1971    69.8454     7.6863   -40.1612     3.2736     3.1597
  250.0000     2.0162     0.3250     0.0492    65.9753     7.7205   -40.2942     4.3508     4.0479
  250.5000     2.3296     0.2319     0.0268    63.8759     8.7257   -40.4173     5.6728     5.1164
  251.0000     2.4406     0.1264     0.0320    63.4118     9.9755   -40.5401     6.8573     6.8652
  251.5000     2.4602     0.1384     0.0268    62.9905     7.4022   -40.6627     7.3551     6.8587
  252.0000     2.4515     0.1406     0.0279    62.5759     7.3779   -40.7853     7.7110     6.9682
  252.5000     2.4431     0.1429     0.0294    62.2293     7.3066   -40.9080     8.0841     7.0291
  253.0000     2.4402     0.1449     0.0294    57.9829     7.2891   -41.0309     8.1476     6.3462
  253.5000     2.4375     0.1470     0.0234    54.9332     7.2692   -41.1530     8.0067     5.7415
  254.0000     2.4346     0.1578     0.0175    57.5391     7.2490   -41.2764     7.7809     5.0470
  254.5000     2.4224     0.1731     0.0116    60.1753     7.2289   -41.1947     7.0307     5.1227
  255.0000     2.3986     0.1885     0.0066    61.7436     7.2105   -40.9296     6.2897     5.1788
  255.5000     2.3747     0.2038     0.0091    63.7946     7.1257   -40.6637     5.6889     5.2356
  256.0000     2.3386     0.2252     0.0222    70.1712     7.0327   -40.4002     5.5339     5.2930
  256.5000     2.2979     0.2397     0.0559    77.1048     6.9979   -40.1172     5.3831     5.3510
  257.0000     2.2799     0.1975     0.0887    78.9641     7.0220   -39.3775     5.8829     5.6221
  257.5000     2.3232     0.1813     0.1058    78.0094     7.0458   -38.6380     6.4659     6.1890
  258.0000     2.3829     0.1693     0.0272    70.0794     7.0589   -37.8967     7.1067     6.8131
  258.5000     2.3727     0.1712     0.0066    64.1579     7.0058   -37.5575     7.8115     7.5002
