~VERSION INFORMATION
 VERS.                2.0:   CWLS LOG ASCII STANDARD - VERSION 2.0
 WRAP.                 NO:   ONE LINE PER DEPTH STEP
~WELL INFORMATION
#MNEM.UNIT      DATA TYPE    INFORMATION
#----------   ------------   ------------------------------
 STRT.F           48.0000:   START DEPTH
 STOP.F          484.0000:   STOP DEPTH
 STEP.F            0.5000:   STEP LENGTH
 NULL.          -999.2500:   NO VALUE
 COMP. BROWN JOHN E&C INC:   COMPANY
 WELL.    SX 10 #55-11-10:   WELL
 FLD .             TEAPOT:   FIELD
 LOC .      S10 T38N R78W:   LOCATION
 CNTY.            NATRONA:   COUNTY
 STAT.            WYOMING:   STATE
 CTRY. UNITED STATES OF AMERICA:   COUNTRY
 SRVC.       Schlumberger:   SERVICE COMPANY
 DATE.        29-SEP-1990:   LOGDATE
 API .       490251131800:   API NUMBER
~CURVE INFORMATION
#MNEM.UNIT       API CODE    CURVE DESCRIPTION
#----------   ------------   ------------------------------
 DEPT.F                  :   
 ILD .OHMM   07 120 46 00:   INDUCTION LOG DEEP
 ILM .OHMM   07 120 44 00:   INDUCTION LOG MEDIUM
 GRR .GAPI   07 310 01 00:   GAMMA RAY FROM RES. LOG.
~PARAMETER INFORMATION
#MNEM.UNIT          VALUE    DESCRIPTION
#----------   ------------   ------------------------------
 PD  .                 GL:   PERMANENT DATUM
 EPD .F              5216:   ELEVATION PERMANENT DATUM
 LMF .                 KB:   LOG MEASURED FROM
 DAPD.F                10:   FEET ABOVE PERMANENT DATUM
 DMF .                 KB:   DRILLING MEASURED FROM
 EKB .F              5226:   KELLING BUSHING
 EDF .F              5225:   DRILLING FLOOR
 EGL .F              5216:   GROUND LEVEL
 DATE.          9-29-1990:   RUN DATE
 RUN .                  1:   RUN NUMBER
 DD  .F               490:   DEPTH DRILLER
 DL  .F               490:   DEPTH LOGGER
 BLI .F               484:   BOTTOM LOG INTERVAL
 TLI .F                48:   TOP LOG INTERVAL
 CS  .IN            8.625:   CASING SIZE
 CBD .F                53:   CASING BOTTOM DRILLER
 CBL .F                53:   CASING BOTTOM LOGGER
 BS  .IN            7.875:   BIT SIZE
 BSD .F               490:   BIT SIZE AT DEPTH
 DFT .                AIR:   DRILLING FLUID TYPE
 TLAB.HRS            1855:   TIME LOGGER AT BOTTOM
 LUN .               6887:   LOGGING UNIT NUMBER
 LUL .               CODY:   LOGGING UNIT LOCATION
 ENGI.        MIKE FISHER:   RECORDING ENGINEER
 WITN.       GARRY STRONG:   WITNESSED BY
 CLNT.            A2DTECH:   CLIENT CODE
 ORIG.      2" & 5" PRINT:   ORIGIN OF DATA
 UWI .       490251131800:   UNIQUE WELL ID
 DICO. A2D Technologies, Inc.:   DIGITIZING COMPANY
~OTHER INFORMATION
~A   DEPT      ILD        ILM         GRR  
# ...
  412.0000    14.5261    14.1244   101.1224
  412.5000    14.4651    14.0400   102.3125
  413.0000    14.3960    13.9562   103.2936
  413.5000    14.3272    13.8729   103.9544
  414.0000    14.2587    13.8495   104.6793
  414.5000    14.2134    13.8495   103.9206
  415.0000    14.0441    13.7766   102.5832
  415.5000    13.8769    13.6523   101.3037
  416.0000    13.7117    13.5291   103.0370
  416.5000    13.7212    13.4070   104.9626
  417.0000    13.5790    13.2860   105.6740
  417.5000    13.4495    13.1661   105.6852
  418.0000    13.3213    13.0473   105.6776
  418.5000    13.2071    12.9763   106.2226
  419.0000    13.1440    12.9763   107.3600
  419.5000    13.0812    12.9763   107.9640
  420.0000    13.0186    12.9763   108.4113
  420.5000    12.9763    12.9763   108.8099
  421.0000    13.0976    12.9767   110.9014
  421.5000    13.0976    12.9599   113.0480
  422.0000    13.0976    12.9385   112.8837
  422.5000    13.0976    12.9171   107.4986
  423.0000    13.0976    12.8957   104.8006
  423.5000    13.0976    12.8746   104.0794
  424.0000    13.0991    12.8443   104.9202
  424.5000    13.0526    12.7567   107.0535
  425.0000    12.9281    12.6696   107.6995
  425.5000    12.8048    12.5785   107.7368
  426.0000    12.6827    12.4817   108.4299
  426.5000    12.5871    12.3856   108.1372
  427.0000    12.4680    12.2903   107.6035
  427.5000    12.3521    12.1957   107.0693
  428.0000    12.2369    12.1018   107.2410
  428.5000    12.1227    11.9801   107.7534
  429.0000    12.0096    11.8173   108.2743
  429.5000    11.8976    11.6566   109.2943
  430.0000    11.7867    11.4981   110.7430
  430.5000    11.6768    11.3480   112.1517
  431.0000    11.5144    11.2129   112.5816
  431.5000    11.2555    11.0781   112.5936
  432.0000    11.0029    10.8355   111.4765
  432.5000    10.7560    10.5959   109.8888
  433.0000    10.5730    10.3796   108.3732
  433.5000    10.4219    10.1922   108.5540
  434.0000    10.2731    10.0213   111.8252
  434.5000    10.1264     9.8532   115.6000
  435.0000     9.6053     9.3575   116.0610
  435.5000     9.0550     8.6242   117.2554
  436.0000     8.3150     7.7791   120.1984
  436.5000     7.3628     6.9278   125.0990
  437.0000     6.4583     6.2446   129.6871
  437.5000     6.2631     5.5215   139.3973
  438.0000     6.1648     5.1209   148.9988
  438.5000     6.2569     5.5491   151.5019
  439.0000     6.3523     6.0977   142.1553
  439.5000     6.4492     6.7436   130.6209
  440.0000     6.7974     6.8650   120.8300
  440.5000     7.5980     7.4680   113.2255
  441.0000     8.5462     8.7792   113.7492
  441.5000     9.4486     9.2957   115.8627
  442.0000    10.1423     9.9983   117.7095
  442.5000    10.3716    10.1747   118.8430
  443.0000    10.6061    10.3817   120.0924
  443.5000    10.7851    10.5787   121.3415
  444.0000    10.8249    10.6178   122.2740
  444.5000    10.8649    10.6570   122.8776
  445.0000    11.0096    10.8423   123.8145
  445.5000    11.2861    11.1386   124.6956
  446.0000    11.5603    11.4416   126.1019
  446.5000    11.8975    11.7134   126.0260
  447.0000    12.1055    11.9385   125.3285
  447.5000    12.3004    12.1695   124.9037
  448.0000    12.5547    12.4050   126.0677
  448.5000    12.7890    12.6134   126.5771
  449.0000    13.0469    12.8888   124.7577
  449.5000    13.3100    13.1165   122.0301
  450.0000    13.3865    13.1856   119.6148
  450.5000    13.4358    13.2239   118.1788
  451.0000    13.4683    13.2330   117.8520
  451.5000    13.4540    13.2429   117.6874
  452.0000    13.4432    13.2528   116.5761
  452.5000    13.4325    13.2627   115.4523
  453.0000    13.4218    13.2726   115.2638
  453.5000    13.4111    13.2825   115.6671
  454.0000    13.4005    13.2924   116.0784
  454.5000    13.3898    13.3023   116.6756
  455.0000    13.3792    13.3122   117.0457
  455.5000    13.3683    13.3221   117.0099
  456.0000    13.3571    13.3321   116.4102
  456.5000    13.3434    13.3421   114.7474
  457.0000    13.5539    13.7212   113.2563
  457.5000    13.7204    13.5006   112.2007
  458.0000    13.2179    13.2200   111.9246
  458.5000    13.2219    13.1835   112.8812
  459.0000    13.2204    13.1443   113.8498
  459.5000    13.2200    13.1051   114.3661
  460.0000    13.2711    13.0756   114.4577
  460.5000    13.3436    13.0485   113.8018
  461.0000    13.2224    13.0215  -999.2500
  461.5000    13.0829    12.9945  -999.2500
  462.0000    12.9448    12.8158  -999.2500
  462.5000    12.8561    12.5134  -999.2500
  463.0000    12.5228    12.2890  -999.2500
  463.5000    12.1858    12.0350  -999.2500
  464.0000    11.9340    11.7856  -999.2500
  464.5000    11.7659    11.5649  -999.2500
  465.0000    11.6065    11.4073  -999.2500
  465.5000    11.4981    11.2531  -999.2500
  466.0000    11.4364    11.1006  -999.2500
  466.5000    11.2558    10.9607  -999.2500
  467.0000    11.1401    10.8738  -999.2500
  467.5000    11.0342    10.7877  -999.2500
  468.0000    10.9293    10.7022  -999.2500
  468.5000    10.8255    10.4744  -999.2500
  469.0000    10.7226    10.3619  -999.2500
  469.5000    10.6207    10.3377  -999.2500
  470.0000    10.5610    10.3132  -999.2500
  470.5000    10.4736    10.2886  -999.2500
  471.0000    10.3870    10.1883  -999.2500
  471.5000    10.3005    10.1883  -999.2500
  472.0000    10.1898    10.1883  -999.2500
  472.5000    10.2851    10.1883  -999.2500
  473.0000    10.2311    10.0924  -999.2500
  473.5000    10.1883    10.0052  -999.2500
  474.0000    10.0522     9.9187  -999.2500
  474.5000     9.8738     9.8330  -999.2500
  475.0000     9.6986     9.7718  -999.2500
  475.5000     9.5265     9.5710  -999.2500
  476.0000     9.3574     9.3744  -999.2500
  476.5000     9.1914     9.1818  -999.2500
  477.0000     9.0976     8.9931  -999.2500
  477.5000     9.0528     8.9336  -999.2500
  478.0000     9.0082     8.9194  -999.2500
  478.5000     8.9638     8.9052  -999.2500
  479.0000     8.9196     8.8910  -999.2500
  479.5000     8.8757     8.8769  -999.2500
  480.0000     8.6649     8.8631  -999.2500
  480.5000     8.3026     8.8508  -999.2500
  481.0000     8.4469     8.8390  -999.2500
  481.5000     8.6510     8.8273  -999.2500
  482.0000     8.6979     8.8156  -999.2500
  482.5000     8.6981     8.8039  -999.2500
  483.0000     8.6979     8.7919  -999.2500
  483.5000     8.6991     8.7817  -999.2500
  484.0000     8.7337     8.8153  -999.2500
