~VERSION INFORMATION
 VERS.                2.0:   CWLS LOG ASCII STANDARD - VERSION 2.0
 WRAP.                 NO:   ONE LINE PER DEPTH STEP
~WELL INFORMATION
#MNEM.UNIT      DATA TYPE    INFORMATION
#----------   ------------   ------------------------------
 STRT.F           50.0000:   START DEPTH
 STOP.F          854.0000:   STOP DEPTH
 STEP.F            0.5000:   STEP LENGTH
 NULL.          -999.2500:   NO VALUE
 COMP. FENIX & SCISSON INC:   COMPANY
 WELL.    45 SX 11 #45-11:   WELL
 FLD .             TEAPOT:   FIELD
 LOC .      S11 T38N R78W:   LOCATION
 CNTY.            NATRONA:   COUNTY
 STAT.            WYOMING:   STATE
 CTRY. UNITED STATES OF AMERICA:   COUNTRY
 SRVC.           BIRDWELL:   SERVICE COMPANY
 DATE.        01-MAR-1978:   LOGDATE
 API .       490251058600:   API NUMBER
~CURVE INFORMATION
#MNEM.UNIT       API CODE    CURVE DESCRIPTION
#----------   ------------   ------------------------------
 DEPT.F                  :   
 CALD.IN     45 280 60 00:   CALIPER
 CORR.G/C3   45 356 01 00:   DENSITY CORRECTION
 RHOB.G/C3   45 350 01 00:   BULK DENSITY
 DPOR.DEC    45 890 12 00:   DENSITY POROSITY SANDSTONE
 GRD .GAPI   45 310 01 00:   GAMMA RAY FROM DENSITY LOG
 SPR .MV     05 010 01 00:   SPONTANEOUS POTENTIAL FROM RES.
 SN  .OHMM   05 040 16 00:   SHORT NORMAL 16"
 ILD .OHMM   05 120 46 00:   INDUCTION LOG DEEP
~PARAMETER INFORMATION
#MNEM.UNIT          VALUE    DESCRIPTION
#----------   ------------   ------------------------------
 PD  .                 GL:   PERMANENT DATUM
 EPD .F              5186:   ELEVATION PERMANENT DATUM
 LMF .                 KB:   LOG MEASURED FROM
 DAPD.F                 4:   FEET ABOVE PERMANENT DATUM
 DMF .                 KB:   DRILLING MEASURED FROM
 EKB .F              5190:   KELLING BUSHING
 EGL .F              5186:   GROUND LEVEL
 DATE.           3-1-1978:   RUN DATE
 RUN .                  1:   RUN NUMBER
 DD  .F               848:   DEPTH DRILLER
 DL  .F               856:   DEPTH LOGGER
 BLI .F               851:   BOTTOM LOG INTERVAL
 TLI .F                50:   TOP LOG INTERVAL
 CS  .IN            8.625:   CASING SIZE
 CBD .F                40:   CASING BOTTOM DRILLER
 CBL .F                40:   CASING BOTTOM LOGGER
 BS  .IN            7.875:   BIT SIZE
 BSD .F               848:   BIT SIZE AT DEPTH
 DFT .          LIGNOSULF:   DRILLING FLUID TYPE
 DFD .                8.5:   DRILLING FLUID DENSITY
 DFV .                 30:   DRILLING FLUID VISCOSITY
 DFPH.               11.5:   DRILLING FLUID PH
 MSS .                PIT:   MUD SAMPLE SOURCE
 RMS .OHMM              2:   RESISTIVITY MUD SAMPLE
 MST .F                59:   MUD SAMPLE TEMPERATURE
 RMF .OHMM            1.8:   RESISTIVITY MUD FILTRATE SAMPLE
 MFST.F                60:   MUD FILTRATE SAMPLE TEMPERATURE
 RMC .OHMM            2.2:   RESISTIVITY MUD CAKE
 MCST.F                60:   MUD CAKE SAMPLE TEMPERATURE
 MFSS.               MEAS:   MUD FILTRATE SAMPLE SOURCE
 MCSS.               MEAS:   MUD CAKE SAMPLE SOURCE
 RMB .OHMM           1.69:   RESISTIVITY MUD AT BHT
 BHT .F                70:   BOTTOM HOLE TEMPERATURE
 TCS .HRS               3:   TIME CURCULATED STOPPED
 MRT .F                70:   MAXIMUM RECORDED TEMPERATURE
 LUN .               2959:   LOGGING UNIT NUMBER
 LUL .               CASP:   LOGGING UNIT LOCATION
 ENGI.            POINTER:   RECORDING ENGINEER
 WITN.         HARRINGTON:   WITNESSED BY
 CLNT.            A2DTECH:   CLIENT CODE
 ORIG.       2", 5" PRINT:   ORIGIN OF DATA
 UWI .       490251058600:   UNIQUE WELL ID
 DICO. A2D Technologies, Inc.:   DIGITIZING COMPANY
~OTHER INFORMATION
~A   DEPT       CALD      CORR      RHOB       DPOR        GRD        SPR         SN        ILD   
# ...
  293.0000     7.8239     0.0356     2.4257     0.1363   107.9237   -28.4463     6.3993     6.1650
  293.5000     7.8239     0.0366     2.4272     0.1397   108.5277   -28.4194     6.4565     6.2106
  294.0000     7.8239     0.0376     2.4206     0.1440   107.5311   -28.3921     6.6285     6.2565
  294.5000     7.8239     0.0384     2.4149     0.1484   104.3508   -28.3647     6.7322     6.3027
  295.0000     7.8239     0.0360     2.4118     0.1492   102.5180   -28.3373     6.8376     6.3492
  295.5000     7.8239     0.0324     2.4116     0.1409   106.2210   -28.3099     6.9446     6.3961
  296.0000     7.8239     0.0362     2.4253     0.1347   109.3720   -28.2766     7.0224     6.4434
  296.5000     7.8239     0.0401     2.4285     0.1408   107.3075   -28.2376     6.9573     6.4583
  297.0000     7.8239     0.0440     2.4164     0.1488   104.3866   -28.1988     6.9573     6.4584
  297.5000     7.8240     0.0479     2.4094     0.1442   104.4408   -28.1600     6.8988     6.4587
  298.0000     7.8247     0.0484     2.4163     0.1369   104.4433   -28.1200     6.8454     6.4342
  298.5000     7.7946     0.0471     2.4261     0.1355   104.4444   -28.0151     6.7924     6.4076
  299.0000     7.7603     0.0464     2.4261     0.1317   104.4463   -27.7409     6.7399     6.3809
  299.5000     7.7255     0.0498     2.4358     0.1282   104.4528   -27.4729     6.6877     6.3543
  300.0000     7.7529     0.0534     2.4459     0.1250   104.3857   -27.3661     6.6411     6.3278
  300.5000     7.7874     0.0549     2.4466     0.1230   103.3232   -27.6809     6.6411     6.3014
  301.0000     7.8223     0.0495     2.4485     0.1167   102.3690   -27.9888     6.6411     6.2752
  301.5000     7.8242     0.0441     2.4601     0.1145   103.7745   -28.2938     6.6411     6.2490
  302.0000     7.8246     0.0387     2.4655     0.1229   105.6532   -28.4981     6.6411     6.2230
  302.5000     7.8251     0.0363     2.4457     0.1288   107.2135   -28.2239     6.6411     6.1971
  303.0000     7.8257     0.0342     2.4347     0.1319   107.2847   -27.9313     6.6411     6.1649
  303.5000     7.8262     0.0342     2.4362     0.1327   107.4402   -27.6766     6.6411     6.2532
  304.0000     7.8268     0.0364     2.4350     0.1339   108.3896   -27.6540     6.7362     6.3728
  304.5000     7.8274     0.0391     2.4317     0.1343   109.2733   -27.6267     6.8637     6.4951
  305.0000     7.8279     0.0422     2.4350     0.1355   109.2960   -27.5987     6.9937     6.6195
  305.5000     7.8285     0.0455     2.4264     0.1373   108.6848   -27.5707     7.1261     6.7464
  306.0000     7.8291     0.0488     2.4291     0.1327   106.8292   -27.5426     7.2610     6.8757
  306.5000     7.8296     0.0327     2.4413     0.1215   103.1087   -27.5145     7.3985     7.0075
  307.0000     7.8302     0.0321     2.4492     0.1104    99.4631   -27.4865     7.5650     7.1424
  307.5000     7.8308     0.0306     2.4634     0.0993    95.6383   -27.4584     7.4949     7.2211
  308.0000     7.8313     0.0230     2.4707     0.0976    95.4030   -27.4303     7.4255     7.2211
  308.5000     7.8319     0.0253     2.4578     0.1311    96.3606   -27.4023     7.4949     7.1571
  309.0000     7.8325     0.0258     2.4405     0.1283    99.5243   -27.3742     7.4255     7.0113
  309.5000     7.8330     0.0189     2.4365     0.1278   102.7000   -27.3461     7.3568     6.8685
  310.0000     7.8336     0.0140     2.4357     0.1308   104.9931   -27.3180     7.1776     6.7285
  310.5000     7.8342     0.0143     2.4335     0.1372   106.0661   -27.2879     7.0114     6.5914
  311.0000     7.8347     0.0196     2.4222     0.1437   105.7213   -27.3251     6.8488     6.4571
  311.5000     7.8353     0.0254     2.4130     0.1502   105.3901   -27.3850     6.6897     6.3254
  312.0000     7.8359     0.0313     2.4099     0.1529   104.3438   -27.4454     6.5351     6.1961
  312.5000     7.8364     0.0315     2.4008     0.1420   102.9051   -27.5057     6.3985     6.1077
  313.0000     7.8370     0.0302     2.4056     0.1438   102.4333   -27.5662     6.3985     6.1604
  313.5000     7.8376     0.0288     2.4199     0.1444   102.4037   -27.6276     6.4583     6.2087
  314.0000     7.8381     0.0284     2.4206     0.1458   102.2202   -27.6814     6.5375     6.2574
  314.5000     7.8387     0.0324     2.4113     0.1471   106.6548   -27.5216     6.6926     6.3065
  315.0000     7.8393     0.0364     2.4092     0.1451   109.9766   -27.3498     6.8291     6.3560
  315.5000     7.8398     0.0403     2.4151     0.1444   110.6498   -27.1793     6.8303     6.4059
  316.0000     7.8404     0.0424     2.4118     0.1464   108.1483   -27.0534     6.8292     6.4561
  316.5000     7.8410     0.0432     2.4142     0.1426   106.3449   -26.9939     6.8426     6.5068
  317.0000     7.8415     0.0559     2.4215     0.1404   108.4776   -26.9335     6.9291     6.5578
  317.5000     7.8421     0.0681     2.4179     0.1388   109.1255   -26.8733     7.0163     6.6093
  318.0000     7.8428     0.0684     2.4205     0.1370   103.7915   -26.8129     7.0880     6.6611
  318.5000     7.8433     0.0674     2.4378     0.1294   102.3332   -26.7530     7.1154     6.7134
  319.0000     7.8432     0.0697     2.4461     0.1287   104.5191   -26.6900     7.1433     6.7661
  319.5000     7.8073     0.0786     2.4467     0.1337   105.7427   -26.7706     7.1543     6.8194
  320.0000     7.7221     0.0966     2.4337     0.1399   106.4455   -26.9084     7.1543     6.8404
  320.5000     7.6374     0.1170     2.4223     0.1459   106.1492   -27.0485     7.1543     6.8544
  321.0000     7.5628     0.1356     2.4184     0.1508   104.4619   -27.1859     7.1543     6.8684
  321.5000     7.5911     0.1398     2.4052     0.1372   102.8694   -27.2396     7.1543     6.8823
  322.0000     7.6199     0.1201     2.4286     0.1331   103.7191   -27.0965     7.1543     6.8927
  322.5000     7.6484     0.0899     2.4603     0.1307   104.5511   -26.9565     7.1543     6.8380
  323.0000     7.6662     0.0657     2.4392     0.1278   105.3711   -26.8199     7.1545     6.7945
  323.5000     7.7072     0.0543     2.4636     0.1299   106.0798   -26.6910     7.1556     6.7512
  324.0000     7.7420     0.0425     2.4327     0.1331   106.0209   -26.6108     7.0843     6.7081
  324.5000     7.7763     0.0371     2.4343     0.1278   105.7609   -26.8386     7.0059     6.6654
  325.0000     7.8113     0.0401     2.4389     0.1302   105.8396   -27.0710     6.9281     6.6229
  325.5000     7.8453     0.0430     2.4373     0.1324   106.8813   -27.3027     6.8512     6.5807
  326.0000     7.8445     0.0444     2.4305     0.1339   106.9786   -27.4101     6.8291     6.5187
  326.5000     7.8434     0.0458     2.4235     0.1337   106.4835   -26.9864     6.8387     6.5253
  327.0000     7.8427     0.0477     2.4358     0.1339   107.2502   -26.5766     6.8460     6.5381
  327.5000     7.8420     0.0481     2.4334     0.1364   107.2848   -26.2547     6.8533     6.5509
  328.0000     7.8413     0.0469     2.4293     0.1390   106.4267   -26.2325     6.8606     6.5637
  328.5000     7.8406     0.0457     2.4251     0.1335   105.5898   -26.2054     6.8679     6.5765
  329.0000     7.8399     0.0444     2.4274     0.1315   104.8324   -26.1778     6.8753     6.5894
  329.5000     7.8392     0.0432     2.4349     0.1335   104.4346   -26.1502     6.8819     6.6023
  330.0000     7.8384     0.0420     2.4319     0.1308   104.6772   -26.1225     6.8900     6.6152
  330.5000     7.8377     0.0409     2.4384     0.1270   104.9902   -26.0949     7.0451     6.6281
  331.0000     7.8370     0.0381     2.4424     0.1314   105.2523   -26.0653     7.3132     6.6412
  331.5000     7.8363     0.0427     2.4383     0.1366   106.0439   -25.9921     7.4293     6.7009
  332.0000     7.8356     0.0478     2.4289     0.1383   107.3996   -25.9151     7.0201     6.7617
  332.5000     7.8349     0.0505     2.4218     0.1330   108.7843   -25.9163     7.0663     6.8230
  333.0000     7.8342     0.0497     2.4308     0.1294   109.3128   -26.0829     7.1692     6.8848
