~VERSION INFORMATION
 VERS.                2.0:   CWLS LOG ASCII STANDARD - VERSION 2.0
 WRAP.                 NO:   ONE LINE PER DEPTH STEP
~WELL INFORMATION
#MNEM.UNIT      DATA TYPE    INFORMATION
#----------   ------------   ------------------------------
 STRT.F           30.0000:   START DEPTH
 STOP.F          468.0000:   STOP DEPTH
 STEP.F            0.1000:   STEP LENGTH
 NULL.          -999.2500:   NO VALUE
 COMP. LAWRENCE/ALLISON INC:   COMPANY
 WELL.    72-12 SX #10-10:   WELL
 FLD .             TEAPOT:   FIELD
 LOC .      S10 T38N R78W:   LOCATION
 CNTY.            NATRONA:   COUNTY
 STAT.            WYOMING:   STATE
 CTRY. UNITED STATES OF AMERICA:   COUNTRY
 SRVC.           Gearhart:   SERVICE COMPANY
 DATE.        17-MAY-1988:   LOGDATE
 API .       490251122400:   API NUMBER
~CURVE INFORMATION
#MNEM.UNIT       API CODE    CURVE DESCRIPTION
#----------   ------------   ------------------------------
 DEPT.F                  :   
 GRR .GAPI   07 310 01 00:   GAMMA RAY
 RILD.OHMM   07 120 46 00:   INDUCTION LOG DEEP RESISTIVITY
 RILM.OHMM   07 120 44 00:   INDUCTION LOG MEDIUM RESISTIVITY
~PARAMETER INFORMATION
#MNEM.UNIT          VALUE    DESCRIPTION
#----------   ------------   ------------------------------
 PD  .                 GL:   PERMANENT DATUM
 EPD .F              5166:   ELEVATION PERMANENT DATUM
 LMF .                 KB:   LOG MEASURED FROM
 DAPD.F              10.2:   FEET ABOVE PERMANENT DATUM
 DMF .                 KB:   DRILLING MEASURED FROM
 EKB .F            5176.2:   KELLING BUSHING
 EGL .F              5166:   GROUND LEVEL
 DATE.        17-MAY-1988:   RUN DATE
 RUN .                  1:   RUN NUMBER
 DD  .F               480:   DEPTH DRILLER
 DL  .F               476:   DEPTH LOGGER
 BLI .F               468:   BOTTOM LOG INTERVAL
 TLI .F                47:   TOP LOG INTERVAL
 CS  .IN            9.625:   CASING SIZE
 CBD .F                43:   CASING BOTTOM DRILLER
 CBL .F                47:   CASING BOTTOM LOGGER
 BS  .IN             8.75:   BIT SIZE
 BSD .F               480:   BIT SIZE AT DEPTH
 DFT .                AIR:   DRILLING FLUID TYPE
 TCS .HRS            0630:   TIME CURCULATED STOPPED
 TLAB.HRS            0930:   TIME LOGGER AT BOTTOM
 LUN .               7597:   LOGGING UNIT NUMBER
 LUL .           GILLETTE:   LOGGING UNIT LOCATION
 ENGI.             SLATKY:   RECORDING ENGINEER
 WITN.             STRONG:   WITNESSED BY
 CLNT.            A2DTECH:   CLIENT CODE
 ORIG.           5" PRINT:   ORIGIN OF DATA
 UWI .       490251122400:   UNIQUE WELL ID
 DICO. A2D Technologies, Inc.:   DIGITIZING COMPANY
~OTHER INFORMATION
~A   DEPT      GRR       RILD       RILM   
# ...
  321.2000    86.8320    16.3730    16.5955
  321.3000    87.0424    16.4264    16.5964
  321.4000    87.2889    16.4274    16.5973
  321.5000    87.5353    16.4283    16.5983
  321.6000    87.7818    16.4292    16.5992
  321.7000    88.0623    16.4301    16.6003
  321.8000    88.2748    16.4740    16.5244
  321.9000    88.6704    16.5466    16.4868
  322.0000    89.0707    16.5476    16.4877
  322.1000    89.3172    16.6401    16.4886
  322.2000    89.5956    16.6649    16.4897
  322.3000    89.8101    16.6191    16.4905
  322.4000    90.0566    16.5271    16.4914
  322.5000    90.2121    16.4374    16.4923
  322.6000    90.2158    16.4383    16.4932
  322.7000    90.2198    16.3676    16.4942
  322.8000    90.2230    16.3262    16.4950
  322.9000    90.0735    16.2998    16.4960
  323.0000    89.8343    16.2148    16.4564
  323.1000    89.5624    16.2159    16.3832
  323.2000    89.0259    16.1426    16.3843
  323.3000    88.8138    16.0532    16.2970
  323.4000    88.5746    15.9943    16.2066
  323.5000    88.2404    15.9867    16.1604
  323.6000    87.7931    15.8854    16.1392
  323.7000    87.5289    15.8861    16.0496
  323.8000    87.3147    15.8325    15.9605
  323.9000    87.0755    15.7778    15.8040
  324.0000    86.8363    15.7670    15.6744
  324.1000    86.6334    15.6702    15.5874
  324.2000    86.6379    15.5929    15.4964
  324.3000    86.8606    15.5632    15.2920
  324.4000    87.2663    15.5641    15.2927
  324.5000    87.5576    15.5502    15.2443
  324.6000    87.6000    15.4580    15.1314
  324.7000    87.8682    15.4588    14.9710
  324.8000    88.3143    15.4002    14.8761
  324.9000    88.6424    15.3149    14.8053
  325.0000    88.8889    15.2301    14.7232
  325.1000    89.1762    15.1429    14.6415
  325.2000    89.7045    15.1437    14.5602
  325.3000    90.1547    15.1446    14.4716
  325.4000    90.3176    15.1044    14.4723
  325.5000    90.4242    15.0412    14.4192
  325.6000    90.6707    15.0421    14.3735
  325.7000    90.9348    14.9586    14.3743
  325.8000    91.1636    14.8758    14.3751
  325.9000    91.2449    14.7935    14.3759
  326.0000    91.2485    14.7347    14.4343
  326.1000    91.0725    14.7355    14.4779
  326.2000    90.0439    14.7363    14.4787
  326.3000    88.6824    14.6713    14.4795
  326.4000    87.8982    14.6358    14.5615
  326.5000    87.3090    14.6106    14.6445
  326.6000    86.6311    14.5297    14.6850
  326.7000    86.1226    14.4361    14.7089
  326.8000    85.8966    14.4368    14.7892
  326.9000    85.6574    14.3895    14.7902
  327.0000    85.5273    14.3383    14.7909
  327.1000    85.4820    14.3391    14.7917
  327.2000    85.2317    14.3400    14.7925
  327.3000    85.2352    14.3407    14.7863
  327.4000    85.2388    14.2907    14.6917
  327.5000    85.2424    14.2429    14.6227
  327.6000    85.2461    14.2437    14.5416
  327.7000    85.2498    14.2445    14.4609
  327.8000    85.9540    14.2453    14.3806
  327.9000    86.8595    14.1927    14.2922
  328.0000    87.7213    14.1481    14.2215
  328.1000    88.4535    14.1489    14.1426
  328.2000    89.2074    14.1497    14.0641
  328.3000    89.4465    14.1504    13.9860
  328.4000    89.8683    14.1512    13.9035
  328.5000    90.2424    14.1520    13.8312
  328.6000    90.4339    14.1708    13.7545
  328.7000    90.4377    14.2524    13.7135
  328.8000    90.4412    14.2532    13.6973
  328.9000    90.4448    14.2540    13.6199
  329.0000    90.4485    14.2548    13.5457
  329.1000    90.5661    14.2556    13.4705
  329.2000    91.0619    14.2564    13.3958
  329.3000    91.5446    14.2572    13.3413
  329.4000    92.0339    14.2580    13.3421
  329.5000    92.5232    14.2587    13.3428
  329.6000    92.9535    14.2595    13.3436
  329.7000    93.2012    14.2603    13.3031
  329.8000    93.4464    14.2613    13.2525
  329.9000    93.6929    14.2619    13.2532
  330.0000    93.9394    14.3092    13.2541
  330.1000    94.1859    14.3631    13.2547
  330.2000    94.4315    14.3639    13.2554
  330.3000    94.4352    14.3648    13.2562
  330.4000    94.4388    14.3655    13.2569
  330.5000    94.4424    14.3663    13.2577
  330.6000    94.3830    14.3671    13.2584
  330.7000    94.1466    14.3679    13.2591
  330.8000    94.1503    14.3688    13.2599
  330.9000    93.9685    14.3695    13.2729
  331.0000    93.7293    14.4231    13.3540
  331.1000    93.3600    14.4714    13.3547
  331.2000    92.6400    14.4722    13.4072
  331.3000    92.1581    14.4731    13.4495
  331.4000    91.4886    14.4738    13.4662
  331.5000    90.7637    14.5309    13.5450
  331.6000    90.1059    14.5765    13.6199
  331.7000    89.6307    14.5773    13.6975
  331.8000    89.3916    14.5781    13.7372
  331.9000    89.1524    14.6583    13.7577
  332.0000    88.9131    14.6815    13.8360
  332.1000    88.7430    14.7225    13.9148
  332.2000    88.7467    14.7856    13.9329
  332.3000    88.7503    14.7864    13.9760
  332.4000    88.7539    14.7873    14.0318
  332.5000    88.7576    14.8517    14.0375
  332.6000    88.7612    14.8922    14.1315
  332.7000    88.7648    14.9168    14.1322
  332.8000    88.7685    14.9978    14.1330
  332.9000    88.3850    14.9988    14.1338
  333.0000    87.6364    14.9994    14.1345
  333.1000    86.7418    15.0477    14.1354
  333.2000    86.0299    15.1058    14.1361
  333.3000    85.4540    15.1067    14.1369
  333.4000    85.0659    15.1077    14.1377
  333.5000    84.7192    15.1084    14.1385
  333.6000    84.4800    15.1092    14.1393
  333.7000    84.2408    15.1100    14.1401
  333.8000    83.9570    15.1109    14.1408
  333.9000    83.9600    15.1118    14.1416
  334.0000    83.9636    15.1126    14.1424
  334.1000    84.0445    15.1134    14.1432
  334.2000    84.2910    15.1142    14.1440
  334.3000    84.5813    15.1151    14.1448
  334.4000    85.1831    15.1160    14.1840
  334.5000    86.0546    15.0396    14.2452
  334.6000    86.9503    14.9563    14.2460
  334.7000    87.6635    14.8735    14.2468
  334.8000    88.2358    14.8069    14.2476
  334.9000    88.8436    14.8079    14.2484
  335.0000    89.5757    14.7300    14.2491
  335.1000    90.2267    14.6485    14.2499
  335.2000    90.6950    14.5674    14.2509
  335.3000    90.9812    14.4867    14.1867
  335.4000    91.3915    14.4055    14.1534
  335.5000    91.5939    14.3267    14.1542
  335.6000    91.5976    14.2475    14.1550
  335.7000    91.6012    14.1686    14.1559
  335.8000    91.6054    14.0901    14.0886
  335.9000    91.6085    14.0141    14.0592
  336.0000    91.4667    14.0149    14.0300
  336.1000    91.2275    13.9542    13.9521
  336.2000    90.9882    13.8769    13.8672
  336.3000    90.7145    13.8001    13.7978
  336.4000    90.7176    13.7236    13.7212
  336.5000    90.7212    13.6342    13.6776
  336.6000    90.7248    13.6348    13.6641
  336.7000    90.7285    13.6356    13.5843
  336.8000    90.7326    13.6104    13.5129
  336.9000    90.7358    13.5350    13.4379
  337.0000    91.0383    13.4495    13.3634
  337.1000    91.5277    13.4502    13.2892
  337.2000    91.9879    13.4044    13.2149
  337.3000    92.2659    13.3302    13.0691
  337.4000    92.6925    13.2665    12.9785
  337.5000    92.8788    13.2674    12.9065
  337.6000    92.9737    13.2680    12.8349
  337.7000    93.1891    13.2201    12.7636
  337.8000    93.1932    13.1775    12.6786
  337.9000    93.1964    13.1654    12.6224
  338.0000    93.0465    13.0877    12.5523
  338.1000    92.7140    13.0201    12.4602
  338.2000    92.2650    12.9983    12.3330
  338.3000    91.9992    12.9662    12.3339
  338.4000    92.0024    12.9097    12.3344
  338.5000    92.3172    12.9104    12.2932
  338.6000    92.7111    12.9111    12.2502
  338.7000    92.9576    12.9118    12.2420
  338.8000    93.2295    12.9125    12.1667
  338.9000    93.6683    12.9133    12.1673
  339.0000    94.0000    12.9140    12.1680
  339.1000    94.2465    12.8419    12.1686
  339.2000    94.4929    12.8259    12.1693
  339.3000    94.7628    12.8266    12.1700
