~VERSION INFORMATION
 VERS.                2.0:   CWLS LOG ASCII STANDARD - VERSION 2.0
 WRAP.                 NO:   ONE LINE PER DEPTH STEP
~WELL INFORMATION
#MNEM.UNIT      DATA TYPE    INFORMATION
#----------   ------------   ------------------------------
 STRT.F           15.0000:   START DEPTH
 STOP.F          531.0000:   STOP DEPTH
 STEP.F            0.1000:   STEP LENGTH
 NULL.          -999.2500:   NO VALUE
 COMP. LAWRENCE/ALLISON INC:   COMPANY
 WELL.   NPR 3 #42-61SX10:   WELL
 FLD .          N.P.R. #3:   FIELD
 LOC .      S10 T38N R78W:   LOCATION
 CNTY.            NATRONA:   COUNTY
 STAT.            WYOMING:   STATE
 CTRY. UNITED STATES OF AMERICA:   COUNTRY
 SRVC.           Gearhart:   SERVICE COMPANY
 DATE.        06-JUL-1986:   LOGDATE
 API .       490251109500:   API NUMBER
~CURVE INFORMATION
#MNEM.UNIT       API CODE    CURVE DESCRIPTION
#----------   ------------   ------------------------------
 DEPT.F                  :   
 GRR .GAPI   07 310 01 00:   GAMMA RAY
 RILD.OHMM   07 120 46 00:   INDUCTION LOG DEEP
 RILM.OHMM   07 120 44 00:   INDUCTION LOG MEDIUM
~PARAMETER INFORMATION
#MNEM.UNIT          VALUE    DESCRIPTION
#----------   ------------   ------------------------------
 PD  .                 GL:   PERMANENT DATUM
 EPD .F              5196:   ELEVATION PERMANENT DATUM
 LMF .                 KB:   LOG MEASURED FROM
 DAPD.F                 5:   FEET ABOVE PERMANENT DATUM
 DMF .                 KB:   DRILLING MEASURED FROM
 EKB .F              5201:   KELLING BUSHING
 EGL .F              5196:   GROUND LEVEL
 DATE.        06-JUL-1986:   RUN DATE
 RUN .                  1:   RUN NUMBER
 DD  .F               548:   DEPTH DRILLER
 DL  .F               541:   DEPTH LOGGER
 BLI .F               531:   BOTTOM LOG INTERVAL
 TLI .F                15:   TOP LOG INTERVAL
 CS  .IN            8.625:   CASING SIZE
 CBD .F                47:   CASING BOTTOM DRILLER
 CBL .F                47:   CASING BOTTOM LOGGER
 BS  .IN            7.875:   BIT SIZE
 BSD .F               548:   BIT SIZE AT DEPTH
 DFT .                AIR:   DRILLING FLUID TYPE
 BHT .F                82:   BOTTOM HOLE TEMPERATURE
 TCS .HRS            2000:   TIME CURCULATED STOPPED
 TLAB.HRS            2130:   TIME LOGGER AT BOTTOM
 MRT .F                82:   MAXIMUM RECORDED TEMPERATURE
 LUN .               7609:   LOGGING UNIT NUMBER
 LUL .           GILLETTE:   LOGGING UNIT LOCATION
 ENGI.              BAUER:   RECORDING ENGINEER
 WITN.           JENNINGS:   WITNESSED BY
 CLNT.            A2DTECH:   CLIENT CODE
 ORIG.           5" PRINT:   ORIGIN OF DATA
 UWI .       490251109500:   UNIQUE WELL ID
 DICO. A2D Technologies, Inc.:   DIGITIZING COMPANY
~OTHER INFORMATION
~A   DEPT      GRR       RILD       RILM   
# ...
  142.4000   103.8811     8.8044     8.8493
  142.5000   103.6285     8.8044     8.8494
  142.6000   103.3759     8.8044     8.8496
  142.7000   103.1233     8.8044     8.8066
  142.8000   102.8568     8.8045     8.7879
  142.9000   103.3361     8.7649     8.7880
  143.0000   103.6560     8.7429     8.7766
  143.1000   103.9098     8.7429     8.7268
  143.2000   104.2467     8.7430     8.7269
  143.3000   104.7228     8.7430     8.7270
  143.4000   104.9979     8.7430     8.7271
  143.5000   105.2305     8.7431     8.7065
  143.6000   105.6643     8.7431     8.6663
  143.7000   106.0436     8.7252     8.6664
  143.8000   106.2217     8.6819     8.6666
  143.9000   106.2223     8.6820     8.6667
  144.0000   106.2230     8.6820     8.6668
  144.1000   106.2235     8.6820     8.6669
  144.2000   105.8789     8.6821     8.6577
  144.3000   105.4935     8.6650     8.6065
  144.4000   105.2409     8.6213     8.6067
  144.5000   104.9720     8.6214     8.6068
  144.6000   104.3946     8.6214     8.6069
  144.7000   104.1777     8.6214     8.5885
  144.8000   103.9251     8.5951     8.5469
  144.9000   103.8988     8.5611     8.5471
  145.0000   104.1527     8.5552     8.4993
  145.1000   104.4065     8.5013     8.4875
  145.2000   104.7036     8.5013     8.4876
  145.3000   105.1243     8.4660     8.4704
  145.4000   105.6314     8.4167     8.4285
  145.5000   106.1385     8.3828     8.4286
  145.6000   106.6992     8.3776     8.4287
  145.7000   107.4563     8.3241     8.4288
  145.8000   107.7607     8.2804     8.4027
  145.9000   107.9640     8.2322     8.3701
  146.0000   108.0672     8.1843     8.3640
  146.1000   107.8708     8.1506     8.3118
  146.2000   107.3649     8.1463     8.2672
  146.3000   106.8476     8.0936     8.2539
  146.4000   106.1056     8.0937     8.2292
  146.5000   104.9557     8.0614     8.1815
  146.6000   103.9768     8.0145     8.1340
  146.7000   103.1265     7.9808     8.0823
  146.8000   102.1143     7.9773     8.0399
  146.9000   101.0498     7.9250     8.0260
  147.0000   100.3297     7.8847     8.0029
  147.1000    99.9469     7.8696     7.9701
  147.2000    99.5583     7.8482     7.9660
  147.3000    99.1363     7.8025     7.9146
  147.4000    98.9153     7.7570     7.8739
  147.5000    98.9161     7.7056     7.8283
  147.6000    98.6838     7.7056     7.7828
  147.7000    98.6119     7.6762     7.7500
  147.8000    98.6125     7.6315     7.7470
  147.9000    98.6131     7.5871     7.6961
  148.0000    98.6137     7.5429     7.6574
  148.1000    98.6144     7.4922     7.6130
  148.2000    98.8405     7.4922     7.5688
  148.3000    98.9209     7.4642     7.5361
  148.4000    99.0429     7.4398     7.5339
  148.5000    99.3659     7.4194     7.4836
  148.6000    99.8388     7.3361     7.4468
  148.7000    99.8395     7.3361     7.4036
  148.8000   100.0582     7.3007     7.3607
  148.9000   100.3121     7.2848     7.3280
  149.0000   100.6799     7.2668     7.3268
  149.1000   101.1251     7.2338     7.2770
  149.2000   101.3984     7.2331     7.2421
  149.3000   102.2859     7.1832     7.2000
  149.4000   102.7082     7.1833     7.1758
  149.5000   103.3740     7.1833     7.1669
  149.6000   104.1343     7.1662     7.1258
  149.7000   104.8401     7.1331     7.1259
  149.8000   105.3496     7.1331     7.0925
  149.9000   106.2591     7.1331     7.0763
  150.0000   107.0415     7.1397     7.0780
  150.1000   108.0147     7.1479     7.0821
  150.2000   109.0052     7.1562     7.0862
  150.3000   109.4994     7.1644     7.0902
  150.4000   110.0026     7.1726     7.0943
  150.5000   110.3644     7.1808     7.0984
  150.6000   110.6154     7.1891     7.1025
  150.7000   110.8313     7.1973     7.1066
  150.8000   110.8298     7.2055     7.1107
  150.9000   110.8287     7.2138     7.1148
  151.0000   110.6463     7.2226     7.1189
  151.1000   110.3929     7.2228     7.1230
  151.2000   110.1394     7.2229     7.1274
  151.3000   109.8860     7.2230     7.1654
  151.4000   109.6011     7.2354     7.1778
  151.5000   109.3791     7.2742     7.1987
  151.6000   108.9580     7.2743     7.2407
  151.7000   108.4523     7.2745     7.2796
  151.8000   107.9467     7.3026     7.2797
  151.9000   107.4410     7.3260     7.3167
  152.0000   106.8456     7.3261     7.3595
  152.1000   106.2223     7.3276     7.4024
  152.2000   105.4644     7.3781     7.4456
  152.3000   104.5043     7.3782     7.4891
  152.4000   103.2421     7.4047     7.5404
  152.5000   101.9542     7.4304     7.5405
  152.6000   100.9644     7.4306     7.5678
  152.7000    99.9544     7.4307     7.6119
  152.8000    99.2261     7.4734     7.6564
  152.9000    98.7204     7.4834     7.7015
  153.0000    98.2494     7.5081     7.7461
  153.1000    97.9773     7.5520     7.7559
  153.2000    97.5088     7.5896     7.7820
  153.3000    97.3643     7.5898     7.8108
  153.4000    97.1082     7.5899     7.8180
  153.5000    96.7511     7.6222     7.8660
  153.6000    96.7287     7.6437     7.8661
  153.7000    96.4432     7.6438     7.9001
  153.8000    96.2219     7.6440     7.9218
  153.9000    96.1356     7.6441     7.9367
  154.0000    96.0204     7.6837     7.9778
  154.1000    95.8278     7.7286     7.9779
  154.2000    95.8343     7.7527     7.9780
  154.3000    96.1305     7.7645     8.0105
  154.4000    96.3363     7.8076     8.0345
  154.5000    96.8947     7.8078     8.0346
  154.6000    97.6500     7.8079     8.0379
  154.7000    98.3580     7.8366     8.0914
  154.8000    98.8726     7.8632     8.0915
  154.9000    99.6110     7.8729     8.0916
  155.0000   100.3664     7.9189     8.0917
  155.1000   100.8413     7.9190     8.0919
  155.2000   101.1794     7.9557     8.0920
  155.3000   101.6486     7.9752     8.0921
  155.4000   101.9187     7.9925     8.1307
  155.5000   102.1506     8.0317     8.1493
  155.6000   102.4016     8.0318     8.1494
  155.7000   102.6526     8.0320     8.1477
  155.8000   102.9036     8.0668     8.1384
  155.9000   103.1546     8.0889     8.1291
  156.0000   103.4380     8.0890     8.1198
  156.1000   103.4369     8.0891     8.1105
  156.2000   103.4357     8.0893     8.1012
  156.3000   103.4345     8.0894     8.0932
  156.4000   103.4333     8.0896     8.0933
  156.5000   103.4321     8.0897     8.0934
  156.6000   103.4306     8.0899     8.0936
  156.7000   103.4296     8.0900     8.0693
  156.8000   103.5815     8.0902     8.0372
  156.9000   103.6326     8.0903     8.0373
  157.0000   103.4260     8.0904     8.0374
  157.1000   103.4247     8.0906     8.0375
  157.2000   103.4235     8.0907     8.0376
  157.3000   103.4223     8.0908     8.0377
  157.4000   103.4211     8.0910     8.0378
  157.5000   103.4198     8.0911     8.0351
  157.6000   103.4186     8.0913     7.9819
  157.7000   103.4173     8.0914     7.9820
  157.8000   103.1837     8.0833     7.9821
  157.9000   102.9303     8.0351     7.9822
  158.0000   102.6769     8.0352     7.9823
  158.1000   102.4234     8.0353     7.9824
  158.2000   102.1700     8.0100     7.9825
  158.3000   101.8832     7.9794     7.9826
  158.4000   101.8821     7.9795     7.9827
  158.5000   101.7150     7.9797     7.9829
  158.6000   101.5743     7.9373     7.9745
  158.7000   101.6328     7.9241     7.9272
  158.8000   101.8903     7.9242     7.9273
  158.9000   102.4865     7.9110     7.9275
  159.0000   103.1023     7.8690     7.9021
  159.1000   103.8577     7.8692     7.8564
  159.2000   104.5138     7.8296     7.8110
  159.3000   105.0632     7.8143     7.7627
  159.4000   105.8394     7.7940     7.7210
  159.5000   106.0835     7.7382     7.6445
  159.6000   106.5266     7.6503     7.5787
  159.7000   106.8908     7.5983     7.5349
  159.8000   107.1418     7.5623     7.4872
  159.9000   107.3928     7.4920     7.3911
  160.0000   107.6640     7.4229     7.3533
  160.1000   107.6629     7.3800     7.2822
  160.2000   107.4829     7.3367     7.1982
  160.3000   107.3551     7.2950     7.1151
  160.4000   107.2814     7.2529     7.0330
  160.5000   107.0473     7.2111     6.9391
