~VERSION INFORMATION
 VERS.                2.0:   CWLS LOG ASCII STANDARD - VERSION 2.0
 WRAP.                 NO:   ONE LINE PER DEPTH STEP
~WELL INFORMATION
#MNEM.UNIT      DATA TYPE    INFORMATION
#----------   ------------   ------------------------------
 STRT.F           46.0000:   START DEPTH
 STOP.F          490.0000:   STOP DEPTH
 STEP.F            0.5000:   STEP LENGTH
 NULL.          -999.2500:   NO VALUE
 COMP.    FENIX & SCISSON:   COMPANY
 WELL.        NPR #55-S-3:   WELL
 FLD .              NPR 3:   FIELD
 LOC .       S3 T38N R78W:   LOCATION
 CNTY.            NATRONA:   COUNTY
 STAT.            WYOMING:   STATE
 CTRY. UNITED STATES OF AMERICA:   COUNTRY
 SRVC.      Dresser Atlas:   SERVICE COMPANY
 DATE.        12-MAR-1977:   LOGDATE
 API .       490251028700:   API NUMBER
~CURVE INFORMATION
#MNEM.UNIT       API CODE    CURVE DESCRIPTION
#----------   ------------   ------------------------------
 DEPT.F                  :   
 SPR .MV     07 010 01 00:   SPONTANEOUS POTENTIAL
 ILM .OHMM   07 120 44 00:   INDUCTION LOG MEDIUM
 ILD .OHMM   07 120 46 00:   INDUCTION LOG DEEP
 SFL .OHMM   07 220 01 00:   SHALLOW FOCUSED LOG RESISTIVITY
 CALD.IN     45 280 60 00:   CALIPER FROM DENSITY LOG
 GRD .GAPI   45 310 01 00:   GAMMA RAY FROM DENSITY LOG
 CORR.G/C3   45 356 01 00:   DENSITY CORRECTION
 DPHI.DEC    45 890 12 00:   DENSITY POROSITY SANDSTONE
 RHOB.G/C3   45 350 01 00:   BULK DENSITY
~PARAMETER INFORMATION
#MNEM.UNIT          VALUE    DESCRIPTION
#----------   ------------   ------------------------------
 PD  .                 GL:   PERMANENT DATUM
 EPD .F              5169:   ELEVATION PERMANENT DATUM
 LMF .                 GL:   LOG MEASURED FROM
 DMF .                 GL:   DRILLING MEASURED FROM
 EGL .F              5169:   GROUND LEVEL
 DATE.        12-MAR-1977:   RUN DATE
 RUN .                  1:   RUN NUMBER
 DD  .F               498:   DEPTH DRILLER
 DL  .F               492:   DEPTH LOGGER
 BLI .F               490:   BOTTOM LOG INTERVAL
 TLI .F               046:   TOP LOG INTERVAL
 CS  .IN            8.625:   CASING SIZE
 CBD .F                40:   CASING BOTTOM DRILLER
 CBL .F               046:   CASING BOTTOM LOGGER
 BS  .IN            7.875:   BIT SIZE
 BSD .F               498:   BIT SIZE AT DEPTH
 DFT .           CHEM GEL:   DRILLING FLUID TYPE
 DFD .                8.7:   DRILLING FLUID DENSITY
 DFV .                 35:   DRILLING FLUID VISCOSITY
 DFPH.                8.0:   DRILLING FLUID PH
 DFL .                7.2:   DRILLING FLUID LOSS
 MSS .           FLOWLINE:   MUD SAMPLE SOURCE
 RMS .OHMM            .35:   RESISTIVITY MUD SAMPLE
 MST .F                60:   MUD SAMPLE TEMPERATURE
 RMF .OHMM             .3:   RESISTIVITY MUD FILTRATE SAMPLE
 MFST.F                60:   MUD FILTRATE SAMPLE TEMPERATURE
 RMC .OHMM            .73:   RESISTIVITY MUD CAKE
 MCST.F                60:   MUD CAKE SAMPLE TEMPERATURE
 MFSS.               MEAS:   MUD FILTRATE SAMPLE SOURCE
 MCSS.               MEAS:   MUD CAKE SAMPLE SOURCE
 RMB .OHMM            .33:   RESISTIVITY MUD AT BHT
 BHT .F                63:   BOTTOM HOLE TEMPERATURE
 TCS .HRS            1400:   TIME CURCULATED STOPPED
 MRT .F                63:   MAXIMUM RECORDED TEMPERATURE
 LUN .               6134:   LOGGING UNIT NUMBER
 LUL .              GLTTE:   LOGGING UNIT LOCATION
 ENGI.              NOYER:   RECORDING ENGINEER
 WITN.         STUEBINGER:   WITNESSED BY
 CLNT.            A2DTECH:   CLIENT CODE
 ORIG.           5" PRINT:   ORIGIN OF DATA
 UWI .       490251028700:   UNIQUE WELL ID
 DICO. A2D Technologies, Inc.:   DIGITIZING COMPANY
~OTHER INFORMATION
~A   DEPT      SPR        ILM        ILD        SFL       CALD        GRD       CORR         DPHI       RHOB 
# ...
   82.5000   -41.6556     7.1637     7.1764     7.5371     7.7836  -999.2500     0.0320     0.1171     2.4616
   83.0000   -41.3617     7.3167     7.2797     7.5919     7.7849  -999.2500     0.0292     0.1234     2.4441
   83.5000   -46.1614     7.4729     7.3348     7.7002     7.7862  -999.2500     0.0248     0.1207     2.4437
   84.0000   -50.2107     7.5800     7.4955     7.8099     7.7875  -999.2500     0.0249     0.1238     2.4377
   84.5000   -58.9007     7.6357     7.6072     7.9213     7.7740  -999.2500     0.0311     0.1147     2.4644
   85.0000   -62.6506     7.6953     7.7620     7.9240     7.7753  -999.2500     0.0432     0.0858     2.4807
   85.5000   -61.1610     7.8020     7.8195     7.9816     7.7617  -999.2500     0.0478     0.0813     2.5192
   86.0000   -60.8690     7.8059     7.8232     7.9843     7.7631  -999.2500     0.0414     0.0888     2.5040
   86.5000   -59.0800     7.7545     7.7196     7.9319     7.7644  -999.2500     0.0346     0.0930     2.4981
   87.0000   -54.1473     7.6519     7.6165     7.9347     7.7660  -999.2500     0.0302     0.0981     2.4922
   87.5000   -57.8972     7.6550     7.5676     7.7745     7.7521  -999.2500     0.0304     0.1026     2.4803
   88.0000   -66.7369     7.6046     7.5200     7.7236     7.7538  -999.2500     0.0320     0.0998     2.4954
   88.5000   -70.4868     7.5561     7.3694     7.6202     7.7551  -999.2500     0.0381     0.0890     2.5052
   89.0000   -63.7577     7.5064     7.2718     7.5703     7.7564  -999.2500     0.0383     0.0944     2.5045
   89.5000   -52.8369     7.4070     7.2251     7.5207     7.7578  -999.2500     0.0369     0.1075     2.4918
   90.0000   -42.0659     7.2081     7.1788     7.4721     7.7591  -999.2500     0.0325     0.1121     2.4790
   90.5000   -41.6168     7.1121     7.1823     7.4231     7.7604  -999.2500     0.0327     0.1096     2.4768
   91.0000   -41.1227     7.1644     7.1858     7.4256     7.7617  -999.2500     0.0328     0.0994     2.4829
   91.5000   -35.4940     7.1679     7.1892     7.4796     7.7482  -999.2500     0.0329     0.1024     2.4867
   92.0000   -27.1272     7.2206     7.2432     7.5340     7.7495  -999.2500     0.0331     0.1063     2.4860
   92.5000   -19.6496     7.3240     7.2969     7.6415     7.7508  -999.2500     0.0332     0.1012     2.4860
   93.0000   -14.8666     7.4289     7.4018     7.7010     7.7521  -999.2500     0.0333     0.1003     2.4846
   93.5000   -14.4230     7.5354     7.5083     7.7619     7.7534  -999.2500     0.0335     0.1056     2.4846
   94.0000   -21.0191     7.6433     7.6691     7.9737     7.7548  -999.2500     0.0336     0.1095     2.4764
   94.5000   -29.8588     7.9152     7.8333     8.1999     7.7561  -999.2500     0.0337     0.1059     2.4802
   95.0000   -34.2075     8.1403     8.0011     8.3744     7.7574  -999.2500     0.0339     0.0990     2.4833
   95.5000   -38.8556     8.2569     8.2860     8.5527     7.7588  -999.2500     0.0325     0.0987     2.4886
   96.0000   -40.6594     8.4333     8.4052     8.7954     7.7753  -999.2500     0.0281     0.1074     2.4776
   96.5000   -41.2656     8.6170     8.5262     9.0449     7.7766  -999.2500     0.0208     0.1181     2.4586
   97.0000   -40.2251     8.8065     8.7691     9.1739     7.7779  -999.2500     0.0164     0.1202     2.4481
   97.5000   -38.4361     9.0485     9.0189     9.3047     7.7792  -999.2500     0.0226     0.1153     2.4693
   98.0000   -35.0004     9.3059     9.2155     9.5028     7.7805  -999.2500     0.0227     0.1102     2.4791
   98.5000   -28.7856     9.5705     9.4175     9.7052     7.7819  -999.2500     0.0243     0.1067     2.4844
   99.0000   -23.9880     9.8427     9.7456     9.9224     7.7832  -999.2500     0.0290     0.0970     2.4928
   99.5000   -21.8891    10.0530    10.0232    10.1236     7.7845   125.8825     0.0321     0.0805     2.4996
  100.0000   -20.2399    10.1460    10.1674    10.2043     7.7858   118.1149     0.0340     0.0820     2.5086
  100.5000   -22.7886    10.2703    10.1723    10.3020     7.7875   117.5262     0.0309     0.0862     2.5029
  101.0000   -29.3853    10.4899    10.2476    10.4918     7.7893   118.1417     0.0340     0.0909     2.4982
  101.5000   -37.3313    11.0134    10.5396    10.8649     7.7911   120.1012     0.0371     0.0907     2.5036
  102.0000   -43.7781    11.1703    11.0667    11.0968     7.7929   121.1626     0.0417     0.0870     2.5029
  102.5000   -48.8756    11.1749    11.1474    11.2557     7.7946   120.2778     0.0418     0.0813     2.5090
  103.0000   -52.3778    11.1786    11.0624    11.3383     7.7643   117.7463     0.0465     0.0762     2.5218
  103.5000   -56.6717    11.1823    11.0679    11.5017     7.7359   112.5202     0.0481     0.0744     2.5301
  104.0000   -60.7196    11.1860    11.1491    11.5063     7.7255   107.2941     0.0467     0.0765     2.5272
  104.5000   -63.1184    11.1897    11.0767    11.4316     7.6975   101.6189     0.0423     0.0779     2.5212
  105.0000   -63.5682    10.5723    10.7788    11.1244     7.6844    96.9916     0.0379     0.0869     2.5002
  105.5000   -63.5682     9.3567     9.9934    10.0332     7.6866    93.2625     0.0351     0.0959     2.4965
  106.0000   -63.1005     8.0399     8.0487     8.9528     7.6884    95.9705     0.0292     0.0932     2.4943
  106.5000   -62.9685     8.3252     8.2417     8.5068     7.6902   100.4749     0.0278     0.1028     2.4884
  107.0000   -63.1184     8.8013     8.9583    10.1158     7.6919   101.1317     0.0294     0.1055     2.4854
  107.5000   -63.2684     9.2448     9.3415    12.1114     7.6937    99.7530     0.0310     0.1004     2.4954
  108.0000   -63.5682     9.4379     9.5410    12.4557     7.6955   100.1058     0.0342     0.0935     2.4999
  108.5000   -63.7181     9.5724     9.6778    14.7082     7.6973    96.7861     0.0358     0.0883     2.5037
  109.0000   -63.8681     9.6420     9.5496    14.6008     7.6990    96.4701     0.0359     0.0859     2.5067
  109.5000   -64.1679     9.4473     9.4212    14.8234     7.7008   100.4057     0.0315     0.0907     2.5038
  110.0000   -64.3178     9.3207     9.4259    15.4570     7.7026   100.8683     0.0301     0.0907     2.5001
  110.5000   -64.6177     9.3239     9.5610    16.1177     7.7044    97.1342     0.0257     0.0933     2.4949
  111.0000   -64.9175     9.4574     9.6980    16.3484     7.7061    96.2445     0.0259     0.0997     2.4972
  111.5000   -64.9175     9.4606     9.7019    16.4683     7.7079    95.2051     0.0260     0.1051     2.4980
  112.0000   -64.7676     9.4637     9.7066    16.9557     7.7097    94.6345     0.0246     0.1062     2.4860
  112.5000   -64.6177     9.4668     9.7105    17.9080     7.7412    97.1307     0.0202     0.1014     2.4770
  113.0000   -64.6177     9.4700     9.7144    18.0393     7.7579    97.5056     0.0189     0.1008     2.4816
  113.5000   -64.9175     9.2795     9.5847    17.5545     7.7596    96.7706     0.0160     0.1062     2.4794
  114.0000   -65.3673     9.2826     9.3917    16.1642     7.7614   101.2256     0.0146     0.1101     2.4637
  114.5000   -65.5172     9.2857     9.1314    15.8388     7.7602   103.6243     0.0147     0.1146     2.4585
  115.0000   -65.3673     9.1605     8.9551    15.9566     7.7577   104.8204     0.0149     0.1167     2.4631
  115.5000   -65.2174     9.0384     8.8978    15.9629     7.7553   106.7045     0.0150     0.1157     2.4646
  116.0000   -64.9175     8.9117     8.8391    15.8577     7.7529   101.7789     0.0151     0.1145     2.4557
  116.5000   -64.9175     8.7979     8.8435    15.4331     7.7504    98.4989     0.0197     0.1169     2.4708
  117.0000   -65.0685     8.8016     8.8470    15.4393     7.7480    96.4165     0.0228     0.1145     2.4686
  117.5000   -65.5172     8.7431     8.7904    15.7690     7.7455    95.2320     0.0274     0.1077     2.4769
  118.0000   -65.9670     8.6858     8.7324    16.1072     7.7307    97.0421     0.0336     0.1007     2.4988
  118.5000   -66.1169     8.5111     8.6168    16.1136     7.7478    99.4508     0.0337     0.0925     2.5019
