~VERSION INFORMATION
 VERS.                2.0:   CWLS LOG ASCII STANDARD - VERSION 2.0
 WRAP.                 NO:   ONE LINE PER DEPTH STEP
~WELL INFORMATION
#MNEM.UNIT      DATA TYPE    INFORMATION
#----------   ------------   ------------------------------
 STRT.F          148.5000:   START DEPTH
 STOP.F          882.5000:   STOP DEPTH
 STEP.F            0.5000:   STEP LENGTH
 NULL.          -999.2500:   NO VALUE
 COMP.               NAVY:   COMPANY
 WELL. RES 3 TEAPOT DOM #55S-11:   WELL
 FLD .             TEAPOT:   FIELD
 LOC .      S11 T38N R78W:   LOCATION
 CNTY.            NATRONA:   COUNTY
 STAT.            WYOMING:   STATE
 CTRY. UNITED STATES OF AMERICA:   COUNTRY
 SRVC.       Schlumberger:   SERVICE COMPANY
 DATE.        05-AUG-1961:   LOGDATE
 API .       490250634000:   API NUMBER
~CURVE INFORMATION
#MNEM.UNIT       API CODE    CURVE DESCRIPTION
#----------   ------------   ------------------------------
 DEPT.F                  :   
 GR  .GAPI   30 310 01 00:   GAMMA RAY
 SPR .MV     05 010 01 00:   SPONTANEOUS POTENTIAL FROM RES.
 CILD.MMHO   05 110 46 00:   CONDUCTIVITY INDUCTION LOG DEEP
 ASN .OHMM   05 041 16 00:   AMPLIFIED SHORT NORMAL 16"
 ILD .OHMM   05 120 46 00:   INDUCTION LOG DEEP
~PARAMETER INFORMATION
#MNEM.UNIT          VALUE    DESCRIPTION
#----------   ------------   ------------------------------
 PD  .                 GL:   PERMANENT DATUM
 EPD .F              5201:   ELEVATION PERMANENT DATUM
 LMF .                 KB:   LOG MEASURED FROM
 DAPD.F                 6:   FEET ABOVE PERMANENT DATUM
 DMF .                 KB:   DRILLING MEASURED FROM
 EKB .F              5207:   KELLING BUSHING
 EGL .F              5201:   GROUND LEVEL
 DATE.             8-5-61:   RUN DATE
 RUN .                  1:   RUN NUMBER
 DD  .F               880:   DEPTH DRILLER
 DL  .F               882:   DEPTH LOGGER
 BLI .F               881:   BOTTOM LOG INTERVAL
 TLI .F               150:   TOP LOG INTERVAL
 BS  .IN            7.875:   BIT SIZE
 BSD .F               880:   BIT SIZE AT DEPTH
 DFT .       OIL EMULSION:   DRILLING FLUID TYPE
 DFV .                 40:   DRILLING FLUID VISCOSITY
 MSS .           FLOWLINE:   MUD SAMPLE SOURCE
 RMS .OHMM            .96:   RESISTIVITY MUD SAMPLE
 MST .F                74:   MUD SAMPLE TEMPERATURE
 TCS .HRS               1:   TIME CURCULATED STOPPED
 LUN .               2544:   LOGGING UNIT NUMBER
 LUL .                 NC:   LOGGING UNIT LOCATION
 ENGI.            EARNEST:   RECORDING ENGINEER
 WITN.          JORGENSEN:   WITNESSED BY
 CLNT.            A2DTECH:   CLIENT CODE
 ORIG.       2", 5" PRINT:   ORIGIN OF DATA
 UWI .       490250634000:   UNIQUE WELL ID
 DICO. A2D Technologies, Inc.:   DIGITIZING COMPANY
~OTHER INFORMATION
~A   DEPT       GR        SPR       CILD        ASN        ILD   
# ...
  270.5000  -999.2500   -52.5786   288.1672     3.8249     3.4839
  271.0000  -999.2500   -52.6392   258.8117     4.0946     3.6821
  271.5000  -999.2500   -52.4202   258.8117     4.0878     3.7769
  272.0000  -999.2500   -52.0341   263.2696     4.1056     3.7381
  272.5000  -999.2500   -51.6852   272.9859     4.1003     3.7098
  273.0000  -999.2500   -51.4226   291.2487     4.0752     3.6879
  273.5000  -999.2500   -51.4067   309.5116     3.9898     3.5927
  274.0000  -999.2500   -51.4954   332.0443     3.9112     3.3377
  274.5000  -999.2500   -51.6527   362.2569     3.8156     3.0963
  275.0000  -999.2500   -51.7802   392.4695     3.6259     2.8386
  275.5000  -999.2500   -51.9214   422.6821     3.3975     2.6003
  276.0000  -999.2500   -52.0555   456.1934     3.1693     2.4847
  276.5000  -999.2500   -52.2038   456.1934     3.0481     2.4603
  277.0000  -999.2500   -52.2362   456.1934     2.9397     2.4715
  277.5000  -999.2500   -52.2660   438.9174     2.9290     2.5743
  278.0000  -999.2500   -52.3014   419.8429     2.9708     2.6930
  278.5000  -999.2500   -52.3356   400.7684     3.0656     2.9049
  279.0000  -999.2500   -52.3685   381.6938     3.1682     3.2447
  279.5000  -999.2500   -52.4055   361.5307     3.3500     3.5712
  280.0000  -999.2500   -52.4281   317.5227     3.7176     3.9098
  280.5000  -999.2500   -52.4116   268.8822     4.1743     4.2354
  281.0000  -999.2500   -52.2370   250.4179     4.6136     4.5792
  281.5000  -999.2500   -51.9928   230.6143     4.7936     4.6984
  282.0000  -999.2500   -51.7861   226.6667     4.9427     4.7362
  282.5000  -999.2500   -51.5189   222.6083     5.0988     4.7977
  283.0000  -999.2500   -51.5179   218.5499     5.2529     4.8601
  283.5000  -999.2500   -51.8535   214.4914     5.4085     4.8797
  284.0000  -999.2500   -52.1421   210.4330     5.5960     4.9633
  284.5000  -999.2500   -52.4626   206.3746     5.8154     5.1534
  285.0000  -999.2500   -52.7552   202.3162     6.0342     5.3225
  285.5000  -999.2500   -53.0857   198.2578     6.2513     5.5021
  286.0000  -999.2500   -53.2514   194.1994     6.4673     5.6768
  286.5000  -999.2500   -53.1982   190.1410     6.6713     5.8530
  287.0000  -999.2500   -53.1371   186.0826     6.7758     6.0314
  287.5000  -999.2500   -53.0639   182.0242     6.8548     6.1851
  288.0000  -999.2500   -53.0000   177.9658     6.8739     6.1802
  288.5000  -999.2500   -52.9263   174.2195     6.8876     6.1445
  289.0000  -999.2500   -52.8674   174.2195     6.8974     6.1147
  289.5000  -999.2500   -52.7359   175.5948     6.9014     6.0825
  290.0000  -999.2500   -52.5410   176.8774     6.8738     6.0515
  290.5000  -999.2500   -52.3572   178.1314     6.8217     6.0198
  291.0000  -999.2500   -52.1732   179.3940     6.7768     5.9885
  291.5000  -999.2500   -51.9795   180.6643     6.7400     5.9571
  292.0000  -999.2500   -51.8319   181.9382     6.7370     5.9256
  292.5000  -999.2500   -51.8035   183.2125     6.7370     5.8947
  293.0000  -999.2500   -51.9357   184.3029     6.7377     5.8625
  293.5000  -999.2500   -52.1794   184.0417     6.7341     5.8328
  294.0000  -999.2500   -52.3954   183.6409     6.7060     5.7989
  294.5000  -999.2500   -52.6198   183.2473     6.6788     5.7912
  295.0000  -999.2500   -52.8487   182.8612     6.6517     5.7847
  295.5000  -999.2500   -53.0180   182.4823     6.6242     5.8444
  296.0000  -999.2500   -52.9857   182.3740     6.5977     5.9494
  296.5000  -999.2500   -52.9429   180.0737     6.5691     6.0390
  297.0000  -999.2500   -52.9062   176.7239     6.5453     6.1338
  297.5000  -999.2500   -52.8567   173.3361     6.5292     6.2285
  298.0000  -999.2500   -52.8404   170.0156     6.5692     6.3177
  298.5000  -999.2500   -52.7600   166.6951     6.7261     6.4255
  299.0000  -999.2500   -52.6669   164.1490     6.8641     6.7089
  299.5000  -999.2500   -52.4642   156.6210     6.9989     6.9577
  300.0000  -999.2500   -52.1739   150.5168     7.0768     7.2228
  300.5000  -999.2500   -51.9311   144.4127     7.1314     7.4594
  301.0000  -999.2500   -51.6483   138.3085     7.1855     7.7568
  301.5000  -999.2500   -51.6037   133.7165     7.2575     7.9138
  302.0000  -999.2500   -51.6676   133.7253     7.3667     7.9229
  302.5000  -999.2500   -51.8367   134.3746     7.4029     7.7608
  303.0000  -999.2500   -52.0052   136.3904     7.3850     7.3713
  303.5000  -999.2500   -52.1807   141.3033     7.2897     7.0887
  304.0000  -999.2500   -52.3442   152.0036     7.1414     6.7381
  304.5000  -999.2500   -52.5335   162.7658     6.9713     6.4335
  305.0000  -999.2500   -52.6382   173.6685     6.7864     6.0715
  305.5000  -999.2500   -52.6162   192.1249     6.5736     5.8490
  306.0000  -999.2500   -52.4886   223.1219     6.3321     5.4584
  306.5000  -999.2500   -52.3164   256.7976     6.0920     4.8770
  307.0000  -999.2500   -52.1562   319.3354     5.7227     4.1180
  307.5000  -999.2500   -51.9899   372.3565     5.1793     3.2434
  308.0000  -999.2500   -51.8122   425.3777     4.5968     2.4362
  308.5000  -999.2500   -51.4814   466.4753     3.9627     2.2701
  309.0000  -999.2500   -51.1393   493.3938     3.3078     2.2056
  309.5000  -999.2500   -50.7613   520.6445     3.1816     2.1411
  310.0000  -999.2500   -50.6062   518.6304     3.0493     2.2677
  310.5000  -999.2500   -50.8393   467.6485     2.9885     2.7110
  311.0000  -999.2500   -51.0717   417.9255     3.0053     3.1424
  311.5000  -999.2500   -51.2967   363.5952     3.0682     3.7053
  312.0000  -999.2500   -51.6186   310.5740     3.4945     4.4090
  312.5000  -999.2500   -52.0525   257.5529     4.3930     5.0486
  313.0000  -999.2500   -52.3310   204.5317     5.2383     5.8098
  313.5000  -999.2500   -52.5136   166.8932     6.1193     7.3924
  314.0000  -999.2500   -52.7046   140.3827     7.2487     8.9902
  314.5000  -999.2500   -52.8857   113.8721     8.4089     9.9231
  315.0000  -999.2500   -53.0814   101.7120     8.9073    10.1077
  315.5000  -999.2500   -53.2238   103.7261     9.2951    10.0223
  316.0000  -999.2500   -53.2455   111.8328     9.5267     9.6511
  316.5000  -999.2500   -53.1825   117.8248     9.6173     9.0925
  317.0000  -999.2500   -52.7143   130.4465     9.4748     8.6399
  317.5000  -999.2500   -52.2716   148.7076     9.0500     8.0792
  318.0000  -999.2500   -51.8147   170.4599     8.4404     6.9287
  318.5000  -999.2500   -51.3812   192.2121     7.8526     5.7988
  319.0000  -999.2500   -50.9181   204.2296     7.2757     5.0007
  319.5000  -999.2500   -50.9182   212.3867     6.6914     4.9833
  320.0000  -999.2500   -51.1704   213.4945     6.2525     4.9839
  320.5000  -999.2500   -51.3862   203.1974     6.0177     5.4097
  321.0000  -999.2500   -51.7543   190.5715     6.2783     6.0210
  321.5000  -999.2500   -52.2204   178.0759     7.2147     6.6082
  322.0000  -999.2500   -52.6629   165.5432     7.9294     7.2004
  322.5000  -999.2500   -53.1546   152.9581     8.2016     7.8535
  323.0000  -999.2500   -53.6145   140.3519     8.5148     8.2954
  323.5000  -999.2500   -53.6623   127.7645     8.8560     8.8314
  324.0000  -999.2500   -53.7610   118.3634     9.1612     9.1875
  324.5000  -999.2500   -53.7851   115.1345     9.4202     9.2767
  325.0000  -999.2500   -53.5880   111.6386     9.6018     9.4214
  325.5000  -999.2500   -53.4928   107.7543     9.6770     9.5405
  326.0000  -999.2500   -53.3754   107.5931     9.8727     9.7072
  326.5000  -999.2500   -53.2699   107.1853    10.0358     9.7806
  327.0000  -999.2500   -53.1571   106.7774    10.2331     9.8491
  327.5000  -999.2500   -53.0505   106.3696    10.3452     9.9121
  328.0000  -999.2500   -52.9357   105.9617    10.5084     9.9898
  328.5000  -999.2500   -52.8561   105.7402    10.5158    10.0156
  329.0000  -999.2500   -53.0827   103.7261    10.6709    10.0928
  329.5000  -999.2500   -53.3675   102.1791    10.7525    10.2783
  330.0000  -999.2500   -53.6299   100.5930    10.8925    10.4453
  330.5000  -999.2500   -53.9206    99.0069    11.0837    10.6223
  331.0000  -999.2500   -54.0528    97.4208    11.2569    10.7939
