~VERSION INFORMATION
 VERS.                2.0:   CWLS LOG ASCII STANDARD - VERSION 2.0
 WRAP.                 NO:   ONE LINE PER DEPTH STEP
~WELL INFORMATION
#MNEM.UNIT      DATA TYPE    INFORMATION
#----------   ------------   ------------------------------
 STRT.F           15.0000:   START DEPTH
 STOP.F          531.0000:   STOP DEPTH
 STEP.F            0.1000:   STEP LENGTH
 NULL.          -999.2500:   NO VALUE
 COMP. LAWRENCE/ALLISON INC:   COMPANY
 WELL.   NPR 3 #42-61SX10:   WELL
 FLD .          N.P.R. #3:   FIELD
 LOC .      S10 T38N R78W:   LOCATION
 CNTY.            NATRONA:   COUNTY
 STAT.            WYOMING:   STATE
 CTRY. UNITED STATES OF AMERICA:   COUNTRY
 SRVC.           Gearhart:   SERVICE COMPANY
 DATE.        06-JUL-1986:   LOGDATE
 API .       490251109500:   API NUMBER
~CURVE INFORMATION
#MNEM.UNIT       API CODE    CURVE DESCRIPTION
#----------   ------------   ------------------------------
 DEPT.F                  :   
 GRR .GAPI   07 310 01 00:   GAMMA RAY
 RILD.OHMM   07 120 46 00:   INDUCTION LOG DEEP
 RILM.OHMM   07 120 44 00:   INDUCTION LOG MEDIUM
~PARAMETER INFORMATION
#MNEM.UNIT          VALUE    DESCRIPTION
#----------   ------------   ------------------------------
 PD  .                 GL:   PERMANENT DATUM
 EPD .F              5196:   ELEVATION PERMANENT DATUM
 LMF .                 KB:   LOG MEASURED FROM
 DAPD.F                 5:   FEET ABOVE PERMANENT DATUM
 DMF .                 KB:   DRILLING MEASURED FROM
 EKB .F              5201:   KELLING BUSHING
 EGL .F              5196:   GROUND LEVEL
 DATE.        06-JUL-1986:   RUN DATE
 RUN .                  1:   RUN NUMBER
 DD  .F               548:   DEPTH DRILLER
 DL  .F               541:   DEPTH LOGGER
 BLI .F               531:   BOTTOM LOG INTERVAL
 TLI .F                15:   TOP LOG INTERVAL
 CS  .IN            8.625:   CASING SIZE
 CBD .F                47:   CASING BOTTOM DRILLER
 CBL .F                47:   CASING BOTTOM LOGGER
 BS  .IN            7.875:   BIT SIZE
 BSD .F               548:   BIT SIZE AT DEPTH
 DFT .                AIR:   DRILLING FLUID TYPE
 BHT .F                82:   BOTTOM HOLE TEMPERATURE
 TCS .HRS            2000:   TIME CURCULATED STOPPED
 TLAB.HRS            2130:   TIME LOGGER AT BOTTOM
 MRT .F                82:   MAXIMUM RECORDED TEMPERATURE
 LUN .               7609:   LOGGING UNIT NUMBER
 LUL .           GILLETTE:   LOGGING UNIT LOCATION
 ENGI.              BAUER:   RECORDING ENGINEER
 WITN.           JENNINGS:   WITNESSED BY
 CLNT.            A2DTECH:   CLIENT CODE
 ORIG.           5" PRINT:   ORIGIN OF DATA
 UWI .       490251109500:   UNIQUE WELL ID
 DICO. A2D Technologies, Inc.:   DIGITIZING COMPANY
~OTHER INFORMATION
~A   DEPT      GRR       RILD       RILM   
# ...
  379.0000    81.9969    23.9105    23.8905
  379.1000    81.6985    23.9102    23.8082
  379.2000    81.1700    23.9099    23.7260
  379.3000    80.1797    23.8489    23.7274
  379.4000    78.9590    23.7418    23.7287
  379.5000    77.6805    23.7365    23.5917
  379.6000    76.4020    23.5749    23.5654
  379.7000    75.1711    23.4594    23.4843
  379.8000    74.1398    23.4092    23.4031
  379.9000    73.6318    23.3489    23.3772
  380.0000    73.3231    23.2121    23.2420
  380.1000    73.2202    23.0761    23.2436
  380.2000    73.3228    22.9197    23.2446
  380.3000    73.5770    22.9194    23.1647
  380.4000    73.8312    22.8331    23.0846
  380.5000    74.1311    22.6993    23.0859
  380.6000    74.5494    22.5987    23.0872
  380.7000    74.8993    22.5923    22.9539
  380.8000    75.2635    22.4398    22.9283
  380.9000    75.7132    22.3286    22.8494
  381.0000    75.9877    22.1978    22.7704
  381.1000    76.8719    22.0679    22.7717
  381.2000    77.3024    21.9386    22.7730
  381.3000    77.9781    21.8101    22.6415
  381.4000    78.6272    21.6634    22.6162
  381.5000    79.1369    21.5554    22.6175
  381.6000    79.6466    21.4292    22.5660
  381.7000    80.2234    21.3037    22.4618
  381.8000    80.6660    21.1789    22.4631
  381.9000    81.1757    21.0481    22.3074
  382.0000    81.6854    20.7674    22.3084
  382.1000    82.1230    20.7672    22.2316
  382.2000    82.3772    20.6873    22.1032
  382.3000    82.6588    20.5661    21.9755
  382.4000    83.1137    20.4456    21.8484
  382.5000    83.2672    20.3258    21.6971
  382.6000    83.3942    20.1903    21.5968
  382.7000    83.5701    20.0885    21.4721
  382.8000    83.5974    20.0484    21.3480
  382.9000    83.8729    19.9939    21.2000
  383.0000    83.8718    19.8768    20.9543
  383.1000    84.0547    19.7604    20.8334
  383.2000    84.1747    19.6291    20.7131
  383.3000    84.1734    19.6289    20.5216
  383.4000    84.1376    19.5522    20.2840
  383.5000    83.8656    19.4377    20.0723
  383.6000    83.8644    19.3542    19.9562
  383.7000    83.8632    19.3460    19.8410
  383.8000    83.7215    19.2181    19.7264
  383.9000    83.5554    19.1202    19.6125
  384.0000    83.5542    19.0831    19.4992
  384.1000    83.5529    19.0302    19.3865
  384.2000    83.3055    18.9187    19.2744
  384.3000    83.0488    18.8160    19.1631
  384.4000    82.7921    18.8157    19.0525
  384.5000    82.5353    18.7194    19.0089
  384.6000    82.3255    18.6835    18.9656
  384.7000    82.3243    18.6312    18.8560
  384.8000    82.0706    18.5522    18.7470
  384.9000    82.0165    18.5433    18.7483
  385.0000    82.0153    18.4218    18.6617
  385.1000    82.0140    18.4215    18.6190
  385.2000    82.0128    18.4213    18.5766
  385.3000    82.0147    18.3692    18.4908
  385.4000    82.3155    18.2918    18.4919
  385.5000    82.3145    18.2826    18.3638
  385.6000    82.3133    18.1632    18.3646
  385.7000    82.3121    18.1630    18.3014
  385.8000    82.3108    18.0900    18.2382
  385.9000    82.3004    18.0353    18.2179
  386.0000    82.0029    18.0048    18.1126
  386.1000    82.0018    17.9086    18.1138
  386.2000    81.8357    17.9083    18.1147
  386.3000    81.4640    17.8150    18.0523
  386.4000    81.0170    17.7824    17.9900
  386.5000    80.7297    17.7311    17.9700
  386.6000    79.8582    17.6574    17.8661
  386.7000    79.4155    17.6572    17.8671
  386.8000    78.9032    17.6569    17.7848
  386.9000    78.3910    17.5645    17.7441
  387.0000    77.9501    17.5328    17.7451
  387.1000    77.6934    17.5326    17.7254
  387.2000    77.4081    17.5019    17.6230
  387.3000    77.1801    17.4094    17.6239
  387.4000    76.9234    17.4091    17.6249
  387.5000    76.9211    17.4089    17.5643
  387.6000    77.1753    17.4086    17.5036
  387.7000    77.4571    17.4084    17.5046
  387.8000    78.0115    17.4081    17.5056
  387.9000    78.4765    17.4079    17.4045
  388.0000    78.9863    17.4076    17.3851
  388.1000    79.4960    17.4074    17.3252
  388.2000    79.7553    17.3355    17.2654
  388.3000    79.4986    17.2851    17.2462
  388.4000    79.2256    17.2848    17.1465
  388.5000    78.7461    17.2846    17.1477
  388.6000    78.4232    17.2843    17.1485
  388.7000    78.0271    17.2841    17.0894
  388.8000    77.6045    17.2838    17.0304
  388.9000    77.3081    17.2836    17.0115
  389.0000    76.7755    17.2834    16.9132
  389.1000    76.5291    17.2717    16.9143
  389.2000    76.2723    17.1619    16.9151
  389.3000    76.0156    17.1616    16.8568
  389.4000    75.8547    17.1614    16.7986
  389.5000    75.8534    17.1095    16.7800
  389.6000    75.8522    17.0093    16.6830
  389.7000    75.8510    16.9212    16.6839
  389.8000    76.0513    16.9210    16.6849
  389.9000    76.1539    16.9208    16.6274
  390.0000    76.2544    16.8495    16.5700
  390.1000    76.5087    16.7508    16.5516
  390.2000    76.7609    16.6840    16.4559
  390.3000    76.7595    16.6718    16.4569
  390.4000    76.9661    16.5667    16.3810
  390.5000    77.0626    16.5665    16.3436
  390.6000    77.1693    16.5662    16.3064
  390.7000    77.4235    16.5152    16.2309
  390.8000    77.6697    16.4498    16.2320
  390.9000    77.6682    16.4374    16.2329
  391.0000    78.0946    16.3342    16.1581
  391.1000    78.2766    16.3339    16.1211
  391.2000    78.3894    16.2642    16.0845
  391.3000    78.6437    16.2191    16.0102
  391.4000    78.8979    16.2189    16.0111
  391.5000    79.1876    16.2062    15.9001
  391.6000    79.4064    16.1049    15.9008
  391.7000    79.6607    16.1047    15.9017
  391.8000    80.0350    16.0355    15.8656
  391.9000    80.4043    15.9915    15.7921
  392.0000    80.3827    15.9599    15.7932
  392.1000    80.0963    15.8791    15.7942
  392.2000    79.8693    15.8789    15.7213
  392.3000    78.5564    15.7917    15.6853
  392.4000    77.3977    15.7673    15.6862
  392.5000    76.9618    15.7670    15.6871
  392.6000    76.6786    15.7355    15.6880
  392.7000    76.1196    15.6562    15.5974
  392.8000    75.8864    15.6560    15.5800
  392.9000    75.6297    15.5696    15.5263
  393.0000    75.3730    15.5460    15.4727
  393.1000    75.1988    15.4963    15.4736
  393.2000    75.1650    15.4367    15.4745
  393.3000    74.8909    15.4365    15.4755
  393.4000    75.1279    15.4362    15.4040
  393.5000    75.1939    15.3507    15.3688
  393.6000    75.1927    15.3278    15.3697
  393.7000    75.2801    15.2784    15.3705
  393.8000    75.5343    15.2200    15.3714
  393.9000    75.7996    15.2198    15.3722
  394.0000    75.7985    15.2196    15.3731
  394.1000    75.7972    15.1348    15.3740
  394.2000    75.7960    15.1126    15.3390
  394.3000    75.7948    15.1124    15.2681
  394.4000    75.7936    15.0809    15.2690
  394.5000    75.7923    15.0062    15.2699
  394.6000    75.7911    15.0060    15.2707
  394.7000    75.7899    14.9219    15.2182
  394.8000    75.9393    14.9005    15.1656
  394.9000    76.0928    14.9003    15.1664
  395.0000    76.0916    14.8688    15.1673
  395.1000    76.0904    14.7956    15.0622
  395.2000    76.0889    14.7953    15.0629
  395.3000    76.2945    14.7121    15.0637
  395.4000    76.5488    14.6914    15.0646
  395.5000    77.0168    14.6912    15.0654
  395.6000    77.7819    14.6909    15.0663
  395.7000    78.5541    14.6766    15.0671
  395.8000    79.7458    14.5877    14.9977
  395.9000    80.3829    14.5875    14.9634
  396.0000    81.1482    14.5873    14.9642
  396.1000    81.9134    14.5871    14.9651
  396.2000    82.5523    14.5869    14.9659
  396.3000    82.8065    14.5867    14.9669
  396.4000    83.0972    14.5865    14.9676
  396.5000    83.0962    14.5036    14.9684
  396.6000    83.2639    14.4839    14.9693
  396.7000    83.3991    14.4837    14.9701
  396.8000    83.3979    14.4835    14.9710
  396.9000    83.3966    14.4833    14.9718
  397.0000    83.3953    14.4831    14.9028
  397.1000    83.3942    14.4829    14.8687
