~VERSION INFORMATION
 VERS.                2.0:   CWLS LOG ASCII STANDARD - VERSION 2.0
 WRAP.                 NO:   ONE LINE PER DEPTH STEP
~WELL INFORMATION
#MNEM.UNIT      DATA TYPE    INFORMATION
#----------   ------------   ------------------------------
 STRT.F           20.0000:   START DEPTH
 STOP.F          805.5000:   STOP DEPTH
 STEP.F            0.5000:   STEP LENGTH
 NULL.          -999.2500:   NO VALUE
 COMP. FENIX & SCISSON INC:   COMPANY
 WELL.    16-SX-14 #16-14:   WELL
 FLD .             TEAPOT:   FIELD
 LOC .      S14 T38N R78W:   LOCATION
 CNTY.            NATRONA:   COUNTY
 STAT.            WYOMING:   STATE
 CTRY. UNITED STATES OF AMERICA:   COUNTRY
 SRVC.            Unknown:   SERVICE COMPANY
 DATE.        23-MAY-1978:   LOGDATE
 API .       490251063200:   API NUMBER
~CURVE INFORMATION
#MNEM.UNIT       API CODE    CURVE DESCRIPTION
#----------   ------------   ------------------------------
 DEPT.F                  :   
 SN  .OHMM   05 040 16 00:   SHORT NORMAL 16"
 ILD .OHMM   05 120 46 00:   INDUCTION LOG DEEP
 SPR .MV     05 010 01 00:   SPONTANEOUS POTENTIAL FROM RES.
 RHOB.G/C3   45 350 01 00:   BULK DENSITY
 DPOR.DEC    45 890 12 00:   DENSITY POROSITY SANDSTONE
 CORR.G/C3   45 356 01 00:   DENSITY CORRECTION
 GRD .GAPI   45 310 01 00:   GAMMA RAY FROM DENSITY LOG
 CALD.IN     45 280 60 00:   CALIPER FROM DENSITY LOG
~PARAMETER INFORMATION
#MNEM.UNIT          VALUE    DESCRIPTION
#----------   ------------   ------------------------------
 PD  .                 GL:   PERMANENT DATUM
 EPD .F              5246:   ELEVATION PERMANENT DATUM
 LMF .                 KB:   LOG MEASURED FROM
 DAPD.F                 4:   FEET ABOVE PERMANENT DATUM
 DMF .                 KB:   DRILLING MEASURED FROM
 EKB .F              5250:   KELLING BUSHING
 EGL .F              5246:   GROUND LEVEL
 DATE.          5-23-1978:   RUN DATE
 RUN .                  1:   RUN NUMBER
 DD  .F               825:   DEPTH DRILLER
 DL  .F               812:   DEPTH LOGGER
 BLI .F               805:   BOTTOM LOG INTERVAL
 TLI .F                40:   TOP LOG INTERVAL
 CS  .IN            8.625:   CASING SIZE
 CBD .F                40:   CASING BOTTOM DRILLER
 BS  .IN            7.875:   BIT SIZE
 BSD .F               825:   BIT SIZE AT DEPTH
 DFT .                KCL:   DRILLING FLUID TYPE
 DFD .                8.6:   DRILLING FLUID DENSITY
 DFV .                 30:   DRILLING FLUID VISCOSITY
 DFPH.                 11:   DRILLING FLUID PH
 DFL .                 14:   DRILLING FLUID LOSS
 MSS .            MUD PIT:   MUD SAMPLE SOURCE
 RMS .OHMM            .32:   RESISTIVITY MUD SAMPLE
 MST .F                72:   MUD SAMPLE TEMPERATURE
 RMF .OHMM            .28:   RESISTIVITY MUD FILTRATE SAMPLE
 MFST.F                72:   MUD FILTRATE SAMPLE TEMPERATURE
 RMC .OHMM            .50:   RESISTIVITY MUD CAKE
 MCST.F                82:   MUD CAKE SAMPLE TEMPERATURE
 MFSS.               MEAS:   MUD FILTRATE SAMPLE SOURCE
 RMB .OHMM            .31:   RESISTIVITY MUD AT BHT
 BHT .F                75:   BOTTOM HOLE TEMPERATURE
 TCS .HRS               2:   TIME CURCULATED STOPPED
 MRT .F                75:   MAXIMUM RECORDED TEMPERATURE
 LUN .               2958:   LOGGING UNIT NUMBER
 LUL .              CSPR.:   LOGGING UNIT LOCATION
 ENGI.             MILLER:   RECORDING ENGINEER
 WITN.            RHOADES:   WITNESSED BY
 CLNT.            A2DTECH:   CLIENT CODE
 ORIG.    1" , 2.5" PRINT:   ORIGIN OF DATA
 UWI .       490251063200:   UNIQUE WELL ID
 DICO. A2D Technologies, Inc.:   DIGITIZING COMPANY
~OTHER INFORMATION
~A   DEPT       SN        ILD        SPR       RHOB       DPOR       CORR         GRD      CALD   
# ...
  263.0000     6.9926     6.2956   -29.3115     2.4764     0.1209     0.0418    66.9006     7.0103
  263.5000     7.0150     6.2261   -29.3865     2.4785     0.1194     0.0407    68.2775     7.0900
  264.0000     7.0375     6.1574   -29.4583     2.4811     0.1178     0.0396    71.2284     7.1820
  264.5000     7.0627     6.0894   -29.5137     2.4840     0.1156     0.0381    74.1175     7.2653
  265.0000     7.0419     6.0223   -29.4617     2.4867     0.1132     0.0397    74.9385     7.3513
  265.5000     7.0190     5.9558   -29.4186     2.4896     0.1107     0.0413    74.3294     7.4390
  266.0000     6.9961     5.8900   -29.3705     2.4924     0.1082     0.0433    73.9683     7.5002
  266.5000     6.9718     5.9385   -29.3239     2.4986     0.1016     0.0461    74.2146     7.4997
  267.0000     6.9481     6.0215   -29.2776     2.5063     0.0892     0.0378    74.5108     7.5005
  267.5000     6.9347     6.1055   -29.2307     2.5141     0.0951     0.0301    72.0602     7.4961
  268.0000     6.9347     6.1908   -29.1841     2.5151     0.1084     0.0325    67.3512     7.4914
  268.5000     7.1323     6.2773   -29.1375     2.5008     0.1217     0.0340    61.0760     7.4869
  269.0000     7.5654     6.3650   -29.0909     2.4869     0.1260     0.0317    63.0183     7.4822
  269.5000     8.0247     6.4421   -29.0443     2.4774     0.1270     0.0300    68.3768     7.4776
  270.0000     8.3374     6.3831   -28.9976     2.4713     0.1280     0.0282    74.3267     7.4730
  270.5000     8.0198     6.3043   -28.9508     2.4670     0.1292     0.0262    74.3997     7.4686
  271.0000     7.7021     6.2266   -28.9045     2.4671     0.1292     0.0306    74.6374     7.4639
  271.5000     7.3969     6.1498   -28.8573     2.4671     0.1273     0.0358    75.2629     7.4598
  272.0000     7.1039     6.0740   -28.8107     2.4702     0.1246     0.0381    74.1391     7.4535
  272.5000     6.6839     5.9991   -28.7662     2.4737     0.1220     0.0376    71.8676     7.4480
  273.0000     6.7098     5.8763   -28.7134     2.4751     0.1237     0.0373    72.7437     7.4420
  273.5000     6.7628     5.8815   -28.7606     2.4750     0.1252     0.0372    74.1973     7.4361
  274.0000     6.8161     5.9056   -28.8566     2.4750     0.1245     0.0369    75.9500     7.4310
  274.5000     6.8699     5.9298   -28.9518     2.4750     0.1236     0.0366    76.0098     7.4241
  275.0000     6.9241     5.9542   -29.0445     2.4750     0.1239     0.0364    73.2006     7.4171
  275.5000     6.9787     5.9785   -29.0999     2.4756     0.1248     0.0361    71.7741     7.3772
  276.0000     7.0338     6.0029   -29.0318     2.4766     0.1252     0.0359    72.2132     7.3451
  276.5000     7.0637     6.0273   -28.9638     2.4780     0.1206     0.0356    72.6348     7.3092
  277.0000     7.0637     6.0518   -28.8979     2.4795     0.1148     0.0354    74.2288     7.3272
  277.5000     7.0637     6.0764   -28.8286     2.4808     0.1191     0.0352    75.8841     7.3671
  278.0000     7.0637     6.1012   -28.7469     2.4777     0.1219     0.0349    74.6328     7.4073
  278.5000     7.0637     6.1263   -28.8204     2.4748     0.1215     0.0347    73.8466     7.4208
  279.0000     7.0636     6.1516   -29.1757     2.4712     0.1212     0.0344    74.8798     7.4206
  279.5000     7.0636     6.1769   -29.5072     2.4710     0.1263     0.0343    75.8936     7.4200
  280.0000     6.9450     6.2077   -29.8468     2.4666     0.1300     0.0324    77.0343     7.4204
  280.5000     6.8031     6.1401   -29.8949     2.4603     0.1300     0.0275    77.5995     7.4230
  281.0000     6.6640     6.0320   -29.8562     2.4582     0.1300     0.0228    77.1145     7.3922
  281.5000     6.5277     5.9255   -29.8169     2.4577     0.1361     0.0180    73.9394     7.3460
  282.0000     6.3942     5.8208   -29.7824     2.4538     0.1420     0.0127    70.1786     7.2946
  282.5000     6.2644     5.7180   -29.7452     2.4467     0.1462     0.0109    68.6235     7.2471
  283.0000     6.2091     5.5606   -29.7083     2.4412     0.1468     0.0150    68.8754     7.0930
  283.5000     6.2091     5.5709   -29.6715     2.4423     0.1444     0.0187    68.9575     6.9517
  284.0000     6.2387     5.6040   -29.6347     2.4432     0.1431     0.0224    68.9651     6.9409
  284.5000     6.2682     5.6375   -29.5985     2.4444     0.1441     0.0263    69.9661     6.9482
  285.0000     6.2978     5.6712   -29.5613     2.4445     0.1452     0.0300    71.9791     7.0535
  285.5000     6.3276     5.7051   -29.5190     2.4427     0.1426     0.0338    73.1783     7.1871
  286.0000     6.3575     5.7390   -29.3967     2.4409     0.1445     0.0376    74.3879     7.3687
  286.5000     6.3875     5.7731   -29.2455     2.4393     0.1484     0.0421    77.0765     7.3645
  287.0000     6.4177     5.8072   -29.0951     2.4374     0.1472     0.0545    80.1702     7.3548
  287.5000     6.4481     5.8416   -28.9456     2.4378     0.1455     0.0697    80.2531     7.3373
  288.0000     6.4785     5.8761   -28.7955     2.4428     0.1442     0.0853    79.1292     7.3694
  288.5000     6.5092     5.9109   -28.6455     2.4539     0.1321     0.0995    77.9309     7.4394
  289.0000     6.5399     5.9458   -28.4956     2.4661     0.1215     0.1167    75.1939     7.4955
  289.5000     6.6191     5.9809   -28.3456     2.4784     0.1154     0.1084    72.1148     7.4404
  290.0000     6.8191     6.0163   -28.1957     2.4873     0.1155     0.0973    71.3444     7.3921
  290.5000     7.0262     6.0519   -28.0454     2.4880     0.1155     0.0851    73.5290     7.3385
  291.0000     7.2398     6.0876   -27.8951     2.4889     0.1148     0.0796    75.3763     7.2852
  291.5000     7.4619     6.1236   -27.7454     2.4897     0.1124     0.0767    77.0680     7.2330
  292.0000     7.3050     6.1599   -27.5940     2.4906     0.1101     0.0735    76.5386     7.0707
  292.5000     7.1505     6.2079   -27.4448     2.4905     0.1153     0.0699    76.0055     6.8628
  293.0000     6.9995     6.1952   -27.2969     2.4886     0.1204     0.0611    75.4271     6.6428
  293.5000     6.8088     6.1726   -27.1401     2.4803     0.1254     0.0580    74.3956     6.6376
  294.0000     6.8276     6.1499   -27.1857     2.4730     0.1305     0.0627    71.6051     6.7499
  294.5000     6.8932     6.1274   -27.4312     2.4652     0.1304     0.0682    68.9276     6.8584
  295.0000     6.9593     6.1053   -27.6635     2.4664     0.1273     0.0690    66.8423     6.8541
  295.5000     7.0259     6.0833   -27.9029     2.4693     0.1244     0.0665    68.3252     6.8503
  296.0000     7.0664     6.0613   -28.1480     2.4694     0.1266     0.0671    69.5270     6.6632
  296.5000     6.9813     6.0387   -28.2192     2.4685     0.1287     0.0692    70.6876     6.4768
  297.0000     6.8452     6.0167   -27.8505     2.4678     0.1308     0.0711    70.6486     6.2895
  297.5000     6.7115     5.9850   -27.4922     2.4676     0.1311     0.0731    71.2882     6.1475
  298.0000     6.5803     6.0098   -27.1220     2.4674     0.1252     0.0732    72.3449     6.1202
  298.5000     6.4410     6.0633   -26.7598     2.4747     0.1192     0.0708    73.4444     6.3302
  299.0000     6.4863     6.1173   -26.3936     2.4814     0.1140     0.0687    73.1704     6.7081
  299.5000     6.5681     6.1719   -26.2994     2.4886     0.1132     0.0665    72.8338     6.9215
  300.0000     6.6510     6.2268   -26.3023     2.4889     0.1131     0.0643    74.1505     6.8930
  300.5000     6.7351     6.2823   -26.3044     2.4892     0.1131     0.0620    75.4526     6.9020
  301.0000     6.8204     6.3381   -26.3093     2.4885     0.1169     0.0600    77.0192     6.9002
  301.5000     6.9069     6.3944   -26.3355     2.4867     0.1217     0.0584    75.8900     6.8876
  302.0000     6.9943     6.4512   -26.3606     2.4814     0.1268     0.0637    74.5435     6.7330
  302.5000     7.0828     6.5085   -26.3860     2.4763     0.1261     0.0687    73.0702     6.5832
  303.0000     7.1724     6.5663   -26.4116     2.4755     0.1253     0.0742    72.6589     6.6054
