~VERSION INFORMATION
 VERS.                2.0:   CWLS LOG ASCII STANDARD - VERSION 2.0
 WRAP.                 NO:   ONE LINE PER DEPTH STEP
~WELL INFORMATION
#MNEM.UNIT      DATA TYPE    INFORMATION
#----------   ------------   ------------------------------
 STRT.F           64.0000:   START DEPTH
 STOP.F          390.0000:   STOP DEPTH
 STEP.F            0.5000:   STEP LENGTH
 NULL.          -999.2500:   NO VALUE
 COMP. DEPARTMENT OF ENERGY:   COMPANY
 WELL. NPR-3 55-65-SX C-2 #55-3:   WELL
 FLD . TEAPOT NAVAL RESERVE:   FIELD
 LOC .       S3 T38N R78W:   LOCATION
 CNTY.            NATRONA:   COUNTY
 STAT.            WYOMING:   STATE
 CTRY. UNITED STATES OF AMERICA:   COUNTRY
 SRVC.      Dresser Atlas:   SERVICE COMPANY
 DATE.        29-JUN-1985:   LOGDATE
 API .       490251134500:   API NUMBER
~CURVE INFORMATION
#MNEM.UNIT       API CODE    CURVE DESCRIPTION
#----------   ------------   ------------------------------
 DEPT.F                  :   
 CALD.IN     45 280 60 00:   CALIPER FROM DENSITY LOG
 CNC .DEC    42 890 03 00:   NEUTRON POROSITY SANDSTONE
 CORR.G/C3   45 356 01 00:   DENSITY CORRECTION
 GRD .GAPI   45 310 01 00:   GAMMA RAY FROM DENSITY LOG
 PORD.DEC    45 890 12 00:   POROSITY DENSITY SANDSTONE
 RHOB.G/C3   45 350 01 00:   BULK DENSITY
 SPR .MV     07 010 01 00:   SPONTANEOUS POTENTIAL
 ILD .OHMM   06 120 46 00:   INDUCTION LOG DEEP
 ILM .OHMM   07 120 44 00:   INDUCTION LOG MEDIUM
~PARAMETER INFORMATION
#MNEM.UNIT          VALUE    DESCRIPTION
#----------   ------------   ------------------------------
 PD  .                 GL:   PERMANENT DATUM
 EPD .F              5168:   ELEVATION PERMANENT DATUM
 LMF .                 GL:   LOG MEASURED FROM
 DMF .                 GL:   DRILLING MEASURED FROM
 EGL .F              5168:   GROUND LEVEL
 DATE.        29-JUN-1985:   RUN DATE
 RUN .                  1:   RUN NUMBER
 DD  .F               394:   DEPTH DRILLER
 DL  .F               394:   DEPTH LOGGER
 BLI .F               386:   BOTTOM LOG INTERVAL
 CS  .IN                7:   CASING SIZE
 CBD .F                80:   CASING BOTTOM DRILLER
 CBL .F                82:   CASING BOTTOM LOGGER
 BS  .IN            4.875:   BIT SIZE
 BSD .F               394:   BIT SIZE AT DEPTH
 DFT .           FOAM AIR:   DRILLING FLUID TYPE
 TCS .HRS               5:   TIME CURCULATED STOPPED
 MRT .F               238:   MAXIMUM RECORDED TEMPERATURE
 LUN .               6274:   LOGGING UNIT NUMBER
 LUL .               GLTE:   LOGGING UNIT LOCATION
 ENGI.             RAUTIO:   RECORDING ENGINEER
 WITN.           JENNINGS:   WITNESSED BY
 CLNT.            A2DTECH:   CLIENT CODE
 ORIG.           5" PRINT:   ORIGIN OF DATA
 UWI .       490251134500:   UNIQUE WELL ID
 DICO. A2D Technologies, Inc.:   DIGITIZING COMPANY
~OTHER INFORMATION
~A   DEPT     CALD          CNC     CORR        GRD       PORD       RHOB        SPR        ILD        ILM   
# ...
  319.5000     5.1053     0.2675     0.0230   113.2467     0.1911     2.3412  -113.3711     2.6751     2.7075
  320.0000     5.1054     0.2842    -0.0236   114.7601     0.2020     2.3179  -111.8540     2.6197     2.6704
  320.5000     5.0905     0.2875    -0.0342   113.2614     0.1996     2.3210  -110.0353     2.5655     2.6338
  321.0000     5.0907     0.2863    -0.0372   112.0639     0.1884     2.3482  -108.5181     2.5298     2.6146
  321.5000     5.1059     0.2791    -0.0252   111.7682     0.1739     2.3723  -107.6043     2.4946     2.5798
  322.0000     5.1060     0.2682    -0.0041   113.2835     0.1585     2.3858  -107.5955     2.4771     2.5622
  322.5000     5.1212     0.2633     0.0184   113.8932     0.1570     2.3911  -111.2066     2.4767     2.5270
  323.0000     5.1063     0.2646     0.0350   113.9006     0.1567     2.3911  -114.8959     2.4593     2.4924
  323.5000     5.1065     0.2723     0.0440   114.2093     0.1570     2.3904  -117.2221     2.4589     2.4753
  324.0000     5.0916     0.2703     0.0383   115.4232     0.1558     2.3911  -115.4012     2.4586     2.4755
  324.5000     5.0766     0.2588     0.0184   116.3341     0.1534     2.3949  -112.9791     2.4244     2.4585
  325.0000     5.0768     0.2470     0.0259   116.6427     0.1528     2.3971  -112.0653     2.4073     2.4587
  325.5000     5.0770     0.2428     0.0424   114.8428     0.1562     2.3924  -112.3581     2.3904     2.4589
  326.0000     5.0771     0.2498     0.0274   112.4405     0.1622     2.3848  -113.5559     2.3735     2.4590
  326.5000     5.0773     0.2598     0.0093   110.3395     0.1625     2.3813  -115.3570     2.3406     2.4592
  327.0000     5.0774     0.2661     0.0003   109.4414     0.1622     2.3821  -115.0466     2.3241     2.4594
  327.5000     5.0776     0.2683    -0.0057   110.0530     0.1601     2.3843  -113.5244     2.3077     2.4256
  328.0000     5.0777     0.2707    -0.0103   115.7832     0.1559     2.3881  -112.2775     2.2756     2.3759
  328.5000     5.0779     0.2737    -0.0048   121.2726     0.1531     2.3926  -111.7019     2.2595     2.3432
  329.0000     5.0931     0.2788     0.0258   124.9214     0.1513     2.3971  -113.8024     2.2436     2.3111
  329.5000     5.0932     0.2961     0.0379   124.2409     0.1489     2.4017  -115.9052     2.2125     2.2794
  330.0000     5.0934     0.2997     0.0439   118.2241     0.1541     2.4039  -116.5019     2.1969     2.2638
  330.5000     5.0935     0.3012     0.0078   116.4224     0.1586     2.3919  -114.6809     2.1814     2.2327
  331.0000     5.0937     0.3024     0.0002   118.2388     0.1604     2.3873  -112.5605     2.1661     2.2174
  331.5000     5.0938     0.2979     0.0062   120.6558     0.1592     2.3905  -110.7417     2.1508     2.2023
  332.0000     5.0940     0.2891     0.0258   122.1692     0.1547     2.3986  -108.6213     2.1357     2.2024
  332.5000     5.0791     0.2795     0.0333   123.3814     0.1493     2.4062  -106.7723     2.1206     2.1873
  333.0000     5.0792     0.2755     0.0318   124.2924     0.1399     2.4145  -106.1900     2.1351     2.1875
  333.5000     5.0794     0.2728     0.0182   123.0949     0.1335     2.4228  -106.7849     2.1347     2.1725
  334.0000     5.0795     0.2725    -0.0013   121.2684     0.1296     2.4326  -107.6788     2.1642     2.1727
  334.5000     5.0797     0.2753    -0.0104   120.7000     0.1339     2.4371  -108.8766     2.2094     2.2032
  335.0000     5.0949     0.2955    -0.0104   120.6241     0.1393     2.4250  -110.3783     2.2555     2.2341
  335.5000     5.0950     0.2989     0.0002   118.3069     0.1423     2.4152  -110.3673     2.3027     2.2655
  336.0000     5.0952     0.2721     0.0077   115.0010     0.1426     2.4136  -109.1518     2.3345     2.2973
  336.5000     5.0953     0.2535     0.0107   111.3939     0.1402     2.4145  -108.2380     2.3667     2.3458
  337.0000     5.0955     0.2529     0.0122   109.8952     0.1333     2.4185  -107.9276     2.3994     2.3649
  337.5000     5.0956     0.2571     0.0183   110.8062     0.1200     2.4364  -108.2454     2.3990     2.3790
  338.0000     5.0958     0.2559     0.0214   113.8256     0.1106     2.4567  -110.9243     2.3821     2.3792
  338.5000     5.1110     0.2575     0.0257   115.6402     0.1094     2.4695  -111.5210     2.3490     2.3793
  339.0000     5.1112     0.2623     0.0272   114.4226     0.1135     2.4597  -110.6050     2.3163     2.3630
  339.5000     5.1113     0.2738     0.0121   113.5082     0.1405     2.4115  -107.8812     2.2684     2.3632
  340.0000     5.1115     0.2826    -0.0135   114.1581     0.1532     2.4009  -107.2691     2.2368     2.3470
  340.5000     5.1116     0.2913    -0.0180   120.4907     0.1541     2.3971  -108.4669     2.1754     2.3309
  341.0000     5.1118     0.3023    -0.0014   125.0161     0.1532     2.3971  -109.9686     2.1451     2.2672
  341.5000     5.1119     0.3125     0.0062   127.7343     0.1526     2.3994  -109.0526     2.1007     2.2203
  342.0000     5.1120     0.3107    -0.0060   128.0411     0.1487     2.4032  -108.1388     2.0428     2.1751
  342.5000     5.1122     0.3019    -0.0090   122.0262     0.1439     2.4092  -107.5264     2.0130     2.1452
  343.0000     5.0973     0.2980    -0.0045   119.9232     0.1415     2.4153  -106.6106     2.0004     2.1158
  343.5000     5.0975     0.2874     0.0211   118.7276     0.1412     2.4062  -105.6968     1.9863     2.1013
  344.0000     5.0825     0.2796     0.0271   120.5422     0.1485     2.4009  -104.7831     1.9860     2.1161
  344.5000     5.0827     0.2756    -0.0090   125.4342     0.1514     2.3994  -105.0759     1.9996     2.1163
  345.0000     5.0828     0.2777    -0.0226   128.3882     0.1517     2.4009  -106.8770     2.0133     2.1164
  345.5000     5.0830     0.2790    -0.0286   126.5902     0.1496     2.4047  -107.7754     2.1130     2.1611
  346.0000     5.0831     0.2687    -0.0211   125.9933     0.1496     2.4062  -108.0664     2.2487     2.2221
  346.5000     5.0833     0.2572     0.0030   128.1109     0.1496     2.4024  -108.0572     2.4097     2.3329
  347.0000     5.0834     0.2494     0.0320   128.4195     0.1481     2.4039  -108.0483     2.6786     2.5068
  347.5000     5.0836     0.2458     0.0601   128.1238     0.1424     2.4130  -107.7376     3.1802     3.0798
  348.0000     5.0988     0.2430     0.0781   120.9041     0.1385     2.4205  -107.7269     3.9397     3.8194
  348.5000     5.0990     0.2418     0.0616   109.7669     0.1373     2.4250  -115.2595     4.6844     4.7039
  349.0000     5.0991     0.2429     0.0195   101.6417     0.1383     2.4241  -123.9988     6.2662     5.4424
  349.5000     5.0993     0.2561    -0.0136   100.7455     0.1451     2.4130  -125.1988     7.6600     6.5191
  350.0000     5.0947     0.2739    -0.0272   104.4010     0.1705     2.3904  -123.9819     8.7979     8.1906
  350.5000     5.0843     0.2863    -0.0257   103.1716     0.1977     2.3474  -123.0769    10.3898    10.1962
  351.0000     5.0843     0.2939    -0.0046   102.2735     0.2273     2.3210  -124.2836    11.2908    11.5986
  351.5000     5.0843     0.2975     0.0198   104.3912     0.2405     2.2660  -124.5852    11.9344    12.2608
  352.0000     5.0843     0.2945     0.0360   106.8082     0.2492     2.2449  -122.7753    12.2778    12.6060
  352.5000     5.0843     0.2963     0.0149   109.2252     0.2589     2.2223  -122.1719    12.5277    12.6938
  353.0000     5.0843     0.3018    -0.0031   110.7385     0.2638     2.2154  -121.8703    12.6148    12.6938
  353.5000     5.0843     0.3007    -0.0122   111.9507     0.2632     2.2148  -120.9653    12.1851    12.5188
  354.0000     5.0843     0.2924    -0.0182   111.3557     0.2535     2.2313  -121.2911    11.2908    11.9251
  354.5000     5.0843     0.2815    -0.0227   109.8570     0.2484     2.2404  -122.5259    10.3180    10.1656
  355.0000     5.0843     0.2733    -0.0272   108.3583     0.2466     2.2442  -123.3786     8.7370     8.9554
  355.5000     5.0843     0.2724    -0.0333   108.0645     0.2445     2.2487  -122.1719     7.8743     7.9260
