~VERSION INFORMATION
 VERS.                2.0:   CWLS LOG ASCII STANDARD - VERSION 2.0
 WRAP.                 NO:   ONE LINE PER DEPTH STEP
~WELL INFORMATION
#MNEM.UNIT      DATA TYPE    INFORMATION
#----------   ------------   ------------------------------
 STRT.F           84.0000:   START DEPTH
 STOP.F         1141.0000:   STOP DEPTH
 STEP.F            0.5000:   STEP LENGTH
 NULL.          -999.2500:   NO VALUE
 COMP.           U S NAVY:   COMPANY
 WELL.     NPR#3 #78-S-11:   WELL
 FLD .             TEAPOT:   FIELD
 LOC .      S11 T38N R78W:   LOCATION
 CNTY.            NATRONA:   COUNTY
 STAT.            WYOMING:   STATE
 CTRY. UNITED STATES OF AMERICA:   COUNTRY
 SRVC.       Schlumberger:   SERVICE COMPANY
 DATE.        28-AUG-1966:   LOGDATE
 API .       490250970700:   API NUMBER
~CURVE INFORMATION
#MNEM.UNIT       API CODE    CURVE DESCRIPTION
#----------   ------------   ------------------------------
 DEPT.F                  :   
 SPR .MV     05 010 01 00:   SPONTANEOUS POTENTIAL FROM RES.
 ASN .OHMM   05 041 16 00:   AMPLIFIED SHORT NORMAL 16"
 ILD .OHMM   05 120 46 00:   INDUCTION LOG DEEP
 CILD.MMHO   05 110 46 00:   CONDUCTIVITY INDUCTION LOG DEEP
 GRD .GAPI   45 310 01 00:   GAMMA RAY FROM DENSITY LOG
 CALD.IN     45 280 60 00:   CALIPER FROM DENSITY LOG
 DPHI.DEC    45 890 12 00:   DENSITY POROSITY SANDSTONE
 RHOB.G/C3   45 350 01 00:   BULK DENSITY
~PARAMETER INFORMATION
#MNEM.UNIT          VALUE    DESCRIPTION
#----------   ------------   ------------------------------
 PD  .                 GL:   PERMANENT DATUM
 EPD .F              5245:   ELEVATION PERMANENT DATUM
 LMF .                 KB:   LOG MEASURED FROM
 DAPD.F                 5:   FEET ABOVE PERMANENT DATUM
 DMF .                 KB:   DRILLING MEASURED FROM
 EKB .F              5250:   KELLING BUSHING
 EGL .F              5245:   GROUND LEVEL
 DATE.            8-28-66:   RUN DATE
 RUN .                  1:   RUN NUMBER
 DD  .F              1142:   DEPTH DRILLER
 DL  .F              1142:   DEPTH LOGGER
 BLI .F              1141:   BOTTOM LOG INTERVAL
 TLI .F                85:   TOP LOG INTERVAL
 CS  .IN            8.625:   CASING SIZE
 CBD .F                10:   CASING BOTTOM DRILLER
 BS  .IN             6.75:   BIT SIZE
 BSD .F              1142:   BIT SIZE AT DEPTH
 DFT .           CHEM GEL:   DRILLING FLUID TYPE
 DFD .               10.7:   DRILLING FLUID DENSITY
 DFV .                 40:   DRILLING FLUID VISCOSITY
 MSS .          FLOW LINE:   MUD SAMPLE SOURCE
 RMS .OHMM           1.58:   RESISTIVITY MUD SAMPLE
 MST .F                70:   MUD SAMPLE TEMPERATURE
 RMF .OHMM            .93:   RESISTIVITY MUD FILTRATE SAMPLE
 MFST.F                70:   MUD FILTRATE SAMPLE TEMPERATURE
 MFSS.                  M:   MUD FILTRATE SAMPLE SOURCE
 RMB .OHMM           1.19:   RESISTIVITY MUD AT BHT
 BHT .F                94:   BOTTOM HOLE TEMPERATURE
 TCS .HRS               1:   TIME CURCULATED STOPPED
 MRT .F                94:   MAXIMUM RECORDED TEMPERATURE
 LUN .               4507:   LOGGING UNIT NUMBER
 LUL .               CSPR:   LOGGING UNIT LOCATION
 ENGI.             KNOBEL:   RECORDING ENGINEER
 WITN.         MAY/TUTTLE:   WITNESSED BY
 CLNT.            A2DTECH:   CLIENT CODE
 ORIG.           5" PRINT:   ORIGIN OF DATA
 UWI .       490250970700:   UNIQUE WELL ID
 DICO. A2D Technologies, Inc.:   DIGITIZING COMPANY
~OTHER INFORMATION
~A   DEPT      SPR          ASN        ILD      CILD       GRD       CALD       DPHI       RHOB   
# ...
  691.5000   -32.5029     9.5324     8.2701   129.6456   102.3492     7.3512     0.0941     2.5083
  692.0000   -32.5074     9.6227     8.1832   127.3791   105.7509     7.3515     0.0770     2.5256
  692.5000   -32.5118     9.6681     8.2583   124.3595   108.4382     7.3518     0.0803     2.5301
  693.0000   -32.5163     9.7103     8.4835   122.8460   110.5899     7.3520     0.0745     2.5316
  693.5000   -32.5208     9.7852     8.5586   119.0735   111.6679     7.3523     0.0790     2.5092
  694.0000   -32.3733     9.9051     8.7838   115.3010   109.9999     7.3526     0.0880     2.4988
  694.5000   -32.2280    11.4665     8.9339   111.5285   112.7591     7.3529     0.0918     2.4876
  695.0000   -31.9308    11.6914     8.9339   110.7680   113.4821     7.3532     0.0954     2.4765
  695.5000   -31.9353    11.6912     8.8589   108.5015   111.6455     7.3535     0.1005     2.4571
  696.0000   -31.9398    11.6910     8.6336   107.7409   107.9640     7.3538     0.1026     2.4720
  696.5000   -32.0951    11.4655     8.7087   108.4866   109.5821     7.3392     0.1007     2.4840
  697.0000   -32.0995    11.3902     8.7838   109.3169   109.2338     7.3396     0.0968     2.4968
  697.5000   -32.0941    11.2398     8.6336   110.7307   108.7046     7.3398     0.0914     2.5105
  698.0000   -31.9576    11.1645     8.6336   111.4762   108.8942     7.3252     0.0800     2.5231
  698.5000   -31.9623    10.9391     8.6336   113.7278   110.1530     7.3255     0.0740     2.5231
  699.0000   -31.9677    10.7887     8.7087   114.4715   111.0524     7.3108     0.0752     2.5186
  699.5000   -31.9721    10.6383     8.7838   114.4641   107.8491     7.3112     0.0803     2.4970
  700.0000   -31.9903    10.7133     8.8589   114.4566   105.7420     7.3068     0.0892     2.4858
  700.5000   -32.1704    10.7130     8.8564   115.1734   107.1554     7.2785     0.1003     2.4874
  701.0000   -32.3505    10.7879     8.8542   116.6419   106.4518     7.2524     0.1015     2.4964
  701.5000   -32.5306    10.7876     8.8520   116.6039   106.6411     7.2528     0.1011     2.4942
  702.0000   -32.7722    10.7874     8.9254   116.5663   108.0804     7.2531     0.1050     2.4763
  702.5000   -33.1071    10.9373     8.9977   116.5286   109.1626     7.2534     0.1095     2.4636
  703.0000   -33.2730    11.0872     9.0706   116.4154   110.2448     7.2537     0.1101     2.4607
  703.5000   -33.4093    11.1621     9.1434   114.1943   111.1483     7.2390     0.1100     2.4623
  704.0000   -33.4198    11.1619     9.2162   112.5502   111.8707     7.1947     0.1088     2.4668
  704.5000   -33.4303    11.2367     9.2890   110.3539   105.6341     7.1652     0.1076     2.4766
  705.0000   -33.2873    11.3866     9.3619   108.0572   101.7162     7.1208     0.1058     2.4901
  705.5000   -32.8479    11.0810     9.3596   108.0196    98.6913     7.0913     0.1028     2.5081
  706.0000   -32.4059    10.2403     9.2072   109.4805    95.8449     7.0766     0.0853     2.5171
  706.5000   -32.1121    10.0346     9.1974   110.9584    95.8556     7.0770     0.0760     2.5179
  707.0000   -31.9744    10.7951     9.1276   113.1799    97.6520     7.0773     0.0766     2.5097
  707.5000   -31.9848    11.1603     8.9627   116.1451   102.6628     7.1372     0.0832     2.5000
  708.0000   -32.1462    10.2591     8.8975   118.3666   106.9592     7.2120     0.0939     2.4784
  708.5000   -32.1566     9.9586     8.8201   120.5882   108.3958     7.2570     0.1125     2.4575
  709.0000   -32.1671     9.9584     8.8179   122.8191   111.0878     7.3020     0.1175     2.4396
  709.5000   -32.1776    10.0333     8.5905   125.0406   110.5628     7.3172     0.1160     2.4532
  710.0000   -32.1881    10.0330     8.4381   125.7561   111.3571     7.3174     0.1136     2.4637
  710.5000   -32.1986    10.1829     8.2106   125.7093   113.1167     7.3177     0.1100     2.4667
  711.0000   -32.3599    10.1827     8.1333   125.6718   114.7000     7.3180     0.1064     2.4728
  711.5000   -32.3703     9.8521     8.0560   124.8813   114.7107     7.3183     0.1033     2.4855
  712.0000   -32.2300     9.7168     7.9787   124.8438   112.1596     7.3037     0.1000     2.4945
  712.5000   -32.2405     9.5214     7.9764   126.3158   112.0531     7.3015     0.0955     2.5088
  713.0000   -32.2510     9.3860     7.8991   127.8195   114.0571     7.2745     0.0868     2.5200
  713.5000   -32.2614     9.3708     7.7468   130.0752   114.0389     7.2748     0.0796     2.5164
  714.0000   -32.2719     9.4757     7.5944   133.0827   115.3262     7.3049     0.0775     2.5030
  714.5000   -32.1312     9.5505     7.5171   136.0902   116.0501     7.3073     0.0879     2.4918
  715.0000   -31.8401     9.4752     7.3647   140.6015   116.5952     7.3204     0.0999     2.4777
  715.5000   -31.5492     9.2798     7.2874   145.1128   117.4750     7.3356     0.0999     2.4605
  716.0000   -31.2580     8.8742     7.2101   150.3759   117.4429     7.3359     0.0995     2.4636
  716.5000   -31.1177     8.6487     7.0577   154.1353   116.7818     7.3362     0.0995     2.4823
  717.0000   -30.9743     8.3632     7.0554   157.8947   117.9024     7.3514     0.0995     2.4958
  717.5000   -30.6787     8.0927     7.0408   158.7597   117.1428     7.3517     0.1010     2.5026
  718.0000   -30.3950     7.9573     7.1261   157.1429   116.6355     7.3520     0.1042     2.4825
  718.5000   -30.4054     7.9121     7.1990   154.8872   117.1819     7.3523     0.1078     2.4713
  719.0000   -30.5672     7.9569     7.2717   153.3835   115.7500     7.3675     0.1069     2.4661
  719.5000   -30.7542     8.2119     7.4947   151.1100   114.8559     7.3678     0.1057     2.4512
  720.0000   -31.0428     8.5120     7.6426   148.0705   113.4166     7.3681     0.1122     2.4468
  720.5000   -31.2041     8.7680     7.7931   145.0300   110.4179     7.3684     0.1092     2.4700
  721.0000   -31.2146     8.8729     7.9385   141.1226   109.8953     7.3687     0.0987     2.4835
  721.5000   -31.2251     8.9333     8.0864   134.5865   108.2928     7.3690     0.0984     2.4933
  722.0000   -31.2356     8.9766     8.1592   130.8271   106.3500     7.3693     0.0939     2.5105
  722.5000   -31.2460     8.9914     8.1569   130.8271   105.6606     7.3696     0.0839     2.5181
  723.0000   -31.4074     8.9611     8.0791   133.8346   105.6714     7.3699     0.0806     2.5353
  723.5000   -31.4178     8.9158     8.0018   139.8496   106.7607     7.3702     0.0602     2.5555
  724.0000   -31.4283     8.7955     7.9996   145.8647   108.5571     7.3705     0.0578     2.5451
  724.5000   -31.5896     8.7202     7.9223   150.3759   110.8846     7.3708     0.0922     2.4928
  725.0000   -31.6001     8.6449     7.9200   151.8797   110.7143     7.3711     0.0979     2.4922
  725.5000   -31.4598     8.5696     7.9178   151.8797   107.1536     7.3714     0.0946     2.4999
  726.0000   -31.4702     8.5093     7.9156   151.1278   101.4500     7.3717     0.0811     2.4996
  726.5000   -31.4807     8.5091     7.9890   150.3759   105.2108     7.3571     0.0850     2.5009
  727.0000   -31.4912     8.5389     7.9111   148.8722   107.9001     7.3425     0.0807     2.5073
  727.5000   -31.3482     8.5687     7.9089   147.3684   110.4108     7.3428     0.0705     2.5050
  728.0000   -31.0597     8.6285     7.9066   145.1128   111.1428     7.3431     0.0873     2.5022
  728.5000   -30.7659     8.6733     7.9044   144.3609   109.5394     7.3434     0.0834     2.5022
  729.0000   -30.6255     8.7482     7.9022   142.1053   108.8359     7.3437     0.0738     2.5057
  729.5000   -30.6386     8.8681     7.8999   139.0977   108.3109     7.3589     0.0809     2.5203
  730.0000   -30.3448     8.9429     7.8977   136.0902   110.2859     7.3741     0.0797     2.5278
  730.5000   -30.3579     8.9277     7.8204   135.3383   111.0109     7.3744     0.0788     2.5144
  731.0000   -30.5192     8.8824     7.8182   135.3383   110.4859     7.3747     0.0832     2.5122
  731.5000   -30.6805     8.8822     7.7409   133.8346   110.1393     7.3750     0.0883     2.5220
