~VERSION INFORMATION
 VERS.                2.0:   CWLS LOG ASCII STANDARD - VERSION 2.0
 WRAP.                 NO:   ONE LINE PER DEPTH STEP
~WELL INFORMATION
#MNEM.UNIT      DATA TYPE    INFORMATION
#----------   ------------   ------------------------------
 STRT.F           46.0000:   START DEPTH
 STOP.F          490.0000:   STOP DEPTH
 STEP.F            0.5000:   STEP LENGTH
 NULL.          -999.2500:   NO VALUE
 COMP.    FENIX & SCISSON:   COMPANY
 WELL.        NPR #55-S-3:   WELL
 FLD .              NPR 3:   FIELD
 LOC .       S3 T38N R78W:   LOCATION
 CNTY.            NATRONA:   COUNTY
 STAT.            WYOMING:   STATE
 CTRY. UNITED STATES OF AMERICA:   COUNTRY
 SRVC.      Dresser Atlas:   SERVICE COMPANY
 DATE.        12-MAR-1977:   LOGDATE
 API .       490251028700:   API NUMBER
~CURVE INFORMATION
#MNEM.UNIT       API CODE    CURVE DESCRIPTION
#----------   ------------   ------------------------------
 DEPT.F                  :   
 SPR .MV     07 010 01 00:   SPONTANEOUS POTENTIAL
 ILM .OHMM   07 120 44 00:   INDUCTION LOG MEDIUM
 ILD .OHMM   07 120 46 00:   INDUCTION LOG DEEP
 SFL .OHMM   07 220 01 00:   SHALLOW FOCUSED LOG RESISTIVITY
 CALD.IN     45 280 60 00:   CALIPER FROM DENSITY LOG
 GRD .GAPI   45 310 01 00:   GAMMA RAY FROM DENSITY LOG
 CORR.G/C3   45 356 01 00:   DENSITY CORRECTION
 DPHI.DEC    45 890 12 00:   DENSITY POROSITY SANDSTONE
 RHOB.G/C3   45 350 01 00:   BULK DENSITY
~PARAMETER INFORMATION
#MNEM.UNIT          VALUE    DESCRIPTION
#----------   ------------   ------------------------------
 PD  .                 GL:   PERMANENT DATUM
 EPD .F              5169:   ELEVATION PERMANENT DATUM
 LMF .                 GL:   LOG MEASURED FROM
 DMF .                 GL:   DRILLING MEASURED FROM
 EGL .F              5169:   GROUND LEVEL
 DATE.        12-MAR-1977:   RUN DATE
 RUN .                  1:   RUN NUMBER
 DD  .F               498:   DEPTH DRILLER
 DL  .F               492:   DEPTH LOGGER
 BLI .F               490:   BOTTOM LOG INTERVAL
 TLI .F               046:   TOP LOG INTERVAL
 CS  .IN            8.625:   CASING SIZE
 CBD .F                40:   CASING BOTTOM DRILLER
 CBL .F               046:   CASING BOTTOM LOGGER
 BS  .IN            7.875:   BIT SIZE
 BSD .F               498:   BIT SIZE AT DEPTH
 DFT .           CHEM GEL:   DRILLING FLUID TYPE
 DFD .                8.7:   DRILLING FLUID DENSITY
 DFV .                 35:   DRILLING FLUID VISCOSITY
 DFPH.                8.0:   DRILLING FLUID PH
 DFL .                7.2:   DRILLING FLUID LOSS
 MSS .           FLOWLINE:   MUD SAMPLE SOURCE
 RMS .OHMM            .35:   RESISTIVITY MUD SAMPLE
 MST .F                60:   MUD SAMPLE TEMPERATURE
 RMF .OHMM             .3:   RESISTIVITY MUD FILTRATE SAMPLE
 MFST.F                60:   MUD FILTRATE SAMPLE TEMPERATURE
 RMC .OHMM            .73:   RESISTIVITY MUD CAKE
 MCST.F                60:   MUD CAKE SAMPLE TEMPERATURE
 MFSS.               MEAS:   MUD FILTRATE SAMPLE SOURCE
 MCSS.               MEAS:   MUD CAKE SAMPLE SOURCE
 RMB .OHMM            .33:   RESISTIVITY MUD AT BHT
 BHT .F                63:   BOTTOM HOLE TEMPERATURE
 TCS .HRS            1400:   TIME CURCULATED STOPPED
 MRT .F                63:   MAXIMUM RECORDED TEMPERATURE
 LUN .               6134:   LOGGING UNIT NUMBER
 LUL .              GLTTE:   LOGGING UNIT LOCATION
 ENGI.              NOYER:   RECORDING ENGINEER
 WITN.         STUEBINGER:   WITNESSED BY
 CLNT.            A2DTECH:   CLIENT CODE
 ORIG.           5" PRINT:   ORIGIN OF DATA
 UWI .       490251028700:   UNIQUE WELL ID
 DICO. A2D Technologies, Inc.:   DIGITIZING COMPANY
~OTHER INFORMATION
~A   DEPT      SPR        ILM        ILD        SFL       CALD        GRD       CORR         DPHI       RHOB 
# ...
  228.5000   -61.5047     5.9543     4.9139     8.8708     7.8939   114.4017     0.0286     0.0930     2.5052
  229.0000   -61.6617     6.1644     5.4159     8.8133     7.8955   115.6072     0.0287     0.0893     2.5022
  229.5000   -61.5191     6.3819     5.9691     8.6954     7.8972   117.4089     0.0333     0.0929     2.5000
  230.0000   -61.5281     6.6529     6.2681     8.5796     7.8991   122.3402     0.0349     0.0857     2.5016
  230.5000   -61.3839     6.7000     6.4025     8.0650     7.9008   121.7574     0.0351     0.0821     2.5144
  231.0000   -61.2432     6.7473     6.4500     8.0677     7.9024   118.7901     0.0367     0.0878     2.5047
  231.5000   -60.6516     6.7952     6.4985     8.4120     7.9040   118.6438     0.0398     0.0829     2.5141
  232.0000   -60.3594     6.8433     6.5920     8.9547     7.9057   117.0184     0.0382     0.0736     2.5356
  232.5000   -60.0672     6.9394     6.6409     9.0198     7.9073   115.3949     0.0341     0.0733     2.5297
  233.0000   -59.9247     7.0369     6.6901     9.0854     7.9089   114.0616     0.0282     0.0784     2.5237
  233.5000   -59.6343     7.1852     6.7396     9.0891     7.9106   113.3424     0.0238     0.0865     2.5177
  234.0000   -59.4901     7.0388     6.7896     9.1552     7.9122   114.0000     0.0239     0.0880     2.5050
  234.5000   -59.3476     6.8896     6.7928     9.2217     7.9139   116.5019     0.0270     0.0831     2.5201
  235.0000   -59.2066     6.8016     6.7967     9.2248     7.9155   115.9191     0.0301     0.0771     2.5223
  235.5000   -58.9147     6.7093     6.7999     9.1642     7.9018   114.1440     0.0303     0.0843     2.5119
  236.0000   -58.7525     6.7102     6.8031     9.1042     7.8890   113.7102     0.0349     0.0738     2.5300
  236.5000   -58.9309     6.7111     6.8062     9.0445     7.8753   114.0216     0.0350     0.0666     2.5435
  237.0000   -59.2375     6.7120     6.7625     8.9853     7.8625   115.3761     0.0321     0.0758     2.5301
  237.5000   -59.8436     6.7129     6.7656     8.8046     7.8641   117.7739     0.0307     0.0806     2.5203
  238.0000   -59.8508     6.7138     6.7222     8.7461     7.8658   119.7213     0.0324     0.0722     2.5241
  238.5000   -59.8580     6.7149     6.7261     8.8715     7.8674   118.9894     0.0385     0.0677     2.5392
  239.0000   -59.7155     6.7158     6.7292     8.9980     7.8691   116.4725     0.0371     0.0668     2.5423
  239.5000   -59.5730     6.7167     6.7324     9.1263     7.8707   113.0581     0.0356     0.0678     2.5401
  240.0000   -59.5820     6.6714     6.6883     9.2571     7.8723   112.0248     0.0313     0.0796     2.5220
  240.5000   -59.5893     6.6263     6.6922     9.2601     7.8740   113.5318     0.0270     0.0853     2.5123
  241.0000   -59.8959     6.5338     6.6954     9.1987     7.8756   115.9296     0.0256     0.0835     2.5125
  241.5000   -60.5019     6.3153     6.4716     9.2025     7.8772   117.8802     0.0272     0.0760     2.5156
  242.0000   -61.2576     6.0180     6.2115     9.2056     7.8789   121.6193     0.0363     0.0591     2.5410
  242.5000   -61.7141     5.7743     5.9619     9.2086     7.8805   124.4642     0.0484     0.0576     2.5576
  243.0000   -61.5732     5.5406     5.7222     9.0235     7.8821   127.3091     0.0396     0.0768     2.5374
  243.5000   -61.4289     5.3903     5.6074     8.5411     7.8838   128.6637     0.0322     0.1017     2.5073
  244.0000   -60.6895     5.4284     5.5712     6.3918     7.8854   126.2924     0.0248     0.1182     2.4554
  244.5000   -60.0979     5.4291     5.5739     6.4829     7.8870   122.1329     0.0144     0.1266     2.4314
  245.0000   -59.9551     5.5056     5.5000     7.9239     7.8887   120.1938     0.0250     0.1196     2.4555
  245.5000   -59.9626     5.5063     5.3162     9.1011     7.8903   121.5633     0.0252     0.1143     2.4676
  246.0000   -60.1198     5.4315     5.1025     8.9727     7.8920   119.6392     0.0253     0.1091     2.4737
  246.5000   -60.2782     5.3576     4.8974     8.7979     7.8936   123.4243     0.0254     0.1013     2.4970
  247.0000   -60.2855     5.2484     4.6682     8.8626     7.8952   125.6443     0.0270     0.1124     2.4745
  247.5000   -60.5921     4.8314     4.3789     8.8038     7.8969   126.5797     0.0287     0.1106     2.4768
  248.0000   -61.0466     4.5046     4.1540     8.2195     7.8985   124.0167     0.0333     0.1079     2.4709
  248.5000   -60.3071     4.2090     4.0711     6.1938     7.9001   116.8774     0.0334     0.1298     2.4408
  249.0000   -59.7106     4.3277     4.0730     4.5360     7.8865   114.9533     0.0260     0.1559     2.3718
  249.5000   -59.1239     4.5742     4.0754     4.3572     7.8885   112.1350     0.0216     0.1809     2.3598
  250.0000   -58.6526     4.7487     4.1547     8.0066     7.9046   111.9959     0.0360     0.1752     2.3869
  250.5000   -58.2865     5.0338     4.4172     9.9899     7.9025   114.5433     0.0518     0.0802     2.4892
  251.0000   -57.9491     5.3280     4.7807     8.9473     7.9005   115.1482     0.0325     0.0820     2.5185
  251.5000   -57.9566     5.8693     5.4485     8.5857     7.8985   113.8212     0.0235     0.0998     2.5073
  252.0000   -58.1150     6.2037     5.8378     8.5294     7.8965   115.9198     0.0282     0.0884     2.4938
  252.5000   -58.5713     6.2909     6.2118     8.5909     7.8956   118.0327     0.0298     0.0830     2.5111
  253.0000   -59.0276     6.3793     6.1681     8.8345     7.8819   115.1703     0.0284     0.0794     2.5142
  253.5000   -59.4839     6.4243     6.0826     8.8981     7.8834   116.2530     0.0285     0.0775     2.5195
  254.0000   -59.7905     6.5146     5.9116     9.0244     7.8846   114.1530     0.0271     0.0835     2.5218
  254.5000   -59.9476     6.2944     5.6746     9.1524     7.8857   114.7891     0.0272     0.0841     2.5113
  255.0000   -60.2558     5.7148     5.3315     9.4766     7.9018   122.5505     0.0273     0.0781     2.5144
  255.5000   -60.7121     5.2608     4.9746     9.6110     7.9030   124.0496     0.0289     0.0733     2.5242
  256.0000   -60.8672     4.9102     4.7063     7.7071     7.9042   122.8691     0.0288     0.0862     2.5243
  256.5000   -59.8283     4.6468     4.5457     5.6490     7.8758   124.8182     0.0228     0.1114     2.4947
  257.0000   -59.3864     4.6504     4.5138     4.7538     7.8770   121.4052     0.0172     0.1236     2.4558
  257.5000   -58.6451     4.8449     4.5131     5.6912     7.8782   118.1382     0.0173     0.1380     2.4210
  258.0000   -57.9056     5.0159     4.5439     8.1538     7.8793   117.6999     0.0204     0.1305     2.4064
  258.5000   -57.3140     5.4880     4.7356     7.5070     7.8805   118.0127     0.0235     0.1005     2.4831
  259.0000   -56.7206     5.8814     5.0740     7.5139     7.8817   115.7889     0.0206     0.1065     2.4952
  259.5000   -56.5781     6.2596     5.6278     8.7446     7.8828   114.0123     0.0177     0.1137     2.4637
  260.0000   -56.5871     6.5284     5.9171     8.9298     7.8688   111.9376     0.0163     0.1020     2.4968
  260.5000   -56.4446     6.9452     6.3718     8.9327     7.8703   110.7571     0.0225     0.0847     2.5209
  261.0000   -56.3021     7.3409     6.6409     8.9351     7.8715   111.2429     0.0226     0.0845     2.5254
  261.5000   -56.3111     7.3419     6.8736     8.9995     7.8726   112.6245     0.0182     0.0797     2.5179
  262.0000   -56.3183     7.3429     6.9206     9.0643     7.8738   114.2200     0.0168     0.1007     2.5060
  262.5000   -56.1740     7.3438     7.0644     9.0667     7.8750   111.7012     0.0169     0.0941     2.4955
  263.0000   -56.0332     7.3957     7.0633     9.0691     7.8762   112.6071     0.0215     0.0800     2.5166
  263.5000   -56.0404     7.4999     7.0623     9.0716     7.8776   114.8543     0.0261     0.0718     2.5294
  264.0000   -56.0479     7.5529     7.1104     9.0745     7.8788   115.3131     0.0307     0.0667     2.5385
  264.5000   -56.3560     7.6063     7.1095     9.0770     7.8651   115.6229     0.0293     0.0679     2.5483
