~VERSION INFORMATION
 VERS.                2.0:   CWLS LOG ASCII STANDARD - VERSION 2.0
 WRAP.                 NO:   ONE LINE PER DEPTH STEP
~WELL INFORMATION
#MNEM.UNIT      DATA TYPE    INFORMATION
#----------   ------------   ------------------------------
 STRT.F         1500.0000:   START DEPTH
 STOP.F         3480.0000:   STOP DEPTH
 STEP.F            0.5000:   STEP LENGTH
 NULL.          -999.2500:   NO VALUE
 COMP. FLUOR DANIEL (NOPSR). INC.:   COMPANY
 WELL.   22-STX-26 #22-26:   WELL
 FLD .             NPR #3:   FIELD
 LOC .      S26 T38N R78W:   LOCATION
 CNTY.            NATRONA:   COUNTY
 STAT.            WYOMING:   STATE
 CTRY. UNITED STATES OF AMERICA:   COUNTRY
 SRVC.            Unknown:   SERVICE COMPANY
 DATE.        14-JUN-1995:   LOGDATE
 API .       490252272400:   API NUMBER
~CURVE INFORMATION
#MNEM.UNIT       API CODE    CURVE DESCRIPTION
#----------   ------------   ------------------------------
 DEPT.F                  :   
 ROP .MIN/FT 91 810 01 00:   RATE OF DRILLING PENETRATION
 TGAS.UNITS  91 830 01 00:   TOTAL GAS FROM HOTWIRE
~PARAMETER INFORMATION
#MNEM.UNIT          VALUE    DESCRIPTION
#----------   ------------   ------------------------------
 EKB .F              5348:   KELLING BUSHING
 EGL .F              5338:   GROUND LEVEL
 DATE.            6-14-95:   RUN DATE
 DD  .F              3480:   DEPTH DRILLER
 BLI .F              3480:   BOTTOM LOG INTERVAL
 TLI .F              1500:   TOP LOG INTERVAL
 CS  .IN            9.625:   CASING SIZE
 CBD .F                87:   CASING BOTTOM DRILLER
 ENGI.               HUSK:   RECORDING ENGINEER
 WITN.              TOWER:   WITNESSED BY
 CLNT.            A2DTECH:   CLIENT CODE
 ORIG.           5" PRINT:   ORIGIN OF DATA
 UWI .       490252272400:   UNIQUE WELL ID
 DICO. A2D Technologies, Inc.:   DIGITIZING COMPANY
~OTHER INFORMATION
~A  DEPT         ROP       TGAS 
# ...
 2350.5000     0.5166    13.9240
 2351.0000     0.5163    13.9292
 2351.5000     0.5159    13.9344
 2352.0000     0.5156    13.9397
 2352.5000     0.5152    13.9449
 2353.0000     0.5149    13.9501
 2353.5000     0.5146    13.9554
 2354.0000     0.5142    13.9606
 2354.5000     0.5139    13.9658
 2355.0000     0.5135    13.9711
 2355.5000     0.5132    13.9763
 2356.0000     0.5128    13.9815
 2356.5000     0.5125    13.9868
 2357.0000     0.5122    13.9920
 2357.5000     0.5118    13.9972
 2358.0000     0.5115    14.0025
 2358.5000     0.5111    14.0077
 2359.0000     0.5108    14.0129
 2359.5000     0.5104    14.0182
 2360.0000     0.5101    14.0234
 2360.5000     0.5098    14.0286
 2361.0000     0.5094    14.0339
 2361.5000     0.5091    14.0391
 2362.0000     0.5087    14.0443
 2362.5000     0.5084    14.0496
 2363.0000     0.5081    14.0548
 2363.5000     0.5077    14.0600
 2364.0000     0.5074    14.0653
 2364.5000     0.5070    14.0705
 2365.0000     0.5067    14.0757
 2365.5000     0.5063    14.0810
 2366.0000     0.5060    14.0862
 2366.5000     0.5057    14.0914
 2367.0000     0.5053    14.0967
 2367.5000     0.5050    14.1019
 2368.0000     0.5046    14.1071
 2368.5000     0.5043    14.1124
 2369.0000     0.5040    14.1176
 2369.5000     0.5036    14.1228
 2370.0000     0.5033    14.1281
 2370.5000     0.5029    14.1333
 2371.0000     0.5026    14.1386
 2371.5000     0.5022    14.1438
 2372.0000     0.6574    14.1490
 2372.5000     0.6530    14.1543
 2373.0000     0.6487    14.1595
 2373.5000     0.6444    14.1647
 2374.0000     0.5360    14.1700
 2374.5000     0.5158    14.1752
 2375.0000     0.5163    14.1804
 2375.5000     0.5167    14.1857
 2376.0000     0.5169    14.1909
 2376.5000     0.5171    14.1961
 2377.0000     0.5172    14.2014
 2377.5000     0.5174    14.2066
 2378.0000     0.5175    14.2118
 2378.5000     0.5177    14.2171
 2379.0000     0.5179    14.2223
 2379.5000     0.5180    14.2275
 2380.0000     0.5182    14.2328
 2380.5000     0.5183    14.2380
 2381.0000     0.5185    14.2432
 2381.5000     0.5187    14.2485
 2382.0000     0.5188    14.2537
 2382.5000     0.5190    14.2589
 2383.0000     0.5191    14.2642
 2383.5000     0.5193    14.2694
 2384.0000     0.5195    14.2746
 2384.5000     0.5196    14.2799
 2385.0000     0.5198    14.2851
 2385.5000     0.5199    14.2903
 2386.0000     0.5201    14.2956
 2386.5000     0.5203    14.3008
 2387.0000     0.5204    14.3060
 2387.5000     0.5206    14.3113
 2388.0000     0.5207    14.3165
 2388.5000     0.5209    14.3217
 2389.0000     0.5211    14.3270
 2389.5000     0.5212    14.3322
 2390.0000     0.5214    14.3374
 2390.5000     0.5215    14.3427
 2391.0000     0.5217    14.3479
 2391.5000     0.5219    14.3531
 2392.0000     0.5220    14.3584
 2392.5000     0.5222    14.3636
 2393.0000     0.5223    14.3688
 2393.5000     0.5225    14.3741
 2394.0000     0.5227    14.3793
 2394.5000     0.5228    14.3845
 2395.0000     0.5230    14.3898
 2395.5000     0.5231    14.3950
 2396.0000     0.5233    14.4002
 2396.5000     0.5235    14.4055
 2397.0000     0.5236    14.4107
 2397.5000     0.5238    14.4159
 2398.0000     0.5239    14.4212
 2398.5000     0.5241    14.4264
 2399.0000     0.5243    14.4316
 2399.5000     0.5244    14.4369
 2400.0000     0.5246    14.4425
 2400.5000     0.5248    14.4416
 2401.0000     0.5252    14.4405
 2401.5000     0.5257    14.4395
 2402.0000     0.5263    14.4385
 2402.5000     0.5268    14.4374
 2403.0000     0.5273    14.4364
 2403.5000     0.5278    14.4354
 2404.0000     0.5283    14.4343
 2404.5000     0.5289    14.4333
 2405.0000     0.5294    14.4323
 2405.5000     0.5299    14.4312
 2406.0000     0.5304    14.4302
 2406.5000     0.5309    14.4292
 2407.0000     0.5315    14.4281
 2407.5000     0.5320    14.4271
 2408.0000     0.5325    14.4261
 2408.5000     0.5330    14.4250
 2409.0000     0.5336    14.4240
 2409.5000     0.5341    14.4230
 2410.0000     0.5346    14.4219
 2410.5000     0.5351    14.4209
 2411.0000     0.5356    14.4199
 2411.5000     0.5362    14.4188
 2412.0000     0.5367    14.4178
 2412.5000     0.5372    14.4167
 2413.0000     0.5377    14.4157
 2413.5000     0.5382    14.4147
 2414.0000     0.5388    14.4136
 2414.5000     0.5393    14.4126
 2415.0000     0.5398    14.4116
 2415.5000     0.5403    14.4105
 2416.0000     0.5409    14.4095
 2416.5000     0.5414    14.4085
 2417.0000     0.5419    14.4074
 2417.5000     0.5424    14.4064
 2418.0000     0.5429    14.4054
 2418.5000     0.5435    14.4043
 2419.0000     0.5440    14.4033
 2419.5000     0.5445    14.4023
 2420.0000     0.5450    14.4012
 2420.5000     0.5455    14.4002
 2421.0000     0.5461    14.3992
 2421.5000     0.5466    14.3981
 2422.0000     0.5471    14.3971
 2422.5000     0.5476    14.3961
 2423.0000     0.5482    14.3950
 2423.5000     0.5487    14.3940
 2424.0000     0.5492    14.3929
 2424.5000     0.5497    14.3919
 2425.0000     0.5502    14.3909
 2425.5000     0.5508    14.3898
 2426.0000     0.5513    14.3888
 2426.5000     0.5518    14.3878
 2427.0000     0.5523    14.3867
 2427.5000     0.5528    14.3857
 2428.0000     0.5534    14.3847
 2428.5000     0.5539    14.3836
 2429.0000     0.5544    14.3826
 2429.5000     0.5549    14.3816
 2430.0000     0.5554    14.3805
 2430.5000     0.5560    14.3795
 2431.0000     0.5565    14.3785
 2431.5000     0.5570    14.3774
 2432.0000     0.5575    14.3764
 2432.5000     0.5581    14.3754
 2433.0000     0.5586    14.3743
 2433.5000     0.5591    14.3733
 2434.0000     0.5596    14.3722
 2434.5000     0.5601    14.3712
 2435.0000     0.5607    14.3702
 2435.5000     0.5612    14.3691
 2436.0000     0.5617    14.3681
 2436.5000     0.5622    14.3671
 2437.0000     0.5627    14.3660
 2437.5000     0.5633    14.3650
 2438.0000     0.5638    14.3640
 2438.5000     0.5643    14.3629
 2439.0000     0.5648    14.3619
 2439.5000     0.5654    14.3609
 2440.0000     0.5659    14.3598
 2440.5000     0.5664    14.3588
 2441.0000     0.5669    14.3578
 2441.5000     0.5674    14.3567
 2442.0000     0.5680    14.3557
 2442.5000     0.5685    14.3547
 2443.0000     0.5690    14.3536
 2443.5000     0.5695    14.3526
 2444.0000     0.5700    14.3516
 2444.5000     0.5706    14.3505
 2445.0000     0.5711    14.3495
 2445.5000     0.5716    14.3484
 2446.0000     0.5721    14.3474
 2446.5000     0.5727    14.3464
 2447.0000     0.5732    14.3453
 2447.5000     0.5737    14.3443
 2448.0000     0.5742    14.3433
 2448.5000     0.5747    14.3422
 2449.0000     0.5753    14.3412
 2449.5000     0.5758    14.3402
 2450.0000     0.5763    14.3391
 2450.5000     0.5768    14.3381
 2451.0000     0.5773    14.3371
 2451.5000     0.5779    14.3360
 2452.0000     0.5784    14.3350
 2452.5000     0.5789    14.3340
 2453.0000     0.5794    14.3329
 2453.5000     0.5799    14.3319
 2454.0000     0.5805    14.3309
 2454.5000     0.5810    14.3298
 2455.0000     0.5815    14.3288
 2455.5000     0.5820    14.3278
 2456.0000     0.5826    14.3267
 2456.5000     0.5831    14.3257
 2457.0000     0.5836    14.3246
 2457.5000     0.5841    14.3236
 2458.0000     0.5846    14.3226
 2458.5000     0.5852    14.3215
 2459.0000     0.5857    14.3205
 2459.5000     0.5862    14.3195
 2460.0000     0.5867    14.3184
 2460.5000     0.5872    14.3174
 2461.0000     0.5878    14.3164
 2461.5000     0.5883    14.3153
 2462.0000     0.5888    14.3143
 2462.5000     0.5893    14.3133
 2463.0000     0.5899    14.3122
 2463.5000     0.5904    14.3112
 2464.0000     0.5909    14.3102
 2464.5000     0.5914    14.3091
 2465.0000     0.5919    14.3081
 2465.5000     0.5925    14.3071
 2466.0000     0.5091    14.3060
 2466.5000     0.5094    14.3050
 2467.0000     0.5095    14.3040
 2467.5000     0.5096    14.3029
 2468.0000     0.5097    14.3019
 2468.5000     0.5098    14.3008
 2469.0000     0.5099    14.2998
 2469.5000     0.5099    14.2988
 2470.0000     0.5100    14.2977
 2470.5000     0.5101    14.2967
 2471.0000     0.5102    14.2957
 2471.5000     0.5103    14.2946
