~VERSION INFORMATION
 VERS.                2.0:   CWLS LOG ASCII STANDARD - VERSION 2.0
 WRAP.                 NO:   ONE LINE PER DEPTH STEP
~WELL INFORMATION
#MNEM.UNIT      DATA TYPE    INFORMATION
#----------   ------------   ------------------------------
 STRT.F           28.0000:   START DEPTH
 STOP.F          630.0000:   STOP DEPTH
 STEP.F            0.5000:   STEP LENGTH
 NULL.          -999.2500:   NO VALUE
 COMP. FENIX & SCISSON INC:   COMPANY
 WELL. NAVAL PETROLEUM RESERVE 3 SX-1 #81-15:   WELL
 FLD .             TEAPOT:   FIELD
 LOC .      S15 T38N R78W:   LOCATION
 CNTY.            NATRONA:   COUNTY
 STAT.            WYOMING:   STATE
 CTRY. UNITED STATES OF AMERICA:   COUNTRY
 SRVC.           BIRDWELL:   SERVICE COMPANY
 DATE.        03-JUN-1978:   LOGDATE
 API .       490251063900:   API NUMBER
~CURVE INFORMATION
#MNEM.UNIT       API CODE    CURVE DESCRIPTION
#----------   ------------   ------------------------------
 DEPT.F                  :   
 SPR .MV     05 010 01 00:   SPONTANEOUS POTENTIAL FROM RES.
 SN  .OHMM   05 040 16 00:   SHORT NORMAL 16"
 ILD .OHMM   05 120 46 00:   INDUCTION LOG DEEP
 CALD.IN     45 280 60 00:   CALIPER FROM DENSITY LOG
 GRD .GAPI   45 310 01 00:   GAMMA RAY FROM DENSITY LOG
 CORR.G/C3   45 356 01 00:   DENSITY CORRECTION
 DPHI.DEC    45 890 12 00:   DENSITY POROSITY SANDSTONE
 DEN .G/C3   45 350 01 00:   COMPENSATED BULK DENSITY
~PARAMETER INFORMATION
#MNEM.UNIT          VALUE    DESCRIPTION
#----------   ------------   ------------------------------
 PD  .                 GL:   PERMANENT DATUM
 EPD .F              5263:   ELEVATION PERMANENT DATUM
 LMF .                 KB:   LOG MEASURED FROM
 DAPD.F                 4:   FEET ABOVE PERMANENT DATUM
 DMF .                 KB:   DRILLING MEASURED FROM
 EKB .F              5267:   KELLING BUSHING
 EGL .F              5263:   GROUND LEVEL
 DATE.        03-JUN-1978:   RUN DATE
 RUN .                  1:   RUN NUMBER
 DD  .F               632:   DEPTH DRILLER
 DL  .F               636:   DEPTH LOGGER
 BLI .F               630:   BOTTOM LOG INTERVAL
 TLI .F                40:   TOP LOG INTERVAL
 CS  .IN            8.625:   CASING SIZE
 CBD .F                40:   CASING BOTTOM DRILLER
 CBL .F                40:   CASING BOTTOM LOGGER
 BS  .IN            7.875:   BIT SIZE
 BSD .F               632:   BIT SIZE AT DEPTH
 DFT .                KCL:   DRILLING FLUID TYPE
 DFD .                8.7:   DRILLING FLUID DENSITY
 DFV .                 31:   DRILLING FLUID VISCOSITY
 DFPH.                 10:   DRILLING FLUID PH
 DFL .                9.2:   DRILLING FLUID LOSS
 MSS .           FLOWLINE:   MUD SAMPLE SOURCE
 RMS .OHMM            .26:   RESISTIVITY MUD SAMPLE
 MST .F                66:   MUD SAMPLE TEMPERATURE
 RMF .OHMM            .24:   RESISTIVITY MUD FILTRATE SAMPLE
 MFST.F                74:   MUD FILTRATE SAMPLE TEMPERATURE
 RMC .OHMM            .34:   RESISTIVITY MUD CAKE
 MCST.F                75:   MUD CAKE SAMPLE TEMPERATURE
 MFSS.               MEAS:   MUD FILTRATE SAMPLE SOURCE
 MCSS.               MEAS:   MUD CAKE SAMPLE SOURCE
 RMB .OHMM            .23:   RESISTIVITY MUD AT BHT
 BHT .F                74:   BOTTOM HOLE TEMPERATURE
 TCS .HRS            0100:   TIME CURCULATED STOPPED
 MRT .F                74:   MAXIMUM RECORDED TEMPERATURE
 LUN .               2958:   LOGGING UNIT NUMBER
 LUL .               CASP:   LOGGING UNIT LOCATION
 ENGI.             MILLER:   RECORDING ENGINEER
 WITN.           MCGINLEY:   WITNESSED BY
 CLNT.            A2DTECH:   CLIENT CODE
 ORIG.           5" PRINT:   ORIGIN OF DATA
 UWI .       490251063900:   UNIQUE WELL ID
 DICO. A2D Technologies, Inc.:   DIGITIZING COMPANY
~OTHER INFORMATION
~A   DEPT      SPR         SN        ILD       CALD         GRD      CORR       DPHI        DEN   
# ...
   68.5000    -8.9311     9.7254    11.1700     8.2169    55.6322     0.0466     0.1398     2.4525
   69.0000    -9.8408     9.0729     9.9275     8.2756    58.6750     0.0464     0.1374     2.4502
   69.5000   -10.6376     8.5822     9.1975     8.3196    67.3667     0.0492     0.1444     2.4402
   70.0000   -11.6527     8.0620     8.6400     8.3336    68.4301     0.0536     0.1420     2.4462
   70.5000   -12.1090     7.5703     8.1727     8.3620    65.9715     0.0473     0.1436     2.4431
   71.0000   -12.5653     7.4157     7.7844     8.3757    64.7395     0.0425     0.1397     2.4445
   71.5000   -13.0216     7.3631     7.4602     8.3742    64.8816     0.0392     0.1412     2.4490
   72.0000   -13.3277     7.3108     7.2603     8.3882    67.6191     0.0361     0.1473     2.4367
   72.5000   -13.6338     7.2589     7.2087     8.3863    73.7153     0.0359     0.1461     2.4365
   73.0000   -13.9399     7.2574     7.1575     8.4000    73.8627     0.0387     0.1453     2.4368
   73.5000   -14.2462     7.2058     7.2062     8.3984    73.6942     0.0385     0.1499     2.4302
   74.0000   -14.7038     7.2044     7.2548     8.4121    73.3782     0.0383     0.1462     2.4394
   74.5000   -14.8598     7.1533     7.2530     8.4106    73.3676     0.0366     0.1423     2.4431
   75.0000   -15.0157     7.0942     7.2515     8.4242    73.6650     0.0273     0.1469     2.4407
   75.5000   -15.1717     7.0517     7.2500     8.4227    74.4151     0.0211     0.1524     2.4292
   76.0000   -15.1775     7.0016     7.1982     8.4212    76.2366     0.0284     0.1537     2.4284
   76.5000   -15.1834     6.9519     7.1968     8.4197    77.4473     0.0328     0.1513     2.4391
   77.0000   -15.1892     6.9505     7.1457     8.4182    78.6581     0.0326     0.1440     2.4480
   77.5000   -15.1955     6.9010     7.1441     8.4318    79.1082     0.0339     0.1419     2.4438
   78.0000   -15.2023     6.8997     7.0935     8.4463    76.8049     0.0337     0.1453     2.4377
   78.5000   -15.2081     6.8506     7.0921     8.4918    74.8095     0.0351     0.1469     2.4355
   79.0000   -15.2140     6.8493     7.0417     8.5500    74.3409     0.0364     0.1457     2.4362
   79.5000   -15.2198     6.8476     7.0402     8.6076    74.4830     0.0361     0.1445     2.4384
   80.0000   -15.2256     6.8463     6.9899     8.6385    74.7804     0.0359     0.1467     2.4413
   80.5000   -15.3816     6.8448     6.9885     8.6804    74.9225     0.0358     0.1455     2.4420
   81.0000   -15.5376     6.8435     6.9871     8.6940    74.9092     0.0371     0.1439     2.4411
   81.5000   -15.6937     6.8900     6.9857     8.7077    74.1353     0.0399     0.1430     2.4441
   82.0000   -15.7008     6.9362     6.9843     8.6906    71.3739     0.0428     0.1398     2.4501
   82.5000   -15.7067     6.9837     7.0314     8.6740    70.7553     0.0471     0.1359     2.4561
   83.0000   -15.7125     7.0857     7.0300     8.6573    71.8107     0.0469     0.1314     2.4643
   83.5000   -15.8685     7.2260     7.0774     8.6255    73.0215     0.0467     0.1296     2.4589
   84.0000   -16.0244     7.4271     7.1743     8.5785    73.4716     0.0435     0.1385     2.4497
   84.5000   -16.1804     7.5815     7.2231     8.4104    73.4583     0.0418     0.1397     2.4466
   85.0000   -16.1862     7.7391     7.3220     8.3331    73.1424     0.0401     0.1410     2.4435
   85.5000   -16.3423     7.9000     7.4230     8.2710    70.3837     0.0399     0.1419     2.4434
   86.0000   -16.6498     8.0086     7.5250     7.9210    66.2510     0.0412     0.1404     2.4463
   86.5000   -16.8058     8.1752     7.6280     7.5710    66.2404     0.0428     0.1374     2.4500
   87.0000   -16.9617     8.2874     7.7328     7.4786    66.8405     0.0471     0.1326     2.4575
   87.5000   -17.1177     8.3433     7.7940     7.4165    70.7993     0.0532     0.1287     2.4650
   88.0000   -17.2737     8.3996     7.8375     7.3240    71.7074     0.0631     0.1233     2.4733
   88.5000   -17.2795     8.4562     7.8904     7.2316    71.2361     0.0645     0.1203     2.4793
   89.0000   -17.2854     8.4541     7.8884     7.0938    69.8515     0.0612     0.1182     2.4823
   89.5000   -17.3028     8.3941     7.8324     7.0013    69.3855     0.0580     0.1231     2.4761
   90.0000   -17.2970     8.3344     7.8308     6.9847    69.8329     0.0593     0.1292     2.4691
   90.5000   -17.4544     8.2182     7.7752     6.9832    70.4330     0.0621     0.1310     2.4637
   91.0000   -17.6104     8.0971     7.7200     7.0574    70.8804     0.0635     0.1317     2.4614
   91.5000   -18.2168     7.9349     7.6648     7.4499    70.4092     0.0648     0.1317     2.4620
   92.0000   -18.5230     7.8241     7.6104     7.9029    71.3146     0.0692     0.1315     2.4635
   92.5000   -18.3772     7.7686     7.6088     8.2953    73.9021     0.0689     0.1318     2.4641
   93.0000   -18.5346     7.7134     7.6073     8.5059    70.5301     0.0687     0.1318     2.4633
   93.5000   -18.6907     7.7119     7.6058     8.6408    67.7714     0.0686     0.1319     2.4602
   94.0000   -18.9982     7.7639     7.6042     8.7151    67.1501     0.0729     0.1304     2.4609
   94.5000   -19.3043     7.7623     7.6027     8.7594    67.2948     0.0864     0.1231     2.4752
   95.0000   -19.7606     7.7607     7.6047     8.7730    69.1136     0.0968     0.1220     2.4781
   95.5000   -19.9166     7.7588     7.6525     8.7711    70.7824     0.0982     0.1211     2.4795
   96.0000   -20.0725     7.7572     7.6505     8.7696    69.7031     0.0919     0.1184     2.4832
   96.5000   -20.2285     7.7557     7.7025     8.6924    64.1963     0.0901     0.1032     2.4999
   97.0000   -20.2343     7.7541     7.7545     8.5090    63.5750     0.0702     0.1005     2.4937
   97.5000   -20.2402     7.8064     7.7525     8.4015    64.1725     0.0427     0.1285     2.4625
   98.0000   -20.0958     7.8049     7.7510     8.3242    64.1619     0.0425     0.1346     2.4532
   98.5000   -20.1031     7.8033     7.8033     8.2621    62.7772     0.0454     0.1338     2.4555
   99.0000   -20.1090     7.8017     7.8017     8.2000    61.2399     0.0421     0.1344     2.4538
   99.5000   -20.1148     7.8543     7.7997     8.1379    61.6873     0.0374     0.1387     2.4484
  100.0000   -20.2693     7.8528     7.8528     8.0909    64.1195     0.0357     0.1454     2.4384
  100.5000   -20.1214     7.8931     7.8323     7.9981    65.3311     0.0355     0.1494     2.4277
  101.0000   -20.7239     7.9304     7.8133     7.9207    65.3205     0.0338     0.1506     2.4254
  101.5000   -20.8755     7.9572     7.7935     7.8584    65.6153     0.0305     0.1492     2.4397
  102.0000   -20.8769     7.9003     7.8461     7.8265    69.7268     0.0303     0.1459     2.4373
  102.5000   -20.7282     7.8988     7.8990     7.7945    72.0063     0.0332     0.1422     2.4403
  103.0000   -21.0303     7.8972     7.9523     7.7626    73.0644     0.0345     0.1411     2.4493
  103.5000   -21.1819     7.9505     8.0060     7.7458    73.0538     0.0342     0.1408     2.4439
  104.0000   -21.6338     7.9489     8.0040     7.7290    71.9745     0.0386     0.1399     2.4430
  104.5000   -22.2358     7.9473     8.0024     7.7425    71.3532     0.0414     0.1371     2.4521
  105.0000   -22.3874     7.9453     8.0564     7.7408    73.3274     0.0458     0.1286     2.4641
  105.5000   -22.3889     7.9437     7.9992     7.7544    74.2354     0.0517     0.1266     2.4701
  106.0000   -22.3907     7.9421     7.9972     7.7679    72.3901     0.0500     0.1253     2.4731
  106.5000   -22.2416     7.9405     7.8856     7.7965    69.7832     0.0452     0.1250     2.4737
  107.0000   -22.3936     7.8842     7.7756     7.8554    69.4673     0.0450     0.1247     2.4721
  107.5000   -22.8455     7.8282     7.7204     7.9295    70.2200     0.0448     0.1259     2.4697
  108.0000   -23.2974     7.7189     7.6127     8.0343    70.8201     0.0431     0.1293     2.4635
  108.5000   -23.4490     7.6638     7.5065     8.1253    71.1175     0.0429     0.1351     2.4536
