~VERSION INFORMATION
 VERS.                2.0:   CWLS LOG ASCII STANDARD - VERSION 2.0
 WRAP.                 NO:   ONE LINE PER DEPTH STEP
~WELL INFORMATION
#MNEM.UNIT      DATA TYPE    INFORMATION
#----------   ------------   ------------------------------
 STRT.F           34.5000:   START DEPTH
 STOP.F          756.0000:   STOP DEPTH
 STEP.F            0.5000:   STEP LENGTH
 NULL.          -999.2500:   NO VALUE
 COMP. FENIX & SCISSON INC:   COMPANY
 WELL.    36 SX 11 #36-11:   WELL
 FLD .        TEAPOT DOME:   FIELD
 LOC .      S11 T38N R78W:   LOCATION
 CNTY.            NATRONA:   COUNTY
 STAT.            WYOMING:   STATE
 CTRY. UNITED STATES OF AMERICA:   COUNTRY
 SRVC.           BIRDWELL:   SERVICE COMPANY
 DATE.        21-FEB-1978:   LOGDATE
 API .       490251059700:   API NUMBER
~CURVE INFORMATION
#MNEM.UNIT       API CODE    CURVE DESCRIPTION
#----------   ------------   ------------------------------
 DEPT.F                  :   
 SPR .MV     05 010 01 00:   SPONTANEOUS POTENTIAL FROM RES.
 SN  .OHMM   05 040 16 00:   SHORT NORMAL 16"
 ILD .OHMM   05 120 46 00:   INDUCTION LOG DEEP
 RHOB.G/C3   45 350 01 00:   BULK DENSITY
 DPHI.DEC    45 890 12 00:   DENSITY POROSITY SANDSTONE
 GRD .GAPI   45 310 01 00:   GAMMA RAY FROM DENSITY LOG
 CALD.IN     45 280 60 00:   CALIPER
 CORR.G/C3   45 356 01 00:   DENSITY CORRECTION
~PARAMETER INFORMATION
#MNEM.UNIT          VALUE    DESCRIPTION
#----------   ------------   ------------------------------
 PD  .                 GL:   PERMANENT DATUM
 EPD .F              5175:   ELEVATION PERMANENT DATUM
 LMF .                 KB:   LOG MEASURED FROM
 DAPD.F                 4:   FEET ABOVE PERMANENT DATUM
 DMF .                 KB:   DRILLING MEASURED FROM
 EKB .F              5179:   KELLING BUSHING
 EGL .F              5175:   GROUND LEVEL
 DATE.          2-21-1978:   RUN DATE
 RUN .                  1:   RUN NUMBER
 DD  .F               765:   DEPTH DRILLER
 DL  .F               760:   DEPTH LOGGER
 BLI .F               754:   BOTTOM LOG INTERVAL
 TLI .F                40:   TOP LOG INTERVAL
 CS  .IN            8.625:   CASING SIZE
 CBD .F                39:   CASING BOTTOM DRILLER
 CBL .F                40:   CASING BOTTOM LOGGER
 BS  .IN            7.875:   BIT SIZE
 BSD .F               765:   BIT SIZE AT DEPTH
 DFT .         LIGNO/SULF:   DRILLING FLUID TYPE
 DFD .                8.6:   DRILLING FLUID DENSITY
 DFV .                 33:   DRILLING FLUID VISCOSITY
 DFPH.               10.5:   DRILLING FLUID PH
 DFL .                 84:   DRILLING FLUID LOSS
 MSS .          FLOW LINE:   MUD SAMPLE SOURCE
 RMS .OHMM            1.8:   RESISTIVITY MUD SAMPLE
 MST .F                56:   MUD SAMPLE TEMPERATURE
 RMF .OHMM            1.8:   RESISTIVITY MUD FILTRATE SAMPLE
 MFST.F                58:   MUD FILTRATE SAMPLE TEMPERATURE
 RMC .OHMM              4:   RESISTIVITY MUD CAKE
 MCST.F                62:   MUD CAKE SAMPLE TEMPERATURE
 MFSS.               MEAS:   MUD FILTRATE SAMPLE SOURCE
 RMB .OHMM           1.48:   RESISTIVITY MUD AT BHT
 BHT .F                68:   BOTTOM HOLE TEMPERATURE
 TCS .HRS               5:   TIME CURCULATED STOPPED
 MRT .F                68:   MAXIMUM RECORDED TEMPERATURE
 LUN .               2958:   LOGGING UNIT NUMBER
 LUL .               CASP:   LOGGING UNIT LOCATION
 ENGI.            POINTER:   RECORDING ENGINEER
 WITN.           MCGINLEY:   WITNESSED BY
 CLNT.            A2DTECH:   CLIENT CODE
 ORIG.       2", 5" PRINT:   ORIGIN OF DATA
 UWI .       490251059700:   UNIQUE WELL ID
 DICO. A2D Technologies, Inc.:   DIGITIZING COMPANY
~OTHER INFORMATION
~A   DEPT      SPR         SN        ILD       RHOB       DPHI         GRD      CALD       CORR   
   34.5000  -999.2500  -999.2500  -999.2500  -999.2500  -999.2500    60.0276  -999.2500  -999.2500
   35.0000  -999.2500  -999.2500  -999.2500  -999.2500  -999.2500    59.7975  -999.2500  -999.2500
   35.5000  -999.2500  -999.2500  -999.2500  -999.2500  -999.2500    59.5283  -999.2500  -999.2500
   36.0000  -999.2500  -999.2500  -999.2500  -999.2500  -999.2500    59.4195  -999.2500  -999.2500
   36.5000  -999.2500  -999.2500  -999.2500  -999.2500  -999.2500    59.5782  -999.2500  -999.2500
   37.0000  -999.2500  -999.2500  -999.2500  -999.2500  -999.2500    65.9939  -999.2500  -999.2500
   37.5000  -999.2500  -999.2500  -999.2500  -999.2500  -999.2500    62.2893  -999.2500  -999.2500
   38.0000  -999.2500  -999.2500  -999.2500  -999.2500  -999.2500    60.0856  -999.2500  -999.2500
   38.5000  -999.2500  -999.2500  -999.2500  -999.2500  -999.2500    69.2946  -999.2500  -999.2500
   39.0000  -999.2500  -999.2500  -999.2500  -999.2500  -999.2500    94.9057  -999.2500  -999.2500
   39.5000  -999.2500  -999.2500  -999.2500  -999.2500  -999.2500    94.2455  -999.2500  -999.2500
   40.0000   -13.8105  -999.2500  -999.2500  -999.2500  -999.2500    86.4654     7.6974     0.0306
   40.5000   -13.8105     6.5733     7.0017  -999.2500  -999.2500    77.6261     7.5905     0.1103
   41.0000   -13.8105     7.0580     7.1343  -999.2500  -999.2500    76.3416     7.1868     0.1694
   41.5000   -15.1712     7.5785     7.3020  -999.2500  -999.2500    79.2097     6.7330     0.2097
   42.0000   -16.9215     8.0226     7.4147  -999.2500  -999.2500    82.7257     6.4417     0.2219
   42.5000   -17.8312     8.6147     7.6138  -999.2500  -999.2500    83.1439     6.6256     0.1721
   43.0000   -18.4770     9.2493     7.7414  -999.2500  -999.2500    71.6176     6.8164     0.0818
   43.5000   -19.1164     9.7787     7.8401  -999.2500  -999.2500    68.4268     7.0006     0.1357
   44.0000   -19.7519     9.8077     7.9401  -999.2500  -999.2500    70.3641     7.0078     0.2389
   44.5000   -20.4246     9.8382     8.0414     2.0351  -999.2500    73.0409     6.9805     0.2696
   45.0000   -20.7675    10.0106     8.1440     2.0713  -999.2500    83.4853     6.8296     0.2383
   45.5000   -21.0977    10.3593     8.2483     2.0938  -999.2500    82.0916     6.6115     0.2097
   46.0000   -21.2704    10.7201     8.3497     2.0911  -999.2500    80.3834     6.4005     0.2548
   46.5000   -21.1226    11.2209     8.3425     2.1543  -999.2500    81.1236     6.4174     0.3098
   47.0000   -20.4103    11.1631     8.3556     2.1653  -999.2500    78.9869     6.6582     0.3089
   47.5000   -19.7142    10.8184     7.2142     2.0991  -999.2500    71.7093     7.0255     0.2864
   48.0000   -19.0241    10.2116     6.5288     2.0378  -999.2500    70.8919     8.4499     0.1937
   48.5000   -18.5390     9.6388     5.9096     2.0046  -999.2500    72.2783     9.5148     0.0690
   49.0000   -19.2505     9.0982     5.3495     2.0030  -999.2500    74.4061     9.4628     0.0498
   49.5000   -19.8746     8.5876     4.8425     1.9990  -999.2500    77.4416     8.8582     0.1192
   50.0000   -19.6936     8.1032     4.5302     2.0505  -999.2500    80.1301     8.1399     0.1823
   50.5000   -19.5067     7.6128     4.2544     2.1774  -999.2500    80.3244     8.0916     0.1330
   51.0000   -19.3233     7.5186     3.9954     2.1758  -999.2500    82.8876     8.1046     0.0625
   51.5000   -19.1382     7.4248     3.7521     2.1328  -999.2500    85.7270     8.1257     0.0625
   52.0000   -19.1761     7.3297     3.5237     2.1271  -999.2500    88.5632     8.1461     0.0683
   52.5000   -19.4052     7.2358     3.3092     2.1510  -999.2500    89.8446     8.1666     0.0730
   53.0000   -19.6365     7.1431     3.0745     2.1457  -999.2500    86.2749     8.1725     0.0699
   53.5000   -19.8674     7.0516     3.0182     2.1318  -999.2500    87.8616     8.1549     0.0608
   54.0000   -20.0644     6.9612     3.0950     2.1030  -999.2500    91.1364     8.1373     0.0503
   54.5000   -20.1211     6.9137     3.1800     2.0741  -999.2500    88.4182     8.1196     0.0265
   55.0000   -20.1984     6.8817     3.2869     2.0455  -999.2500    82.1661     8.1020    -0.0336
   55.5000   -20.2765     6.5278     3.4150     2.0275  -999.2500    74.2447     8.0845    -0.0569
   56.0000   -20.3552     6.0887     3.5481     2.1164  -999.2500    70.6841     8.0705    -0.0045
   56.5000   -20.4311     5.8195     3.7154     2.3095  -999.2500    70.0329     8.0613     0.0332
   57.0000   -20.6986     6.3434     4.0658     2.3405  -999.2500    72.0924     8.0540     0.0357
   57.5000   -21.0639     6.4426     4.4492     2.3405     0.1952    75.0543     8.0528     0.0317
   58.0000   -21.1987     6.4079     4.8687     2.3395     0.1948    75.5974     8.0515     0.0327
   58.5000   -21.2332     6.3720     5.0264     2.3412     0.1937    77.0524     8.0501     0.0365
   59.0000   -21.0424     6.3362     5.0708     2.3431     0.1912    78.6917     8.0488     0.0363
   59.5000   -20.8574     6.3006     5.1149     2.3458     0.1870    80.4216     8.0475     0.0347
   60.0000   -20.6719     6.2653     5.1613     2.3560     0.1848    78.7457     8.0462     0.0326
   60.5000   -20.4873     6.2299     5.1584     2.3656     0.1819    75.5538     8.0449     0.0330
   61.0000   -20.4632     6.2081     5.2635     2.3730     0.1752    74.0577     8.0436     0.0367
   61.5000   -20.4627     6.3003     5.3201     2.3772     0.1649    77.4081     8.0423     0.0405
   62.0000   -20.4607     6.4184     5.4288     2.3930     0.1536    83.3749     8.0409     0.0429
   62.5000   -20.4829     6.5387     5.6212     2.4133     0.1522    89.3644     8.0396     0.0344
   63.0000   -20.8491     6.6854     5.8203     2.4174     0.1539    95.1718     8.0383     0.0249
   63.5000   -21.2782     6.6645     5.9832     2.4128     0.1562    96.2573     8.0370     0.0230
   64.0000   -21.7292     6.6302     5.9703     2.4061     0.1583    97.1765     8.0357     0.0230
   64.5000   -22.1769     6.5961     5.9493     2.3995     0.1605    95.9490     8.0344     0.0230
   65.0000   -22.6532     6.5627     5.9283     2.4004     0.1619    92.9147     8.0331     0.0230
   65.5000   -22.7074     6.4885     5.9074     2.4039     0.1645    87.6264     8.0318     0.0244
   66.0000   -22.3987     6.4160     5.8866     2.3959     0.1672    82.5428     8.0304     0.0267
   66.5000   -22.0884     6.3445     5.8658     2.3843     0.1698    80.8906     8.0291     0.0291
   67.0000   -22.0383     6.2738     5.8451     2.3839     0.1670    81.0071     8.0278     0.0314
   67.5000   -22.0023     6.2038     5.8245     2.3914     0.1610    82.8425     8.0265     0.0337
   68.0000   -21.9651     6.1447     5.8040     2.3986     0.1633    90.9124     8.0252     0.0350
   68.5000   -21.9272     6.1175     5.7835     2.3990     0.1663   104.7089     8.0239     0.0350
   69.0000   -21.8913     6.0902     5.7631     2.3887     0.1694   113.6948     8.0226     0.0351
   69.5000   -21.7490     6.0631     5.7428     2.3874     0.1694   111.9318     8.0212     0.0353
   70.0000   -21.5400     6.0361     5.7226     2.3915     0.1694   111.2850     8.0199     0.0244
   70.5000   -21.2595     6.0092     5.7024     2.3848     0.1810   116.0091     8.0186     0.0119
   71.0000   -21.3183     5.9825     5.6823     2.3692     0.1727    98.7438     8.0173     0.0070
   71.5000   -21.3735     5.9558     5.6623     2.3665     0.1611   100.4399     8.0160     0.0161
   72.0000   -21.4250     5.9293     5.6423     2.3916     0.1610   103.6518     8.0147     0.0231
   72.5000   -21.4707     5.9029     5.6224     2.4038     0.1619   106.1819     8.0134     0.0223
   73.0000   -21.4138     5.8736     5.6082     2.3996     0.1630    99.5182     8.0121     0.0215
   73.5000   -21.1501     5.9004     5.6462     2.3976     0.1651    89.5704     8.0107     0.0207
   74.0000   -20.8954     5.9309     5.6815     2.3966     0.1681    87.4772     8.0094     0.0199
   74.5000   -20.6682     5.9620     5.7171     2.3900     0.1712    88.1610     8.0081     0.0191
