~VERSION INFORMATION
 VERS.                2.0:   CWLS LOG ASCII STANDARD - VERSION 2.0
 WRAP.                 NO:   ONE LINE PER DEPTH STEP
~WELL INFORMATION
#MNEM.UNIT      DATA TYPE    INFORMATION
#----------   ------------   ------------------------------
 STRT.F           86.0000:   START DEPTH
 STOP.F         1134.0000:   STOP DEPTH
 STEP.F            0.5000:   STEP LENGTH
 NULL.          -999.2500:   NO VALUE
 COMP.          U.S. NAVY:   COMPANY
 WELL. RES 3 TEAPOT DOM #64-S-2:   WELL
 FLD .             TEAPOT:   FIELD
 LOC .       S2 T38N R78W:   LOCATION
 CNTY.            NATRONA:   COUNTY
 STAT.            WYOMING:   STATE
 CTRY. UNITED STATES OF AMERICA:   COUNTRY
 SRVC. Schlumberger Well Surveying Corp:   SERVICE COMPANY
 DATE.        28-JUL-1964:   LOGDATE
 API .       490250644400:   API NUMBER
~CURVE INFORMATION
#MNEM.UNIT       API CODE    CURVE DESCRIPTION
#----------   ------------   ------------------------------
 DEPT.F                  :   
 ASN .OHMM   05 041 16 00:   AMPLIFIED SHORT NORMAL 16"
 CILD.MMHO   05 110 46 00:   CONDUCTIVITY INDUCTION LOG DEEP
 ILD .OHMM   05 120 46 00:   INDUCTION LOG DEEP
 SPR .MV     05 010 01 00:   SPONTANEOUS POTENTIAL FROM RES.
 DT  .US/F   60 520 33 00:   INTERVAL TRANSIT TIME
 GR  .GAPI   30 310 01 00:   GAMMA RAY
~PARAMETER INFORMATION
#MNEM.UNIT          VALUE    DESCRIPTION
#----------   ------------   ------------------------------
 PD  .                 GL:   PERMANENT DATUM
 EPD .F              5204:   ELEVATION PERMANENT DATUM
 LMF .                 KB:   LOG MEASURED FROM
 DAPD.F                 5:   FEET ABOVE PERMANENT DATUM
 DMF .                 KB:   DRILLING MEASURED FROM
 EKB .F              5209:   KELLING BUSHING
 EGL .F              5204:   GROUND LEVEL
 DATE.        28-JUL-1964:   RUN DATE
 RUN .                  1:   RUN NUMBER
 DD  .F              1135:   DEPTH DRILLER
 DL  .F              1135:   DEPTH LOGGER
 BLI .F              1134:   BOTTOM LOG INTERVAL
 TLI .F                86:   TOP LOG INTERVAL
 CS  .IN            10.75:   CASING SIZE
 CBD .F                11:   CASING BOTTOM DRILLER
 BS  .IN            7.875:   BIT SIZE
 BSD .F              1135:   BIT SIZE AT DEPTH
 DFT .            GEL-OIL:   DRILLING FLUID TYPE
 DFD .                9.5:   DRILLING FLUID DENSITY
 DFV .                 49:   DRILLING FLUID VISCOSITY
 DFL .                 10:   DRILLING FLUID LOSS
 MSS .           FLOWLINE:   MUD SAMPLE SOURCE
 RMS .OHMM           2.35:   RESISTIVITY MUD SAMPLE
 MST .F                89:   MUD SAMPLE TEMPERATURE
 RMF .OHMM           1.71:   RESISTIVITY MUD FILTRATE SAMPLE
 MFST.F                89:   MUD FILTRATE SAMPLE TEMPERATURE
 RMC .OHMM           3.01:   RESISTIVITY MUD CAKE
 MCST.F                89:   MUD CAKE SAMPLE TEMPERATURE
 MFSS.                 FP:   MUD FILTRATE SAMPLE SOURCE
 MCSS.                 FP:   MUD CAKE SAMPLE SOURCE
 TCS .HRS               1:   TIME CURCULATED STOPPED
 LUN .               3527:   LOGGING UNIT NUMBER
 LUL .               CSPR:   LOGGING UNIT LOCATION
 ENGI.             KNOBEL:   RECORDING ENGINEER
 WITN.          JORGENSEN:   WITNESSED BY
 CLNT.            A2DTECH:   CLIENT CODE
 ORIG.        2" 5" PRINT:   ORIGIN OF DATA
 UWI .       490250644400:   UNIQUE WELL ID
 DICO. A2D Technologies, Inc.:   DIGITIZING COMPANY
~OTHER INFORMATION
~A   DEPT        ASN      CILD        ILD       SPR         DT         GR   
# ...
  554.0000     3.6747   292.9217     2.3919   -24.6566   112.5528    71.8141
  554.5000     3.5557   314.5822     2.1362   -24.5060   113.3834    70.1649
  555.0000     3.4007   338.9294     2.0170   -24.4902   115.1169    68.5157
  555.5000     3.2707   371.2350     1.8183   -24.3545   116.3238    71.5142
  556.0000     3.1044   401.3476     1.7597   -24.4118   117.2296    74.6627
  556.5000     2.9490   437.1297     1.6461   -24.5030   118.1355    67.9160
  557.0000     2.8289   460.0904     1.5976   -24.6520   119.0735    69.2654
  557.5000     2.7432   467.6205     1.5334   -24.8488   120.6251    72.4138
  558.0000     2.7074   443.5241     1.4580   -24.9505   124.0140    69.2654
  558.5000     2.6829   428.5947     1.3825   -24.9498   126.1238    64.3178
  559.0000     2.6829   417.5697     1.3821   -24.9490   125.7505    64.6878
  559.5000     2.6917   402.1084     1.4087   -25.0982   124.7000    67.0165
  560.0000     2.8030   371.8380     1.5315   -25.0975   123.1980    59.5202
  560.5000     3.2177   337.5668     2.0454   -25.0967   120.3416    61.4693
  561.0000     3.8520   280.8735     3.0848   -25.0959   116.5885    65.6672
  561.5000     4.3667   255.9724     3.9328   -25.2451   110.1149    63.8681
  562.0000     4.4711   232.1182     4.0926   -25.3944   110.6446    56.9715
  562.5000     4.5695   223.6446     4.2480   -25.3934   109.7445    55.4723
  563.0000     4.6822   218.3987     4.4572   -25.3928   109.8979    57.7211
  563.5000     4.7454   212.2388     4.6057   -25.3866   111.4057    60.4198
  564.0000     4.8054   204.8193     4.7768   -25.2412   111.4928    61.4693
  564.5000     4.9978   198.3309     5.0566   -25.2406   110.7324    62.8186
  565.0000     5.1807   192.0181     5.1939   -25.2399   108.9819    65.6672
  565.5000     5.4187   184.2845     5.3650   -25.2391   106.7530    66.5667
  566.0000     5.7212   177.7009     5.5810   -25.3143   105.8530    62.7826
  566.5000     6.0573   172.4398     5.6814   -25.5375   104.9529    61.1694
  567.0000     6.3809   170.5874     5.8056   -25.6057   104.2034    62.0690
  567.5000     6.5090   171.8248     5.8521   -25.5360   103.3034    62.3688
  568.0000     6.5656   173.1928     5.9550   -25.3852   103.5321    62.6687
  568.5000     6.6062   174.2997     5.8795   -25.3141   104.1369    63.7181
  569.0000     6.5634   175.6225     5.8791   -25.0840   104.2151    61.0195
  569.5000     6.4990   177.7108     5.8788   -25.6828   103.5415    58.7706
  570.0000     6.4255   178.7651     5.8033   -26.3118   102.7160    56.5217
  570.5000     6.3954   180.0351     5.7673   -26.7309   103.4721    57.2714
  571.0000     6.3953   182.2289     5.7275   -26.5801   103.7760    65.0675
  571.5000     6.4531   183.2304     5.7270   -26.3801   103.6284    65.3728
  572.0000     6.5231   184.4879     5.6517   -25.9790   103.7066    65.2174
  572.5000     6.5455   184.9523     5.6481   -25.7359   105.0690    65.2174
  573.0000     6.5374   186.1897     5.5758   -25.6778   104.9676    63.5682
  573.5000     6.5077   186.7470     5.5755   -25.8268   104.6935    59.6702
  574.0000     6.4400   187.0883     5.5751   -26.2898   104.7724    61.7691
  574.5000     6.3965   186.7470     5.4996   -26.6034   104.8506    64.7676
  575.0000     6.3622   185.9940     5.4992   -26.8740   104.4773    67.1664
  575.5000     6.3195   184.8820     5.4988   -26.8733   104.0280    70.6147
  576.0000     6.3044   182.8916     5.4985   -26.8726   105.0098    65.5172
  576.5000     6.3043   180.7229     5.5732   -26.7218   105.0880    67.9160
  577.0000     6.5517   178.6043     5.5728   -26.6602   104.7770    71.2144
  577.5000     6.8169   176.1296     5.6069   -26.4205   104.5671    70.0150
  578.0000     6.9056   172.4398     5.7297   -26.2697   104.5708    70.4708
  578.5000     6.9687   170.1730     5.8719   -26.0687   104.2727    65.0233
  579.0000     7.0579   164.9096     6.1369   -25.8186   103.3727    61.0677
  579.5000     7.2362   157.2043     6.7065   -25.9113   102.2469    51.8741
  580.0000     7.4125   140.9132     7.2723   -26.1569   101.2717    55.6222
  580.5000     7.5898   134.7892     7.4934   -26.4160   100.7389    59.9700
  581.0000     7.7322   134.3725     7.6719   -26.5652   100.0743    59.0705
  581.5000     7.8152   133.2831     7.6715   -26.7145    99.3248    54.4228
  582.0000     7.9281   133.2831     7.6712   -26.7136    98.1991    51.2744
  582.5000     7.9278   133.6470     7.6708   -26.7129    97.9003    50.9745
  583.0000     7.7892   134.8846     7.6704   -26.5622    98.8821    51.1244
  583.5000     7.6867   137.8012     7.5831   -26.5614    99.3365    50.2249
  584.0000     7.6070   142.3691     7.3693   -26.4108    98.9632    47.9760
  584.5000     7.4870   151.0726     7.1194   -26.2601    98.0631    47.6632
  585.0000     7.2955   166.4157     6.7492   -26.1093    99.4212    52.3688
  585.5000     7.0352   179.8465     6.1670   -25.9588    99.6499    54.4228
  586.0000     6.6540   201.0542     5.4560   -25.8081    98.7498    55.9220
  586.5000     6.3178   251.3483     4.9540   -25.5630    98.3758    57.4213
  587.0000     5.8200   299.2443     3.0766   -25.3158    99.7338    58.3208
  587.5000     5.2311   353.9156     1.9926   -25.0562   102.1446    61.0195
  588.0000     4.4078   365.9036     1.8108   -24.7376   105.8345    64.9175
  588.5000     3.9040   372.7410     1.7673   -24.4245   111.9685    66.7166
  589.0000     3.6859   348.6446     1.7350   -24.1544   119.3851    67.6162
  589.5000     3.7265   336.6719     1.7346   -24.0037   124.9561    68.3658
  590.0000     3.9960   322.4910     1.7718   -24.0430   122.4007    69.7151
  590.5000     4.1969   286.1446     2.0767   -24.3021   118.6414    70.3148
  591.0000     4.5233   258.9769     2.7094   -24.6642   115.4088    66.7166
  591.5000     5.4378   212.5704     3.9816   -25.2380   112.8534    58.2617
  592.0000     6.9335   134.0361     6.4525   -26.8484   106.7615    50.3171
  592.5000     7.6662   110.4305     8.3389   -27.9048    96.5840    44.5400
  593.0000     8.7681    97.1386     9.6074   -28.3463    96.3083    42.4288
  593.5000     9.3995    94.4001    10.6655   -28.1002    95.7853    43.1784
  594.0000     9.7257    94.9700    10.7678   -27.8531    94.5843    42.8786
  594.5000     9.8053   101.6566     9.9534   -27.7443    93.0823    42.4288
  595.0000     9.7810   109.1618     7.6614   -27.5087    91.7308    41.3793
  595.5000     9.7108   132.9149     6.8840   -27.2931    90.8308    38.3808
  596.0000     9.5344   166.4157     6.0841   -27.2923    90.8337    36.2819
  596.5000     9.0587   176.5689     5.6332   -27.2916    92.1089    39.1304
  597.0000     8.6402   181.7922     5.4464   -27.2909    95.2045    42.8786
  597.5000     7.6545   185.9940     5.3228   -27.2900   103.0328    47.3763
  598.0000     6.3801   188.4639     5.1816   -27.2254   105.1426    54.4429
  598.5000     5.9513   191.3705     5.0756   -26.8073   104.2426    58.9978
  599.0000     5.8798   195.0301     5.1059   -25.6385   104.3960    60.8696
  599.5000     5.8865   197.8263     5.3306   -26.4515   105.0761    53.8231
  600.0000     6.6015   198.7952     6.1812   -27.2864   105.6057    48.8756
  600.5000     8.8536   177.3219     7.5071   -27.7784   101.4304    48.1259
  601.0000     9.1226   128.1125     8.3563   -28.0775    97.0337    48.4258
  601.5000     9.2479   116.7169     8.6519   -28.3336    97.6393    47.9760
  602.0000     9.2945   110.9034     9.0075   -28.5687    97.6422    47.2202
  602.5000     9.4603   107.0282     9.3137   -28.8143    97.5699    46.3191
  603.0000    10.0268   102.4096     9.5598   -29.0809    97.1966    45.2682
  603.5000     9.9264    99.7664     9.9072   -29.3056    96.2965    44.9672
  604.0000    10.1522    96.9177    10.1271   -29.5293    92.2936    43.3162
  604.5000    10.3624    94.8795    10.3651   -29.4903    92.0684    43.0149
  605.0000    10.6088    94.1265    10.5067   -29.6777    92.3703    41.8141
  605.5000    10.8047    94.1265    10.6109   -29.8268    92.9730    40.7631
